{"last_updated":1752509615,"ttl":60,"version":"2.2","data":{"bikes":[{"bike_id":"feb1ed1d-b0db-45cc-9e1b-7311a8d72058","system_id":"levelo_inurba_marseille","lat":43.33747,"lon":5.37463,"is_reserved":false,"is_disabled":false,"rental_uris":{"android":"levelo://app?vid=feb1ed1d-b0db-45cc-9e1b-7311a8d72058","ios":"levelo://app?vid=feb1ed1d-b0db-45cc-9e1b-7311a8d72058"},"vehicle_type_id":"1","last_reported":1752509615,"current_range_meters":37600,"station_id":"","pricing_plan_id":"cebpf4jnsgd1na2vs0mg"},{"bike_id":"3d7c83a1-d94c-4aab-95a9-8a04bec43d63","system_id":"levelo_inurba_marseille","lat":43.32363,"lon":5.36763,"is_reserved":false,"is_disabled":false,"rental_uris":{"android":"levelo://app?vid=3d7c83a1-d94c-4aab-95a9-8a04bec43d63","ios":"levelo://app?vid=3d7c83a1-d94c-4aab-95a9-8a04bec43d63"},"vehicle_type_id":"4","last_reported":1752509615,"current_range_meters":2800,"station_id":"ce4bhsh2rcd13ifvqi2g","pricing_plan_id":"cebpf4jnsgd1na2vs0mg"},{"bike_id":"016e6183-dd4f-4a1d-b8b0-7f867038805b","system_id":"levelo_inurba_marseille","lat":43.258668,"lon":5.398958,"is_reserved":false,"is_disabled":false,"rental_uris":{"android":"levelo://app?vid=016e6183-dd4f-4a1d-b8b0-7f867038805b","ios":"levelo://app?vid=016e6183-dd4f-4a1d-b8b0-7f867038805b"},"vehicle_type_id":"4","last_reported":1752509615,"current_range_meters":2800,"station_id":"ce4bhl92rcd13ifvqghg","pricing_plan_id":"cebpf4jnsgd1na2vs0mg"},{"bike_id":"98218ece-7eb0-4104-9df2-9422eaf500f9","system_id":"levelo_inurba_marseille","lat":43.31233,"lon":5.3688,"is_reserved":false,"is_disabled":false,"rental_uris":{"android":"levelo://app?vid=98218ece-7eb0-4104-9df2-9422eaf500f9","ios":"levelo://app?vid=98218ece-7eb0-4104-9df2-9422eaf500f9"},"vehicle_type_id":"4","last_reported":1752509615,"current_range_meters":2800,"station_id":"ce4bgl92rcd13ifvqbq0","pricing_plan_id":"cebpf4jnsgd1na2vs0mg"},{"bike_id":"194d7c80-3d23-44bf-80f3-3418f28ce466","system_id":"levelo_inurba_marseille","lat":43.28392,"lon":5.37531,"is_reserved":false,"is_disabled":false,"rental_uris":{"android":"levelo://app?vid=194d7c80-3d23-44bf-80f3-3418f28ce466","ios":"levelo://app?vid=194d7c80-3d23-44bf-80f3-3418f28ce466"},"vehicle_type_id":"4","last_reported":1752509615,"current_range_meters":3200,"station_id":"ce4bh412rcd13ifvqds0","pricing_plan_id":"cebpf4jnsgd1na2vs0mg"},{"bike_id":"32728b2d-6707-4c42-bde3-2b14475dc30f","system_id":"levelo_inurba_marseille","lat":43.273832,"lon":5.362573,"is_reserved":false,"is_disabled":false,"rental_uris":{"android":"levelo://app?vid=32728b2d-6707-4c42-bde3-2b14475dc30f","ios":"levelo://app?vid=32728b2d-6707-4c42-bde3-2b14475dc30f"},"vehicle_type_id":"4","last_reported":1752509615,"current_range_meters":3600,"station_id":"ce4bhbh2rcd13ifvqeo0","pricing_plan_id":"cebpf4jnsgd1na2vs0mg"},{"bike_id":"cb4ec4b1-5228-4f5d-9a73-72d4a13ef9b5","system_id":"levelo_inurba_marseille","lat":43.26201,"lon":5.37931,"is_reserved":false,"is_disabled":false,"rental_uris":{"android":"levelo://app?vid=cb4ec4b1-5228-4f5d-9a73-72d4a13ef9b5","ios":"levelo://app?vid=cb4ec4b1-5228-4f5d-9a73-72d4a13ef9b5"},"vehicle_type_id":"4","last_reported":1752509615,"current_range_meters":4000,"station_id":"ce4bhjp2rcd13ifvqg90","pricing_plan_id":"cebpf4jnsgd1na2vs0mg"},{"bike_id":"56f864e8-76c2-4033-bdd1-f3738f808a3e","system_id":"levelo_inurba_marseille","lat":43.30611,"lon":5.3722,"is_reserved":false,"is_disabled":false,"rental_uris":{"android":"levelo://app?vid=56f864e8-76c2-4033-bdd1-f3738f808a3e","ios":"levelo://app?vid=56f864e8-76c2-4033-bdd1-f3738f808a3e"},"vehicle_type_id":"4","last_reported":1752509615,"current_range_meters":4400,"station_id":"ce4bgqh2rcd13ifvqc4g","pricing_plan_id":"cebpf4jnsgd1na2vs0mg"},{"bike_id":"470d1e9d-8c05-40b8-a6b2-039f183b9f6a","system_id":"levelo_inurba_marseille","lat":43.23188,"lon":5.35559,"is_reserved":false,"is_disabled":true,"rental_uris":{"android":"levelo://app?vid=470d1e9d-8c05-40b8-a6b2-039f183b9f6a","ios":"levelo://app?vid=470d1e9d-8c05-40b8-a6b2-039f183b9f6a"},"vehicle_type_id":"4","last_reported":1752509615,"current_range_meters":4800,"station_id":"ce4bhu92rcd13ifvqi70","pricing_plan_id":"cebpf4jnsgd1na2vs0mg"},{"bike_id":"975a7459-90e5-43c8-bb52-cae952323c6b","system_id":"levelo_inurba_marseille","lat":43.27902,"lon":5.39576,"is_reserved":false,"is_disabled":false,"rental_uris":{"android":"levelo://app?vid=975a7459-90e5-43c8-bb52-cae952323c6b","ios":"levelo://app?vid=975a7459-90e5-43c8-bb52-cae952323c6b"},"vehicle_type_id":"4","last_reported":1752509615,"current_range_meters":4800,"station_id":"ce4bhf92rcd13ifvqf40","pricing_plan_id":"cebpf4jnsgd1na2vs0mg"},{"bike_id":"e64c674b-2182-4d91-8d3d-a189a17d4342","system_id":"levelo_inurba_marseille","lat":43.23176,"lon":5.39988,"is_reserved":false,"is_disabled":false,"rental_uris":{"android":"levelo://app?vid=e64c674b-2182-4d91-8d3d-a189a17d4342","ios":"levelo://app?vid=e64c674b-2182-4d91-8d3d-a189a17d4342"},"vehicle_type_id":"4","last_reported":1752509615,"current_range_meters":5600,"station_id":"ce4bhn12rcd13ifvqgqg","pricing_plan_id":"cebpf4jnsgd1na2vs0mg"},{"bike_id":"44dd919c-32df-4fe9-8b1c-c9988fb68d5b","system_id":"levelo_inurba_marseille","lat":43.26942,"lon":5.40255,"is_reserved":false,"is_disabled":true,"rental_uris":{"android":"levelo://app?vid=44dd919c-32df-4fe9-8b1c-c9988fb68d5b","ios":"levelo://app?vid=44dd919c-32df-4fe9-8b1c-c9988fb68d5b"},"vehicle_type_id":"4","last_reported":1752509615,"current_range_meters":5600,"station_id":"cjm6bp8fraef2m0cb0m0","pricing_plan_id":"cebpf4jnsgd1na2vs0mg"},{"bike_id":"f5a5c290-12bb-4646-ab18-b385121f9284","system_id":"levelo_inurba_marseille","lat":43.30804,"lon":5.38172,"is_reserved":false,"is_disabled":true,"rental_uris":{"android":"levelo://app?vid=f5a5c290-12bb-4646-ab18-b385121f9284","ios":"levelo://app?vid=f5a5c290-12bb-4646-ab18-b385121f9284"},"vehicle_type_id":"4","last_reported":1752509615,"current_range_meters":5600,"station_id":"ce4bgt12rcd13ifvqce0","pricing_plan_id":"cebpf4jnsgd1na2vs0mg"},{"bike_id":"9efb8360-8563-45b9-96b2-a06e314abdb2","system_id":"levelo_inurba_marseille","lat":43.21188,"lon":5.35062,"is_reserved":false,"is_disabled":false,"rental_uris":{"android":"levelo://app?vid=9efb8360-8563-45b9-96b2-a06e314abdb2","ios":"levelo://app?vid=9efb8360-8563-45b9-96b2-a06e314abdb2"},"vehicle_type_id":"4","last_reported":1752509615,"current_range_meters":5600,"station_id":"st_cvj6sg6p6f1abm77japg","pricing_plan_id":"cebpf4jnsgd1na2vs0mg"},{"bike_id":"b90f0526-6638-4fe1-9c31-1a4804f090b7","system_id":"levelo_inurba_marseille","lat":43.27974,"lon":5.38746,"is_reserved":false,"is_disabled":false,"rental_uris":{"android":"levelo://app?vid=b90f0526-6638-4fe1-9c31-1a4804f090b7","ios":"levelo://app?vid=b90f0526-6638-4fe1-9c31-1a4804f090b7"},"vehicle_type_id":"4","last_reported":1752509615,"current_range_meters":6000,"station_id":"ce4bhg12rcd13ifvqf80","pricing_plan_id":"cebpf4jnsgd1na2vs0mg"},{"bike_id":"c69d93ad-ba65-407a-8ff2-a10bf7795bf9","system_id":"levelo_inurba_marseille","lat":43.29969,"lon":5.37179,"is_reserved":false,"is_disabled":false,"rental_uris":{"android":"levelo://app?vid=c69d93ad-ba65-407a-8ff2-a10bf7795bf9","ios":"levelo://app?vid=c69d93ad-ba65-407a-8ff2-a10bf7795bf9"},"vehicle_type_id":"4","last_reported":1752509615,"current_range_meters":6000,"station_id":"ce4bgr92rcd13ifvqc7g","pricing_plan_id":"cebpf4jnsgd1na2vs0mg"},{"bike_id":"cb94c7e5-38f0-4ba8-a1e5-57d2e6407f27","system_id":"levelo_inurba_marseille","lat":43.29045,"lon":5.35925,"is_reserved":false,"is_disabled":false,"rental_uris":{"android":"levelo://app?vid=cb94c7e5-38f0-4ba8-a1e5-57d2e6407f27","ios":"levelo://app?vid=cb94c7e5-38f0-4ba8-a1e5-57d2e6407f27"},"vehicle_type_id":"4","last_reported":1752509615,"current_range_meters":6800,"station_id":"ce4bha92rcd13ifvqeg0","pricing_plan_id":"cebpf4jnsgd1na2vs0mg"},{"bike_id":"999b9d30-855b-489d-9de1-6a44f83d6385","system_id":"levelo_inurba_marseille","lat":43.21175,"lon":5.35088,"is_reserved":false,"is_disabled":false,"rental_uris":{"android":"levelo://app?vid=999b9d30-855b-489d-9de1-6a44f83d6385","ios":"levelo://app?vid=999b9d30-855b-489d-9de1-6a44f83d6385"},"vehicle_type_id":"4","last_reported":1752509615,"current_range_meters":7200,"station_id":"st_cvj6sg6p6f1abm77japg","pricing_plan_id":"cebpf4jnsgd1na2vs0mg"},{"bike_id":"03153191-f436-4516-ada3-c4866edcb237","system_id":"levelo_inurba_marseille","lat":43.31223,"lon":5.36856,"is_reserved":false,"is_disabled":false,"rental_uris":{"android":"levelo://app?vid=03153191-f436-4516-ada3-c4866edcb237","ios":"levelo://app?vid=03153191-f436-4516-ada3-c4866edcb237"},"vehicle_type_id":"4","last_reported":1752509615,"current_range_meters":7200,"station_id":"ce4bgl92rcd13ifvqbq0","pricing_plan_id":"cebpf4jnsgd1na2vs0mg"},{"bike_id":"a547e60b-3399-4001-a982-06e54d69ee29","system_id":"levelo_inurba_marseille","lat":43.32485,"lon":5.36565,"is_reserved":false,"is_disabled":false,"rental_uris":{"android":"levelo://app?vid=a547e60b-3399-4001-a982-06e54d69ee29","ios":"levelo://app?vid=a547e60b-3399-4001-a982-06e54d69ee29"},"vehicle_type_id":"4","last_reported":1752509615,"current_range_meters":6800,"station_id":"ce4bhs12rcd13ifvqhvg","pricing_plan_id":"cebpf4jnsgd1na2vs0mg"},{"bike_id":"427ae857-7c5a-458d-8fee-c4596af500e1","system_id":"levelo_inurba_marseille","lat":43.21742,"lon":5.34606,"is_reserved":false,"is_disabled":false,"rental_uris":{"android":"levelo://app?vid=427ae857-7c5a-458d-8fee-c4596af500e1","ios":"levelo://app?vid=427ae857-7c5a-458d-8fee-c4596af500e1"},"vehicle_type_id":"4","last_reported":1752509615,"current_range_meters":7200,"station_id":"st_cvj6r9ubvosntc0bgbag","pricing_plan_id":"cebpf4jnsgd1na2vs0mg"},{"bike_id":"ea6629e1-ad26-4967-83b9-eb3ed131d956","system_id":"levelo_inurba_marseille","lat":43.27205,"lon":5.39178,"is_reserved":false,"is_disabled":false,"rental_uris":{"android":"levelo://app?vid=ea6629e1-ad26-4967-83b9-eb3ed131d956","ios":"levelo://app?vid=ea6629e1-ad26-4967-83b9-eb3ed131d956"},"vehicle_type_id":"4","last_reported":1752509615,"current_range_meters":7200,"station_id":"ce4bhhp2rcd13ifvqfm0","pricing_plan_id":"cebpf4jnsgd1na2vs0mg"},{"bike_id":"f65d1173-e7b9-4699-be5d-abe005099d1d","system_id":"levelo_inurba_marseille","lat":43.225006,"lon":5.347797,"is_reserved":false,"is_disabled":false,"rental_uris":{"android":"levelo://app?vid=f65d1173-e7b9-4699-be5d-abe005099d1d","ios":"levelo://app?vid=f65d1173-e7b9-4699-be5d-abe005099d1d"},"vehicle_type_id":"4","last_reported":1752509615,"current_range_meters":8000,"station_id":"","pricing_plan_id":"cebpf4jnsgd1na2vs0mg"},{"bike_id":"f23760ff-ab61-4853-aa67-28aac93822c1","system_id":"levelo_inurba_marseille","lat":43.337444,"lon":5.374475,"is_reserved":false,"is_disabled":false,"rental_uris":{"android":"levelo://app?vid=f23760ff-ab61-4853-aa67-28aac93822c1","ios":"levelo://app?vid=f23760ff-ab61-4853-aa67-28aac93822c1"},"vehicle_type_id":"4","last_reported":1752509615,"current_range_meters":8000,"station_id":"","pricing_plan_id":"cebpf4jnsgd1na2vs0mg"},{"bike_id":"4b95ee0c-4c6c-4914-93dc-fea55a40b3e4","system_id":"levelo_inurba_marseille","lat":43.299635,"lon":5.384921,"is_reserved":false,"is_disabled":false,"rental_uris":{"android":"levelo://app?vid=4b95ee0c-4c6c-4914-93dc-fea55a40b3e4","ios":"levelo://app?vid=4b95ee0c-4c6c-4914-93dc-fea55a40b3e4"},"vehicle_type_id":"4","last_reported":1752509615,"current_range_meters":8800,"station_id":"ce4bgj92rcd13ifvqbd0","pricing_plan_id":"cebpf4jnsgd1na2vs0mg"},{"bike_id":"63ed06f9-598c-4241-a02d-43fcb612ff7e","system_id":"levelo_inurba_marseille","lat":43.21744,"lon":5.34602,"is_reserved":false,"is_disabled":false,"rental_uris":{"android":"levelo://app?vid=63ed06f9-598c-4241-a02d-43fcb612ff7e","ios":"levelo://app?vid=63ed06f9-598c-4241-a02d-43fcb612ff7e"},"vehicle_type_id":"4","last_reported":1752509615,"current_range_meters":8800,"station_id":"st_cvj6r9ubvosntc0bgbag","pricing_plan_id":"cebpf4jnsgd1na2vs0mg"},{"bike_id":"c3c9c2d7-c50f-41f3-87aa-ea6860240c27","system_id":"levelo_inurba_marseille","lat":43.26806,"lon":5.4027,"is_reserved":false,"is_disabled":false,"rental_uris":{"android":"levelo://app?vid=c3c9c2d7-c50f-41f3-87aa-ea6860240c27","ios":"levelo://app?vid=c3c9c2d7-c50f-41f3-87aa-ea6860240c27"},"vehicle_type_id":"4","last_reported":1752509615,"current_range_meters":8800,"station_id":"ce501612rcd8frsf0b60","pricing_plan_id":"cebpf4jnsgd1na2vs0mg"},{"bike_id":"6b21d268-9ff4-410e-b549-cc9b0ec69f0f","system_id":"levelo_inurba_marseille","lat":43.24389,"lon":5.3706,"is_reserved":false,"is_disabled":false,"rental_uris":{"android":"levelo://app?vid=6b21d268-9ff4-410e-b549-cc9b0ec69f0f","ios":"levelo://app?vid=6b21d268-9ff4-410e-b549-cc9b0ec69f0f"},"vehicle_type_id":"4","last_reported":1752509615,"current_range_meters":8400,"station_id":"ce4bhhh2rcd13ifvqfk0","pricing_plan_id":"cebpf4jnsgd1na2vs0mg"},{"bike_id":"e161a8aa-c2d0-4abe-87fc-a825dcb2d7a2","system_id":"levelo_inurba_marseille","lat":43.29301,"lon":5.37447,"is_reserved":false,"is_disabled":false,"rental_uris":{"android":"levelo://app?vid=e161a8aa-c2d0-4abe-87fc-a825dcb2d7a2","ios":"levelo://app?vid=e161a8aa-c2d0-4abe-87fc-a825dcb2d7a2"},"vehicle_type_id":"4","last_reported":1752509615,"current_range_meters":8800,"station_id":"ce4bgi12rcd13ifvqb70","pricing_plan_id":"cebpf4jnsgd1na2vs0mg"},{"bike_id":"e3bedb5d-c10b-4336-8acc-05fb471af9cb","system_id":"levelo_inurba_marseille","lat":43.292607,"lon":5.376303,"is_reserved":false,"is_disabled":false,"rental_uris":{"android":"levelo://app?vid=e3bedb5d-c10b-4336-8acc-05fb471af9cb","ios":"levelo://app?vid=e3bedb5d-c10b-4336-8acc-05fb471af9cb"},"vehicle_type_id":"4","last_reported":1752509615,"current_range_meters":9200,"station_id":"ce4bgi12rcd13ifvqb80","pricing_plan_id":"cebpf4jnsgd1na2vs0mg"},{"bike_id":"9b074248-9778-42da-899c-ff66c70545a0","system_id":"levelo_inurba_marseille","lat":43.3229,"lon":5.38261,"is_reserved":false,"is_disabled":false,"rental_uris":{"android":"levelo://app?vid=9b074248-9778-42da-899c-ff66c70545a0","ios":"levelo://app?vid=9b074248-9778-42da-899c-ff66c70545a0"},"vehicle_type_id":"4","last_reported":1752509615,"current_range_meters":9600,"station_id":"ce4bhr12rcd13ifvqhqg","pricing_plan_id":"cebpf4jnsgd1na2vs0mg"},{"bike_id":"69169ae4-d52b-4670-b8f3-fbfa8a1530a3","system_id":"levelo_inurba_marseille","lat":43.273835,"lon":5.36262,"is_reserved":false,"is_disabled":false,"rental_uris":{"android":"levelo://app?vid=69169ae4-d52b-4670-b8f3-fbfa8a1530a3","ios":"levelo://app?vid=69169ae4-d52b-4670-b8f3-fbfa8a1530a3"},"vehicle_type_id":"4","last_reported":1752509615,"current_range_meters":9600,"station_id":"ce4bhbh2rcd13ifvqeo0","pricing_plan_id":"cebpf4jnsgd1na2vs0mg"},{"bike_id":"7282d010-9abf-4135-8291-c3b42809b19a","system_id":"levelo_inurba_marseille","lat":43.21743,"lon":5.34604,"is_reserved":false,"is_disabled":false,"rental_uris":{"android":"levelo://app?vid=7282d010-9abf-4135-8291-c3b42809b19a","ios":"levelo://app?vid=7282d010-9abf-4135-8291-c3b42809b19a"},"vehicle_type_id":"4","last_reported":1752509615,"current_range_meters":9600,"station_id":"st_cvj6r9ubvosntc0bgbag","pricing_plan_id":"cebpf4jnsgd1na2vs0mg"},{"bike_id":"b550fe72-e3e3-4acb-8068-f78ec0117cab","system_id":"levelo_inurba_marseille","lat":43.28037,"lon":5.36952,"is_reserved":false,"is_disabled":false,"rental_uris":{"android":"levelo://app?vid=b550fe72-e3e3-4acb-8068-f78ec0117cab","ios":"levelo://app?vid=b550fe72-e3e3-4acb-8068-f78ec0117cab"},"vehicle_type_id":"4","last_reported":1752509615,"current_range_meters":9600,"station_id":"ce4bha12rcd13ifvqef0","pricing_plan_id":"cebpf4jnsgd1na2vs0mg"},{"bike_id":"e3b686d1-f0b1-4887-9c05-4bc370c43021","system_id":"levelo_inurba_marseille","lat":43.27187,"lon":5.40997,"is_reserved":false,"is_disabled":true,"rental_uris":{"android":"levelo://app?vid=e3b686d1-f0b1-4887-9c05-4bc370c43021","ios":"levelo://app?vid=e3b686d1-f0b1-4887-9c05-4bc370c43021"},"vehicle_type_id":"4","last_reported":1752509615,"current_range_meters":9600,"station_id":"ce4bhl12rcd13ifvqgf0","pricing_plan_id":"cebpf4jnsgd1na2vs0mg"},{"bike_id":"fc07bdb6-210b-48b6-97b7-c784bceab8a8","system_id":"levelo_inurba_marseille","lat":43.297015,"lon":5.376946,"is_reserved":false,"is_disabled":false,"rental_uris":{"android":"levelo://app?vid=fc07bdb6-210b-48b6-97b7-c784bceab8a8","ios":"levelo://app?vid=fc07bdb6-210b-48b6-97b7-c784bceab8a8"},"vehicle_type_id":"4","last_reported":1752509615,"current_range_meters":9600,"station_id":"ce4bgkh2rcd13ifvqbl0","pricing_plan_id":"cebpf4jnsgd1na2vs0mg"},{"bike_id":"da146df5-9478-4938-9ac8-469757ff6c46","system_id":"levelo_inurba_marseille","lat":43.22933,"lon":5.35378,"is_reserved":false,"is_disabled":false,"rental_uris":{"android":"levelo://app?vid=da146df5-9478-4938-9ac8-469757ff6c46","ios":"levelo://app?vid=da146df5-9478-4938-9ac8-469757ff6c46"},"vehicle_type_id":"4","last_reported":1752509615,"current_range_meters":10000,"station_id":"cpo3532slgdg3j2ikp40","pricing_plan_id":"cebpf4jnsgd1na2vs0mg"},{"bike_id":"07b80ba8-94f7-4006-b883-d44157aa02a8","system_id":"levelo_inurba_marseille","lat":43.21187,"lon":5.35075,"is_reserved":false,"is_disabled":false,"rental_uris":{"android":"levelo://app?vid=07b80ba8-94f7-4006-b883-d44157aa02a8","ios":"levelo://app?vid=07b80ba8-94f7-4006-b883-d44157aa02a8"},"vehicle_type_id":"4","last_reported":1752509615,"current_range_meters":10000,"station_id":"st_cvj6sg6p6f1abm77japg","pricing_plan_id":"cebpf4jnsgd1na2vs0mg"},{"bike_id":"b722f5cd-c4ac-450c-9b5d-5e3e0d7bff76","system_id":"levelo_inurba_marseille","lat":43.27383,"lon":5.36248,"is_reserved":false,"is_disabled":false,"rental_uris":{"android":"levelo://app?vid=b722f5cd-c4ac-450c-9b5d-5e3e0d7bff76","ios":"levelo://app?vid=b722f5cd-c4ac-450c-9b5d-5e3e0d7bff76"},"vehicle_type_id":"4","last_reported":1752509615,"current_range_meters":10000,"station_id":"ce4bhbh2rcd13ifvqeo0","pricing_plan_id":"cebpf4jnsgd1na2vs0mg"},{"bike_id":"7d8c67ad-3e66-42f9-8c6e-098cca666cf3","system_id":"levelo_inurba_marseille","lat":43.32363,"lon":5.36757,"is_reserved":false,"is_disabled":false,"rental_uris":{"android":"levelo://app?vid=7d8c67ad-3e66-42f9-8c6e-098cca666cf3","ios":"levelo://app?vid=7d8c67ad-3e66-42f9-8c6e-098cca666cf3"},"vehicle_type_id":"4","last_reported":1752509615,"current_range_meters":10000,"station_id":"ce4bhsh2rcd13ifvqi2g","pricing_plan_id":"cebpf4jnsgd1na2vs0mg"},{"bike_id":"7e41f67d-6b76-4dd3-80aa-b18fd8ab4369","system_id":"levelo_inurba_marseille","lat":43.29576,"lon":5.3997,"is_reserved":false,"is_disabled":false,"rental_uris":{"android":"levelo://app?vid=7e41f67d-6b76-4dd3-80aa-b18fd8ab4369","ios":"levelo://app?vid=7e41f67d-6b76-4dd3-80aa-b18fd8ab4369"},"vehicle_type_id":"4","last_reported":1752509615,"current_range_meters":10000,"station_id":"ce4bh312rcd13ifvqdj0","pricing_plan_id":"cebpf4jnsgd1na2vs0mg"},{"bike_id":"0ad2f071-50c3-40b7-b66f-c6083465eff1","system_id":"levelo_inurba_marseille","lat":43.291998,"lon":5.393256,"is_reserved":false,"is_disabled":false,"rental_uris":{"android":"levelo://app?vid=0ad2f071-50c3-40b7-b66f-c6083465eff1","ios":"levelo://app?vid=0ad2f071-50c3-40b7-b66f-c6083465eff1"},"vehicle_type_id":"4","last_reported":1752509615,"current_range_meters":10800,"station_id":"ce4bh192rcd13ifvqdd0","pricing_plan_id":"cebpf4jnsgd1na2vs0mg"},{"bike_id":"7114f65b-9cb4-44d8-ab18-c9a9a5088252","system_id":"levelo_inurba_marseille","lat":43.27374,"lon":5.36246,"is_reserved":false,"is_disabled":false,"rental_uris":{"android":"levelo://app?vid=7114f65b-9cb4-44d8-ab18-c9a9a5088252","ios":"levelo://app?vid=7114f65b-9cb4-44d8-ab18-c9a9a5088252"},"vehicle_type_id":"4","last_reported":1752509615,"current_range_meters":10800,"station_id":"ce4bhbh2rcd13ifvqeo0","pricing_plan_id":"cebpf4jnsgd1na2vs0mg"},{"bike_id":"3300b435-590f-4b3b-a69e-ecece2234c8c","system_id":"levelo_inurba_marseille","lat":43.27176,"lon":5.40982,"is_reserved":false,"is_disabled":false,"rental_uris":{"android":"levelo://app?vid=3300b435-590f-4b3b-a69e-ecece2234c8c","ios":"levelo://app?vid=3300b435-590f-4b3b-a69e-ecece2234c8c"},"vehicle_type_id":"4","last_reported":1752509615,"current_range_meters":10800,"station_id":"ce4bhl12rcd13ifvqgf0","pricing_plan_id":"cebpf4jnsgd1na2vs0mg"},{"bike_id":"58375fde-ca97-4dab-be52-59caf98323d3","system_id":"levelo_inurba_marseille","lat":43.2656,"lon":5.37286,"is_reserved":false,"is_disabled":true,"rental_uris":{"android":"levelo://app?vid=58375fde-ca97-4dab-be52-59caf98323d3","ios":"levelo://app?vid=58375fde-ca97-4dab-be52-59caf98323d3"},"vehicle_type_id":"4","last_reported":1752509615,"current_range_meters":10800,"station_id":"ce4bhg12rcd13ifvqf70","pricing_plan_id":"cebpf4jnsgd1na2vs0mg"},{"bike_id":"2e385b52-dad5-4ec8-bc8f-6d5875dc245c","system_id":"levelo_inurba_marseille","lat":43.27211,"lon":5.3918,"is_reserved":false,"is_disabled":false,"rental_uris":{"android":"levelo://app?vid=2e385b52-dad5-4ec8-bc8f-6d5875dc245c","ios":"levelo://app?vid=2e385b52-dad5-4ec8-bc8f-6d5875dc245c"},"vehicle_type_id":"4","last_reported":1752509615,"current_range_meters":10800,"station_id":"ce4bhhp2rcd13ifvqfm0","pricing_plan_id":"cebpf4jnsgd1na2vs0mg"},{"bike_id":"9d31d9a3-9360-47cc-9360-3d8ed75b64a4","system_id":"levelo_inurba_marseille","lat":43.32913,"lon":5.36704,"is_reserved":false,"is_disabled":false,"rental_uris":{"android":"levelo://app?vid=9d31d9a3-9360-47cc-9360-3d8ed75b64a4","ios":"levelo://app?vid=9d31d9a3-9360-47cc-9360-3d8ed75b64a4"},"vehicle_type_id":"4","last_reported":1752509615,"current_range_meters":10800,"station_id":"","pricing_plan_id":"cebpf4jnsgd1na2vs0mg"},{"bike_id":"1700fcd6-30ad-4b74-a158-50e5dcb60b9b","system_id":"levelo_inurba_marseille","lat":43.28961,"lon":5.36613,"is_reserved":false,"is_disabled":true,"rental_uris":{"android":"levelo://app?vid=1700fcd6-30ad-4b74-a158-50e5dcb60b9b","ios":"levelo://app?vid=1700fcd6-30ad-4b74-a158-50e5dcb60b9b"},"vehicle_type_id":"4","last_reported":1752509615,"current_range_meters":10800,"station_id":"ce4bhap2rcd13ifvqek0","pricing_plan_id":"cebpf4jnsgd1na2vs0mg"},{"bike_id":"108c4eef-a97f-4f7a-a04f-48a0370bc516","system_id":"levelo_inurba_marseille","lat":43.23196,"lon":5.3555,"is_reserved":false,"is_disabled":false,"rental_uris":{"android":"levelo://app?vid=108c4eef-a97f-4f7a-a04f-48a0370bc516","ios":"levelo://app?vid=108c4eef-a97f-4f7a-a04f-48a0370bc516"},"vehicle_type_id":"4","last_reported":1752509615,"current_range_meters":10800,"station_id":"ce4bhu92rcd13ifvqi70","pricing_plan_id":"cebpf4jnsgd1na2vs0mg"},{"bike_id":"d916aace-830c-451e-a376-c1312f1fc6af","system_id":"levelo_inurba_marseille","lat":43.22511,"lon":5.34797,"is_reserved":false,"is_disabled":false,"rental_uris":{"android":"levelo://app?vid=d916aace-830c-451e-a376-c1312f1fc6af","ios":"levelo://app?vid=d916aace-830c-451e-a376-c1312f1fc6af"},"vehicle_type_id":"4","last_reported":1752509615,"current_range_meters":10800,"station_id":"","pricing_plan_id":"cebpf4jnsgd1na2vs0mg"},{"bike_id":"f9e06f0f-a3c3-413c-a324-cb5e2ce29082","system_id":"levelo_inurba_marseille","lat":43.30306,"lon":5.39208,"is_reserved":false,"is_disabled":false,"rental_uris":{"android":"levelo://app?vid=f9e06f0f-a3c3-413c-a324-cb5e2ce29082","ios":"levelo://app?vid=f9e06f0f-a3c3-413c-a324-cb5e2ce29082"},"vehicle_type_id":"4","last_reported":1752509615,"current_range_meters":10800,"station_id":"ce4bgkh2rcd13ifvqbk0","pricing_plan_id":"cebpf4jnsgd1na2vs0mg"},{"bike_id":"ad5eb277-50fe-4683-8834-d753b852b58a","system_id":"levelo_inurba_marseille","lat":43.27854,"lon":5.38523,"is_reserved":false,"is_disabled":false,"rental_uris":{"android":"levelo://app?vid=ad5eb277-50fe-4683-8834-d753b852b58a","ios":"levelo://app?vid=ad5eb277-50fe-4683-8834-d753b852b58a"},"vehicle_type_id":"4","last_reported":1752509615,"current_range_meters":11200,"station_id":"","pricing_plan_id":"cebpf4jnsgd1na2vs0mg"},{"bike_id":"b89c4e86-a2c2-4a3c-be82-c819cbe637dd","system_id":"levelo_inurba_marseille","lat":43.28615,"lon":5.35101,"is_reserved":false,"is_disabled":false,"rental_uris":{"android":"levelo://app?vid=b89c4e86-a2c2-4a3c-be82-c819cbe637dd","ios":"levelo://app?vid=b89c4e86-a2c2-4a3c-be82-c819cbe637dd"},"vehicle_type_id":"4","last_reported":1752509615,"current_range_meters":11200,"station_id":"ce4bhch2rcd13ifvqeug","pricing_plan_id":"cebpf4jnsgd1na2vs0mg"},{"bike_id":"44cda29f-07ba-4e7b-ace8-74c55c1aa4a5","system_id":"levelo_inurba_marseille","lat":43.248067,"lon":5.37457,"is_reserved":false,"is_disabled":false,"rental_uris":{"android":"levelo://app?vid=44cda29f-07ba-4e7b-ace8-74c55c1aa4a5","ios":"levelo://app?vid=44cda29f-07ba-4e7b-ace8-74c55c1aa4a5"},"vehicle_type_id":"4","last_reported":1752509615,"current_range_meters":11200,"station_id":"ce4bhgh2rcd13ifvqfb0","pricing_plan_id":"cebpf4jnsgd1na2vs0mg"},{"bike_id":"9d37eaff-701d-40a7-afda-fc1934ec87ab","system_id":"levelo_inurba_marseille","lat":43.29006,"lon":5.35611,"is_reserved":false,"is_disabled":false,"rental_uris":{"android":"levelo://app?vid=9d37eaff-701d-40a7-afda-fc1934ec87ab","ios":"levelo://app?vid=9d37eaff-701d-40a7-afda-fc1934ec87ab"},"vehicle_type_id":"4","last_reported":1752509615,"current_range_meters":11200,"station_id":"ce4bhb92rcd13ifvqen0","pricing_plan_id":"cebpf4jnsgd1na2vs0mg"},{"bike_id":"d56bac30-3c27-4c59-a9b0-8c3e6153dcb6","system_id":"levelo_inurba_marseille","lat":43.26063,"lon":5.39395,"is_reserved":false,"is_disabled":false,"rental_uris":{"android":"levelo://app?vid=d56bac30-3c27-4c59-a9b0-8c3e6153dcb6","ios":"levelo://app?vid=d56bac30-3c27-4c59-a9b0-8c3e6153dcb6"},"vehicle_type_id":"4","last_reported":1752509615,"current_range_meters":11200,"station_id":"ce4bhh92rcd13ifvqfj0","pricing_plan_id":"cebpf4jnsgd1na2vs0mg"},{"bike_id":"b2464811-ed1c-444d-b5b2-f0f5cb56794f","system_id":"levelo_inurba_marseille","lat":43.28712,"lon":5.35202,"is_reserved":false,"is_disabled":false,"rental_uris":{"android":"levelo://app?vid=b2464811-ed1c-444d-b5b2-f0f5cb56794f","ios":"levelo://app?vid=b2464811-ed1c-444d-b5b2-f0f5cb56794f"},"vehicle_type_id":"4","last_reported":1752509615,"current_range_meters":11600,"station_id":"","pricing_plan_id":"cebpf4jnsgd1na2vs0mg"},{"bike_id":"8d453208-915c-42a7-90af-d8248fdb1da5","system_id":"levelo_inurba_marseille","lat":43.28153,"lon":5.42654,"is_reserved":false,"is_disabled":false,"rental_uris":{"android":"levelo://app?vid=8d453208-915c-42a7-90af-d8248fdb1da5","ios":"levelo://app?vid=8d453208-915c-42a7-90af-d8248fdb1da5"},"vehicle_type_id":"4","last_reported":1752509615,"current_range_meters":11600,"station_id":"ce4bhnh2rcd13ifvqgug","pricing_plan_id":"cebpf4jnsgd1na2vs0mg"},{"bike_id":"c14947c2-7b5b-4c03-b04b-d7f22fccfd67","system_id":"levelo_inurba_marseille","lat":43.21192,"lon":5.35062,"is_reserved":false,"is_disabled":false,"rental_uris":{"android":"levelo://app?vid=c14947c2-7b5b-4c03-b04b-d7f22fccfd67","ios":"levelo://app?vid=c14947c2-7b5b-4c03-b04b-d7f22fccfd67"},"vehicle_type_id":"4","last_reported":1752509615,"current_range_meters":11600,"station_id":"st_cvj6sg6p6f1abm77japg","pricing_plan_id":"cebpf4jnsgd1na2vs0mg"},{"bike_id":"1385c92b-800b-46ee-bb29-02790bad46db","system_id":"levelo_inurba_marseille","lat":43.2621,"lon":5.37437,"is_reserved":false,"is_disabled":false,"rental_uris":{"android":"levelo://app?vid=1385c92b-800b-46ee-bb29-02790bad46db","ios":"levelo://app?vid=1385c92b-800b-46ee-bb29-02790bad46db"},"vehicle_type_id":"4","last_reported":1752509615,"current_range_meters":11600,"station_id":"ce4bhgp2rcd13ifvqfc0","pricing_plan_id":"cebpf4jnsgd1na2vs0mg"},{"bike_id":"f2dbbcf5-4a99-44c0-87ac-22f691e8367b","system_id":"levelo_inurba_marseille","lat":43.24065,"lon":5.37764,"is_reserved":false,"is_disabled":false,"rental_uris":{"android":"levelo://app?vid=f2dbbcf5-4a99-44c0-87ac-22f691e8367b","ios":"levelo://app?vid=f2dbbcf5-4a99-44c0-87ac-22f691e8367b"},"vehicle_type_id":"4","last_reported":1752509615,"current_range_meters":11600,"station_id":"ce4bhnp2rcd13ifvqgvg","pricing_plan_id":"cebpf4jnsgd1na2vs0mg"},{"bike_id":"05f30485-dc90-4763-9dd4-c12f63ae43a2","system_id":"levelo_inurba_marseille","lat":43.303184,"lon":5.369027,"is_reserved":false,"is_disabled":true,"rental_uris":{"android":"levelo://app?vid=05f30485-dc90-4763-9dd4-c12f63ae43a2","ios":"levelo://app?vid=05f30485-dc90-4763-9dd4-c12f63ae43a2"},"vehicle_type_id":"4","last_reported":1752509615,"current_range_meters":12000,"station_id":"ce4bgqh2rcd13ifvqc5g","pricing_plan_id":"cebpf4jnsgd1na2vs0mg"},{"bike_id":"23d43df4-d41a-4986-bf35-8cdfd765e701","system_id":"levelo_inurba_marseille","lat":43.30358,"lon":5.41883,"is_reserved":false,"is_disabled":false,"rental_uris":{"android":"levelo://app?vid=23d43df4-d41a-4986-bf35-8cdfd765e701","ios":"levelo://app?vid=23d43df4-d41a-4986-bf35-8cdfd765e701"},"vehicle_type_id":"4","last_reported":1752509615,"current_range_meters":12000,"station_id":"ce4bhop2rcd13ifvqh7g","pricing_plan_id":"cebpf4jnsgd1na2vs0mg"},{"bike_id":"b00cd8c0-a944-4ebb-bdc5-2451dbff5f3f","system_id":"levelo_inurba_marseille","lat":43.271034,"lon":5.389427,"is_reserved":false,"is_disabled":false,"rental_uris":{"android":"levelo://app?vid=b00cd8c0-a944-4ebb-bdc5-2451dbff5f3f","ios":"levelo://app?vid=b00cd8c0-a944-4ebb-bdc5-2451dbff5f3f"},"vehicle_type_id":"4","last_reported":1752509615,"current_range_meters":12000,"station_id":"","pricing_plan_id":"cebpf4jnsgd1na2vs0mg"},{"bike_id":"b11e312b-ffd1-4fe1-825d-426565bfeb05","system_id":"levelo_inurba_marseille","lat":43.29557,"lon":5.42291,"is_reserved":false,"is_disabled":false,"rental_uris":{"android":"levelo://app?vid=b11e312b-ffd1-4fe1-825d-426565bfeb05","ios":"levelo://app?vid=b11e312b-ffd1-4fe1-825d-426565bfeb05"},"vehicle_type_id":"4","last_reported":1752509615,"current_range_meters":11600,"station_id":"ce4bhph2rcd13ifvqhdg","pricing_plan_id":"cebpf4jnsgd1na2vs0mg"},{"bike_id":"593a8e44-fbe2-4ee0-931f-82e009509917","system_id":"levelo_inurba_marseille","lat":43.29252,"lon":5.38436,"is_reserved":false,"is_disabled":false,"rental_uris":{"android":"levelo://app?vid=593a8e44-fbe2-4ee0-931f-82e009509917","ios":"levelo://app?vid=593a8e44-fbe2-4ee0-931f-82e009509917"},"vehicle_type_id":"4","last_reported":1752509615,"current_range_meters":12400,"station_id":"ce4bh692rcd13ifvqea0","pricing_plan_id":"cebpf4jnsgd1na2vs0mg"},{"bike_id":"23bd6792-7a07-47c2-925b-fc5bf8eb0083","system_id":"levelo_inurba_marseille","lat":43.2481,"lon":5.37457,"is_reserved":false,"is_disabled":false,"rental_uris":{"android":"levelo://app?vid=23bd6792-7a07-47c2-925b-fc5bf8eb0083","ios":"levelo://app?vid=23bd6792-7a07-47c2-925b-fc5bf8eb0083"},"vehicle_type_id":"4","last_reported":1752509615,"current_range_meters":12400,"station_id":"ce4bhgh2rcd13ifvqfb0","pricing_plan_id":"cebpf4jnsgd1na2vs0mg"},{"bike_id":"881fe683-fa34-4a79-921e-feed26e065c8","system_id":"levelo_inurba_marseille","lat":43.29969,"lon":5.3717,"is_reserved":false,"is_disabled":false,"rental_uris":{"android":"levelo://app?vid=881fe683-fa34-4a79-921e-feed26e065c8","ios":"levelo://app?vid=881fe683-fa34-4a79-921e-feed26e065c8"},"vehicle_type_id":"4","last_reported":1752509615,"current_range_meters":12400,"station_id":"ce4bgr92rcd13ifvqc7g","pricing_plan_id":"cebpf4jnsgd1na2vs0mg"},{"bike_id":"c8c4de1a-846f-4f5b-aace-9fb14bf7ad52","system_id":"levelo_inurba_marseille","lat":43.21193,"lon":5.35071,"is_reserved":false,"is_disabled":false,"rental_uris":{"android":"levelo://app?vid=c8c4de1a-846f-4f5b-aace-9fb14bf7ad52","ios":"levelo://app?vid=c8c4de1a-846f-4f5b-aace-9fb14bf7ad52"},"vehicle_type_id":"4","last_reported":1752509615,"current_range_meters":12400,"station_id":"st_cvj6sg6p6f1abm77japg","pricing_plan_id":"cebpf4jnsgd1na2vs0mg"},{"bike_id":"651dce3a-2249-46d7-a220-d413497d4b2a","system_id":"levelo_inurba_marseille","lat":43.24654,"lon":5.38883,"is_reserved":false,"is_disabled":false,"rental_uris":{"android":"levelo://app?vid=651dce3a-2249-46d7-a220-d413497d4b2a","ios":"levelo://app?vid=651dce3a-2249-46d7-a220-d413497d4b2a"},"vehicle_type_id":"4","last_reported":1752509615,"current_range_meters":12400,"station_id":"ce4bhg12rcd13ifvqf60","pricing_plan_id":"cebpf4jnsgd1na2vs0mg"},{"bike_id":"dbc51ca4-6199-4aa4-9de9-cf0adfd584c2","system_id":"levelo_inurba_marseille","lat":43.21743,"lon":5.34602,"is_reserved":false,"is_disabled":false,"rental_uris":{"android":"levelo://app?vid=dbc51ca4-6199-4aa4-9de9-cf0adfd584c2","ios":"levelo://app?vid=dbc51ca4-6199-4aa4-9de9-cf0adfd584c2"},"vehicle_type_id":"4","last_reported":1752509615,"current_range_meters":12800,"station_id":"st_cvj6r9ubvosntc0bgbag","pricing_plan_id":"cebpf4jnsgd1na2vs0mg"},{"bike_id":"c89808e0-90fe-4bed-b0de-71eb01d1540d","system_id":"levelo_inurba_marseille","lat":43.2738,"lon":5.36263,"is_reserved":false,"is_disabled":false,"rental_uris":{"android":"levelo://app?vid=c89808e0-90fe-4bed-b0de-71eb01d1540d","ios":"levelo://app?vid=c89808e0-90fe-4bed-b0de-71eb01d1540d"},"vehicle_type_id":"4","last_reported":1752509615,"current_range_meters":12800,"station_id":"ce4bhbh2rcd13ifvqeo0","pricing_plan_id":"cebpf4jnsgd1na2vs0mg"},{"bike_id":"9b1afee0-5d71-42b1-bfb3-0f11fa1e097d","system_id":"levelo_inurba_marseille","lat":43.292534,"lon":5.376396,"is_reserved":false,"is_disabled":false,"rental_uris":{"android":"levelo://app?vid=9b1afee0-5d71-42b1-bfb3-0f11fa1e097d","ios":"levelo://app?vid=9b1afee0-5d71-42b1-bfb3-0f11fa1e097d"},"vehicle_type_id":"4","last_reported":1752509615,"current_range_meters":12800,"station_id":"","pricing_plan_id":"cebpf4jnsgd1na2vs0mg"},{"bike_id":"3072785f-89a6-49c2-a78c-29b751730ff4","system_id":"levelo_inurba_marseille","lat":43.27315,"lon":5.39095,"is_reserved":false,"is_disabled":false,"rental_uris":{"android":"levelo://app?vid=3072785f-89a6-49c2-a78c-29b751730ff4","ios":"levelo://app?vid=3072785f-89a6-49c2-a78c-29b751730ff4"},"vehicle_type_id":"4","last_reported":1752509615,"current_range_meters":12800,"station_id":"ce4bhgp2rcd13ifvqfe0","pricing_plan_id":"cebpf4jnsgd1na2vs0mg"},{"bike_id":"e3538395-ba1b-423d-a35d-ffeae75b2194","system_id":"levelo_inurba_marseille","lat":43.2319,"lon":5.35543,"is_reserved":false,"is_disabled":false,"rental_uris":{"android":"levelo://app?vid=e3538395-ba1b-423d-a35d-ffeae75b2194","ios":"levelo://app?vid=e3538395-ba1b-423d-a35d-ffeae75b2194"},"vehicle_type_id":"4","last_reported":1752509615,"current_range_meters":12800,"station_id":"ce4bhu92rcd13ifvqi70","pricing_plan_id":"cebpf4jnsgd1na2vs0mg"},{"bike_id":"e91ced2f-2041-4b38-8446-0d5d97adec95","system_id":"levelo_inurba_marseille","lat":43.25569,"lon":5.38255,"is_reserved":false,"is_disabled":true,"rental_uris":{"android":"levelo://app?vid=e91ced2f-2041-4b38-8446-0d5d97adec95","ios":"levelo://app?vid=e91ced2f-2041-4b38-8446-0d5d97adec95"},"vehicle_type_id":"4","last_reported":1752509615,"current_range_meters":12800,"station_id":"ce4bhih2rcd13ifvqfs0","pricing_plan_id":"cebpf4jnsgd1na2vs0mg"},{"bike_id":"8a01e88a-8371-4085-9838-47ae11897cd3","system_id":"levelo_inurba_marseille","lat":43.28156,"lon":5.42649,"is_reserved":false,"is_disabled":true,"rental_uris":{"android":"levelo://app?vid=8a01e88a-8371-4085-9838-47ae11897cd3","ios":"levelo://app?vid=8a01e88a-8371-4085-9838-47ae11897cd3"},"vehicle_type_id":"4","last_reported":1752509615,"current_range_meters":12800,"station_id":"ce4bhnh2rcd13ifvqgug","pricing_plan_id":"cebpf4jnsgd1na2vs0mg"},{"bike_id":"088e6b1d-8a81-47e0-9ad0-36233ed399c0","system_id":"levelo_inurba_marseille","lat":43.279166,"lon":5.395793,"is_reserved":false,"is_disabled":true,"rental_uris":{"android":"levelo://app?vid=088e6b1d-8a81-47e0-9ad0-36233ed399c0","ios":"levelo://app?vid=088e6b1d-8a81-47e0-9ad0-36233ed399c0"},"vehicle_type_id":"4","last_reported":1752509615,"current_range_meters":12800,"station_id":"ce4bhf92rcd13ifvqf40","pricing_plan_id":"cebpf4jnsgd1na2vs0mg"},{"bike_id":"ffa5ccb4-905c-4e50-802b-1c1f9b2cbe03","system_id":"levelo_inurba_marseille","lat":43.21192,"lon":5.35075,"is_reserved":false,"is_disabled":false,"rental_uris":{"android":"levelo://app?vid=ffa5ccb4-905c-4e50-802b-1c1f9b2cbe03","ios":"levelo://app?vid=ffa5ccb4-905c-4e50-802b-1c1f9b2cbe03"},"vehicle_type_id":"4","last_reported":1752509615,"current_range_meters":13600,"station_id":"","pricing_plan_id":"cebpf4jnsgd1na2vs0mg"},{"bike_id":"f5a47db5-6fb2-46bd-a2de-efa4ad13bf60","system_id":"levelo_inurba_marseille","lat":43.211945,"lon":5.350693,"is_reserved":false,"is_disabled":false,"rental_uris":{"android":"levelo://app?vid=f5a47db5-6fb2-46bd-a2de-efa4ad13bf60","ios":"levelo://app?vid=f5a47db5-6fb2-46bd-a2de-efa4ad13bf60"},"vehicle_type_id":"4","last_reported":1752509615,"current_range_meters":13600,"station_id":"st_cvj6sg6p6f1abm77japg","pricing_plan_id":"cebpf4jnsgd1na2vs0mg"},{"bike_id":"a4d07f45-19f9-4df9-9728-be6623530a64","system_id":"levelo_inurba_marseille","lat":43.23702,"lon":5.38829,"is_reserved":false,"is_disabled":false,"rental_uris":{"android":"levelo://app?vid=a4d07f45-19f9-4df9-9728-be6623530a64","ios":"levelo://app?vid=a4d07f45-19f9-4df9-9728-be6623530a64"},"vehicle_type_id":"4","last_reported":1752509615,"current_range_meters":13600,"station_id":"","pricing_plan_id":"cebpf4jnsgd1na2vs0mg"},{"bike_id":"1aedaa42-1f03-48cc-8e38-d983e72f730b","system_id":"levelo_inurba_marseille","lat":43.270696,"lon":5.422782,"is_reserved":false,"is_disabled":false,"rental_uris":{"android":"levelo://app?vid=1aedaa42-1f03-48cc-8e38-d983e72f730b","ios":"levelo://app?vid=1aedaa42-1f03-48cc-8e38-d983e72f730b"},"vehicle_type_id":"4","last_reported":1752509615,"current_range_meters":13600,"station_id":"ce4bhk92rcd13ifvqgb0","pricing_plan_id":"cebpf4jnsgd1na2vs0mg"},{"bike_id":"7babba4d-5b94-47d1-aa86-59f34db6f285","system_id":"levelo_inurba_marseille","lat":43.29677,"lon":5.37278,"is_reserved":false,"is_disabled":false,"rental_uris":{"android":"levelo://app?vid=7babba4d-5b94-47d1-aa86-59f34db6f285","ios":"levelo://app?vid=7babba4d-5b94-47d1-aa86-59f34db6f285"},"vehicle_type_id":"4","last_reported":1752509615,"current_range_meters":13600,"station_id":"ce4bgk12rcd13ifvqbj0","pricing_plan_id":"cebpf4jnsgd1na2vs0mg"},{"bike_id":"3cdf7207-d77b-4ad1-a2f8-9575fb02e238","system_id":"levelo_inurba_marseille","lat":43.217563,"lon":5.346013,"is_reserved":false,"is_disabled":false,"rental_uris":{"android":"levelo://app?vid=3cdf7207-d77b-4ad1-a2f8-9575fb02e238","ios":"levelo://app?vid=3cdf7207-d77b-4ad1-a2f8-9575fb02e238"},"vehicle_type_id":"4","last_reported":1752509615,"current_range_meters":13600,"station_id":"st_cvj6r9ubvosntc0bgbag","pricing_plan_id":"cebpf4jnsgd1na2vs0mg"},{"bike_id":"4a19e4ee-cbbe-4fd8-9e6c-310afa6ee6c9","system_id":"levelo_inurba_marseille","lat":43.23183,"lon":5.39993,"is_reserved":false,"is_disabled":true,"rental_uris":{"android":"levelo://app?vid=4a19e4ee-cbbe-4fd8-9e6c-310afa6ee6c9","ios":"levelo://app?vid=4a19e4ee-cbbe-4fd8-9e6c-310afa6ee6c9"},"vehicle_type_id":"4","last_reported":1752509615,"current_range_meters":14000,"station_id":"ce4bhn12rcd13ifvqgqg","pricing_plan_id":"cebpf4jnsgd1na2vs0mg"},{"bike_id":"e1928b01-bff5-4cea-b60c-f8d9223daef3","system_id":"levelo_inurba_marseille","lat":43.270774,"lon":5.422733,"is_reserved":false,"is_disabled":false,"rental_uris":{"android":"levelo://app?vid=e1928b01-bff5-4cea-b60c-f8d9223daef3","ios":"levelo://app?vid=e1928b01-bff5-4cea-b60c-f8d9223daef3"},"vehicle_type_id":"4","last_reported":1752509615,"current_range_meters":14000,"station_id":"ce4bhk92rcd13ifvqgb0","pricing_plan_id":"cebpf4jnsgd1na2vs0mg"},{"bike_id":"9e13d400-5a79-4bac-8520-4f7c07360ecb","system_id":"levelo_inurba_marseille","lat":43.28553,"lon":5.39516,"is_reserved":false,"is_disabled":false,"rental_uris":{"android":"levelo://app?vid=9e13d400-5a79-4bac-8520-4f7c07360ecb","ios":"levelo://app?vid=9e13d400-5a79-4bac-8520-4f7c07360ecb"},"vehicle_type_id":"4","last_reported":1752509615,"current_range_meters":14000,"station_id":"ce4bh292rcd13ifvqdg0","pricing_plan_id":"cebpf4jnsgd1na2vs0mg"},{"bike_id":"e621ebbb-dc33-4e76-8e92-d3fd339da2a3","system_id":"levelo_inurba_marseille","lat":43.27375,"lon":5.36256,"is_reserved":false,"is_disabled":false,"rental_uris":{"android":"levelo://app?vid=e621ebbb-dc33-4e76-8e92-d3fd339da2a3","ios":"levelo://app?vid=e621ebbb-dc33-4e76-8e92-d3fd339da2a3"},"vehicle_type_id":"4","last_reported":1752509615,"current_range_meters":14000,"station_id":"ce4bhbh2rcd13ifvqeo0","pricing_plan_id":"cebpf4jnsgd1na2vs0mg"},{"bike_id":"e23346fb-21bf-43f9-8584-5f807f9973cf","system_id":"levelo_inurba_marseille","lat":43.27375,"lon":5.36248,"is_reserved":false,"is_disabled":false,"rental_uris":{"android":"levelo://app?vid=e23346fb-21bf-43f9-8584-5f807f9973cf","ios":"levelo://app?vid=e23346fb-21bf-43f9-8584-5f807f9973cf"},"vehicle_type_id":"4","last_reported":1752509615,"current_range_meters":14000,"station_id":"ce4bhbh2rcd13ifvqeo0","pricing_plan_id":"cebpf4jnsgd1na2vs0mg"},{"bike_id":"08dbf31c-b540-4ca6-b57d-3481ea73d97b","system_id":"levelo_inurba_marseille","lat":43.22497,"lon":5.34784,"is_reserved":false,"is_disabled":false,"rental_uris":{"android":"levelo://app?vid=08dbf31c-b540-4ca6-b57d-3481ea73d97b","ios":"levelo://app?vid=08dbf31c-b540-4ca6-b57d-3481ea73d97b"},"vehicle_type_id":"4","last_reported":1752509615,"current_range_meters":14000,"station_id":"st_cvj5dfep6f1abm77gieg","pricing_plan_id":"cebpf4jnsgd1na2vs0mg"},{"bike_id":"ed892106-7211-488a-b10f-d9b7c9badcdb","system_id":"levelo_inurba_marseille","lat":43.2772,"lon":5.35665,"is_reserved":false,"is_disabled":false,"rental_uris":{"android":"levelo://app?vid=ed892106-7211-488a-b10f-d9b7c9badcdb","ios":"levelo://app?vid=ed892106-7211-488a-b10f-d9b7c9badcdb"},"vehicle_type_id":"4","last_reported":1752509615,"current_range_meters":14000,"station_id":"","pricing_plan_id":"cebpf4jnsgd1na2vs0mg"},{"bike_id":"f9ffbb8e-e3da-4f67-ac8d-dd71d14a5b5b","system_id":"levelo_inurba_marseille","lat":43.23179,"lon":5.39969,"is_reserved":false,"is_disabled":false,"rental_uris":{"android":"levelo://app?vid=f9ffbb8e-e3da-4f67-ac8d-dd71d14a5b5b","ios":"levelo://app?vid=f9ffbb8e-e3da-4f67-ac8d-dd71d14a5b5b"},"vehicle_type_id":"4","last_reported":1752509615,"current_range_meters":14000,"station_id":"ce4bhn12rcd13ifvqgqg","pricing_plan_id":"cebpf4jnsgd1na2vs0mg"},{"bike_id":"697d5fc4-b988-4a4e-8323-c1ce5ed61a61","system_id":"levelo_inurba_marseille","lat":43.21189,"lon":5.35085,"is_reserved":false,"is_disabled":false,"rental_uris":{"android":"levelo://app?vid=697d5fc4-b988-4a4e-8323-c1ce5ed61a61","ios":"levelo://app?vid=697d5fc4-b988-4a4e-8323-c1ce5ed61a61"},"vehicle_type_id":"4","last_reported":1752509615,"current_range_meters":14400,"station_id":"st_cvj6sg6p6f1abm77japg","pricing_plan_id":"cebpf4jnsgd1na2vs0mg"},{"bike_id":"12d48e4d-a291-49bb-ab45-967804b53d7b","system_id":"levelo_inurba_marseille","lat":43.27622,"lon":5.3609,"is_reserved":false,"is_disabled":true,"rental_uris":{"android":"levelo://app?vid=12d48e4d-a291-49bb-ab45-967804b53d7b","ios":"levelo://app?vid=12d48e4d-a291-49bb-ab45-967804b53d7b"},"vehicle_type_id":"4","last_reported":1752509615,"current_range_meters":14400,"station_id":"ce4bgj92rcd13ifvqbe0","pricing_plan_id":"cebpf4jnsgd1na2vs0mg"},{"bike_id":"6ac174d4-75c5-4a9c-9699-97cd631c6e65","system_id":"levelo_inurba_marseille","lat":43.25489,"lon":5.39924,"is_reserved":false,"is_disabled":false,"rental_uris":{"android":"levelo://app?vid=6ac174d4-75c5-4a9c-9699-97cd631c6e65","ios":"levelo://app?vid=6ac174d4-75c5-4a9c-9699-97cd631c6e65"},"vehicle_type_id":"4","last_reported":1752509615,"current_range_meters":14400,"station_id":"","pricing_plan_id":"cebpf4jnsgd1na2vs0mg"},{"bike_id":"23a0fc67-4c39-4b74-8a86-2903d79b1606","system_id":"levelo_inurba_marseille","lat":43.23201,"lon":5.35547,"is_reserved":false,"is_disabled":false,"rental_uris":{"android":"levelo://app?vid=23a0fc67-4c39-4b74-8a86-2903d79b1606","ios":"levelo://app?vid=23a0fc67-4c39-4b74-8a86-2903d79b1606"},"vehicle_type_id":"4","last_reported":1752509615,"current_range_meters":14400,"station_id":"ce4bhu92rcd13ifvqi70","pricing_plan_id":"cebpf4jnsgd1na2vs0mg"},{"bike_id":"23f1163d-5864-41bf-b14e-128de6250ccd","system_id":"levelo_inurba_marseille","lat":43.27324,"lon":5.391,"is_reserved":false,"is_disabled":false,"rental_uris":{"android":"levelo://app?vid=23f1163d-5864-41bf-b14e-128de6250ccd","ios":"levelo://app?vid=23f1163d-5864-41bf-b14e-128de6250ccd"},"vehicle_type_id":"4","last_reported":1752509615,"current_range_meters":14000,"station_id":"ce4bhgp2rcd13ifvqfe0","pricing_plan_id":"cebpf4jnsgd1na2vs0mg"},{"bike_id":"974a8c9e-9e0c-4fb0-9089-f03c1ea978b7","system_id":"levelo_inurba_marseille","lat":43.25573,"lon":5.38229,"is_reserved":false,"is_disabled":false,"rental_uris":{"android":"levelo://app?vid=974a8c9e-9e0c-4fb0-9089-f03c1ea978b7","ios":"levelo://app?vid=974a8c9e-9e0c-4fb0-9089-f03c1ea978b7"},"vehicle_type_id":"4","last_reported":1752509615,"current_range_meters":14400,"station_id":"ce4bhih2rcd13ifvqfs0","pricing_plan_id":"cebpf4jnsgd1na2vs0mg"},{"bike_id":"e1442ff3-c767-4bb3-901d-e5f60873ad13","system_id":"levelo_inurba_marseille","lat":43.2319,"lon":5.39991,"is_reserved":false,"is_disabled":false,"rental_uris":{"android":"levelo://app?vid=e1442ff3-c767-4bb3-901d-e5f60873ad13","ios":"levelo://app?vid=e1442ff3-c767-4bb3-901d-e5f60873ad13"},"vehicle_type_id":"4","last_reported":1752509615,"current_range_meters":14800,"station_id":"ce4bhn12rcd13ifvqgqg","pricing_plan_id":"cebpf4jnsgd1na2vs0mg"},{"bike_id":"84dea733-3ff4-4768-b9be-6852e0a8b6ad","system_id":"levelo_inurba_marseille","lat":43.29633,"lon":5.40598,"is_reserved":false,"is_disabled":false,"rental_uris":{"android":"levelo://app?vid=84dea733-3ff4-4768-b9be-6852e0a8b6ad","ios":"levelo://app?vid=84dea733-3ff4-4768-b9be-6852e0a8b6ad"},"vehicle_type_id":"4","last_reported":1752509615,"current_range_meters":14800,"station_id":"ce4bh0h2rcd13ifvqd60","pricing_plan_id":"cebpf4jnsgd1na2vs0mg"},{"bike_id":"ed74f810-226b-4edb-a7d8-2c9a86d071a4","system_id":"levelo_inurba_marseille","lat":43.21189,"lon":5.35074,"is_reserved":false,"is_disabled":false,"rental_uris":{"android":"levelo://app?vid=ed74f810-226b-4edb-a7d8-2c9a86d071a4","ios":"levelo://app?vid=ed74f810-226b-4edb-a7d8-2c9a86d071a4"},"vehicle_type_id":"4","last_reported":1752509615,"current_range_meters":15200,"station_id":"st_cvj6sg6p6f1abm77japg","pricing_plan_id":"cebpf4jnsgd1na2vs0mg"},{"bike_id":"43120b77-362f-4d12-a05e-f7519a97d6ce","system_id":"levelo_inurba_marseille","lat":43.24811,"lon":5.37453,"is_reserved":false,"is_disabled":false,"rental_uris":{"android":"levelo://app?vid=43120b77-362f-4d12-a05e-f7519a97d6ce","ios":"levelo://app?vid=43120b77-362f-4d12-a05e-f7519a97d6ce"},"vehicle_type_id":"4","last_reported":1752509615,"current_range_meters":14800,"station_id":"ce4bhgh2rcd13ifvqfb0","pricing_plan_id":"cebpf4jnsgd1na2vs0mg"},{"bike_id":"74dcb9d1-2900-4ac9-91b6-a21408bf609a","system_id":"levelo_inurba_marseille","lat":43.29564,"lon":5.37529,"is_reserved":false,"is_disabled":false,"rental_uris":{"android":"levelo://app?vid=74dcb9d1-2900-4ac9-91b6-a21408bf609a","ios":"levelo://app?vid=74dcb9d1-2900-4ac9-91b6-a21408bf609a"},"vehicle_type_id":"4","last_reported":1752509615,"current_range_meters":14800,"station_id":"ce4bgh92rcd13ifvqb50","pricing_plan_id":"cebpf4jnsgd1na2vs0mg"},{"bike_id":"265f192e-3d2f-4ebf-8c0b-5ac0d78a2bca","system_id":"levelo_inurba_marseille","lat":43.2958,"lon":5.37512,"is_reserved":false,"is_disabled":false,"rental_uris":{"android":"levelo://app?vid=265f192e-3d2f-4ebf-8c0b-5ac0d78a2bca","ios":"levelo://app?vid=265f192e-3d2f-4ebf-8c0b-5ac0d78a2bca"},"vehicle_type_id":"4","last_reported":1752509615,"current_range_meters":15200,"station_id":"ce4bgh92rcd13ifvqb50","pricing_plan_id":"cebpf4jnsgd1na2vs0mg"},{"bike_id":"bff6cc9e-bca1-43af-a995-68eda5b09534","system_id":"levelo_inurba_marseille","lat":43.284599,"lon":5.349681,"is_reserved":false,"is_disabled":false,"rental_uris":{"android":"levelo://app?vid=bff6cc9e-bca1-43af-a995-68eda5b09534","ios":"levelo://app?vid=bff6cc9e-bca1-43af-a995-68eda5b09534"},"vehicle_type_id":"4","last_reported":1752509615,"current_range_meters":15200,"station_id":"","pricing_plan_id":"cebpf4jnsgd1na2vs0mg"},{"bike_id":"aa260077-cb0d-43c9-8e67-329c1b69779f","system_id":"levelo_inurba_marseille","lat":43.211965,"lon":5.35069,"is_reserved":false,"is_disabled":false,"rental_uris":{"android":"levelo://app?vid=aa260077-cb0d-43c9-8e67-329c1b69779f","ios":"levelo://app?vid=aa260077-cb0d-43c9-8e67-329c1b69779f"},"vehicle_type_id":"4","last_reported":1752509615,"current_range_meters":15200,"station_id":"st_cvj6sg6p6f1abm77japg","pricing_plan_id":"cebpf4jnsgd1na2vs0mg"},{"bike_id":"b6771d12-4d0b-4004-8d85-15a22b02cf35","system_id":"levelo_inurba_marseille","lat":43.2558,"lon":5.38227,"is_reserved":false,"is_disabled":false,"rental_uris":{"android":"levelo://app?vid=b6771d12-4d0b-4004-8d85-15a22b02cf35","ios":"levelo://app?vid=b6771d12-4d0b-4004-8d85-15a22b02cf35"},"vehicle_type_id":"4","last_reported":1752509615,"current_range_meters":15200,"station_id":"ce4bhih2rcd13ifvqfs0","pricing_plan_id":"cebpf4jnsgd1na2vs0mg"},{"bike_id":"14d84983-0a09-4f06-8f20-76612bc27f2b","system_id":"levelo_inurba_marseille","lat":43.27918,"lon":5.39572,"is_reserved":false,"is_disabled":false,"rental_uris":{"android":"levelo://app?vid=14d84983-0a09-4f06-8f20-76612bc27f2b","ios":"levelo://app?vid=14d84983-0a09-4f06-8f20-76612bc27f2b"},"vehicle_type_id":"4","last_reported":1752509615,"current_range_meters":15200,"station_id":"ce4bhf92rcd13ifvqf40","pricing_plan_id":"cebpf4jnsgd1na2vs0mg"},{"bike_id":"1a140f38-1a35-4919-b59f-a9fd9c4e8dc0","system_id":"levelo_inurba_marseille","lat":43.28658,"lon":5.36357,"is_reserved":false,"is_disabled":false,"rental_uris":{"android":"levelo://app?vid=1a140f38-1a35-4919-b59f-a9fd9c4e8dc0","ios":"levelo://app?vid=1a140f38-1a35-4919-b59f-a9fd9c4e8dc0"},"vehicle_type_id":"4","last_reported":1752509615,"current_range_meters":16400,"station_id":"ce4bhah2rcd13ifvqej0","pricing_plan_id":"cebpf4jnsgd1na2vs0mg"},{"bike_id":"fa9ddd7c-f157-4a10-8a11-95229e0a5e9d","system_id":"levelo_inurba_marseille","lat":43.29868,"lon":5.38906,"is_reserved":false,"is_disabled":false,"rental_uris":{"android":"levelo://app?vid=fa9ddd7c-f157-4a10-8a11-95229e0a5e9d","ios":"levelo://app?vid=fa9ddd7c-f157-4a10-8a11-95229e0a5e9d"},"vehicle_type_id":"4","last_reported":1752509615,"current_range_meters":15200,"station_id":"ce4bh392rcd13ifvqdl0","pricing_plan_id":"cebpf4jnsgd1na2vs0mg"},{"bike_id":"9ab1ab28-05c4-496c-a3b2-7ac6b8a796c8","system_id":"levelo_inurba_marseille","lat":43.29186,"lon":5.35805,"is_reserved":false,"is_disabled":false,"rental_uris":{"android":"levelo://app?vid=9ab1ab28-05c4-496c-a3b2-7ac6b8a796c8","ios":"levelo://app?vid=9ab1ab28-05c4-496c-a3b2-7ac6b8a796c8"},"vehicle_type_id":"4","last_reported":1752509615,"current_range_meters":16000,"station_id":"ce4bhb12rcd13ifvqel0","pricing_plan_id":"cebpf4jnsgd1na2vs0mg"},{"bike_id":"0be8b6ff-89df-4994-876a-5f9632d04ae6","system_id":"levelo_inurba_marseille","lat":43.25112,"lon":5.40325,"is_reserved":false,"is_disabled":false,"rental_uris":{"android":"levelo://app?vid=0be8b6ff-89df-4994-876a-5f9632d04ae6","ios":"levelo://app?vid=0be8b6ff-89df-4994-876a-5f9632d04ae6"},"vehicle_type_id":"4","last_reported":1752509615,"current_range_meters":16000,"station_id":"ce4bhlh2rcd13ifvqgig","pricing_plan_id":"cebpf4jnsgd1na2vs0mg"},{"bike_id":"5fa858c5-b668-473d-980c-66352519635e","system_id":"levelo_inurba_marseille","lat":43.24082,"lon":5.37756,"is_reserved":false,"is_disabled":false,"rental_uris":{"android":"levelo://app?vid=5fa858c5-b668-473d-980c-66352519635e","ios":"levelo://app?vid=5fa858c5-b668-473d-980c-66352519635e"},"vehicle_type_id":"4","last_reported":1752509615,"current_range_meters":16000,"station_id":"ce4bhnp2rcd13ifvqgvg","pricing_plan_id":"cebpf4jnsgd1na2vs0mg"},{"bike_id":"2c5a0a8d-b80f-43a1-91ae-93c8cb7cac46","system_id":"levelo_inurba_marseille","lat":43.290249,"lon":5.381227,"is_reserved":false,"is_disabled":false,"rental_uris":{"android":"levelo://app?vid=2c5a0a8d-b80f-43a1-91ae-93c8cb7cac46","ios":"levelo://app?vid=2c5a0a8d-b80f-43a1-91ae-93c8cb7cac46"},"vehicle_type_id":"4","last_reported":1752509615,"current_range_meters":16000,"station_id":"","pricing_plan_id":"cebpf4jnsgd1na2vs0mg"},{"bike_id":"63ed1459-b10d-42ac-b348-d07498dba05e","system_id":"levelo_inurba_marseille","lat":43.305109,"lon":5.366437,"is_reserved":false,"is_disabled":false,"rental_uris":{"android":"levelo://app?vid=63ed1459-b10d-42ac-b348-d07498dba05e","ios":"levelo://app?vid=63ed1459-b10d-42ac-b348-d07498dba05e"},"vehicle_type_id":"4","last_reported":1752509615,"current_range_meters":16000,"station_id":"ce4bgs12rcd13ifvqcag","pricing_plan_id":"cebpf4jnsgd1na2vs0mg"},{"bike_id":"ba2826a1-f26d-4ade-8961-88d60b368ee0","system_id":"levelo_inurba_marseille","lat":43.303313,"lon":5.404418,"is_reserved":false,"is_disabled":false,"rental_uris":{"android":"levelo://app?vid=ba2826a1-f26d-4ade-8961-88d60b368ee0","ios":"levelo://app?vid=ba2826a1-f26d-4ade-8961-88d60b368ee0"},"vehicle_type_id":"4","last_reported":1752509615,"current_range_meters":15200,"station_id":"ce4bh012rcd13ifvqd10","pricing_plan_id":"cebpf4jnsgd1na2vs0mg"},{"bike_id":"c90b0be2-58db-4f01-8688-a7b32f2526d4","system_id":"levelo_inurba_marseille","lat":43.26237,"lon":5.40457,"is_reserved":false,"is_disabled":false,"rental_uris":{"android":"levelo://app?vid=c90b0be2-58db-4f01-8688-a7b32f2526d4","ios":"levelo://app?vid=c90b0be2-58db-4f01-8688-a7b32f2526d4"},"vehicle_type_id":"4","last_reported":1752509615,"current_range_meters":16400,"station_id":"ce4bhmh2rcd13ifvqgmg","pricing_plan_id":"cebpf4jnsgd1na2vs0mg"},{"bike_id":"44e10618-e1b8-4569-bc24-980853c4bf04","system_id":"levelo_inurba_marseille","lat":43.22935,"lon":5.35367,"is_reserved":false,"is_disabled":true,"rental_uris":{"android":"levelo://app?vid=44e10618-e1b8-4569-bc24-980853c4bf04","ios":"levelo://app?vid=44e10618-e1b8-4569-bc24-980853c4bf04"},"vehicle_type_id":"4","last_reported":1752509615,"current_range_meters":16400,"station_id":"cpo3532slgdg3j2ikp40","pricing_plan_id":"cebpf4jnsgd1na2vs0mg"},{"bike_id":"c4394d8c-8102-4300-bdb5-758262918af2","system_id":"levelo_inurba_marseille","lat":43.30927,"lon":5.40149,"is_reserved":false,"is_disabled":true,"rental_uris":{"android":"levelo://app?vid=c4394d8c-8102-4300-bdb5-758262918af2","ios":"levelo://app?vid=c4394d8c-8102-4300-bdb5-758262918af2"},"vehicle_type_id":"4","last_reported":1752509615,"current_range_meters":16400,"station_id":"ce4bgvp2rcd13ifvqct0","pricing_plan_id":"cebpf4jnsgd1na2vs0mg"},{"bike_id":"7f98e6f4-6b5d-4893-bad5-ccf66f595432","system_id":"levelo_inurba_marseille","lat":43.29551,"lon":5.37511,"is_reserved":false,"is_disabled":false,"rental_uris":{"android":"levelo://app?vid=7f98e6f4-6b5d-4893-bad5-ccf66f595432","ios":"levelo://app?vid=7f98e6f4-6b5d-4893-bad5-ccf66f595432"},"vehicle_type_id":"4","last_reported":1752509615,"current_range_meters":16400,"station_id":"ce4bgkp2rcd13ifvqbmg","pricing_plan_id":"cebpf4jnsgd1na2vs0mg"},{"bike_id":"e0b88937-0cb8-4374-8110-357b6a1974b9","system_id":"levelo_inurba_marseille","lat":43.24088,"lon":5.37772,"is_reserved":false,"is_disabled":false,"rental_uris":{"android":"levelo://app?vid=e0b88937-0cb8-4374-8110-357b6a1974b9","ios":"levelo://app?vid=e0b88937-0cb8-4374-8110-357b6a1974b9"},"vehicle_type_id":"4","last_reported":1752509615,"current_range_meters":16400,"station_id":"ce4bhnp2rcd13ifvqgvg","pricing_plan_id":"cebpf4jnsgd1na2vs0mg"},{"bike_id":"96404d04-512d-4e45-b57c-350a79134d38","system_id":"levelo_inurba_marseille","lat":43.21205,"lon":5.35064,"is_reserved":false,"is_disabled":false,"rental_uris":{"android":"levelo://app?vid=96404d04-512d-4e45-b57c-350a79134d38","ios":"levelo://app?vid=96404d04-512d-4e45-b57c-350a79134d38"},"vehicle_type_id":"4","last_reported":1752509615,"current_range_meters":16400,"station_id":"st_cvj6sg6p6f1abm77japg","pricing_plan_id":"cebpf4jnsgd1na2vs0mg"},{"bike_id":"c2857b8a-2544-48ae-936c-90bab1dd6ab6","system_id":"levelo_inurba_marseille","lat":43.21191,"lon":5.3508,"is_reserved":false,"is_disabled":false,"rental_uris":{"android":"levelo://app?vid=c2857b8a-2544-48ae-936c-90bab1dd6ab6","ios":"levelo://app?vid=c2857b8a-2544-48ae-936c-90bab1dd6ab6"},"vehicle_type_id":"4","last_reported":1752509615,"current_range_meters":16400,"station_id":"st_cvj6sg6p6f1abm77japg","pricing_plan_id":"cebpf4jnsgd1na2vs0mg"},{"bike_id":"edb1306a-3e7f-4b1f-a66f-3b31cf28f000","system_id":"levelo_inurba_marseille","lat":43.2739,"lon":5.36258,"is_reserved":false,"is_disabled":false,"rental_uris":{"android":"levelo://app?vid=edb1306a-3e7f-4b1f-a66f-3b31cf28f000","ios":"levelo://app?vid=edb1306a-3e7f-4b1f-a66f-3b31cf28f000"},"vehicle_type_id":"4","last_reported":1752509615,"current_range_meters":16400,"station_id":"ce4bhbh2rcd13ifvqeo0","pricing_plan_id":"cebpf4jnsgd1na2vs0mg"},{"bike_id":"7dc24acd-45cc-4618-a76d-ed13abd45658","system_id":"levelo_inurba_marseille","lat":43.29191,"lon":5.35812,"is_reserved":false,"is_disabled":false,"rental_uris":{"android":"levelo://app?vid=7dc24acd-45cc-4618-a76d-ed13abd45658","ios":"levelo://app?vid=7dc24acd-45cc-4618-a76d-ed13abd45658"},"vehicle_type_id":"4","last_reported":1752509615,"current_range_meters":16000,"station_id":"ce4bhb12rcd13ifvqel0","pricing_plan_id":"cebpf4jnsgd1na2vs0mg"},{"bike_id":"fc63a067-9cf2-4c58-bfdd-3270ab1898f2","system_id":"levelo_inurba_marseille","lat":43.229341,"lon":5.353775,"is_reserved":false,"is_disabled":false,"rental_uris":{"android":"levelo://app?vid=fc63a067-9cf2-4c58-bfdd-3270ab1898f2","ios":"levelo://app?vid=fc63a067-9cf2-4c58-bfdd-3270ab1898f2"},"vehicle_type_id":"4","last_reported":1752509615,"current_range_meters":16800,"station_id":"cpo3532slgdg3j2ikp40","pricing_plan_id":"cebpf4jnsgd1na2vs0mg"},{"bike_id":"e8b71218-c1cc-47b4-8b62-496651bf335b","system_id":"levelo_inurba_marseille","lat":43.29963,"lon":5.38498,"is_reserved":false,"is_disabled":false,"rental_uris":{"android":"levelo://app?vid=e8b71218-c1cc-47b4-8b62-496651bf335b","ios":"levelo://app?vid=e8b71218-c1cc-47b4-8b62-496651bf335b"},"vehicle_type_id":"4","last_reported":1752509615,"current_range_meters":16800,"station_id":"ce4bgj92rcd13ifvqbd0","pricing_plan_id":"cebpf4jnsgd1na2vs0mg"},{"bike_id":"5b79497d-499a-4c6a-bcb6-275adb49dba6","system_id":"levelo_inurba_marseille","lat":43.29314,"lon":5.37169,"is_reserved":false,"is_disabled":false,"rental_uris":{"android":"levelo://app?vid=5b79497d-499a-4c6a-bcb6-275adb49dba6","ios":"levelo://app?vid=5b79497d-499a-4c6a-bcb6-275adb49dba6"},"vehicle_type_id":"4","last_reported":1752509615,"current_range_meters":16800,"station_id":"ce4bgh92rcd13ifvqb40","pricing_plan_id":"cebpf4jnsgd1na2vs0mg"},{"bike_id":"d0f90c24-dd03-411b-9731-55305f76b7c8","system_id":"levelo_inurba_marseille","lat":43.21185,"lon":5.35066,"is_reserved":false,"is_disabled":false,"rental_uris":{"android":"levelo://app?vid=d0f90c24-dd03-411b-9731-55305f76b7c8","ios":"levelo://app?vid=d0f90c24-dd03-411b-9731-55305f76b7c8"},"vehicle_type_id":"4","last_reported":1752509615,"current_range_meters":16800,"station_id":"st_cvj6sg6p6f1abm77japg","pricing_plan_id":"cebpf4jnsgd1na2vs0mg"},{"bike_id":"3e9e8c3d-5f1f-4564-a4c4-86972c2dd72f","system_id":"levelo_inurba_marseille","lat":43.27617,"lon":5.36109,"is_reserved":false,"is_disabled":false,"rental_uris":{"android":"levelo://app?vid=3e9e8c3d-5f1f-4564-a4c4-86972c2dd72f","ios":"levelo://app?vid=3e9e8c3d-5f1f-4564-a4c4-86972c2dd72f"},"vehicle_type_id":"4","last_reported":1752509615,"current_range_meters":16800,"station_id":"ce4bgj92rcd13ifvqbe0","pricing_plan_id":"cebpf4jnsgd1na2vs0mg"},{"bike_id":"aed0031e-2203-4a00-aceb-23dedfc4523f","system_id":"levelo_inurba_marseille","lat":43.26204,"lon":5.3744,"is_reserved":false,"is_disabled":false,"rental_uris":{"android":"levelo://app?vid=aed0031e-2203-4a00-aceb-23dedfc4523f","ios":"levelo://app?vid=aed0031e-2203-4a00-aceb-23dedfc4523f"},"vehicle_type_id":"4","last_reported":1752509615,"current_range_meters":16800,"station_id":"ce4bhgp2rcd13ifvqfc0","pricing_plan_id":"cebpf4jnsgd1na2vs0mg"},{"bike_id":"5c604cee-8163-4508-b1f3-ec8c5d644770","system_id":"levelo_inurba_marseille","lat":43.23199,"lon":5.35562,"is_reserved":false,"is_disabled":false,"rental_uris":{"android":"levelo://app?vid=5c604cee-8163-4508-b1f3-ec8c5d644770","ios":"levelo://app?vid=5c604cee-8163-4508-b1f3-ec8c5d644770"},"vehicle_type_id":"4","last_reported":1752509615,"current_range_meters":16800,"station_id":"ce4bhu92rcd13ifvqi70","pricing_plan_id":"cebpf4jnsgd1na2vs0mg"},{"bike_id":"48a72147-d63a-4fad-9403-9184689656c8","system_id":"levelo_inurba_marseille","lat":43.244041,"lon":5.370783,"is_reserved":false,"is_disabled":true,"rental_uris":{"android":"levelo://app?vid=48a72147-d63a-4fad-9403-9184689656c8","ios":"levelo://app?vid=48a72147-d63a-4fad-9403-9184689656c8"},"vehicle_type_id":"4","last_reported":1752509615,"current_range_meters":16800,"station_id":"ce4bhhh2rcd13ifvqfk0","pricing_plan_id":"cebpf4jnsgd1na2vs0mg"},{"bike_id":"afbd19ee-ad89-43ad-817b-7c22ac4374e6","system_id":"levelo_inurba_marseille","lat":43.22925,"lon":5.35387,"is_reserved":false,"is_disabled":false,"rental_uris":{"android":"levelo://app?vid=afbd19ee-ad89-43ad-817b-7c22ac4374e6","ios":"levelo://app?vid=afbd19ee-ad89-43ad-817b-7c22ac4374e6"},"vehicle_type_id":"4","last_reported":1752509615,"current_range_meters":16800,"station_id":"cpo3532slgdg3j2ikp40","pricing_plan_id":"cebpf4jnsgd1na2vs0mg"},{"bike_id":"6a7e7232-3b9f-430e-8ed6-f054cc13d071","system_id":"levelo_inurba_marseille","lat":43.22932,"lon":5.35376,"is_reserved":false,"is_disabled":false,"rental_uris":{"android":"levelo://app?vid=6a7e7232-3b9f-430e-8ed6-f054cc13d071","ios":"levelo://app?vid=6a7e7232-3b9f-430e-8ed6-f054cc13d071"},"vehicle_type_id":"4","last_reported":1752509615,"current_range_meters":16800,"station_id":"cpo3532slgdg3j2ikp40","pricing_plan_id":"cebpf4jnsgd1na2vs0mg"},{"bike_id":"403880bc-8bea-46f6-8a81-b7f6860118ac","system_id":"levelo_inurba_marseille","lat":43.292603,"lon":5.384293,"is_reserved":false,"is_disabled":true,"rental_uris":{"android":"levelo://app?vid=403880bc-8bea-46f6-8a81-b7f6860118ac","ios":"levelo://app?vid=403880bc-8bea-46f6-8a81-b7f6860118ac"},"vehicle_type_id":"4","last_reported":1752509615,"current_range_meters":16800,"station_id":"ce4bh692rcd13ifvqea0","pricing_plan_id":"cebpf4jnsgd1na2vs0mg"},{"bike_id":"cf2d344d-7322-4e49-83be-c37b8074518a","system_id":"levelo_inurba_marseille","lat":43.32627,"lon":5.41038,"is_reserved":false,"is_disabled":false,"rental_uris":{"android":"levelo://app?vid=cf2d344d-7322-4e49-83be-c37b8074518a","ios":"levelo://app?vid=cf2d344d-7322-4e49-83be-c37b8074518a"},"vehicle_type_id":"4","last_reported":1752509615,"current_range_meters":16800,"station_id":"ce4bhpp2rcd13ifvqhgg","pricing_plan_id":"cebpf4jnsgd1na2vs0mg"},{"bike_id":"96ed74ba-f19a-4585-9e69-166e23403ece","system_id":"levelo_inurba_marseille","lat":43.25496,"lon":5.37638,"is_reserved":false,"is_disabled":false,"rental_uris":{"android":"levelo://app?vid=96ed74ba-f19a-4585-9e69-166e23403ece","ios":"levelo://app?vid=96ed74ba-f19a-4585-9e69-166e23403ece"},"vehicle_type_id":"4","last_reported":1752509615,"current_range_meters":17200,"station_id":"ce4bhh12rcd13ifvqff0","pricing_plan_id":"cebpf4jnsgd1na2vs0mg"},{"bike_id":"5084babc-9e40-4691-99c4-778b7e48f00b","system_id":"levelo_inurba_marseille","lat":43.23956,"lon":5.36644,"is_reserved":false,"is_disabled":false,"rental_uris":{"android":"levelo://app?vid=5084babc-9e40-4691-99c4-778b7e48f00b","ios":"levelo://app?vid=5084babc-9e40-4691-99c4-778b7e48f00b"},"vehicle_type_id":"4","last_reported":1752509615,"current_range_meters":17200,"station_id":"ce4bhi12rcd13ifvqfp0","pricing_plan_id":"cebpf4jnsgd1na2vs0mg"},{"bike_id":"f7721592-edbc-4204-ab53-e621fa9e90e9","system_id":"levelo_inurba_marseille","lat":43.26209,"lon":5.37444,"is_reserved":false,"is_disabled":false,"rental_uris":{"android":"levelo://app?vid=f7721592-edbc-4204-ab53-e621fa9e90e9","ios":"levelo://app?vid=f7721592-edbc-4204-ab53-e621fa9e90e9"},"vehicle_type_id":"4","last_reported":1752509615,"current_range_meters":17200,"station_id":"ce4bhgp2rcd13ifvqfc0","pricing_plan_id":"cebpf4jnsgd1na2vs0mg"},{"bike_id":"2f9043b4-5875-4794-a682-a6a782090c68","system_id":"levelo_inurba_marseille","lat":43.23195,"lon":5.35554,"is_reserved":false,"is_disabled":false,"rental_uris":{"android":"levelo://app?vid=2f9043b4-5875-4794-a682-a6a782090c68","ios":"levelo://app?vid=2f9043b4-5875-4794-a682-a6a782090c68"},"vehicle_type_id":"4","last_reported":1752509615,"current_range_meters":17200,"station_id":"ce4bhu92rcd13ifvqi70","pricing_plan_id":"cebpf4jnsgd1na2vs0mg"},{"bike_id":"56b18f82-6a98-4866-8883-4e793f17b0b2","system_id":"levelo_inurba_marseille","lat":43.29307,"lon":5.37445,"is_reserved":false,"is_disabled":false,"rental_uris":{"android":"levelo://app?vid=56b18f82-6a98-4866-8883-4e793f17b0b2","ios":"levelo://app?vid=56b18f82-6a98-4866-8883-4e793f17b0b2"},"vehicle_type_id":"4","last_reported":1752509615,"current_range_meters":17200,"station_id":"ce4bgi12rcd13ifvqb70","pricing_plan_id":"cebpf4jnsgd1na2vs0mg"},{"bike_id":"6c6d4d9a-6141-481c-9c1a-8e61054bdc43","system_id":"levelo_inurba_marseille","lat":43.24772,"lon":5.41753,"is_reserved":false,"is_disabled":false,"rental_uris":{"android":"levelo://app?vid=6c6d4d9a-6141-481c-9c1a-8e61054bdc43","ios":"levelo://app?vid=6c6d4d9a-6141-481c-9c1a-8e61054bdc43"},"vehicle_type_id":"4","last_reported":1752509615,"current_range_meters":17200,"station_id":"","pricing_plan_id":"cebpf4jnsgd1na2vs0mg"},{"bike_id":"c3eb31c9-e106-4cd2-bb91-f2d0ee3e7a6f","system_id":"levelo_inurba_marseille","lat":43.2403,"lon":5.36238,"is_reserved":false,"is_disabled":false,"rental_uris":{"android":"levelo://app?vid=c3eb31c9-e106-4cd2-bb91-f2d0ee3e7a6f","ios":"levelo://app?vid=c3eb31c9-e106-4cd2-bb91-f2d0ee3e7a6f"},"vehicle_type_id":"4","last_reported":1752509615,"current_range_meters":17200,"station_id":"","pricing_plan_id":"cebpf4jnsgd1na2vs0mg"},{"bike_id":"08e67338-a2ff-42fc-a939-92ad435f118e","system_id":"levelo_inurba_marseille","lat":43.27674,"lon":5.35714,"is_reserved":false,"is_disabled":false,"rental_uris":{"android":"levelo://app?vid=08e67338-a2ff-42fc-a939-92ad435f118e","ios":"levelo://app?vid=08e67338-a2ff-42fc-a939-92ad435f118e"},"vehicle_type_id":"4","last_reported":1752509615,"current_range_meters":17200,"station_id":"","pricing_plan_id":"cebpf4jnsgd1na2vs0mg"},{"bike_id":"002126f6-737b-4641-9e75-1e3a41731156","system_id":"levelo_inurba_marseille","lat":43.21744,"lon":5.346,"is_reserved":false,"is_disabled":false,"rental_uris":{"android":"levelo://app?vid=002126f6-737b-4641-9e75-1e3a41731156","ios":"levelo://app?vid=002126f6-737b-4641-9e75-1e3a41731156"},"vehicle_type_id":"4","last_reported":1752509615,"current_range_meters":17200,"station_id":"st_cvj6r9ubvosntc0bgbag","pricing_plan_id":"cebpf4jnsgd1na2vs0mg"},{"bike_id":"0755cb70-08ea-4ee0-9fc0-1b832c502a85","system_id":"levelo_inurba_marseille","lat":43.21756,"lon":5.34609,"is_reserved":false,"is_disabled":false,"rental_uris":{"android":"levelo://app?vid=0755cb70-08ea-4ee0-9fc0-1b832c502a85","ios":"levelo://app?vid=0755cb70-08ea-4ee0-9fc0-1b832c502a85"},"vehicle_type_id":"4","last_reported":1752509615,"current_range_meters":17200,"station_id":"st_cvj6r9ubvosntc0bgbag","pricing_plan_id":"cebpf4jnsgd1na2vs0mg"},{"bike_id":"36bb6747-8555-407d-93d7-f647b8e4460d","system_id":"levelo_inurba_marseille","lat":43.27222,"lon":5.392,"is_reserved":false,"is_disabled":false,"rental_uris":{"android":"levelo://app?vid=36bb6747-8555-407d-93d7-f647b8e4460d","ios":"levelo://app?vid=36bb6747-8555-407d-93d7-f647b8e4460d"},"vehicle_type_id":"4","last_reported":1752509615,"current_range_meters":17200,"station_id":"ce4bhhp2rcd13ifvqfm0","pricing_plan_id":"cebpf4jnsgd1na2vs0mg"},{"bike_id":"def3d27f-26a3-4eb1-a992-b40bce4396e0","system_id":"levelo_inurba_marseille","lat":43.21731,"lon":5.34609,"is_reserved":false,"is_disabled":false,"rental_uris":{"android":"levelo://app?vid=def3d27f-26a3-4eb1-a992-b40bce4396e0","ios":"levelo://app?vid=def3d27f-26a3-4eb1-a992-b40bce4396e0"},"vehicle_type_id":"4","last_reported":1752509615,"current_range_meters":17600,"station_id":"st_cvj6r9ubvosntc0bgbag","pricing_plan_id":"cebpf4jnsgd1na2vs0mg"},{"bike_id":"be823f9c-3f94-4d21-8417-93b1f1be43f1","system_id":"levelo_inurba_marseille","lat":43.229323,"lon":5.353867,"is_reserved":false,"is_disabled":false,"rental_uris":{"android":"levelo://app?vid=be823f9c-3f94-4d21-8417-93b1f1be43f1","ios":"levelo://app?vid=be823f9c-3f94-4d21-8417-93b1f1be43f1"},"vehicle_type_id":"4","last_reported":1752509615,"current_range_meters":17600,"station_id":"cpo3532slgdg3j2ikp40","pricing_plan_id":"cebpf4jnsgd1na2vs0mg"},{"bike_id":"e33dda95-c366-4cde-a7c7-a88f0ea68511","system_id":"levelo_inurba_marseille","lat":43.31721,"lon":5.42391,"is_reserved":false,"is_disabled":false,"rental_uris":{"android":"levelo://app?vid=e33dda95-c366-4cde-a7c7-a88f0ea68511","ios":"levelo://app?vid=e33dda95-c366-4cde-a7c7-a88f0ea68511"},"vehicle_type_id":"4","last_reported":1752509615,"current_range_meters":17600,"station_id":"ce4bhp92rcd13ifvqhbg","pricing_plan_id":"cebpf4jnsgd1na2vs0mg"},{"bike_id":"01beb3f2-c54f-4f68-af15-b28ae7c75196","system_id":"levelo_inurba_marseille","lat":43.30152,"lon":5.39885,"is_reserved":false,"is_disabled":true,"rental_uris":{"android":"levelo://app?vid=01beb3f2-c54f-4f68-af15-b28ae7c75196","ios":"levelo://app?vid=01beb3f2-c54f-4f68-af15-b28ae7c75196"},"vehicle_type_id":"4","last_reported":1752509615,"current_range_meters":17600,"station_id":"ce4bh0h2rcd13ifvqd40","pricing_plan_id":"cebpf4jnsgd1na2vs0mg"},{"bike_id":"9ec7ded0-07a0-4052-88cd-c68cfaa8fdd7","system_id":"levelo_inurba_marseille","lat":43.21754,"lon":5.34619,"is_reserved":false,"is_disabled":false,"rental_uris":{"android":"levelo://app?vid=9ec7ded0-07a0-4052-88cd-c68cfaa8fdd7","ios":"levelo://app?vid=9ec7ded0-07a0-4052-88cd-c68cfaa8fdd7"},"vehicle_type_id":"4","last_reported":1752509615,"current_range_meters":17600,"station_id":"st_cvj6r9ubvosntc0bgbag","pricing_plan_id":"cebpf4jnsgd1na2vs0mg"},{"bike_id":"f10941ce-d19a-4475-b0ba-1c38d332727e","system_id":"levelo_inurba_marseille","lat":43.32173,"lon":5.38741,"is_reserved":false,"is_disabled":false,"rental_uris":{"android":"levelo://app?vid=f10941ce-d19a-4475-b0ba-1c38d332727e","ios":"levelo://app?vid=f10941ce-d19a-4475-b0ba-1c38d332727e"},"vehicle_type_id":"4","last_reported":1752509615,"current_range_meters":17600,"station_id":"","pricing_plan_id":"cebpf4jnsgd1na2vs0mg"},{"bike_id":"a1f0c7e1-0bdc-4118-b503-84f5f7fdb140","system_id":"levelo_inurba_marseille","lat":43.28627,"lon":5.35096,"is_reserved":false,"is_disabled":false,"rental_uris":{"android":"levelo://app?vid=a1f0c7e1-0bdc-4118-b503-84f5f7fdb140","ios":"levelo://app?vid=a1f0c7e1-0bdc-4118-b503-84f5f7fdb140"},"vehicle_type_id":"4","last_reported":1752509615,"current_range_meters":17600,"station_id":"ce4bhch2rcd13ifvqeug","pricing_plan_id":"cebpf4jnsgd1na2vs0mg"},{"bike_id":"ec206935-d4f3-4c91-9d10-b60298af4b49","system_id":"levelo_inurba_marseille","lat":43.28616,"lon":5.35103,"is_reserved":false,"is_disabled":false,"rental_uris":{"android":"levelo://app?vid=ec206935-d4f3-4c91-9d10-b60298af4b49","ios":"levelo://app?vid=ec206935-d4f3-4c91-9d10-b60298af4b49"},"vehicle_type_id":"4","last_reported":1752509615,"current_range_meters":17600,"station_id":"ce4bhch2rcd13ifvqeug","pricing_plan_id":"cebpf4jnsgd1na2vs0mg"},{"bike_id":"9519201a-415d-4ff3-8272-63f48cac3b66","system_id":"levelo_inurba_marseille","lat":43.27964,"lon":5.38749,"is_reserved":false,"is_disabled":false,"rental_uris":{"android":"levelo://app?vid=9519201a-415d-4ff3-8272-63f48cac3b66","ios":"levelo://app?vid=9519201a-415d-4ff3-8272-63f48cac3b66"},"vehicle_type_id":"4","last_reported":1752509615,"current_range_meters":17600,"station_id":"ce4bhg12rcd13ifvqf80","pricing_plan_id":"cebpf4jnsgd1na2vs0mg"},{"bike_id":"4ca94ae8-24aa-46df-af9f-f67e576145e4","system_id":"levelo_inurba_marseille","lat":43.29163,"lon":5.37164,"is_reserved":false,"is_disabled":false,"rental_uris":{"android":"levelo://app?vid=4ca94ae8-24aa-46df-af9f-f67e576145e4","ios":"levelo://app?vid=4ca94ae8-24aa-46df-af9f-f67e576145e4"},"vehicle_type_id":"4","last_reported":1752509615,"current_range_meters":18000,"station_id":"ce4bha92rcd13ifvqeh0","pricing_plan_id":"cebpf4jnsgd1na2vs0mg"},{"bike_id":"89cb8986-9559-4e1f-b297-9769cf529b52","system_id":"levelo_inurba_marseille","lat":43.26196,"lon":5.37447,"is_reserved":false,"is_disabled":false,"rental_uris":{"android":"levelo://app?vid=89cb8986-9559-4e1f-b297-9769cf529b52","ios":"levelo://app?vid=89cb8986-9559-4e1f-b297-9769cf529b52"},"vehicle_type_id":"4","last_reported":1752509615,"current_range_meters":18000,"station_id":"ce4bhgp2rcd13ifvqfc0","pricing_plan_id":"cebpf4jnsgd1na2vs0mg"},{"bike_id":"489e603b-6303-4c5a-a3da-d47c39cd6b15","system_id":"levelo_inurba_marseille","lat":43.21746,"lon":5.34598,"is_reserved":false,"is_disabled":false,"rental_uris":{"android":"levelo://app?vid=489e603b-6303-4c5a-a3da-d47c39cd6b15","ios":"levelo://app?vid=489e603b-6303-4c5a-a3da-d47c39cd6b15"},"vehicle_type_id":"4","last_reported":1752509615,"current_range_meters":18000,"station_id":"st_cvj6r9ubvosntc0bgbag","pricing_plan_id":"cebpf4jnsgd1na2vs0mg"},{"bike_id":"f2052e77-2392-4735-a8f6-84f745fd6486","system_id":"levelo_inurba_marseille","lat":43.27382,"lon":5.36252,"is_reserved":false,"is_disabled":false,"rental_uris":{"android":"levelo://app?vid=f2052e77-2392-4735-a8f6-84f745fd6486","ios":"levelo://app?vid=f2052e77-2392-4735-a8f6-84f745fd6486"},"vehicle_type_id":"4","last_reported":1752509615,"current_range_meters":18000,"station_id":"ce4bhbh2rcd13ifvqeo0","pricing_plan_id":"cebpf4jnsgd1na2vs0mg"},{"bike_id":"949cac28-1e79-45e2-a946-5e224b739cae","system_id":"levelo_inurba_marseille","lat":43.241686,"lon":5.363892,"is_reserved":false,"is_disabled":false,"rental_uris":{"android":"levelo://app?vid=949cac28-1e79-45e2-a946-5e224b739cae","ios":"levelo://app?vid=949cac28-1e79-45e2-a946-5e224b739cae"},"vehicle_type_id":"4","last_reported":1752509615,"current_range_meters":18000,"station_id":"cpo36qri1sfpv3e86is0","pricing_plan_id":"cebpf4jnsgd1na2vs0mg"},{"bike_id":"9d3774be-71c7-4974-931f-3375e3dc8a91","system_id":"levelo_inurba_marseille","lat":43.28156,"lon":5.42639,"is_reserved":false,"is_disabled":false,"rental_uris":{"android":"levelo://app?vid=9d3774be-71c7-4974-931f-3375e3dc8a91","ios":"levelo://app?vid=9d3774be-71c7-4974-931f-3375e3dc8a91"},"vehicle_type_id":"4","last_reported":1752509615,"current_range_meters":18000,"station_id":"ce4bhnh2rcd13ifvqgug","pricing_plan_id":"cebpf4jnsgd1na2vs0mg"},{"bike_id":"cd700f17-9c20-4b8c-b060-5a541f4a78ef","system_id":"levelo_inurba_marseille","lat":43.24163,"lon":5.36396,"is_reserved":false,"is_disabled":false,"rental_uris":{"android":"levelo://app?vid=cd700f17-9c20-4b8c-b060-5a541f4a78ef","ios":"levelo://app?vid=cd700f17-9c20-4b8c-b060-5a541f4a78ef"},"vehicle_type_id":"4","last_reported":1752509615,"current_range_meters":18000,"station_id":"cpo36qri1sfpv3e86is0","pricing_plan_id":"cebpf4jnsgd1na2vs0mg"},{"bike_id":"bc01775b-e496-4423-90ac-0cb22b6b4b16","system_id":"levelo_inurba_marseille","lat":43.27389,"lon":5.36266,"is_reserved":false,"is_disabled":false,"rental_uris":{"android":"levelo://app?vid=bc01775b-e496-4423-90ac-0cb22b6b4b16","ios":"levelo://app?vid=bc01775b-e496-4423-90ac-0cb22b6b4b16"},"vehicle_type_id":"4","last_reported":1752509615,"current_range_meters":18000,"station_id":"ce4bhbh2rcd13ifvqeo0","pricing_plan_id":"cebpf4jnsgd1na2vs0mg"},{"bike_id":"2269c732-2c51-4cd2-9de0-fc2c2b5809c1","system_id":"levelo_inurba_marseille","lat":43.28428,"lon":5.34981,"is_reserved":false,"is_disabled":false,"rental_uris":{"android":"levelo://app?vid=2269c732-2c51-4cd2-9de0-fc2c2b5809c1","ios":"levelo://app?vid=2269c732-2c51-4cd2-9de0-fc2c2b5809c1"},"vehicle_type_id":"4","last_reported":1752509615,"current_range_meters":18000,"station_id":"ce4bhbh2rcd13ifvqepg","pricing_plan_id":"cebpf4jnsgd1na2vs0mg"},{"bike_id":"6b6619c5-6cd2-4092-aacb-23aa7b5e47c6","system_id":"levelo_inurba_marseille","lat":43.241679,"lon":5.364009,"is_reserved":false,"is_disabled":false,"rental_uris":{"android":"levelo://app?vid=6b6619c5-6cd2-4092-aacb-23aa7b5e47c6","ios":"levelo://app?vid=6b6619c5-6cd2-4092-aacb-23aa7b5e47c6"},"vehicle_type_id":"4","last_reported":1752509615,"current_range_meters":18000,"station_id":"cpo36qri1sfpv3e86is0","pricing_plan_id":"cebpf4jnsgd1na2vs0mg"},{"bike_id":"291c4c87-b5e0-44ce-9761-46717156657e","system_id":"levelo_inurba_marseille","lat":43.29535,"lon":5.37505,"is_reserved":false,"is_disabled":false,"rental_uris":{"android":"levelo://app?vid=291c4c87-b5e0-44ce-9761-46717156657e","ios":"levelo://app?vid=291c4c87-b5e0-44ce-9761-46717156657e"},"vehicle_type_id":"4","last_reported":1752509615,"current_range_meters":17600,"station_id":"ce4bgkp2rcd13ifvqbmg","pricing_plan_id":"cebpf4jnsgd1na2vs0mg"},{"bike_id":"d7159adf-94a3-498c-948b-458c9b026277","system_id":"levelo_inurba_marseille","lat":43.225036,"lon":5.347845,"is_reserved":false,"is_disabled":false,"rental_uris":{"android":"levelo://app?vid=d7159adf-94a3-498c-948b-458c9b026277","ios":"levelo://app?vid=d7159adf-94a3-498c-948b-458c9b026277"},"vehicle_type_id":"4","last_reported":1752509615,"current_range_meters":18000,"station_id":"","pricing_plan_id":"cebpf4jnsgd1na2vs0mg"},{"bike_id":"100b4bde-219e-4cf4-a580-b6e09fcb37a3","system_id":"levelo_inurba_marseille","lat":43.28988,"lon":5.37841,"is_reserved":false,"is_disabled":false,"rental_uris":{"android":"levelo://app?vid=100b4bde-219e-4cf4-a580-b6e09fcb37a3","ios":"levelo://app?vid=100b4bde-219e-4cf4-a580-b6e09fcb37a3"},"vehicle_type_id":"4","last_reported":1752509615,"current_range_meters":18000,"station_id":"ce4bh9p2rcd13ifvqed0","pricing_plan_id":"cebpf4jnsgd1na2vs0mg"},{"bike_id":"1228fbbd-4fb1-4f5b-89d2-46fd73d3f7bb","system_id":"levelo_inurba_marseille","lat":43.23951,"lon":5.36653,"is_reserved":false,"is_disabled":false,"rental_uris":{"android":"levelo://app?vid=1228fbbd-4fb1-4f5b-89d2-46fd73d3f7bb","ios":"levelo://app?vid=1228fbbd-4fb1-4f5b-89d2-46fd73d3f7bb"},"vehicle_type_id":"4","last_reported":1752509615,"current_range_meters":18800,"station_id":"ce4bhi12rcd13ifvqfp0","pricing_plan_id":"cebpf4jnsgd1na2vs0mg"},{"bike_id":"7bce7a34-5113-458d-9330-3d00164f4612","system_id":"levelo_inurba_marseille","lat":43.211868,"lon":5.350752,"is_reserved":false,"is_disabled":false,"rental_uris":{"android":"levelo://app?vid=7bce7a34-5113-458d-9330-3d00164f4612","ios":"levelo://app?vid=7bce7a34-5113-458d-9330-3d00164f4612"},"vehicle_type_id":"4","last_reported":1752509615,"current_range_meters":18800,"station_id":"st_cvj6sg6p6f1abm77japg","pricing_plan_id":"cebpf4jnsgd1na2vs0mg"},{"bike_id":"90634865-5a2e-4e44-822b-d4803ce8dbab","system_id":"levelo_inurba_marseille","lat":43.30601,"lon":5.37231,"is_reserved":false,"is_disabled":false,"rental_uris":{"android":"levelo://app?vid=90634865-5a2e-4e44-822b-d4803ce8dbab","ios":"levelo://app?vid=90634865-5a2e-4e44-822b-d4803ce8dbab"},"vehicle_type_id":"4","last_reported":1752509615,"current_range_meters":18800,"station_id":"ce4bgqh2rcd13ifvqc4g","pricing_plan_id":"cebpf4jnsgd1na2vs0mg"},{"bike_id":"ae7773cd-625c-4187-9d99-0b7c8d4f6553","system_id":"levelo_inurba_marseille","lat":43.292634,"lon":5.384339,"is_reserved":false,"is_disabled":false,"rental_uris":{"android":"levelo://app?vid=ae7773cd-625c-4187-9d99-0b7c8d4f6553","ios":"levelo://app?vid=ae7773cd-625c-4187-9d99-0b7c8d4f6553"},"vehicle_type_id":"4","last_reported":1752509615,"current_range_meters":18800,"station_id":"","pricing_plan_id":"cebpf4jnsgd1na2vs0mg"},{"bike_id":"74b145b4-5ddd-48db-a2ec-c61b6b5cb914","system_id":"levelo_inurba_marseille","lat":43.21775,"lon":5.34574,"is_reserved":false,"is_disabled":false,"rental_uris":{"android":"levelo://app?vid=74b145b4-5ddd-48db-a2ec-c61b6b5cb914","ios":"levelo://app?vid=74b145b4-5ddd-48db-a2ec-c61b6b5cb914"},"vehicle_type_id":"4","last_reported":1752509615,"current_range_meters":18800,"station_id":"st_cvj6r9ubvosntc0bgbag","pricing_plan_id":"cebpf4jnsgd1na2vs0mg"},{"bike_id":"1aaa7e29-8268-4a68-b982-06e4cb580b86","system_id":"levelo_inurba_marseille","lat":43.3362,"lon":5.4102,"is_reserved":false,"is_disabled":false,"rental_uris":{"android":"levelo://app?vid=1aaa7e29-8268-4a68-b982-06e4cb580b86","ios":"levelo://app?vid=1aaa7e29-8268-4a68-b982-06e4cb580b86"},"vehicle_type_id":"4","last_reported":1752509615,"current_range_meters":18800,"station_id":"ce4bhqh2rcd13ifvqhmg","pricing_plan_id":"cebpf4jnsgd1na2vs0mg"},{"bike_id":"4e6d904c-d311-49e0-b6db-d6d55faf70cb","system_id":"levelo_inurba_marseille","lat":43.272426,"lon":5.36263,"is_reserved":false,"is_disabled":false,"rental_uris":{"android":"levelo://app?vid=4e6d904c-d311-49e0-b6db-d6d55faf70cb","ios":"levelo://app?vid=4e6d904c-d311-49e0-b6db-d6d55faf70cb"},"vehicle_type_id":"4","last_reported":1752509615,"current_range_meters":18800,"station_id":"","pricing_plan_id":"cebpf4jnsgd1na2vs0mg"},{"bike_id":"09a93a64-fbb1-49a9-be1f-f86a34310e71","system_id":"levelo_inurba_marseille","lat":43.21198,"lon":5.35065,"is_reserved":false,"is_disabled":false,"rental_uris":{"android":"levelo://app?vid=09a93a64-fbb1-49a9-be1f-f86a34310e71","ios":"levelo://app?vid=09a93a64-fbb1-49a9-be1f-f86a34310e71"},"vehicle_type_id":"4","last_reported":1752509615,"current_range_meters":18800,"station_id":"st_cvj6sg6p6f1abm77japg","pricing_plan_id":"cebpf4jnsgd1na2vs0mg"},{"bike_id":"f2c37524-4a91-46ab-98fb-97b4d32d795b","system_id":"levelo_inurba_marseille","lat":43.21751,"lon":5.346,"is_reserved":false,"is_disabled":false,"rental_uris":{"android":"levelo://app?vid=f2c37524-4a91-46ab-98fb-97b4d32d795b","ios":"levelo://app?vid=f2c37524-4a91-46ab-98fb-97b4d32d795b"},"vehicle_type_id":"4","last_reported":1752509615,"current_range_meters":18800,"station_id":"st_cvj6r9ubvosntc0bgbag","pricing_plan_id":"cebpf4jnsgd1na2vs0mg"},{"bike_id":"903197e4-3da2-471b-9537-d88bae7e31c4","system_id":"levelo_inurba_marseille","lat":43.264893,"lon":5.395396,"is_reserved":false,"is_disabled":true,"rental_uris":{"android":"levelo://app?vid=903197e4-3da2-471b-9537-d88bae7e31c4","ios":"levelo://app?vid=903197e4-3da2-471b-9537-d88bae7e31c4"},"vehicle_type_id":"4","last_reported":1752509615,"current_range_meters":19200,"station_id":"ce4bhi12rcd13ifvqfq0","pricing_plan_id":"cebpf4jnsgd1na2vs0mg"},{"bike_id":"9b3c3223-8111-48a9-9029-1956b7fdc2a0","system_id":"levelo_inurba_marseille","lat":43.2865,"lon":5.36353,"is_reserved":false,"is_disabled":false,"rental_uris":{"android":"levelo://app?vid=9b3c3223-8111-48a9-9029-1956b7fdc2a0","ios":"levelo://app?vid=9b3c3223-8111-48a9-9029-1956b7fdc2a0"},"vehicle_type_id":"4","last_reported":1752509615,"current_range_meters":19200,"station_id":"ce4bhah2rcd13ifvqej0","pricing_plan_id":"cebpf4jnsgd1na2vs0mg"},{"bike_id":"90d8578f-7619-4279-84b6-4ed88aa377e2","system_id":"levelo_inurba_marseille","lat":43.21188,"lon":5.35072,"is_reserved":false,"is_disabled":false,"rental_uris":{"android":"levelo://app?vid=90d8578f-7619-4279-84b6-4ed88aa377e2","ios":"levelo://app?vid=90d8578f-7619-4279-84b6-4ed88aa377e2"},"vehicle_type_id":"4","last_reported":1752509615,"current_range_meters":19200,"station_id":"st_cvj6sg6p6f1abm77japg","pricing_plan_id":"cebpf4jnsgd1na2vs0mg"},{"bike_id":"4852acc5-0cd4-4ac5-bd4c-3f245414b4fd","system_id":"levelo_inurba_marseille","lat":43.22493,"lon":5.3475,"is_reserved":false,"is_disabled":false,"rental_uris":{"android":"levelo://app?vid=4852acc5-0cd4-4ac5-bd4c-3f245414b4fd","ios":"levelo://app?vid=4852acc5-0cd4-4ac5-bd4c-3f245414b4fd"},"vehicle_type_id":"4","last_reported":1752509615,"current_range_meters":19200,"station_id":"st_cvj5dfep6f1abm77gieg","pricing_plan_id":"cebpf4jnsgd1na2vs0mg"},{"bike_id":"b9c91357-c4bf-43a7-b374-877fe1bc181f","system_id":"levelo_inurba_marseille","lat":43.25497,"lon":5.37663,"is_reserved":false,"is_disabled":false,"rental_uris":{"android":"levelo://app?vid=b9c91357-c4bf-43a7-b374-877fe1bc181f","ios":"levelo://app?vid=b9c91357-c4bf-43a7-b374-877fe1bc181f"},"vehicle_type_id":"4","last_reported":1752509615,"current_range_meters":19200,"station_id":"ce4bhh12rcd13ifvqff0","pricing_plan_id":"cebpf4jnsgd1na2vs0mg"},{"bike_id":"8577aaca-7915-49c3-b3eb-bc84fe946baf","system_id":"levelo_inurba_marseille","lat":43.276,"lon":5.41655,"is_reserved":false,"is_disabled":false,"rental_uris":{"android":"levelo://app?vid=8577aaca-7915-49c3-b3eb-bc84fe946baf","ios":"levelo://app?vid=8577aaca-7915-49c3-b3eb-bc84fe946baf"},"vehicle_type_id":"4","last_reported":1752509615,"current_range_meters":19200,"station_id":"","pricing_plan_id":"cebpf4jnsgd1na2vs0mg"},{"bike_id":"c26b5803-1934-443f-a178-b5a6c19165be","system_id":"levelo_inurba_marseille","lat":43.2993,"lon":5.38134,"is_reserved":false,"is_disabled":true,"rental_uris":{"android":"levelo://app?vid=c26b5803-1934-443f-a178-b5a6c19165be","ios":"levelo://app?vid=c26b5803-1934-443f-a178-b5a6c19165be"},"vehicle_type_id":"4","last_reported":1752509615,"current_range_meters":19200,"station_id":"ce4bgj12rcd13ifvqbc0","pricing_plan_id":"cebpf4jnsgd1na2vs0mg"},{"bike_id":"26a3b709-8f2c-43ff-85df-8e9e33187ec8","system_id":"levelo_inurba_marseille","lat":43.31537,"lon":5.38044,"is_reserved":false,"is_disabled":false,"rental_uris":{"android":"levelo://app?vid=26a3b709-8f2c-43ff-85df-8e9e33187ec8","ios":"levelo://app?vid=26a3b709-8f2c-43ff-85df-8e9e33187ec8"},"vehicle_type_id":"4","last_reported":1752509615,"current_range_meters":19200,"station_id":"ce4bhsp2rcd13ifvqi50","pricing_plan_id":"cebpf4jnsgd1na2vs0mg"},{"bike_id":"e546c1d6-c168-411d-9189-a1185321f787","system_id":"levelo_inurba_marseille","lat":43.28423,"lon":5.34986,"is_reserved":false,"is_disabled":false,"rental_uris":{"android":"levelo://app?vid=e546c1d6-c168-411d-9189-a1185321f787","ios":"levelo://app?vid=e546c1d6-c168-411d-9189-a1185321f787"},"vehicle_type_id":"4","last_reported":1752509615,"current_range_meters":19200,"station_id":"ce4bhbh2rcd13ifvqepg","pricing_plan_id":"cebpf4jnsgd1na2vs0mg"},{"bike_id":"9894e6b8-bde6-4e58-b954-8cb2bba9caaa","system_id":"levelo_inurba_marseille","lat":43.2841,"lon":5.34983,"is_reserved":false,"is_disabled":false,"rental_uris":{"android":"levelo://app?vid=9894e6b8-bde6-4e58-b954-8cb2bba9caaa","ios":"levelo://app?vid=9894e6b8-bde6-4e58-b954-8cb2bba9caaa"},"vehicle_type_id":"4","last_reported":1752509615,"current_range_meters":19200,"station_id":"ce4bhbh2rcd13ifvqepg","pricing_plan_id":"cebpf4jnsgd1na2vs0mg"},{"bike_id":"f27027a6-2a25-4193-9f89-90e958769b0a","system_id":"levelo_inurba_marseille","lat":43.2764,"lon":5.36093,"is_reserved":false,"is_disabled":false,"rental_uris":{"android":"levelo://app?vid=f27027a6-2a25-4193-9f89-90e958769b0a","ios":"levelo://app?vid=f27027a6-2a25-4193-9f89-90e958769b0a"},"vehicle_type_id":"4","last_reported":1752509615,"current_range_meters":19200,"station_id":"ce4bgj92rcd13ifvqbe0","pricing_plan_id":"cebpf4jnsgd1na2vs0mg"},{"bike_id":"ed3a226b-4ec7-465a-b998-9c1369112c1f","system_id":"levelo_inurba_marseille","lat":43.23172,"lon":5.43725,"is_reserved":false,"is_disabled":false,"rental_uris":{"android":"levelo://app?vid=ed3a226b-4ec7-465a-b998-9c1369112c1f","ios":"levelo://app?vid=ed3a226b-4ec7-465a-b998-9c1369112c1f"},"vehicle_type_id":"4","last_reported":1752509615,"current_range_meters":19200,"station_id":"ce4bhmp2rcd13ifvqgog","pricing_plan_id":"cebpf4jnsgd1na2vs0mg"},{"bike_id":"de3c7479-ad03-448f-a78e-88898eddd51a","system_id":"levelo_inurba_marseille","lat":43.32965,"lon":5.39741,"is_reserved":false,"is_disabled":false,"rental_uris":{"android":"levelo://app?vid=de3c7479-ad03-448f-a78e-88898eddd51a","ios":"levelo://app?vid=de3c7479-ad03-448f-a78e-88898eddd51a"},"vehicle_type_id":"4","last_reported":1752509615,"current_range_meters":19600,"station_id":"","pricing_plan_id":"cebpf4jnsgd1na2vs0mg"},{"bike_id":"7344a727-b91f-481e-b08a-0f3465e83901","system_id":"levelo_inurba_marseille","lat":43.27702,"lon":5.41664,"is_reserved":false,"is_disabled":false,"rental_uris":{"android":"levelo://app?vid=7344a727-b91f-481e-b08a-0f3465e83901","ios":"levelo://app?vid=7344a727-b91f-481e-b08a-0f3465e83901"},"vehicle_type_id":"4","last_reported":1752509615,"current_range_meters":19600,"station_id":"","pricing_plan_id":"cebpf4jnsgd1na2vs0mg"},{"bike_id":"70e99ac6-c5f8-4a24-b517-2afb9240895c","system_id":"levelo_inurba_marseille","lat":43.24195,"lon":5.39723,"is_reserved":false,"is_disabled":false,"rental_uris":{"android":"levelo://app?vid=70e99ac6-c5f8-4a24-b517-2afb9240895c","ios":"levelo://app?vid=70e99ac6-c5f8-4a24-b517-2afb9240895c"},"vehicle_type_id":"4","last_reported":1752509615,"current_range_meters":19600,"station_id":"ce4bhn12rcd13ifvqgpg","pricing_plan_id":"cebpf4jnsgd1na2vs0mg"},{"bike_id":"67ea8ef4-3aa6-4fb1-8ad1-e242eb4ada30","system_id":"levelo_inurba_marseille","lat":43.23185,"lon":5.35558,"is_reserved":false,"is_disabled":false,"rental_uris":{"android":"levelo://app?vid=67ea8ef4-3aa6-4fb1-8ad1-e242eb4ada30","ios":"levelo://app?vid=67ea8ef4-3aa6-4fb1-8ad1-e242eb4ada30"},"vehicle_type_id":"4","last_reported":1752509615,"current_range_meters":19600,"station_id":"ce4bhu92rcd13ifvqi70","pricing_plan_id":"cebpf4jnsgd1na2vs0mg"},{"bike_id":"7e91b493-e266-4c58-95ea-b838e15744df","system_id":"levelo_inurba_marseille","lat":43.28419,"lon":5.34981,"is_reserved":false,"is_disabled":false,"rental_uris":{"android":"levelo://app?vid=7e91b493-e266-4c58-95ea-b838e15744df","ios":"levelo://app?vid=7e91b493-e266-4c58-95ea-b838e15744df"},"vehicle_type_id":"4","last_reported":1752509615,"current_range_meters":19600,"station_id":"ce4bhbh2rcd13ifvqepg","pricing_plan_id":"cebpf4jnsgd1na2vs0mg"},{"bike_id":"a087ab4f-8a7f-43ec-bab5-8df0bc2f9583","system_id":"levelo_inurba_marseille","lat":43.28653,"lon":5.35125,"is_reserved":false,"is_disabled":false,"rental_uris":{"android":"levelo://app?vid=a087ab4f-8a7f-43ec-bab5-8df0bc2f9583","ios":"levelo://app?vid=a087ab4f-8a7f-43ec-bab5-8df0bc2f9583"},"vehicle_type_id":"4","last_reported":1752509615,"current_range_meters":19600,"station_id":"ce4bhch2rcd13ifvqeug","pricing_plan_id":"cebpf4jnsgd1na2vs0mg"},{"bike_id":"ed455b06-35a9-4b82-b291-2e5f8b6008f8","system_id":"levelo_inurba_marseille","lat":43.29261,"lon":5.3763,"is_reserved":false,"is_disabled":false,"rental_uris":{"android":"levelo://app?vid=ed455b06-35a9-4b82-b291-2e5f8b6008f8","ios":"levelo://app?vid=ed455b06-35a9-4b82-b291-2e5f8b6008f8"},"vehicle_type_id":"4","last_reported":1752509615,"current_range_meters":19600,"station_id":"ce4bgi12rcd13ifvqb80","pricing_plan_id":"cebpf4jnsgd1na2vs0mg"},{"bike_id":"ee1d25f1-03ae-4957-a451-0743be87bd63","system_id":"levelo_inurba_marseille","lat":43.29579,"lon":5.37507,"is_reserved":false,"is_disabled":false,"rental_uris":{"android":"levelo://app?vid=ee1d25f1-03ae-4957-a451-0743be87bd63","ios":"levelo://app?vid=ee1d25f1-03ae-4957-a451-0743be87bd63"},"vehicle_type_id":"4","last_reported":1752509615,"current_range_meters":20000,"station_id":"ce4bgh92rcd13ifvqb50","pricing_plan_id":"cebpf4jnsgd1na2vs0mg"},{"bike_id":"6beb11f7-ba90-458e-af4d-3a11cc8301d0","system_id":"levelo_inurba_marseille","lat":43.2814,"lon":5.42654,"is_reserved":false,"is_disabled":false,"rental_uris":{"android":"levelo://app?vid=6beb11f7-ba90-458e-af4d-3a11cc8301d0","ios":"levelo://app?vid=6beb11f7-ba90-458e-af4d-3a11cc8301d0"},"vehicle_type_id":"4","last_reported":1752509615,"current_range_meters":19600,"station_id":"ce4bhnh2rcd13ifvqgug","pricing_plan_id":"cebpf4jnsgd1na2vs0mg"},{"bike_id":"0d59d516-5bd5-444b-9c9f-3425b328b901","system_id":"levelo_inurba_marseille","lat":43.323582,"lon":5.367551,"is_reserved":false,"is_disabled":false,"rental_uris":{"android":"levelo://app?vid=0d59d516-5bd5-444b-9c9f-3425b328b901","ios":"levelo://app?vid=0d59d516-5bd5-444b-9c9f-3425b328b901"},"vehicle_type_id":"4","last_reported":1752509615,"current_range_meters":20000,"station_id":"ce4bhsh2rcd13ifvqi2g","pricing_plan_id":"cebpf4jnsgd1na2vs0mg"},{"bike_id":"efeebfb1-5b26-4b31-a566-27d1651f6fe5","system_id":"levelo_inurba_marseille","lat":43.30064,"lon":5.36483,"is_reserved":false,"is_disabled":false,"rental_uris":{"android":"levelo://app?vid=efeebfb1-5b26-4b31-a566-27d1651f6fe5","ios":"levelo://app?vid=efeebfb1-5b26-4b31-a566-27d1651f6fe5"},"vehicle_type_id":"4","last_reported":1752509615,"current_range_meters":20400,"station_id":"","pricing_plan_id":"cebpf4jnsgd1na2vs0mg"},{"bike_id":"edfe6ed1-73c7-41ab-9084-1d612d3b5e32","system_id":"levelo_inurba_marseille","lat":43.21743,"lon":5.34613,"is_reserved":false,"is_disabled":false,"rental_uris":{"android":"levelo://app?vid=edfe6ed1-73c7-41ab-9084-1d612d3b5e32","ios":"levelo://app?vid=edfe6ed1-73c7-41ab-9084-1d612d3b5e32"},"vehicle_type_id":"4","last_reported":1752509615,"current_range_meters":20000,"station_id":"","pricing_plan_id":"cebpf4jnsgd1na2vs0mg"},{"bike_id":"553697d0-2c29-488e-9b00-46e604fe98c9","system_id":"levelo_inurba_marseille","lat":43.27374,"lon":5.36254,"is_reserved":false,"is_disabled":false,"rental_uris":{"android":"levelo://app?vid=553697d0-2c29-488e-9b00-46e604fe98c9","ios":"levelo://app?vid=553697d0-2c29-488e-9b00-46e604fe98c9"},"vehicle_type_id":"4","last_reported":1752509615,"current_range_meters":20000,"station_id":"ce4bhbh2rcd13ifvqeo0","pricing_plan_id":"cebpf4jnsgd1na2vs0mg"},{"bike_id":"fff0fbc2-19b3-41dc-8015-5006903294b2","system_id":"levelo_inurba_marseille","lat":43.29529,"lon":5.37506,"is_reserved":false,"is_disabled":false,"rental_uris":{"android":"levelo://app?vid=fff0fbc2-19b3-41dc-8015-5006903294b2","ios":"levelo://app?vid=fff0fbc2-19b3-41dc-8015-5006903294b2"},"vehicle_type_id":"4","last_reported":1752509615,"current_range_meters":20400,"station_id":"ce4bgkp2rcd13ifvqbmg","pricing_plan_id":"cebpf4jnsgd1na2vs0mg"},{"bike_id":"a5ae9473-bf3c-4a56-b5b5-5bf815692452","system_id":"levelo_inurba_marseille","lat":43.28404,"lon":5.37526,"is_reserved":false,"is_disabled":false,"rental_uris":{"android":"levelo://app?vid=a5ae9473-bf3c-4a56-b5b5-5bf815692452","ios":"levelo://app?vid=a5ae9473-bf3c-4a56-b5b5-5bf815692452"},"vehicle_type_id":"4","last_reported":1752509615,"current_range_meters":20400,"station_id":"ce4bh412rcd13ifvqds0","pricing_plan_id":"cebpf4jnsgd1na2vs0mg"},{"bike_id":"8b38f4bf-23b2-4782-a2d7-59ae2cf09923","system_id":"levelo_inurba_marseille","lat":43.23191,"lon":5.35559,"is_reserved":false,"is_disabled":false,"rental_uris":{"android":"levelo://app?vid=8b38f4bf-23b2-4782-a2d7-59ae2cf09923","ios":"levelo://app?vid=8b38f4bf-23b2-4782-a2d7-59ae2cf09923"},"vehicle_type_id":"4","last_reported":1752509615,"current_range_meters":20400,"station_id":"ce4bhu92rcd13ifvqi70","pricing_plan_id":"cebpf4jnsgd1na2vs0mg"},{"bike_id":"202e7e2e-075f-420c-b3a2-8fce4649d1bc","system_id":"levelo_inurba_marseille","lat":43.28351,"lon":5.38117,"is_reserved":false,"is_disabled":true,"rental_uris":{"android":"levelo://app?vid=202e7e2e-075f-420c-b3a2-8fce4649d1bc","ios":"levelo://app?vid=202e7e2e-075f-420c-b3a2-8fce4649d1bc"},"vehicle_type_id":"4","last_reported":1752509615,"current_range_meters":20400,"station_id":"ce4bh412rcd13ifvqdr0","pricing_plan_id":"cebpf4jnsgd1na2vs0mg"},{"bike_id":"af50779f-da47-43ec-abf9-32258fb52021","system_id":"levelo_inurba_marseille","lat":43.29273,"lon":5.38436,"is_reserved":false,"is_disabled":false,"rental_uris":{"android":"levelo://app?vid=af50779f-da47-43ec-abf9-32258fb52021","ios":"levelo://app?vid=af50779f-da47-43ec-abf9-32258fb52021"},"vehicle_type_id":"4","last_reported":1752509615,"current_range_meters":20000,"station_id":"ce4bh692rcd13ifvqea0","pricing_plan_id":"cebpf4jnsgd1na2vs0mg"},{"bike_id":"da9c5884-26b5-4ba3-85b3-c0ad848ccaa4","system_id":"levelo_inurba_marseille","lat":43.28045,"lon":5.36947,"is_reserved":false,"is_disabled":false,"rental_uris":{"android":"levelo://app?vid=da9c5884-26b5-4ba3-85b3-c0ad848ccaa4","ios":"levelo://app?vid=da9c5884-26b5-4ba3-85b3-c0ad848ccaa4"},"vehicle_type_id":"4","last_reported":1752509615,"current_range_meters":20800,"station_id":"ce4bha12rcd13ifvqef0","pricing_plan_id":"cebpf4jnsgd1na2vs0mg"},{"bike_id":"2e5abae7-58e0-49bd-adf9-ff3293d6a43f","system_id":"levelo_inurba_marseille","lat":43.29367,"lon":5.3784,"is_reserved":false,"is_disabled":false,"rental_uris":{"android":"levelo://app?vid=2e5abae7-58e0-49bd-adf9-ff3293d6a43f","ios":"levelo://app?vid=2e5abae7-58e0-49bd-adf9-ff3293d6a43f"},"vehicle_type_id":"4","last_reported":1752509615,"current_range_meters":20800,"station_id":"ce4bgjh2rcd13ifvqbf0","pricing_plan_id":"cebpf4jnsgd1na2vs0mg"},{"bike_id":"467467bf-59e4-4d1e-a0be-fd10a33dbc1c","system_id":"levelo_inurba_marseille","lat":43.29068,"lon":5.37148,"is_reserved":false,"is_disabled":false,"rental_uris":{"android":"levelo://app?vid=467467bf-59e4-4d1e-a0be-fd10a33dbc1c","ios":"levelo://app?vid=467467bf-59e4-4d1e-a0be-fd10a33dbc1c"},"vehicle_type_id":"4","last_reported":1752509615,"current_range_meters":20800,"station_id":"ce4bh5p2rcd13ifvqe4g","pricing_plan_id":"cebpf4jnsgd1na2vs0mg"},{"bike_id":"3b764a9d-f1ce-479b-9f5c-ddb974e7a114","system_id":"levelo_inurba_marseille","lat":43.29068,"lon":5.3718,"is_reserved":false,"is_disabled":false,"rental_uris":{"android":"levelo://app?vid=3b764a9d-f1ce-479b-9f5c-ddb974e7a114","ios":"levelo://app?vid=3b764a9d-f1ce-479b-9f5c-ddb974e7a114"},"vehicle_type_id":"4","last_reported":1752509615,"current_range_meters":20800,"station_id":"ce4bh5p2rcd13ifvqe4g","pricing_plan_id":"cebpf4jnsgd1na2vs0mg"},{"bike_id":"cbad407c-7a8f-48d9-b864-90cb154d8b9b","system_id":"levelo_inurba_marseille","lat":43.2932,"lon":5.37207,"is_reserved":false,"is_disabled":false,"rental_uris":{"android":"levelo://app?vid=cbad407c-7a8f-48d9-b864-90cb154d8b9b","ios":"levelo://app?vid=cbad407c-7a8f-48d9-b864-90cb154d8b9b"},"vehicle_type_id":"4","last_reported":1752509615,"current_range_meters":21600,"station_id":"ce4bgh92rcd13ifvqb40","pricing_plan_id":"cebpf4jnsgd1na2vs0mg"},{"bike_id":"e1bef572-9337-4489-aaee-59e49e5df168","system_id":"levelo_inurba_marseille","lat":43.2873,"lon":5.3794,"is_reserved":false,"is_disabled":false,"rental_uris":{"android":"levelo://app?vid=e1bef572-9337-4489-aaee-59e49e5df168","ios":"levelo://app?vid=e1bef572-9337-4489-aaee-59e49e5df168"},"vehicle_type_id":"4","last_reported":1752509615,"current_range_meters":20800,"station_id":"ce4bh9p2rcd13ifvqec0","pricing_plan_id":"cebpf4jnsgd1na2vs0mg"},{"bike_id":"fab90a97-3891-4c17-8e9d-5d8503362846","system_id":"levelo_inurba_marseille","lat":43.28409,"lon":5.3499,"is_reserved":false,"is_disabled":false,"rental_uris":{"android":"levelo://app?vid=fab90a97-3891-4c17-8e9d-5d8503362846","ios":"levelo://app?vid=fab90a97-3891-4c17-8e9d-5d8503362846"},"vehicle_type_id":"4","last_reported":1752509615,"current_range_meters":21600,"station_id":"ce4bhbh2rcd13ifvqepg","pricing_plan_id":"cebpf4jnsgd1na2vs0mg"},{"bike_id":"9a7f9184-b3dc-4da4-a1bf-d0273983d1bb","system_id":"levelo_inurba_marseille","lat":43.27208,"lon":5.39176,"is_reserved":false,"is_disabled":false,"rental_uris":{"android":"levelo://app?vid=9a7f9184-b3dc-4da4-a1bf-d0273983d1bb","ios":"levelo://app?vid=9a7f9184-b3dc-4da4-a1bf-d0273983d1bb"},"vehicle_type_id":"4","last_reported":1752509615,"current_range_meters":21600,"station_id":"ce4bhhp2rcd13ifvqfm0","pricing_plan_id":"cebpf4jnsgd1na2vs0mg"},{"bike_id":"942ac89e-7e50-4351-aed2-d97e4b81d9a8","system_id":"levelo_inurba_marseille","lat":43.23187,"lon":5.35538,"is_reserved":false,"is_disabled":false,"rental_uris":{"android":"levelo://app?vid=942ac89e-7e50-4351-aed2-d97e4b81d9a8","ios":"levelo://app?vid=942ac89e-7e50-4351-aed2-d97e4b81d9a8"},"vehicle_type_id":"4","last_reported":1752509615,"current_range_meters":21600,"station_id":"ce4bhu92rcd13ifvqi70","pricing_plan_id":"cebpf4jnsgd1na2vs0mg"},{"bike_id":"730f4b7d-0201-4b2d-86e2-c091845ea1a6","system_id":"levelo_inurba_marseille","lat":43.282513,"lon":5.350531,"is_reserved":false,"is_disabled":false,"rental_uris":{"android":"levelo://app?vid=730f4b7d-0201-4b2d-86e2-c091845ea1a6","ios":"levelo://app?vid=730f4b7d-0201-4b2d-86e2-c091845ea1a6"},"vehicle_type_id":"4","last_reported":1752509615,"current_range_meters":21600,"station_id":"ce4bhbp2rcd13ifvqerg","pricing_plan_id":"cebpf4jnsgd1na2vs0mg"},{"bike_id":"69470280-c898-4c61-913d-814206528e10","system_id":"levelo_inurba_marseille","lat":43.2119,"lon":5.3507,"is_reserved":false,"is_disabled":false,"rental_uris":{"android":"levelo://app?vid=69470280-c898-4c61-913d-814206528e10","ios":"levelo://app?vid=69470280-c898-4c61-913d-814206528e10"},