{"last_updated":1752041832,"ttl":60,"version":"2.2","data":{"bikes":[{"bike_id":"cd20cfea-2f2f-444d-a882-a49b6cf370eb","system_id":"levelo_inurba_marseille","lat":43.337444,"lon":5.374475,"is_reserved":false,"is_disabled":true,"rental_uris":{"android":"levelo://app?vid=cd20cfea-2f2f-444d-a882-a49b6cf370eb","ios":"levelo://app?vid=cd20cfea-2f2f-444d-a882-a49b6cf370eb"},"vehicle_type_id":"4","last_reported":1752041833,"current_range_meters":0,"station_id":"","pricing_plan_id":"cebpf4jnsgd1na2vs0mg"},{"bike_id":"3da29fb8-fc97-44c6-b9ac-31dd456b2fd4","system_id":"levelo_inurba_marseille","lat":43.33771,"lon":5.37424,"is_reserved":false,"is_disabled":true,"rental_uris":{"android":"levelo://app?vid=3da29fb8-fc97-44c6-b9ac-31dd456b2fd4","ios":"levelo://app?vid=3da29fb8-fc97-44c6-b9ac-31dd456b2fd4"},"vehicle_type_id":"4","last_reported":1752041833,"current_range_meters":0,"station_id":"","pricing_plan_id":"cebpf4jnsgd1na2vs0mg"},{"bike_id":"01861ad8-a8d7-4be6-816e-651927c87584","system_id":"levelo_inurba_marseille","lat":43.33751,"lon":5.37456,"is_reserved":false,"is_disabled":true,"rental_uris":{"android":"levelo://app?vid=01861ad8-a8d7-4be6-816e-651927c87584","ios":"levelo://app?vid=01861ad8-a8d7-4be6-816e-651927c87584"},"vehicle_type_id":"4","last_reported":1752041833,"current_range_meters":0,"station_id":"","pricing_plan_id":"cebpf4jnsgd1na2vs0mg"},{"bike_id":"3d508917-55ee-42b6-894b-89c2a444dc06","system_id":"levelo_inurba_marseille","lat":43.33781,"lon":5.37487,"is_reserved":false,"is_disabled":true,"rental_uris":{"android":"levelo://app?vid=3d508917-55ee-42b6-894b-89c2a444dc06","ios":"levelo://app?vid=3d508917-55ee-42b6-894b-89c2a444dc06"},"vehicle_type_id":"4","last_reported":1752041833,"current_range_meters":0,"station_id":"","pricing_plan_id":"cebpf4jnsgd1na2vs0mg"},{"bike_id":"53b1a31e-8ada-40c0-8d64-113a81233c84","system_id":"levelo_inurba_marseille","lat":43.36411,"lon":5.3193,"is_reserved":false,"is_disabled":true,"rental_uris":{"android":"levelo://app?vid=53b1a31e-8ada-40c0-8d64-113a81233c84","ios":"levelo://app?vid=53b1a31e-8ada-40c0-8d64-113a81233c84"},"vehicle_type_id":"4","last_reported":1752041833,"current_range_meters":0,"station_id":"","pricing_plan_id":"cebpf4jnsgd1na2vs0mg"},{"bike_id":"58f55a5c-ed24-41a2-a2d7-e6fe4f18e0b2","system_id":"levelo_inurba_marseille","lat":43.301898,"lon":5.400382,"is_reserved":false,"is_disabled":true,"rental_uris":{"android":"levelo://app?vid=58f55a5c-ed24-41a2-a2d7-e6fe4f18e0b2","ios":"levelo://app?vid=58f55a5c-ed24-41a2-a2d7-e6fe4f18e0b2"},"vehicle_type_id":"4","last_reported":1752041833,"current_range_meters":0,"station_id":"","pricing_plan_id":"cebpf4jnsgd1na2vs0mg"},{"bike_id":"24cb9089-93ac-4b36-9d4e-b77f1a42140d","system_id":"levelo_inurba_marseille","lat":43.309029,"lon":5.368631,"is_reserved":false,"is_disabled":true,"rental_uris":{"android":"levelo://app?vid=24cb9089-93ac-4b36-9d4e-b77f1a42140d","ios":"levelo://app?vid=24cb9089-93ac-4b36-9d4e-b77f1a42140d"},"vehicle_type_id":"4","last_reported":1752041833,"current_range_meters":0,"station_id":"ce4bgn92rcd13ifvqbvg","pricing_plan_id":"cebpf4jnsgd1na2vs0mg"},{"bike_id":"d466258f-0750-4833-9b00-1af27f61abe1","system_id":"levelo_inurba_marseille","lat":43.292751,"lon":5.401481,"is_reserved":false,"is_disabled":true,"rental_uris":{"android":"levelo://app?vid=d466258f-0750-4833-9b00-1af27f61abe1","ios":"levelo://app?vid=d466258f-0750-4833-9b00-1af27f61abe1"},"vehicle_type_id":"4","last_reported":1752041833,"current_range_meters":0,"station_id":"ce4bh312rcd13ifvqdk0","pricing_plan_id":"cebpf4jnsgd1na2vs0mg"},{"bike_id":"b46ad819-e64b-454b-8826-dbe61468145f","system_id":"levelo_inurba_marseille","lat":43.292811,"lon":5.368427,"is_reserved":false,"is_disabled":true,"rental_uris":{"android":"levelo://app?vid=b46ad819-e64b-454b-8826-dbe61468145f","ios":"levelo://app?vid=b46ad819-e64b-454b-8826-dbe61468145f"},"vehicle_type_id":"4","last_reported":1752041833,"current_range_meters":0,"station_id":"ce4bhbp2rcd13ifvqesg","pricing_plan_id":"cebpf4jnsgd1na2vs0mg"},{"bike_id":"4c669e22-66d1-46c8-bdef-1d9d16b1f0c6","system_id":"levelo_inurba_marseille","lat":43.28619,"lon":5.35115,"is_reserved":false,"is_disabled":true,"rental_uris":{"android":"levelo://app?vid=4c669e22-66d1-46c8-bdef-1d9d16b1f0c6","ios":"levelo://app?vid=4c669e22-66d1-46c8-bdef-1d9d16b1f0c6"},"vehicle_type_id":"4","last_reported":1752041833,"current_range_meters":0,"station_id":"ce4bhch2rcd13ifvqeug","pricing_plan_id":"cebpf4jnsgd1na2vs0mg"},{"bike_id":"3b638e02-6a55-403d-b500-cc62d0041fbc","system_id":"levelo_inurba_marseille","lat":43.26937,"lon":5.38905,"is_reserved":false,"is_disabled":true,"rental_uris":{"android":"levelo://app?vid=3b638e02-6a55-403d-b500-cc62d0041fbc","ios":"levelo://app?vid=3b638e02-6a55-403d-b500-cc62d0041fbc"},"vehicle_type_id":"4","last_reported":1752041833,"current_range_meters":0,"station_id":"ce4bhhh2rcd13ifvqfl0","pricing_plan_id":"cebpf4jnsgd1na2vs0mg"},{"bike_id":"93ac6d2f-8069-4549-8599-b67272735a17","system_id":"levelo_inurba_marseille","lat":43.25108,"lon":5.40333,"is_reserved":false,"is_disabled":true,"rental_uris":{"android":"levelo://app?vid=93ac6d2f-8069-4549-8599-b67272735a17","ios":"levelo://app?vid=93ac6d2f-8069-4549-8599-b67272735a17"},"vehicle_type_id":"4","last_reported":1752041833,"current_range_meters":0,"station_id":"ce4bhlh2rcd13ifvqgig","pricing_plan_id":"cebpf4jnsgd1na2vs0mg"},{"bike_id":"7382c600-e780-4213-bcc8-74d46a001aff","system_id":"levelo_inurba_marseille","lat":43.2861,"lon":5.37064,"is_reserved":false,"is_disabled":true,"rental_uris":{"android":"levelo://app?vid=7382c600-e780-4213-bcc8-74d46a001aff","ios":"levelo://app?vid=7382c600-e780-4213-bcc8-74d46a001aff"},"vehicle_type_id":"4","last_reported":1752041833,"current_range_meters":0,"station_id":"ce4bht12rcd13ifvqi60","pricing_plan_id":"cebpf4jnsgd1na2vs0mg"},{"bike_id":"47cc12e9-1f9d-4b29-b948-db655857089a","system_id":"levelo_inurba_marseille","lat":43.22508,"lon":5.34778,"is_reserved":false,"is_disabled":true,"rental_uris":{"android":"levelo://app?vid=47cc12e9-1f9d-4b29-b948-db655857089a","ios":"levelo://app?vid=47cc12e9-1f9d-4b29-b948-db655857089a"},"vehicle_type_id":"4","last_reported":1752041833,"current_range_meters":0,"station_id":"st_cvj5dfep6f1abm77gieg","pricing_plan_id":"cebpf4jnsgd1na2vs0mg"},{"bike_id":"ed290504-6948-4f69-8584-2e2b0286febf","system_id":"levelo_inurba_marseille","lat":43.21197,"lon":5.35063,"is_reserved":false,"is_disabled":true,"rental_uris":{"android":"levelo://app?vid=ed290504-6948-4f69-8584-2e2b0286febf","ios":"levelo://app?vid=ed290504-6948-4f69-8584-2e2b0286febf"},"vehicle_type_id":"4","last_reported":1752041833,"current_range_meters":0,"station_id":"st_cvj6sg6p6f1abm77japg","pricing_plan_id":"cebpf4jnsgd1na2vs0mg"},{"bike_id":"6661cbd2-6ba2-4b46-b15e-1188df0f29d7","system_id":"levelo_inurba_marseille","lat":43.21196,"lon":5.35067,"is_reserved":false,"is_disabled":true,"rental_uris":{"android":"levelo://app?vid=6661cbd2-6ba2-4b46-b15e-1188df0f29d7","ios":"levelo://app?vid=6661cbd2-6ba2-4b46-b15e-1188df0f29d7"},"vehicle_type_id":"4","last_reported":1752041833,"current_range_meters":0,"station_id":"st_cvj6sg6p6f1abm77japg","pricing_plan_id":"cebpf4jnsgd1na2vs0mg"},{"bike_id":"3be2aa1e-35c6-4344-8ac4-1c4fd9ee2439","system_id":"levelo_inurba_marseille","lat":43.29368,"lon":5.37868,"is_reserved":false,"is_disabled":true,"rental_uris":{"android":"levelo://app?vid=3be2aa1e-35c6-4344-8ac4-1c4fd9ee2439","ios":"levelo://app?vid=3be2aa1e-35c6-4344-8ac4-1c4fd9ee2439"},"vehicle_type_id":"4","last_reported":1752041833,"current_range_meters":400,"station_id":"ce4bgjh2rcd13ifvqbf0","pricing_plan_id":"cebpf4jnsgd1na2vs0mg"},{"bike_id":"008e8804-2b69-4a2c-a93c-b87deb88b29b","system_id":"levelo_inurba_marseille","lat":43.30776,"lon":5.37651,"is_reserved":false,"is_disabled":true,"rental_uris":{"android":"levelo://app?vid=008e8804-2b69-4a2c-a93c-b87deb88b29b","ios":"levelo://app?vid=008e8804-2b69-4a2c-a93c-b87deb88b29b"},"vehicle_type_id":"4","last_reported":1752041833,"current_range_meters":800,"station_id":"ce4bgv92rcd13ifvqcq0","pricing_plan_id":"cebpf4jnsgd1na2vs0mg"},{"bike_id":"3bd28ea6-c11e-4485-99ab-fc257c6d16b9","system_id":"levelo_inurba_marseille","lat":43.291008,"lon":5.36887,"is_reserved":false,"is_disabled":true,"rental_uris":{"android":"levelo://app?vid=3bd28ea6-c11e-4485-99ab-fc257c6d16b9","ios":"levelo://app?vid=3bd28ea6-c11e-4485-99ab-fc257c6d16b9"},"vehicle_type_id":"4","last_reported":1752041833,"current_range_meters":800,"station_id":"ce4bhc92rcd13ifvqetg","pricing_plan_id":"cebpf4jnsgd1na2vs0mg"},{"bike_id":"8f6245d4-a3a7-4bbe-b339-ed1cd1bd0a9e","system_id":"levelo_inurba_marseille","lat":43.27228,"lon":5.39166,"is_reserved":false,"is_disabled":true,"rental_uris":{"android":"levelo://app?vid=8f6245d4-a3a7-4bbe-b339-ed1cd1bd0a9e","ios":"levelo://app?vid=8f6245d4-a3a7-4bbe-b339-ed1cd1bd0a9e"},"vehicle_type_id":"4","last_reported":1752041833,"current_range_meters":800,"station_id":"ce4bhhp2rcd13ifvqfm0","pricing_plan_id":"cebpf4jnsgd1na2vs0mg"},{"bike_id":"e562ad4e-a577-4b7b-a74e-7e00b9c0f52f","system_id":"levelo_inurba_marseille","lat":43.22504,"lon":5.3478,"is_reserved":false,"is_disabled":true,"rental_uris":{"android":"levelo://app?vid=e562ad4e-a577-4b7b-a74e-7e00b9c0f52f","ios":"levelo://app?vid=e562ad4e-a577-4b7b-a74e-7e00b9c0f52f"},"vehicle_type_id":"4","last_reported":1752041833,"current_range_meters":1200,"station_id":"st_cvj5dfep6f1abm77gieg","pricing_plan_id":"cebpf4jnsgd1na2vs0mg"},{"bike_id":"cef03ba1-bfe1-4492-b9ec-f1ba3ab96f5d","system_id":"levelo_inurba_marseille","lat":43.31288,"lon":5.40161,"is_reserved":false,"is_disabled":true,"rental_uris":{"android":"levelo://app?vid=cef03ba1-bfe1-4492-b9ec-f1ba3ab96f5d","ios":"levelo://app?vid=cef03ba1-bfe1-4492-b9ec-f1ba3ab96f5d"},"vehicle_type_id":"4","last_reported":1752041833,"current_range_meters":1600,"station_id":"ce4bh092rcd13ifvqd30","pricing_plan_id":"cebpf4jnsgd1na2vs0mg"},{"bike_id":"0d2a76dd-bbae-44be-8669-4f503228cb32","system_id":"levelo_inurba_marseille","lat":43.2817,"lon":5.42651,"is_reserved":false,"is_disabled":false,"rental_uris":{"android":"levelo://app?vid=0d2a76dd-bbae-44be-8669-4f503228cb32","ios":"levelo://app?vid=0d2a76dd-bbae-44be-8669-4f503228cb32"},"vehicle_type_id":"4","last_reported":1752041833,"current_range_meters":2800,"station_id":"ce4bhnh2rcd13ifvqgug","pricing_plan_id":"cebpf4jnsgd1na2vs0mg"},{"bike_id":"2bff9de0-dd27-4786-8c3a-ac93b8369f5d","system_id":"levelo_inurba_marseille","lat":43.217369,"lon":5.346124,"is_reserved":false,"is_disabled":false,"rental_uris":{"android":"levelo://app?vid=2bff9de0-dd27-4786-8c3a-ac93b8369f5d","ios":"levelo://app?vid=2bff9de0-dd27-4786-8c3a-ac93b8369f5d"},"vehicle_type_id":"4","last_reported":1752041833,"current_range_meters":2800,"station_id":"st_cvj6r9ubvosntc0bgbag","pricing_plan_id":"cebpf4jnsgd1na2vs0mg"},{"bike_id":"e97ee5c0-87e5-403c-92ed-929b14d6ff8f","system_id":"levelo_inurba_marseille","lat":43.28289,"lon":5.38497,"is_reserved":false,"is_disabled":false,"rental_uris":{"android":"levelo://app?vid=e97ee5c0-87e5-403c-92ed-929b14d6ff8f","ios":"levelo://app?vid=e97ee5c0-87e5-403c-92ed-929b14d6ff8f"},"vehicle_type_id":"4","last_reported":1752041833,"current_range_meters":3200,"station_id":"","pricing_plan_id":"cebpf4jnsgd1na2vs0mg"},{"bike_id":"7072a365-b73d-4286-b397-5b81adffab28","system_id":"levelo_inurba_marseille","lat":43.25485,"lon":5.37649,"is_reserved":false,"is_disabled":false,"rental_uris":{"android":"levelo://app?vid=7072a365-b73d-4286-b397-5b81adffab28","ios":"levelo://app?vid=7072a365-b73d-4286-b397-5b81adffab28"},"vehicle_type_id":"4","last_reported":1752041833,"current_range_meters":3600,"station_id":"ce4bhh12rcd13ifvqff0","pricing_plan_id":"cebpf4jnsgd1na2vs0mg"},{"bike_id":"9c1bd69a-4f3a-4c0e-8697-c82123592ba9","system_id":"levelo_inurba_marseille","lat":43.25504,"lon":5.37648,"is_reserved":false,"is_disabled":false,"rental_uris":{"android":"levelo://app?vid=9c1bd69a-4f3a-4c0e-8697-c82123592ba9","ios":"levelo://app?vid=9c1bd69a-4f3a-4c0e-8697-c82123592ba9"},"vehicle_type_id":"4","last_reported":1752041833,"current_range_meters":3600,"station_id":"ce4bhh12rcd13ifvqff0","pricing_plan_id":"cebpf4jnsgd1na2vs0mg"},{"bike_id":"3b22f952-d0bc-4c00-8fd3-7e27b88aea23","system_id":"levelo_inurba_marseille","lat":43.29659,"lon":5.36245,"is_reserved":false,"is_disabled":false,"rental_uris":{"android":"levelo://app?vid=3b22f952-d0bc-4c00-8fd3-7e27b88aea23","ios":"levelo://app?vid=3b22f952-d0bc-4c00-8fd3-7e27b88aea23"},"vehicle_type_id":"4","last_reported":1752041833,"current_range_meters":4000,"station_id":"","pricing_plan_id":"cebpf4jnsgd1na2vs0mg"},{"bike_id":"777ebe56-916e-4038-8308-54c4025b52fc","system_id":"levelo_inurba_marseille","lat":43.30889,"lon":5.39662,"is_reserved":false,"is_disabled":false,"rental_uris":{"android":"levelo://app?vid=777ebe56-916e-4038-8308-54c4025b52fc","ios":"levelo://app?vid=777ebe56-916e-4038-8308-54c4025b52fc"},"vehicle_type_id":"4","last_reported":1752041833,"current_range_meters":4000,"station_id":"ce4bh012rcd13ifvqcv0","pricing_plan_id":"cebpf4jnsgd1na2vs0mg"},{"bike_id":"37f2becd-23f9-4f13-a711-38b8024eeec7","system_id":"levelo_inurba_marseille","lat":43.33768,"lon":5.37516,"is_reserved":false,"is_disabled":false,"rental_uris":{"android":"levelo://app?vid=37f2becd-23f9-4f13-a711-38b8024eeec7","ios":"levelo://app?vid=37f2becd-23f9-4f13-a711-38b8024eeec7"},"vehicle_type_id":"4","last_reported":1752041833,"current_range_meters":4400,"station_id":"","pricing_plan_id":"cebpf4jnsgd1na2vs0mg"},{"bike_id":"c98d0307-3157-4a39-9409-864e8e505802","system_id":"levelo_inurba_marseille","lat":43.241571,"lon":5.393561,"is_reserved":false,"is_disabled":false,"rental_uris":{"android":"levelo://app?vid=c98d0307-3157-4a39-9409-864e8e505802","ios":"levelo://app?vid=c98d0307-3157-4a39-9409-864e8e505802"},"vehicle_type_id":"4","last_reported":1752041833,"current_range_meters":4400,"station_id":"","pricing_plan_id":"cebpf4jnsgd1na2vs0mg"},{"bike_id":"db9df4e2-8da2-4a2a-a589-f7f91ade2850","system_id":"levelo_inurba_marseille","lat":43.27943,"lon":5.4105,"is_reserved":false,"is_disabled":false,"rental_uris":{"android":"levelo://app?vid=db9df4e2-8da2-4a2a-a589-f7f91ade2850","ios":"levelo://app?vid=db9df4e2-8da2-4a2a-a589-f7f91ade2850"},"vehicle_type_id":"4","last_reported":1752041833,"current_range_meters":4400,"station_id":"ce4bhnp2rcd13ifvqh0g","pricing_plan_id":"cebpf4jnsgd1na2vs0mg"},{"bike_id":"14e7b21f-6a49-4bd8-adcb-9e2a34f46350","system_id":"levelo_inurba_marseille","lat":43.281179,"lon":5.398569,"is_reserved":false,"is_disabled":false,"rental_uris":{"android":"levelo://app?vid=14e7b21f-6a49-4bd8-adcb-9e2a34f46350","ios":"levelo://app?vid=14e7b21f-6a49-4bd8-adcb-9e2a34f46350"},"vehicle_type_id":"4","last_reported":1752041833,"current_range_meters":4800,"station_id":"","pricing_plan_id":"cebpf4jnsgd1na2vs0mg"},{"bike_id":"7b3d418c-296a-4af9-af69-24a1e55afdaa","system_id":"levelo_inurba_marseille","lat":43.32329,"lon":5.4061,"is_reserved":false,"is_disabled":false,"rental_uris":{"android":"levelo://app?vid=7b3d418c-296a-4af9-af69-24a1e55afdaa","ios":"levelo://app?vid=7b3d418c-296a-4af9-af69-24a1e55afdaa"},"vehicle_type_id":"4","last_reported":1752041833,"current_range_meters":4800,"station_id":"ce4bhq92rcd13ifvqhjg","pricing_plan_id":"cebpf4jnsgd1na2vs0mg"},{"bike_id":"affba3ff-f837-4fad-b5f7-83731e26ed63","system_id":"levelo_inurba_marseille","lat":43.27944,"lon":5.41064,"is_reserved":false,"is_disabled":false,"rental_uris":{"android":"levelo://app?vid=affba3ff-f837-4fad-b5f7-83731e26ed63","ios":"levelo://app?vid=affba3ff-f837-4fad-b5f7-83731e26ed63"},"vehicle_type_id":"4","last_reported":1752041833,"current_range_meters":5600,"station_id":"ce4bhnp2rcd13ifvqh0g","pricing_plan_id":"cebpf4jnsgd1na2vs0mg"},{"bike_id":"2c423baa-ecca-420a-87d7-ad0b7e0b9ebb","system_id":"levelo_inurba_marseille","lat":43.280386,"lon":5.3536,"is_reserved":false,"is_disabled":false,"rental_uris":{"android":"levelo://app?vid=2c423baa-ecca-420a-87d7-ad0b7e0b9ebb","ios":"levelo://app?vid=2c423baa-ecca-420a-87d7-ad0b7e0b9ebb"},"vehicle_type_id":"4","last_reported":1752041833,"current_range_meters":6000,"station_id":"","pricing_plan_id":"cebpf4jnsgd1na2vs0mg"},{"bike_id":"bcef6483-64fe-42a6-a47b-f30dede89a1d","system_id":"levelo_inurba_marseille","lat":43.299992,"lon":5.372346,"is_reserved":false,"is_disabled":false,"rental_uris":{"android":"levelo://app?vid=bcef6483-64fe-42a6-a47b-f30dede89a1d","ios":"levelo://app?vid=bcef6483-64fe-42a6-a47b-f30dede89a1d"},"vehicle_type_id":"4","last_reported":1752041833,"current_range_meters":6000,"station_id":"","pricing_plan_id":"cebpf4jnsgd1na2vs0mg"},{"bike_id":"93623ebb-0bbc-4cac-b943-11efc24003d9","system_id":"levelo_inurba_marseille","lat":43.29283,"lon":5.40151,"is_reserved":false,"is_disabled":false,"rental_uris":{"android":"levelo://app?vid=93623ebb-0bbc-4cac-b943-11efc24003d9","ios":"levelo://app?vid=93623ebb-0bbc-4cac-b943-11efc24003d9"},"vehicle_type_id":"4","last_reported":1752041833,"current_range_meters":6400,"station_id":"ce4bh312rcd13ifvqdk0","pricing_plan_id":"cebpf4jnsgd1na2vs0mg"},{"bike_id":"355e2ee3-6caa-4b86-bdc3-60788f70cd17","system_id":"levelo_inurba_marseille","lat":43.30488,"lon":5.37898,"is_reserved":false,"is_disabled":false,"rental_uris":{"android":"levelo://app?vid=355e2ee3-6caa-4b86-bdc3-60788f70cd17","ios":"levelo://app?vid=355e2ee3-6caa-4b86-bdc3-60788f70cd17"},"vehicle_type_id":"4","last_reported":1752041833,"current_range_meters":6800,"station_id":"ce4bgup2rcd13ifvqcn0","pricing_plan_id":"cebpf4jnsgd1na2vs0mg"},{"bike_id":"875279e3-64a0-4d49-a9f1-10ad8dbead85","system_id":"levelo_inurba_marseille","lat":43.286645,"lon":5.363487,"is_reserved":false,"is_disabled":false,"rental_uris":{"android":"levelo://app?vid=875279e3-64a0-4d49-a9f1-10ad8dbead85","ios":"levelo://app?vid=875279e3-64a0-4d49-a9f1-10ad8dbead85"},"vehicle_type_id":"4","last_reported":1752041833,"current_range_meters":6800,"station_id":"ce4bhah2rcd13ifvqej0","pricing_plan_id":"cebpf4jnsgd1na2vs0mg"},{"bike_id":"59df864a-9744-453c-b140-5862913ad3c4","system_id":"levelo_inurba_marseille","lat":43.26679,"lon":5.38272,"is_reserved":false,"is_disabled":false,"rental_uris":{"android":"levelo://app?vid=59df864a-9744-453c-b140-5862913ad3c4","ios":"levelo://app?vid=59df864a-9744-453c-b140-5862913ad3c4"},"vehicle_type_id":"4","last_reported":1752041833,"current_range_meters":6800,"station_id":"ce4bhg92rcd13ifvqf90","pricing_plan_id":"cebpf4jnsgd1na2vs0mg"},{"bike_id":"19c552da-55bc-46d8-97cb-d1fbabdad01a","system_id":"levelo_inurba_marseille","lat":43.21201,"lon":5.35058,"is_reserved":false,"is_disabled":false,"rental_uris":{"android":"levelo://app?vid=19c552da-55bc-46d8-97cb-d1fbabdad01a","ios":"levelo://app?vid=19c552da-55bc-46d8-97cb-d1fbabdad01a"},"vehicle_type_id":"4","last_reported":1752041833,"current_range_meters":6800,"station_id":"st_cvj6sg6p6f1abm77japg","pricing_plan_id":"cebpf4jnsgd1na2vs0mg"},{"bike_id":"2d35dc48-3bd7-438c-a084-02f211f03f2d","system_id":"levelo_inurba_marseille","lat":43.284124,"lon":5.349895,"is_reserved":false,"is_disabled":false,"rental_uris":{"android":"levelo://app?vid=2d35dc48-3bd7-438c-a084-02f211f03f2d","ios":"levelo://app?vid=2d35dc48-3bd7-438c-a084-02f211f03f2d"},"vehicle_type_id":"4","last_reported":1752041833,"current_range_meters":7200,"station_id":"ce4bhbh2rcd13ifvqepg","pricing_plan_id":"cebpf4jnsgd1na2vs0mg"},{"bike_id":"bf69e250-20b4-4c8f-9e57-13395abd74f8","system_id":"levelo_inurba_marseille","lat":43.25942,"lon":5.40901,"is_reserved":false,"is_disabled":false,"rental_uris":{"android":"levelo://app?vid=bf69e250-20b4-4c8f-9e57-13395abd74f8","ios":"levelo://app?vid=bf69e250-20b4-4c8f-9e57-13395abd74f8"},"vehicle_type_id":"4","last_reported":1752041833,"current_range_meters":7200,"station_id":"ce4bhm92rcd13ifvqglg","pricing_plan_id":"cebpf4jnsgd1na2vs0mg"},{"bike_id":"3c94d2c6-2996-41de-9e54-fa8af7df6912","system_id":"levelo_inurba_marseille","lat":43.21753,"lon":5.34594,"is_reserved":false,"is_disabled":false,"rental_uris":{"android":"levelo://app?vid=3c94d2c6-2996-41de-9e54-fa8af7df6912","ios":"levelo://app?vid=3c94d2c6-2996-41de-9e54-fa8af7df6912"},"vehicle_type_id":"4","last_reported":1752041833,"current_range_meters":7200,"station_id":"st_cvj6r9ubvosntc0bgbag","pricing_plan_id":"cebpf4jnsgd1na2vs0mg"},{"bike_id":"b74ef2ce-4c7c-4536-8f39-6180f46f4144","system_id":"levelo_inurba_marseille","lat":43.26957,"lon":5.38637,"is_reserved":false,"is_disabled":false,"rental_uris":{"android":"levelo://app?vid=b74ef2ce-4c7c-4536-8f39-6180f46f4144","ios":"levelo://app?vid=b74ef2ce-4c7c-4536-8f39-6180f46f4144"},"vehicle_type_id":"4","last_reported":1752041833,"current_range_meters":8000,"station_id":"ce4bhh92rcd13ifvqfh0","pricing_plan_id":"cebpf4jnsgd1na2vs0mg"},{"bike_id":"5f763c8f-ff66-4578-85a3-ac5f4a13df50","system_id":"levelo_inurba_marseille","lat":43.255818,"lon":5.382248,"is_reserved":false,"is_disabled":false,"rental_uris":{"android":"levelo://app?vid=5f763c8f-ff66-4578-85a3-ac5f4a13df50","ios":"levelo://app?vid=5f763c8f-ff66-4578-85a3-ac5f4a13df50"},"vehicle_type_id":"4","last_reported":1752041833,"current_range_meters":8000,"station_id":"ce4bhih2rcd13ifvqfs0","pricing_plan_id":"cebpf4jnsgd1na2vs0mg"},{"bike_id":"373f7154-05e4-4923-8d21-eb4b99691656","system_id":"levelo_inurba_marseille","lat":43.31525,"lon":5.38687,"is_reserved":false,"is_disabled":false,"rental_uris":{"android":"levelo://app?vid=373f7154-05e4-4923-8d21-eb4b99691656","ios":"levelo://app?vid=373f7154-05e4-4923-8d21-eb4b99691656"},"vehicle_type_id":"4","last_reported":1752041833,"current_range_meters":8400,"station_id":"","pricing_plan_id":"cebpf4jnsgd1na2vs0mg"},{"bike_id":"40cea72c-8cdf-4031-ab4e-ec6a7865603c","system_id":"levelo_inurba_marseille","lat":43.30157,"lon":5.38078,"is_reserved":false,"is_disabled":false,"rental_uris":{"android":"levelo://app?vid=40cea72c-8cdf-4031-ab4e-ec6a7865603c","ios":"levelo://app?vid=40cea72c-8cdf-4031-ab4e-ec6a7865603c"},"vehicle_type_id":"4","last_reported":1752041833,"current_range_meters":8400,"station_id":"ce4bgjp2rcd13ifvqbh0","pricing_plan_id":"cebpf4jnsgd1na2vs0mg"},{"bike_id":"eec24c15-78bc-49b5-84b1-44a4a0226ad1","system_id":"levelo_inurba_marseille","lat":43.32342,"lon":5.406078,"is_reserved":false,"is_disabled":false,"rental_uris":{"android":"levelo://app?vid=eec24c15-78bc-49b5-84b1-44a4a0226ad1","ios":"levelo://app?vid=eec24c15-78bc-49b5-84b1-44a4a0226ad1"},"vehicle_type_id":"4","last_reported":1752041833,"current_range_meters":8400,"station_id":"ce4bhq92rcd13ifvqhjg","pricing_plan_id":"cebpf4jnsgd1na2vs0mg"},{"bike_id":"90865668-79e0-43c8-afd9-c31a04f4f9fa","system_id":"levelo_inurba_marseille","lat":43.3211,"lon":5.36777,"is_reserved":false,"is_disabled":false,"rental_uris":{"android":"levelo://app?vid=90865668-79e0-43c8-afd9-c31a04f4f9fa","ios":"levelo://app?vid=90865668-79e0-43c8-afd9-c31a04f4f9fa"},"vehicle_type_id":"4","last_reported":1752041833,"current_range_meters":8400,"station_id":"ce4bhrh2rcd13ifvqhug","pricing_plan_id":"cebpf4jnsgd1na2vs0mg"},{"bike_id":"404758b3-8ec2-43e1-8efa-b856883c03d4","system_id":"levelo_inurba_marseille","lat":43.25816,"lon":5.39441,"is_reserved":false,"is_disabled":false,"rental_uris":{"android":"levelo://app?vid=404758b3-8ec2-43e1-8efa-b856883c03d4","ios":"levelo://app?vid=404758b3-8ec2-43e1-8efa-b856883c03d4"},"vehicle_type_id":"4","last_reported":1752041833,"current_range_meters":8800,"station_id":"ce4bhip2rcd13ifvqft0","pricing_plan_id":"cebpf4jnsgd1na2vs0mg"},{"bike_id":"3dd3967b-06d4-4ae5-9187-54082e6ff59e","system_id":"levelo_inurba_marseille","lat":43.30381,"lon":5.42476,"is_reserved":false,"is_disabled":false,"rental_uris":{"android":"levelo://app?vid=3dd3967b-06d4-4ae5-9187-54082e6ff59e","ios":"levelo://app?vid=3dd3967b-06d4-4ae5-9187-54082e6ff59e"},"vehicle_type_id":"4","last_reported":1752041833,"current_range_meters":8800,"station_id":"ce4bhoh2rcd13ifvqh6g","pricing_plan_id":"cebpf4jnsgd1na2vs0mg"},{"bike_id":"e54a69bc-634c-4579-91a1-2ea1e7521c68","system_id":"levelo_inurba_marseille","lat":43.30148,"lon":5.37217,"is_reserved":false,"is_disabled":false,"rental_uris":{"android":"levelo://app?vid=e54a69bc-634c-4579-91a1-2ea1e7521c68","ios":"levelo://app?vid=e54a69bc-634c-4579-91a1-2ea1e7521c68"},"vehicle_type_id":"4","last_reported":1752041833,"current_range_meters":9200,"station_id":"","pricing_plan_id":"cebpf4jnsgd1na2vs0mg"},{"bike_id":"888522e3-39b6-4ff3-ad74-ff6c6f771157","system_id":"levelo_inurba_marseille","lat":43.29502,"lon":5.40292,"is_reserved":false,"is_disabled":false,"rental_uris":{"android":"levelo://app?vid=888522e3-39b6-4ff3-ad74-ff6c6f771157","ios":"levelo://app?vid=888522e3-39b6-4ff3-ad74-ff6c6f771157"},"vehicle_type_id":"4","last_reported":1752041833,"current_range_meters":9200,"station_id":"","pricing_plan_id":"cebpf4jnsgd1na2vs0mg"},{"bike_id":"68131559-19c0-4fe3-9b0b-ee71ca00dce3","system_id":"levelo_inurba_marseille","lat":43.31371,"lon":5.36676,"is_reserved":false,"is_disabled":false,"rental_uris":{"android":"levelo://app?vid=68131559-19c0-4fe3-9b0b-ee71ca00dce3","ios":"levelo://app?vid=68131559-19c0-4fe3-9b0b-ee71ca00dce3"},"vehicle_type_id":"4","last_reported":1752041833,"current_range_meters":9200,"station_id":"ce4bgr92rcd13ifvqc6g","pricing_plan_id":"cebpf4jnsgd1na2vs0mg"},{"bike_id":"63a29694-4af7-4a38-a698-5b65cb87714a","system_id":"levelo_inurba_marseille","lat":43.320153,"lon":5.408332,"is_reserved":false,"is_disabled":false,"rental_uris":{"android":"levelo://app?vid=63a29694-4af7-4a38-a698-5b65cb87714a","ios":"levelo://app?vid=63a29694-4af7-4a38-a698-5b65cb87714a"},"vehicle_type_id":"4","last_reported":1752041833,"current_range_meters":9600,"station_id":"","pricing_plan_id":"cebpf4jnsgd1na2vs0mg"},{"bike_id":"5684280b-b6f1-45e8-9f10-d09e6ce41f2c","system_id":"levelo_inurba_marseille","lat":43.30155,"lon":5.38089,"is_reserved":false,"is_disabled":false,"rental_uris":{"android":"levelo://app?vid=5684280b-b6f1-45e8-9f10-d09e6ce41f2c","ios":"levelo://app?vid=5684280b-b6f1-45e8-9f10-d09e6ce41f2c"},"vehicle_type_id":"4","last_reported":1752041833,"current_range_meters":9600,"station_id":"ce4bgjp2rcd13ifvqbh0","pricing_plan_id":"cebpf4jnsgd1na2vs0mg"},{"bike_id":"6cde8caf-1756-453c-88e0-a2cf34da7410","system_id":"levelo_inurba_marseille","lat":43.31379,"lon":5.36707,"is_reserved":false,"is_disabled":false,"rental_uris":{"android":"levelo://app?vid=6cde8caf-1756-453c-88e0-a2cf34da7410","ios":"levelo://app?vid=6cde8caf-1756-453c-88e0-a2cf34da7410"},"vehicle_type_id":"4","last_reported":1752041833,"current_range_meters":9600,"station_id":"ce4bgr92rcd13ifvqc6g","pricing_plan_id":"cebpf4jnsgd1na2vs0mg"},{"bike_id":"538e1b05-e2a4-4a42-9bc7-7ddbe3e776fc","system_id":"levelo_inurba_marseille","lat":43.30779,"lon":5.37653,"is_reserved":false,"is_disabled":false,"rental_uris":{"android":"levelo://app?vid=538e1b05-e2a4-4a42-9bc7-7ddbe3e776fc","ios":"levelo://app?vid=538e1b05-e2a4-4a42-9bc7-7ddbe3e776fc"},"vehicle_type_id":"4","last_reported":1752041833,"current_range_meters":9600,"station_id":"ce4bgv92rcd13ifvqcq0","pricing_plan_id":"cebpf4jnsgd1na2vs0mg"},{"bike_id":"77c63ecf-8ec4-46ab-b695-3fed0ff0fb70","system_id":"levelo_inurba_marseille","lat":43.29919,"lon":5.43671,"is_reserved":false,"is_disabled":false,"rental_uris":{"android":"levelo://app?vid=77c63ecf-8ec4-46ab-b695-3fed0ff0fb70","ios":"levelo://app?vid=77c63ecf-8ec4-46ab-b695-3fed0ff0fb70"},"vehicle_type_id":"4","last_reported":1752041833,"current_range_meters":10000,"station_id":"","pricing_plan_id":"cebpf4jnsgd1na2vs0mg"},{"bike_id":"cc5e7b05-c8c1-4dbf-9203-2f3ace6f1f33","system_id":"levelo_inurba_marseille","lat":43.3113,"lon":5.37794,"is_reserved":false,"is_disabled":false,"rental_uris":{"android":"levelo://app?vid=cc5e7b05-c8c1-4dbf-9203-2f3ace6f1f33","ios":"levelo://app?vid=cc5e7b05-c8c1-4dbf-9203-2f3ace6f1f33"},"vehicle_type_id":"4","last_reported":1752041833,"current_range_meters":10000,"station_id":"ce4bgt92rcd13ifvqcg0","pricing_plan_id":"cebpf4jnsgd1na2vs0mg"},{"bike_id":"786d1f8e-48d7-45a6-98f0-0a0695f005c7","system_id":"levelo_inurba_marseille","lat":43.239596,"lon":5.366313,"is_reserved":false,"is_disabled":false,"rental_uris":{"android":"levelo://app?vid=786d1f8e-48d7-45a6-98f0-0a0695f005c7","ios":"levelo://app?vid=786d1f8e-48d7-45a6-98f0-0a0695f005c7"},"vehicle_type_id":"4","last_reported":1752041833,"current_range_meters":10000,"station_id":"ce4bhi12rcd13ifvqfp0","pricing_plan_id":"cebpf4jnsgd1na2vs0mg"},{"bike_id":"b287377f-3d0b-47ac-86fe-9e0dfc1563de","system_id":"levelo_inurba_marseille","lat":43.225018,"lon":5.347769,"is_reserved":false,"is_disabled":false,"rental_uris":{"android":"levelo://app?vid=b287377f-3d0b-47ac-86fe-9e0dfc1563de","ios":"levelo://app?vid=b287377f-3d0b-47ac-86fe-9e0dfc1563de"},"vehicle_type_id":"4","last_reported":1752041833,"current_range_meters":10000,"station_id":"st_cvj5dfep6f1abm77gieg","pricing_plan_id":"cebpf4jnsgd1na2vs0mg"},{"bike_id":"3030cb07-c041-4d87-a253-8c849c24aa85","system_id":"levelo_inurba_marseille","lat":43.32659,"lon":5.36236,"is_reserved":false,"is_disabled":false,"rental_uris":{"android":"levelo://app?vid=3030cb07-c041-4d87-a253-8c849c24aa85","ios":"levelo://app?vid=3030cb07-c041-4d87-a253-8c849c24aa85"},"vehicle_type_id":"4","last_reported":1752041833,"current_range_meters":10800,"station_id":"","pricing_plan_id":"cebpf4jnsgd1na2vs0mg"},{"bike_id":"6347088a-ef73-409e-9d06-7fa241fc897d","system_id":"levelo_inurba_marseille","lat":43.29266,"lon":5.36818,"is_reserved":false,"is_disabled":false,"rental_uris":{"android":"levelo://app?vid=6347088a-ef73-409e-9d06-7fa241fc897d","ios":"levelo://app?vid=6347088a-ef73-409e-9d06-7fa241fc897d"},"vehicle_type_id":"4","last_reported":1752041833,"current_range_meters":10800,"station_id":"ce4bhbp2rcd13ifvqesg","pricing_plan_id":"cebpf4jnsgd1na2vs0mg"},{"bike_id":"8f593218-9959-48be-83f8-d1c630536cf2","system_id":"levelo_inurba_marseille","lat":43.26777,"lon":5.39416,"is_reserved":false,"is_disabled":false,"rental_uris":{"android":"levelo://app?vid=8f593218-9959-48be-83f8-d1c630536cf2","ios":"levelo://app?vid=8f593218-9959-48be-83f8-d1c630536cf2"},"vehicle_type_id":"4","last_reported":1752041833,"current_range_meters":10800,"station_id":"ce4bhh12rcd13ifvqfg0","pricing_plan_id":"cebpf4jnsgd1na2vs0mg"},{"bike_id":"809e7d9f-b178-4700-bd01-939b3030627e","system_id":"levelo_inurba_marseille","lat":43.23202,"lon":5.39986,"is_reserved":false,"is_disabled":false,"rental_uris":{"android":"levelo://app?vid=809e7d9f-b178-4700-bd01-939b3030627e","ios":"levelo://app?vid=809e7d9f-b178-4700-bd01-939b3030627e"},"vehicle_type_id":"4","last_reported":1752041833,"current_range_meters":10800,"station_id":"ce4bhn12rcd13ifvqgqg","pricing_plan_id":"cebpf4jnsgd1na2vs0mg"},{"bike_id":"d5ef770d-9759-47e3-b3a5-7d2785ef76db","system_id":"levelo_inurba_marseille","lat":43.32929,"lon":5.39031,"is_reserved":false,"is_disabled":false,"rental_uris":{"android":"levelo://app?vid=d5ef770d-9759-47e3-b3a5-7d2785ef76db","ios":"levelo://app?vid=d5ef770d-9759-47e3-b3a5-7d2785ef76db"},"vehicle_type_id":"4","last_reported":1752041833,"current_range_meters":11200,"station_id":"","pricing_plan_id":"cebpf4jnsgd1na2vs0mg"},{"bike_id":"c2ee7d66-374b-44cd-b9d7-9ad64301293b","system_id":"levelo_inurba_marseille","lat":43.33777,"lon":5.37481,"is_reserved":false,"is_disabled":false,"rental_uris":{"android":"levelo://app?vid=c2ee7d66-374b-44cd-b9d7-9ad64301293b","ios":"levelo://app?vid=c2ee7d66-374b-44cd-b9d7-9ad64301293b"},"vehicle_type_id":"4","last_reported":1752041833,"current_range_meters":11200,"station_id":"","pricing_plan_id":"cebpf4jnsgd1na2vs0mg"},{"bike_id":"836e7d28-3f96-4f27-8c23-521fcfef5a41","system_id":"levelo_inurba_marseille","lat":43.29845,"lon":5.36276,"is_reserved":false,"is_disabled":false,"rental_uris":{"android":"levelo://app?vid=836e7d28-3f96-4f27-8c23-521fcfef5a41","ios":"levelo://app?vid=836e7d28-3f96-4f27-8c23-521fcfef5a41"},"vehicle_type_id":"4","last_reported":1752041833,"current_range_meters":11200,"station_id":"ce4bgpp2rcd13ifvqc3g","pricing_plan_id":"cebpf4jnsgd1na2vs0mg"},{"bike_id":"022ac58e-6617-4ea7-ba9b-476c69205b67","system_id":"levelo_inurba_marseille","lat":43.30217,"lon":5.36614,"is_reserved":false,"is_disabled":false,"rental_uris":{"android":"levelo://app?vid=022ac58e-6617-4ea7-ba9b-476c69205b67","ios":"levelo://app?vid=022ac58e-6617-4ea7-ba9b-476c69205b67"},"vehicle_type_id":"4","last_reported":1752041833,"current_range_meters":11200,"station_id":"ce4bgrh2rcd13ifvqc8g","pricing_plan_id":"cebpf4jnsgd1na2vs0mg"},{"bike_id":"a3fa2ff2-c756-42f8-a487-a74d438701d8","system_id":"levelo_inurba_marseille","lat":43.29277,"lon":5.40118,"is_reserved":false,"is_disabled":false,"rental_uris":{"android":"levelo://app?vid=a3fa2ff2-c756-42f8-a487-a74d438701d8","ios":"levelo://app?vid=a3fa2ff2-c756-42f8-a487-a74d438701d8"},"vehicle_type_id":"4","last_reported":1752041833,"current_range_meters":11200,"station_id":"ce4bh312rcd13ifvqdk0","pricing_plan_id":"cebpf4jnsgd1na2vs0mg"},{"bike_id":"2e99f32e-8abd-4330-afc3-231142f07449","system_id":"levelo_inurba_marseille","lat":43.289415,"lon":5.396456,"is_reserved":false,"is_disabled":false,"rental_uris":{"android":"levelo://app?vid=2e99f32e-8abd-4330-afc3-231142f07449","ios":"levelo://app?vid=2e99f32e-8abd-4330-afc3-231142f07449"},"vehicle_type_id":"4","last_reported":1752041833,"current_range_meters":11200,"station_id":"ce4bh3h2rcd13ifvqdn0","pricing_plan_id":"cebpf4jnsgd1na2vs0mg"},{"bike_id":"82f40aca-214c-480a-99d7-4df294448107","system_id":"levelo_inurba_marseille","lat":43.254895,"lon":5.376448,"is_reserved":false,"is_disabled":false,"rental_uris":{"android":"levelo://app?vid=82f40aca-214c-480a-99d7-4df294448107","ios":"levelo://app?vid=82f40aca-214c-480a-99d7-4df294448107"},"vehicle_type_id":"4","last_reported":1752041833,"current_range_meters":11200,"station_id":"ce4bhh12rcd13ifvqff0","pricing_plan_id":"cebpf4jnsgd1na2vs0mg"},{"bike_id":"bb29e41f-3292-49b1-a9fc-f6c4198e0b85","system_id":"levelo_inurba_marseille","lat":43.31094,"lon":5.4242,"is_reserved":false,"is_disabled":false,"rental_uris":{"android":"levelo://app?vid=bb29e41f-3292-49b1-a9fc-f6c4198e0b85","ios":"levelo://app?vid=bb29e41f-3292-49b1-a9fc-f6c4198e0b85"},"vehicle_type_id":"4","last_reported":1752041833,"current_range_meters":11200,"station_id":"ce4bhp92rcd13ifvqhag","pricing_plan_id":"cebpf4jnsgd1na2vs0mg"},{"bike_id":"2e28e98a-5eb3-4578-ab4d-b141de9daeaa","system_id":"levelo_inurba_marseille","lat":43.264907,"lon":5.395394,"is_reserved":false,"is_disabled":false,"rental_uris":{"android":"levelo://app?vid=2e28e98a-5eb3-4578-ab4d-b141de9daeaa","ios":"levelo://app?vid=2e28e98a-5eb3-4578-ab4d-b141de9daeaa"},"vehicle_type_id":"4","last_reported":1752041833,"current_range_meters":11600,"station_id":"","pricing_plan_id":"cebpf4jnsgd1na2vs0mg"},{"bike_id":"87c2d236-4978-4760-be77-27d7f5a212e4","system_id":"levelo_inurba_marseille","lat":43.29644,"lon":5.36205,"is_reserved":false,"is_disabled":false,"rental_uris":{"android":"levelo://app?vid=87c2d236-4978-4760-be77-27d7f5a212e4","ios":"levelo://app?vid=87c2d236-4978-4760-be77-27d7f5a212e4"},"vehicle_type_id":"4","last_reported":1752041833,"current_range_meters":11600,"station_id":"","pricing_plan_id":"cebpf4jnsgd1na2vs0mg"},{"bike_id":"6e06ce1c-2b83-453a-a15b-81f65dd6d223","system_id":"levelo_inurba_marseille","lat":43.29039,"lon":5.39952,"is_reserved":false,"is_disabled":false,"rental_uris":{"android":"levelo://app?vid=6e06ce1c-2b83-453a-a15b-81f65dd6d223","ios":"levelo://app?vid=6e06ce1c-2b83-453a-a15b-81f65dd6d223"},"vehicle_type_id":"4","last_reported":1752041833,"current_range_meters":11600,"station_id":"ce4bh392rcd13ifvqdm0","pricing_plan_id":"cebpf4jnsgd1na2vs0mg"},{"bike_id":"8935e67e-e377-4f20-b30d-fbcbd3d43af7","system_id":"levelo_inurba_marseille","lat":43.286143,"lon":5.351108,"is_reserved":false,"is_disabled":false,"rental_uris":{"android":"levelo://app?vid=8935e67e-e377-4f20-b30d-fbcbd3d43af7","ios":"levelo://app?vid=8935e67e-e377-4f20-b30d-fbcbd3d43af7"},"vehicle_type_id":"4","last_reported":1752041833,"current_range_meters":11600,"station_id":"ce4bhch2rcd13ifvqeug","pricing_plan_id":"cebpf4jnsgd1na2vs0mg"},{"bike_id":"f7cd5f0d-5ce5-4500-939e-17097e784d05","system_id":"levelo_inurba_marseille","lat":43.29616,"lon":5.40609,"is_reserved":false,"is_disabled":false,"rental_uris":{"android":"levelo://app?vid=f7cd5f0d-5ce5-4500-939e-17097e784d05","ios":"levelo://app?vid=f7cd5f0d-5ce5-4500-939e-17097e784d05"},"vehicle_type_id":"4","last_reported":1752041833,"current_range_meters":12000,"station_id":"ce4bh0h2rcd13ifvqd60","pricing_plan_id":"cebpf4jnsgd1na2vs0mg"},{"bike_id":"9a920a58-e7a3-4f66-8d15-b3a939b4782f","system_id":"levelo_inurba_marseille","lat":43.28932,"lon":5.39636,"is_reserved":false,"is_disabled":false,"rental_uris":{"android":"levelo://app?vid=9a920a58-e7a3-4f66-8d15-b3a939b4782f","ios":"levelo://app?vid=9a920a58-e7a3-4f66-8d15-b3a939b4782f"},"vehicle_type_id":"4","last_reported":1752041833,"current_range_meters":12000,"station_id":"ce4bh3h2rcd13ifvqdn0","pricing_plan_id":"cebpf4jnsgd1na2vs0mg"},{"bike_id":"3c78f3be-0595-4cde-ab3a-21eba194a66a","system_id":"levelo_inurba_marseille","lat":43.21739,"lon":5.34606,"is_reserved":false,"is_disabled":false,"rental_uris":{"android":"levelo://app?vid=3c78f3be-0595-4cde-ab3a-21eba194a66a","ios":"levelo://app?vid=3c78f3be-0595-4cde-ab3a-21eba194a66a"},"vehicle_type_id":"4","last_reported":1752041833,"current_range_meters":12400,"station_id":"","pricing_plan_id":"cebpf4jnsgd1na2vs0mg"},{"bike_id":"1c8173d2-54b7-41f3-ae62-351c5e33a753","system_id":"levelo_inurba_marseille","lat":43.29284,"lon":5.40118,"is_reserved":false,"is_disabled":false,"rental_uris":{"android":"levelo://app?vid=1c8173d2-54b7-41f3-ae62-351c5e33a753","ios":"levelo://app?vid=1c8173d2-54b7-41f3-ae62-351c5e33a753"},"vehicle_type_id":"4","last_reported":1752041833,"current_range_meters":12400,"station_id":"ce4bh312rcd13ifvqdk0","pricing_plan_id":"cebpf4jnsgd1na2vs0mg"},{"bike_id":"f919e3c6-7b66-42b9-bf37-89568feb5168","system_id":"levelo_inurba_marseille","lat":43.231472,"lon":5.437198,"is_reserved":false,"is_disabled":false,"rental_uris":{"android":"levelo://app?vid=f919e3c6-7b66-42b9-bf37-89568feb5168","ios":"levelo://app?vid=f919e3c6-7b66-42b9-bf37-89568feb5168"},"vehicle_type_id":"4","last_reported":1752041833,"current_range_meters":12400,"station_id":"ce4bhmp2rcd13ifvqgog","pricing_plan_id":"cebpf4jnsgd1na2vs0mg"},{"bike_id":"dfed5170-dd30-4c34-b10d-0827cb5726cb","system_id":"levelo_inurba_marseille","lat":43.231841,"lon":5.399776,"is_reserved":false,"is_disabled":false,"rental_uris":{"android":"levelo://app?vid=dfed5170-dd30-4c34-b10d-0827cb5726cb","ios":"levelo://app?vid=dfed5170-dd30-4c34-b10d-0827cb5726cb"},"vehicle_type_id":"4","last_reported":1752041833,"current_range_meters":12400,"station_id":"ce4bhn12rcd13ifvqgqg","pricing_plan_id":"cebpf4jnsgd1na2vs0mg"},{"bike_id":"a74d1421-7a37-499b-b1c4-5e1394842b7e","system_id":"levelo_inurba_marseille","lat":43.33712,"lon":5.39182,"is_reserved":false,"is_disabled":false,"rental_uris":{"android":"levelo://app?vid=a74d1421-7a37-499b-b1c4-5e1394842b7e","ios":"levelo://app?vid=a74d1421-7a37-499b-b1c4-5e1394842b7e"},"vehicle_type_id":"4","last_reported":1752041833,"current_range_meters":12400,"station_id":"ce4bhr92rcd13ifvqhsg","pricing_plan_id":"cebpf4jnsgd1na2vs0mg"},{"bike_id":"306ce1a6-757b-4897-8796-d879ee9a33eb","system_id":"levelo_inurba_marseille","lat":43.29278,"lon":5.40142,"is_reserved":false,"is_disabled":false,"rental_uris":{"android":"levelo://app?vid=306ce1a6-757b-4897-8796-d879ee9a33eb","ios":"levelo://app?vid=306ce1a6-757b-4897-8796-d879ee9a33eb"},"vehicle_type_id":"4","last_reported":1752041833,"current_range_meters":12800,"station_id":"ce4bh312rcd13ifvqdk0","pricing_plan_id":"cebpf4jnsgd1na2vs0mg"},{"bike_id":"ee3b268a-f5bf-413d-8421-48049331943d","system_id":"levelo_inurba_marseille","lat":43.24819,"lon":5.37445,"is_reserved":false,"is_disabled":false,"rental_uris":{"android":"levelo://app?vid=ee3b268a-f5bf-413d-8421-48049331943d","ios":"levelo://app?vid=ee3b268a-f5bf-413d-8421-48049331943d"},"vehicle_type_id":"4","last_reported":1752041833,"current_range_meters":12800,"station_id":"ce4bhgh2rcd13ifvqfb0","pricing_plan_id":"cebpf4jnsgd1na2vs0mg"},{"bike_id":"ca2bab86-416f-413e-81b0-5002099ee069","system_id":"levelo_inurba_marseille","lat":43.275728,"lon":5.420094,"is_reserved":false,"is_disabled":false,"rental_uris":{"android":"levelo://app?vid=ca2bab86-416f-413e-81b0-5002099ee069","ios":"levelo://app?vid=ca2bab86-416f-413e-81b0-5002099ee069"},"vehicle_type_id":"4","last_reported":1752041833,"current_range_meters":13600,"station_id":"","pricing_plan_id":"cebpf4jnsgd1na2vs0mg"},{"bike_id":"b8284de4-d4d5-4214-9a30-4b6f8987bfa6","system_id":"levelo_inurba_marseille","lat":43.30142,"lon":5.38068,"is_reserved":false,"is_disabled":false,"rental_uris":{"android":"levelo://app?vid=b8284de4-d4d5-4214-9a30-4b6f8987bfa6","ios":"levelo://app?vid=b8284de4-d4d5-4214-9a30-4b6f8987bfa6"},"vehicle_type_id":"4","last_reported":1752041833,"current_range_meters":13600,"station_id":"ce4bgjp2rcd13ifvqbh0","pricing_plan_id":"cebpf4jnsgd1na2vs0mg"},{"bike_id":"9959d7fa-4898-43a5-a1ec-b9fed544cad3","system_id":"levelo_inurba_marseille","lat":43.28435,"lon":5.34973,"is_reserved":false,"is_disabled":false,"rental_uris":{"android":"levelo://app?vid=9959d7fa-4898-43a5-a1ec-b9fed544cad3","ios":"levelo://app?vid=9959d7fa-4898-43a5-a1ec-b9fed544cad3"},"vehicle_type_id":"4","last_reported":1752041833,"current_range_meters":13600,"station_id":"ce4bhbh2rcd13ifvqepg","pricing_plan_id":"cebpf4jnsgd1na2vs0mg"},{"bike_id":"84e7e709-4e4f-4764-818c-af719435bfca","system_id":"levelo_inurba_marseille","lat":43.31673,"lon":5.37353,"is_reserved":false,"is_disabled":false,"rental_uris":{"android":"levelo://app?vid=84e7e709-4e4f-4764-818c-af719435bfca","ios":"levelo://app?vid=84e7e709-4e4f-4764-818c-af719435bfca"},"vehicle_type_id":"4","last_reported":1752041833,"current_range_meters":14000,"station_id":"","pricing_plan_id":"cebpf4jnsgd1na2vs0mg"},{"bike_id":"f9419474-2441-4020-98c2-46c5de68db26","system_id":"levelo_inurba_marseille","lat":43.29029,"lon":5.39968,"is_reserved":false,"is_disabled":false,"rental_uris":{"android":"levelo://app?vid=f9419474-2441-4020-98c2-46c5de68db26","ios":"levelo://app?vid=f9419474-2441-4020-98c2-46c5de68db26"},"vehicle_type_id":"4","last_reported":1752041833,"current_range_meters":14000,"station_id":"ce4bh392rcd13ifvqdm0","pricing_plan_id":"cebpf4jnsgd1na2vs0mg"},{"bike_id":"d9bce9ce-80e9-4ec6-8842-99ffb34a7a10","system_id":"levelo_inurba_marseille","lat":43.28939,"lon":5.36644,"is_reserved":false,"is_disabled":false,"rental_uris":{"android":"levelo://app?vid=d9bce9ce-80e9-4ec6-8842-99ffb34a7a10","ios":"levelo://app?vid=d9bce9ce-80e9-4ec6-8842-99ffb34a7a10"},"vehicle_type_id":"4","last_reported":1752041833,"current_range_meters":14000,"station_id":"ce4bhap2rcd13ifvqek0","pricing_plan_id":"cebpf4jnsgd1na2vs0mg"},{"bike_id":"3cf6f2b1-6c40-4c38-92e8-5f76dab34182","system_id":"levelo_inurba_marseille","lat":43.231859,"lon":5.399805,"is_reserved":false,"is_disabled":false,"rental_uris":{"android":"levelo://app?vid=3cf6f2b1-6c40-4c38-92e8-5f76dab34182","ios":"levelo://app?vid=3cf6f2b1-6c40-4c38-92e8-5f76dab34182"},"vehicle_type_id":"4","last_reported":1752041833,"current_range_meters":14400,"station_id":"ce4bhn12rcd13ifvqgqg","pricing_plan_id":"cebpf4jnsgd1na2vs0mg"},{"bike_id":"f91f3f14-4e8d-4c18-bc16-d010ae63ac5d","system_id":"levelo_inurba_marseille","lat":43.28155,"lon":5.42641,"is_reserved":false,"is_disabled":false,"rental_uris":{"android":"levelo://app?vid=f91f3f14-4e8d-4c18-bc16-d010ae63ac5d","ios":"levelo://app?vid=f91f3f14-4e8d-4c18-bc16-d010ae63ac5d"},"vehicle_type_id":"4","last_reported":1752041833,"current_range_meters":14400,"station_id":"ce4bhnh2rcd13ifvqgug","pricing_plan_id":"cebpf4jnsgd1na2vs0mg"},{"bike_id":"a5a1db4c-4dcc-46e5-a84f-c0fb8283b97a","system_id":"levelo_inurba_marseille","lat":43.24072,"lon":5.37746,"is_reserved":false,"is_disabled":false,"rental_uris":{"android":"levelo://app?vid=a5a1db4c-4dcc-46e5-a84f-c0fb8283b97a","ios":"levelo://app?vid=a5a1db4c-4dcc-46e5-a84f-c0fb8283b97a"},"vehicle_type_id":"4","last_reported":1752041833,"current_range_meters":14400,"station_id":"ce4bhnp2rcd13ifvqgvg","pricing_plan_id":"cebpf4jnsgd1na2vs0mg"},{"bike_id":"0699a0a5-c038-4462-bfff-bc18cec717c3","system_id":"levelo_inurba_marseille","lat":43.28439,"lon":5.39208,"is_reserved":false,"is_disabled":false,"rental_uris":{"android":"levelo://app?vid=0699a0a5-c038-4462-bfff-bc18cec717c3","ios":"levelo://app?vid=0699a0a5-c038-4462-bfff-bc18cec717c3"},"vehicle_type_id":"4","last_reported":1752041833,"current_range_meters":14400,"station_id":"ce4bhoh2rcd13ifvqh5g","pricing_plan_id":"cebpf4jnsgd1na2vs0mg"},{"bike_id":"cd812f06-3254-4dc4-bdab-94ecd7361d33","system_id":"levelo_inurba_marseille","lat":43.217438,"lon":5.346034,"is_reserved":false,"is_disabled":false,"rental_uris":{"android":"levelo://app?vid=cd812f06-3254-4dc4-bdab-94ecd7361d33","ios":"levelo://app?vid=cd812f06-3254-4dc4-bdab-94ecd7361d33"},"vehicle_type_id":"4","last_reported":1752041833,"current_range_meters":14400,"station_id":"st_cvj6r9ubvosntc0bgbag","pricing_plan_id":"cebpf4jnsgd1na2vs0mg"},{"bike_id":"d0f90c24-dd03-411b-9731-55305f76b7c8","system_id":"levelo_inurba_marseille","lat":43.21211,"lon":5.35068,"is_reserved":false,"is_disabled":false,"rental_uris":{"android":"levelo://app?vid=d0f90c24-dd03-411b-9731-55305f76b7c8","ios":"levelo://app?vid=d0f90c24-dd03-411b-9731-55305f76b7c8"},"vehicle_type_id":"4","last_reported":1752041833,"current_range_meters":14400,"station_id":"st_cvj6sg6p6f1abm77japg","pricing_plan_id":"cebpf4jnsgd1na2vs0mg"},{"bike_id":"82e934ba-a598-4bcc-85ae-7c81e56a3ff1","system_id":"levelo_inurba_marseille","lat":43.315773,"lon":5.388977,"is_reserved":false,"is_disabled":false,"rental_uris":{"android":"levelo://app?vid=82e934ba-a598-4bcc-85ae-7c81e56a3ff1","ios":"levelo://app?vid=82e934ba-a598-4bcc-85ae-7c81e56a3ff1"},"vehicle_type_id":"4","last_reported":1752041833,"current_range_meters":14800,"station_id":"","pricing_plan_id":"cebpf4jnsgd1na2vs0mg"},{"bike_id":"f187bca7-730c-495f-b36c-b985f85f6d76","system_id":"levelo_inurba_marseille","lat":43.2863,"lon":5.35098,"is_reserved":false,"is_disabled":false,"rental_uris":{"android":"levelo://app?vid=f187bca7-730c-495f-b36c-b985f85f6d76","ios":"levelo://app?vid=f187bca7-730c-495f-b36c-b985f85f6d76"},"vehicle_type_id":"4","last_reported":1752041833,"current_range_meters":14800,"station_id":"ce4bhch2rcd13ifvqeug","pricing_plan_id":"cebpf4jnsgd1na2vs0mg"},{"bike_id":"f573a8fb-f1f8-47c4-901e-ddf2739a5cca","system_id":"levelo_inurba_marseille","lat":43.36007,"lon":5.32496,"is_reserved":false,"is_disabled":false,"rental_uris":{"android":"levelo://app?vid=f573a8fb-f1f8-47c4-901e-ddf2739a5cca","ios":"levelo://app?vid=f573a8fb-f1f8-47c4-901e-ddf2739a5cca"},"vehicle_type_id":"4","last_reported":1752041833,"current_range_meters":15200,"station_id":"","pricing_plan_id":"cebpf4jnsgd1na2vs0mg"},{"bike_id":"c2b72fe0-bae6-4c7b-ad48-9e771b203dc8","system_id":"levelo_inurba_marseille","lat":43.313666,"lon":5.38477,"is_reserved":false,"is_disabled":false,"rental_uris":{"android":"levelo://app?vid=c2b72fe0-bae6-4c7b-ad48-9e771b203dc8","ios":"levelo://app?vid=c2b72fe0-bae6-4c7b-ad48-9e771b203dc8"},"vehicle_type_id":"4","last_reported":1752041833,"current_range_meters":15200,"station_id":"ce4bgt92rcd13ifvqcf0","pricing_plan_id":"cebpf4jnsgd1na2vs0mg"},{"bike_id":"b9968bf0-606f-41b4-bd44-9cc0db930208","system_id":"levelo_inurba_marseille","lat":43.30458,"lon":5.37904,"is_reserved":false,"is_disabled":false,"rental_uris":{"android":"levelo://app?vid=b9968bf0-606f-41b4-bd44-9cc0db930208","ios":"levelo://app?vid=b9968bf0-606f-41b4-bd44-9cc0db930208"},"vehicle_type_id":"4","last_reported":1752041833,"current_range_meters":15200,"station_id":"ce4bgup2rcd13ifvqcn0","pricing_plan_id":"cebpf4jnsgd1na2vs0mg"},{"bike_id":"b51c5649-ab10-420a-9d3d-4fd5a7ce2581","system_id":"levelo_inurba_marseille","lat":43.24662,"lon":5.38163,"is_reserved":false,"is_disabled":false,"rental_uris":{"android":"levelo://app?vid=b51c5649-ab10-420a-9d3d-4fd5a7ce2581","ios":"levelo://app?vid=b51c5649-ab10-420a-9d3d-4fd5a7ce2581"},"vehicle_type_id":"4","last_reported":1752041833,"current_range_meters":15200,"station_id":"ce4bhih2rcd13ifvqfr0","pricing_plan_id":"cebpf4jnsgd1na2vs0mg"},{"bike_id":"ac39d365-5643-4610-bf4b-0e5167a77f88","system_id":"levelo_inurba_marseille","lat":43.337244,"lon":5.391798,"is_reserved":false,"is_disabled":false,"rental_uris":{"android":"levelo://app?vid=ac39d365-5643-4610-bf4b-0e5167a77f88","ios":"levelo://app?vid=ac39d365-5643-4610-bf4b-0e5167a77f88"},"vehicle_type_id":"4","last_reported":1752041833,"current_range_meters":15200,"station_id":"ce4bhr92rcd13ifvqhsg","pricing_plan_id":"cebpf4jnsgd1na2vs0mg"},{"bike_id":"3bd8b8a3-512e-4c45-8839-c2f9349ff4ec","system_id":"levelo_inurba_marseille","lat":43.21757,"lon":5.34584,"is_reserved":false,"is_disabled":false,"rental_uris":{"android":"levelo://app?vid=3bd8b8a3-512e-4c45-8839-c2f9349ff4ec","ios":"levelo://app?vid=3bd8b8a3-512e-4c45-8839-c2f9349ff4ec"},"vehicle_type_id":"4","last_reported":1752041833,"current_range_meters":15200,"station_id":"st_cvj6r9ubvosntc0bgbag","pricing_plan_id":"cebpf4jnsgd1na2vs0mg"},{"bike_id":"4975b22d-8c48-452f-bd19-7a9d3ed7c378","system_id":"levelo_inurba_marseille","lat":43.29676,"lon":5.37424,"is_reserved":false,"is_disabled":false,"rental_uris":{"android":"levelo://app?vid=4975b22d-8c48-452f-bd19-7a9d3ed7c378","ios":"levelo://app?vid=4975b22d-8c48-452f-bd19-7a9d3ed7c378"},"vehicle_type_id":"4","last_reported":1752041833,"current_range_meters":16000,"station_id":"","pricing_plan_id":"cebpf4jnsgd1na2vs0mg"},{"bike_id":"72bcd877-c3e4-4392-b537-46ac61621dc3","system_id":"levelo_inurba_marseille","lat":43.296278,"lon":5.405909,"is_reserved":false,"is_disabled":false,"rental_uris":{"android":"levelo://app?vid=72bcd877-c3e4-4392-b537-46ac61621dc3","ios":"levelo://app?vid=72bcd877-c3e4-4392-b537-46ac61621dc3"},"vehicle_type_id":"4","last_reported":1752041833,"current_range_meters":16000,"station_id":"ce4bh0h2rcd13ifvqd60","pricing_plan_id":"cebpf4jnsgd1na2vs0mg"},{"bike_id":"4ab6a3b4-fd22-417c-9370-2ae4997aafff","system_id":"levelo_inurba_marseille","lat":43.29573,"lon":5.39959,"is_reserved":false,"is_disabled":false,"rental_uris":{"android":"levelo://app?vid=4ab6a3b4-fd22-417c-9370-2ae4997aafff","ios":"levelo://app?vid=4ab6a3b4-fd22-417c-9370-2ae4997aafff"},"vehicle_type_id":"4","last_reported":1752041833,"current_range_meters":16000,"station_id":"ce4bh312rcd13ifvqdj0","pricing_plan_id":"cebpf4jnsgd1na2vs0mg"},{"bike_id":"56eb3fdf-ea87-4fcf-85df-3680fa66363e","system_id":"levelo_inurba_marseille","lat":43.22509,"lon":5.34758,"is_reserved":false,"is_disabled":false,"rental_uris":{"android":"levelo://app?vid=56eb3fdf-ea87-4fcf-85df-3680fa66363e","ios":"levelo://app?vid=56eb3fdf-ea87-4fcf-85df-3680fa66363e"},"vehicle_type_id":"4","last_reported":1752041833,"current_range_meters":16000,"station_id":"st_cvj5dfep6f1abm77gieg","pricing_plan_id":"cebpf4jnsgd1na2vs0mg"},{"bike_id":"f5c16f07-bc6f-4121-91a7-5ad90eec4f34","system_id":"levelo_inurba_marseille","lat":43.31205,"lon":5.37325,"is_reserved":false,"is_disabled":false,"rental_uris":{"android":"levelo://app?vid=f5c16f07-bc6f-4121-91a7-5ad90eec4f34","ios":"levelo://app?vid=f5c16f07-bc6f-4121-91a7-5ad90eec4f34"},"vehicle_type_id":"4","last_reported":1752041833,"current_range_meters":16400,"station_id":"","pricing_plan_id":"cebpf4jnsgd1na2vs0mg"},{"bike_id":"0f562908-9d8a-497c-b2bd-20eaf3e93529","system_id":"levelo_inurba_marseille","lat":43.29272,"lon":5.40126,"is_reserved":false,"is_disabled":false,"rental_uris":{"android":"levelo://app?vid=0f562908-9d8a-497c-b2bd-20eaf3e93529","ios":"levelo://app?vid=0f562908-9d8a-497c-b2bd-20eaf3e93529"},"vehicle_type_id":"4","last_reported":1752041833,"current_range_meters":16400,"station_id":"ce4bh312rcd13ifvqdk0","pricing_plan_id":"cebpf4jnsgd1na2vs0mg"},{"bike_id":"8aaaaef3-c6c1-401c-8ba9-978ea48fb1fe","system_id":"levelo_inurba_marseille","lat":43.27166,"lon":5.40995,"is_reserved":false,"is_disabled":false,"rental_uris":{"android":"levelo://app?vid=8aaaaef3-c6c1-401c-8ba9-978ea48fb1fe","ios":"levelo://app?vid=8aaaaef3-c6c1-401c-8ba9-978ea48fb1fe"},"vehicle_type_id":"4","last_reported":1752041833,"current_range_meters":16400,"station_id":"ce4bhl12rcd13ifvqgf0","pricing_plan_id":"cebpf4jnsgd1na2vs0mg"},{"bike_id":"4aa77f41-7219-4866-8b46-ec65474dbfdf","system_id":"levelo_inurba_marseille","lat":43.27947,"lon":5.41045,"is_reserved":false,"is_disabled":false,"rental_uris":{"android":"levelo://app?vid=4aa77f41-7219-4866-8b46-ec65474dbfdf","ios":"levelo://app?vid=4aa77f41-7219-4866-8b46-ec65474dbfdf"},"vehicle_type_id":"4","last_reported":1752041833,"current_range_meters":16400,"station_id":"ce4bhnp2rcd13ifvqh0g","pricing_plan_id":"cebpf4jnsgd1na2vs0mg"},{"bike_id":"b757ffbb-2b71-4330-9f60-5f8a9d46d16e","system_id":"levelo_inurba_marseille","lat":43.296624,"lon":5.371259,"is_reserved":false,"is_disabled":false,"rental_uris":{"android":"levelo://app?vid=b757ffbb-2b71-4330-9f60-5f8a9d46d16e","ios":"levelo://app?vid=b757ffbb-2b71-4330-9f60-5f8a9d46d16e"},"vehicle_type_id":"4","last_reported":1752041833,"current_range_meters":16800,"station_id":"","pricing_plan_id":"cebpf4jnsgd1na2vs0mg"},{"bike_id":"b2caa530-bb19-4cc6-a6bd-61e3e1d7432e","system_id":"levelo_inurba_marseille","lat":43.33763,"lon":5.37461,"is_reserved":false,"is_disabled":false,"rental_uris":{"android":"levelo://app?vid=b2caa530-bb19-4cc6-a6bd-61e3e1d7432e","ios":"levelo://app?vid=b2caa530-bb19-4cc6-a6bd-61e3e1d7432e"},"vehicle_type_id":"4","last_reported":1752041833,"current_range_meters":16800,"station_id":"","pricing_plan_id":"cebpf4jnsgd1na2vs0mg"},{"bike_id":"c65bb56a-21f1-4676-bde0-3122778b5462","system_id":"levelo_inurba_marseille","lat":43.29924,"lon":5.40381,"is_reserved":false,"is_disabled":false,"rental_uris":{"android":"levelo://app?vid=c65bb56a-21f1-4676-bde0-3122778b5462","ios":"levelo://app?vid=c65bb56a-21f1-4676-bde0-3122778b5462"},"vehicle_type_id":"4","last_reported":1752041833,"current_range_meters":16800,"station_id":"","pricing_plan_id":"cebpf4jnsgd1na2vs0mg"},{"bike_id":"eac2a76f-3ab9-4651-8819-d50f829b07b7","system_id":"levelo_inurba_marseille","lat":43.28477,"lon":5.38423,"is_reserved":false,"is_disabled":false,"rental_uris":{"android":"levelo://app?vid=eac2a76f-3ab9-4651-8819-d50f829b07b7","ios":"levelo://app?vid=eac2a76f-3ab9-4651-8819-d50f829b07b7"},"vehicle_type_id":"4","last_reported":1752041833,"current_range_meters":16800,"station_id":"ce4bh512rcd13ifvqe3g","pricing_plan_id":"cebpf4jnsgd1na2vs0mg"},{"bike_id":"b28aa0a0-791c-4a08-9a16-c7bf6ea0ed5a","system_id":"levelo_inurba_marseille","lat":43.22519,"lon":5.34779,"is_reserved":false,"is_disabled":false,"rental_uris":{"android":"levelo://app?vid=b28aa0a0-791c-4a08-9a16-c7bf6ea0ed5a","ios":"levelo://app?vid=b28aa0a0-791c-4a08-9a16-c7bf6ea0ed5a"},"vehicle_type_id":"4","last_reported":1752041833,"current_range_meters":16800,"station_id":"st_cvj5dfep6f1abm77gieg","pricing_plan_id":"cebpf4jnsgd1na2vs0mg"},{"bike_id":"697d5fc4-b988-4a4e-8323-c1ce5ed61a61","system_id":"levelo_inurba_marseille","lat":43.211886,"lon":5.350709,"is_reserved":false,"is_disabled":false,"rental_uris":{"android":"levelo://app?vid=697d5fc4-b988-4a4e-8323-c1ce5ed61a61","ios":"levelo://app?vid=697d5fc4-b988-4a4e-8323-c1ce5ed61a61"},"vehicle_type_id":"4","last_reported":1752041833,"current_range_meters":16800,"station_id":"st_cvj6sg6p6f1abm77japg","pricing_plan_id":"cebpf4jnsgd1na2vs0mg"},{"bike_id":"b6d9b946-f66a-4c6f-96e5-5d23e176360c","system_id":"levelo_inurba_marseille","lat":43.31315,"lon":5.38172,"is_reserved":false,"is_disabled":false,"rental_uris":{"android":"levelo://app?vid=b6d9b946-f66a-4c6f-96e5-5d23e176360c","ios":"levelo://app?vid=b6d9b946-f66a-4c6f-96e5-5d23e176360c"},"vehicle_type_id":"4","last_reported":1752041833,"current_range_meters":17200,"station_id":"","pricing_plan_id":"cebpf4jnsgd1na2vs0mg"},{"bike_id":"93d6be08-2471-48d7-9948-c35dc9626201","system_id":"levelo_inurba_marseille","lat":43.31714,"lon":5.37647,"is_reserved":false,"is_disabled":false,"rental_uris":{"android":"levelo://app?vid=93d6be08-2471-48d7-9948-c35dc9626201","ios":"levelo://app?vid=93d6be08-2471-48d7-9948-c35dc9626201"},"vehicle_type_id":"4","last_reported":1752041833,"current_range_meters":17200,"station_id":"","pricing_plan_id":"cebpf4jnsgd1na2vs0mg"},{"bike_id":"09336cd1-7b2f-46b8-ac6e-85b310d42b0a","system_id":"levelo_inurba_marseille","lat":43.29354,"lon":5.42839,"is_reserved":false,"is_disabled":false,"rental_uris":{"android":"levelo://app?vid=09336cd1-7b2f-46b8-ac6e-85b310d42b0a","ios":"levelo://app?vid=09336cd1-7b2f-46b8-ac6e-85b310d42b0a"},"vehicle_type_id":"4","last_reported":1752041833,"current_range_meters":17200,"station_id":"","pricing_plan_id":"cebpf4jnsgd1na2vs0mg"},{"bike_id":"3f1e9d59-ce0c-4e36-b34c-4d1bfacdc625","system_id":"levelo_inurba_marseille","lat":43.29851,"lon":5.36284,"is_reserved":false,"is_disabled":false,"rental_uris":{"android":"levelo://app?vid=3f1e9d59-ce0c-4e36-b34c-4d1bfacdc625","ios":"levelo://app?vid=3f1e9d59-ce0c-4e36-b34c-4d1bfacdc625"},"vehicle_type_id":"4","last_reported":1752041833,"current_range_meters":17200,"station_id":"ce4bgpp2rcd13ifvqc3g","pricing_plan_id":"cebpf4jnsgd1na2vs0mg"},{"bike_id":"6e5c2657-ccb8-4153-8b94-2143bc427a03","system_id":"levelo_inurba_marseille","lat":43.22503,"lon":5.34771,"is_reserved":false,"is_disabled":false,"rental_uris":{"android":"levelo://app?vid=6e5c2657-ccb8-4153-8b94-2143bc427a03","ios":"levelo://app?vid=6e5c2657-ccb8-4153-8b94-2143bc427a03"},"vehicle_type_id":"4","last_reported":1752041833,"current_range_meters":17200,"station_id":"st_cvj5dfep6f1abm77gieg","pricing_plan_id":"cebpf4jnsgd1na2vs0mg"},{"bike_id":"1be39311-cfa5-4cbb-b93d-fb0870d6e611","system_id":"levelo_inurba_marseille","lat":43.21189,"lon":5.35084,"is_reserved":false,"is_disabled":false,"rental_uris":{"android":"levelo://app?vid=1be39311-cfa5-4cbb-b93d-fb0870d6e611","ios":"levelo://app?vid=1be39311-cfa5-4cbb-b93d-fb0870d6e611"},"vehicle_type_id":"4","last_reported":1752041833,"current_range_meters":17200,"station_id":"st_cvj6sg6p6f1abm77japg","pricing_plan_id":"cebpf4jnsgd1na2vs0mg"},{"bike_id":"b13ed547-02c0-476f-81f2-04a537366c90","system_id":"levelo_inurba_marseille","lat":43.29006,"lon":5.35605,"is_reserved":false,"is_disabled":false,"rental_uris":{"android":"levelo://app?vid=b13ed547-02c0-476f-81f2-04a537366c90","ios":"levelo://app?vid=b13ed547-02c0-476f-81f2-04a537366c90"},"vehicle_type_id":"4","last_reported":1752041833,"current_range_meters":17600,"station_id":"ce4bhb92rcd13ifvqen0","pricing_plan_id":"cebpf4jnsgd1na2vs0mg"},{"bike_id":"999f2a33-af15-4ca0-853a-d2550f2d6574","system_id":"levelo_inurba_marseille","lat":43.23446,"lon":5.35904,"is_reserved":false,"is_disabled":false,"rental_uris":{"android":"levelo://app?vid=999f2a33-af15-4ca0-853a-d2550f2d6574","ios":"levelo://app?vid=999f2a33-af15-4ca0-853a-d2550f2d6574"},"vehicle_type_id":"4","last_reported":1752041833,"current_range_meters":18000,"station_id":"","pricing_plan_id":"cebpf4jnsgd1na2vs0mg"},{"bike_id":"320f2a33-deaa-4e0a-a3d5-c39ce8ad680a","system_id":"levelo_inurba_marseille","lat":43.315661,"lon":5.374531,"is_reserved":false,"is_disabled":false,"rental_uris":{"android":"levelo://app?vid=320f2a33-deaa-4e0a-a3d5-c39ce8ad680a","ios":"levelo://app?vid=320f2a33-deaa-4e0a-a3d5-c39ce8ad680a"},"vehicle_type_id":"4","last_reported":1752041833,"current_range_meters":18000,"station_id":"","pricing_plan_id":"cebpf4jnsgd1na2vs0mg"},{"bike_id":"eef00c91-8af9-4792-820d-391370191427","system_id":"levelo_inurba_marseille","lat":43.30521,"lon":5.36546,"is_reserved":false,"is_disabled":false,"rental_uris":{"android":"levelo://app?vid=eef00c91-8af9-4792-820d-391370191427","ios":"levelo://app?vid=eef00c91-8af9-4792-820d-391370191427"},"vehicle_type_id":"4","last_reported":1752041833,"current_range_meters":18000,"station_id":"","pricing_plan_id":"cebpf4jnsgd1na2vs0mg"},{"bike_id":"a443e824-b364-4874-850c-3d51c9448eb3","system_id":"levelo_inurba_marseille","lat":43.309077,"lon":5.368427,"is_reserved":false,"is_disabled":false,"rental_uris":{"android":"levelo://app?vid=a443e824-b364-4874-850c-3d51c9448eb3","ios":"levelo://app?vid=a443e824-b364-4874-850c-3d51c9448eb3"},"vehicle_type_id":"4","last_reported":1752041833,"current_range_meters":18000,"station_id":"ce4bgn92rcd13ifvqbvg","pricing_plan_id":"cebpf4jnsgd1na2vs0mg"},{"bike_id":"b7bd0a60-0d63-49eb-b04b-3c6e4ea787e2","system_id":"levelo_inurba_marseille","lat":43.28622,"lon":5.35095,"is_reserved":false,"is_disabled":false,"rental_uris":{"android":"levelo://app?vid=b7bd0a60-0d63-49eb-b04b-3c6e4ea787e2","ios":"levelo://app?vid=b7bd0a60-0d63-49eb-b04b-3c6e4ea787e2"},"vehicle_type_id":"4","last_reported":1752041833,"current_range_meters":18000,"station_id":"ce4bhch2rcd13ifvqeug","pricing_plan_id":"cebpf4jnsgd1na2vs0mg"},{"bike_id":"ccaac857-5d62-4272-ae0d-f165af332526","system_id":"levelo_inurba_marseille","lat":43.264996,"lon":5.395424,"is_reserved":false,"is_disabled":false,"rental_uris":{"android":"levelo://app?vid=ccaac857-5d62-4272-ae0d-f165af332526","ios":"levelo://app?vid=ccaac857-5d62-4272-ae0d-f165af332526"},"vehicle_type_id":"4","last_reported":1752041833,"current_range_meters":18000,"station_id":"ce4bhi12rcd13ifvqfq0","pricing_plan_id":"cebpf4jnsgd1na2vs0mg"},{"bike_id":"7a305d51-5742-4308-b8f1-f89a7aed6968","system_id":"levelo_inurba_marseille","lat":43.32363,"lon":5.36754,"is_reserved":false,"is_disabled":false,"rental_uris":{"android":"levelo://app?vid=7a305d51-5742-4308-b8f1-f89a7aed6968","ios":"levelo://app?vid=7a305d51-5742-4308-b8f1-f89a7aed6968"},"vehicle_type_id":"4","last_reported":1752041833,"current_range_meters":18000,"station_id":"ce4bhsh2rcd13ifvqi2g","pricing_plan_id":"cebpf4jnsgd1na2vs0mg"},{"bike_id":"c0735136-e0f1-410b-b7bc-03f3deffba27","system_id":"levelo_inurba_marseille","lat":43.21764,"lon":5.34603,"is_reserved":false,"is_disabled":false,"rental_uris":{"android":"levelo://app?vid=c0735136-e0f1-410b-b7bc-03f3deffba27","ios":"levelo://app?vid=c0735136-e0f1-410b-b7bc-03f3deffba27"},"vehicle_type_id":"4","last_reported":1752041833,"current_range_meters":18000,"station_id":"st_cvj6r9ubvosntc0bgbag","pricing_plan_id":"cebpf4jnsgd1na2vs0mg"},{"bike_id":"f6fcf109-5912-48a8-8750-f8f2acbba52a","system_id":"levelo_inurba_marseille","lat":43.30465,"lon":5.37917,"is_reserved":false,"is_disabled":false,"rental_uris":{"android":"levelo://app?vid=f6fcf109-5912-48a8-8750-f8f2acbba52a","ios":"levelo://app?vid=f6fcf109-5912-48a8-8750-f8f2acbba52a"},"vehicle_type_id":"4","last_reported":1752041833,"current_range_meters":18800,"station_id":"ce4bgup2rcd13ifvqcn0","pricing_plan_id":"cebpf4jnsgd1na2vs0mg"},{"bike_id":"a61aa1db-999e-4f11-85fc-d60f287af5d4","system_id":"levelo_inurba_marseille","lat":43.282694,"lon":5.350765,"is_reserved":false,"is_disabled":false,"rental_uris":{"android":"levelo://app?vid=a61aa1db-999e-4f11-85fc-d60f287af5d4","ios":"levelo://app?vid=a61aa1db-999e-4f11-85fc-d60f287af5d4"},"vehicle_type_id":"4","last_reported":1752041833,"current_range_meters":18800,"station_id":"ce4bhbp2rcd13ifvqerg","pricing_plan_id":"cebpf4jnsgd1na2vs0mg"},{"bike_id":"cdfae6a4-7eb8-400a-91ee-f073cbb72d45","system_id":"levelo_inurba_marseille","lat":43.25579,"lon":5.3824,"is_reserved":false,"is_disabled":false,"rental_uris":{"android":"levelo://app?vid=cdfae6a4-7eb8-400a-91ee-f073cbb72d45","ios":"levelo://app?vid=cdfae6a4-7eb8-400a-91ee-f073cbb72d45"},"vehicle_type_id":"4","last_reported":1752041833,"current_range_meters":18800,"station_id":"ce4bhih2rcd13ifvqfs0","pricing_plan_id":"cebpf4jnsgd1na2vs0mg"},{"bike_id":"032a14ce-e367-40e6-a795-74d0ad4487ac","system_id":"levelo_inurba_marseille","lat":43.25936,"lon":5.40904,"is_reserved":false,"is_disabled":false,"rental_uris":{"android":"levelo://app?vid=032a14ce-e367-40e6-a795-74d0ad4487ac","ios":"levelo://app?vid=032a14ce-e367-40e6-a795-74d0ad4487ac"},"vehicle_type_id":"4","last_reported":1752041833,"current_range_meters":18800,"station_id":"ce4bhm92rcd13ifvqglg","pricing_plan_id":"cebpf4jnsgd1na2vs0mg"},{"bike_id":"40fa92fc-f934-431e-b290-17833f63b829","system_id":"levelo_inurba_marseille","lat":43.23198,"lon":5.3555,"is_reserved":false,"is_disabled":false,"rental_uris":{"android":"levelo://app?vid=40fa92fc-f934-431e-b290-17833f63b829","ios":"levelo://app?vid=40fa92fc-f934-431e-b290-17833f63b829"},"vehicle_type_id":"4","last_reported":1752041833,"current_range_meters":18800,"station_id":"ce4bhu92rcd13ifvqi70","pricing_plan_id":"cebpf4jnsgd1na2vs0mg"},{"bike_id":"b189459c-f21e-4428-a78c-19981ce9bbf6","system_id":"levelo_inurba_marseille","lat":43.231982,"lon":5.355563,"is_reserved":false,"is_disabled":false,"rental_uris":{"android":"levelo://app?vid=b189459c-f21e-4428-a78c-19981ce9bbf6","ios":"levelo://app?vid=b189459c-f21e-4428-a78c-19981ce9bbf6"},"vehicle_type_id":"4","last_reported":1752041833,"current_range_meters":18800,"station_id":"ce4bhu92rcd13ifvqi70","pricing_plan_id":"cebpf4jnsgd1na2vs0mg"},{"bike_id":"43a2a4bc-5636-47c2-abb9-1dec6e67304f","system_id":"levelo_inurba_marseille","lat":43.29395,"lon":5.38607,"is_reserved":false,"is_disabled":false,"rental_uris":{"android":"levelo://app?vid=43a2a4bc-5636-47c2-abb9-1dec6e67304f","ios":"levelo://app?vid=43a2a4bc-5636-47c2-abb9-1dec6e67304f"},"vehicle_type_id":"4","last_reported":1752041833,"current_range_meters":19200,"station_id":"ce4bh2h2rcd13ifvqdh0","pricing_plan_id":"cebpf4jnsgd1na2vs0mg"},{"bike_id":"0dde599a-9e49-4424-bf17-46b64f156432","system_id":"levelo_inurba_marseille","lat":43.240755,"lon":5.377571,"is_reserved":false,"is_disabled":false,"rental_uris":{"android":"levelo://app?vid=0dde599a-9e49-4424-bf17-46b64f156432","ios":"levelo://app?vid=0dde599a-9e49-4424-bf17-46b64f156432"},"vehicle_type_id":"4","last_reported":1752041833,"current_range_meters":19200,"station_id":"ce4bhnp2rcd13ifvqgvg","pricing_plan_id":"cebpf4jnsgd1na2vs0mg"},{"bike_id":"0fa430a1-e796-45c1-8219-0f46c66cd099","system_id":"levelo_inurba_marseille","lat":43.32343,"lon":5.40624,"is_reserved":false,"is_disabled":false,"rental_uris":{"android":"levelo://app?vid=0fa430a1-e796-45c1-8219-0f46c66cd099","ios":"levelo://app?vid=0fa430a1-e796-45c1-8219-0f46c66cd099"},"vehicle_type_id":"4","last_reported":1752041833,"current_range_meters":19200,"station_id":"ce4bhq92rcd13ifvqhjg","pricing_plan_id":"cebpf4jnsgd1na2vs0mg"},{"bike_id":"feaa7e3a-cbe4-4489-be11-8a12d7eec173","system_id":"levelo_inurba_marseille","lat":43.25095,"lon":5.42719,"is_reserved":false,"is_disabled":false,"rental_uris":{"android":"levelo://app?vid=feaa7e3a-cbe4-4489-be11-8a12d7eec173","ios":"levelo://app?vid=feaa7e3a-cbe4-4489-be11-8a12d7eec173"},"vehicle_type_id":"4","last_reported":1752041833,"current_range_meters":19600,"station_id":"","pricing_plan_id":"cebpf4jnsgd1na2vs0mg"},{"bike_id":"bd2fa063-6288-464f-97ba-8c835cb2c2c0","system_id":"levelo_inurba_marseille","lat":43.29939,"lon":5.36551,"is_reserved":false,"is_disabled":false,"rental_uris":{"android":"levelo://app?vid=bd2fa063-6288-464f-97ba-8c835cb2c2c0","ios":"levelo://app?vid=bd2fa063-6288-464f-97ba-8c835cb2c2c0"},"vehicle_type_id":"4","last_reported":1752041833,"current_range_meters":19600,"station_id":"ce4bgm92rcd13ifvqbr0","pricing_plan_id":"cebpf4jnsgd1na2vs0mg"},{"bike_id":"d9390726-87c1-431b-aba3-abc9e80f827d","system_id":"levelo_inurba_marseille","lat":43.31101,"lon":5.37803,"is_reserved":false,"is_disabled":false,"rental_uris":{"android":"levelo://app?vid=d9390726-87c1-431b-aba3-abc9e80f827d","ios":"levelo://app?vid=d9390726-87c1-431b-aba3-abc9e80f827d"},"vehicle_type_id":"4","last_reported":1752041833,"current_range_meters":19600,"station_id":"ce4bgt92rcd13ifvqcg0","pricing_plan_id":"cebpf4jnsgd1na2vs0mg"},{"bike_id":"92ba986b-f1da-4452-b7ce-c01d967f3d0d","system_id":"levelo_inurba_marseille","lat":43.29267,"lon":5.40133,"is_reserved":false,"is_disabled":false,"rental_uris":{"android":"levelo://app?vid=92ba986b-f1da-4452-b7ce-c01d967f3d0d","ios":"levelo://app?vid=92ba986b-f1da-4452-b7ce-c01d967f3d0d"},"vehicle_type_id":"4","last_reported":1752041833,"current_range_meters":19600,"station_id":"ce4bh312rcd13ifvqdk0","pricing_plan_id":"cebpf4jnsgd1na2vs0mg"},{"bike_id":"c0b36e6e-366c-401b-a6a6-5a6f2ec9cf98","system_id":"levelo_inurba_marseille","lat":43.28355,"lon":5.38643,"is_reserved":false,"is_disabled":false,"rental_uris":{"android":"levelo://app?vid=c0b36e6e-366c-401b-a6a6-5a6f2ec9cf98","ios":"levelo://app?vid=c0b36e6e-366c-401b-a6a6-5a6f2ec9cf98"},"vehicle_type_id":"4","last_reported":1752041833,"current_range_meters":19600,"station_id":"ce4bh492rcd13ifvqdvg","pricing_plan_id":"cebpf4jnsgd1na2vs0mg"},{"bike_id":"36c387ea-be50-4028-8ecc-21605fe3e879","system_id":"levelo_inurba_marseille","lat":43.29354,"lon":5.42839,"is_reserved":false,"is_disabled":false,"rental_uris":{"android":"levelo://app?vid=36c387ea-be50-4028-8ecc-21605fe3e879","ios":"levelo://app?vid=36c387ea-be50-4028-8ecc-21605fe3e879"},"vehicle_type_id":"4","last_reported":1752041833,"current_range_meters":20000,"station_id":"","pricing_plan_id":"cebpf4jnsgd1na2vs0mg"},{"bike_id":"515fac28-6a15-4c66-bf42-d8c0fe366af5","system_id":"levelo_inurba_marseille","lat":43.28082,"lon":5.39638,"is_reserved":false,"is_disabled":false,"rental_uris":{"android":"levelo://app?vid=515fac28-6a15-4c66-bf42-d8c0fe366af5","ios":"levelo://app?vid=515fac28-6a15-4c66-bf42-d8c0fe366af5"},"vehicle_type_id":"4","last_reported":1752041833,"current_range_meters":20000,"station_id":"ce4bho12rcd13ifvqh2g","pricing_plan_id":"cebpf4jnsgd1na2vs0mg"},{"bike_id":"c7b25214-e785-4cd1-a30d-6df30d28c089","system_id":"levelo_inurba_marseille","lat":43.21742,"lon":5.34604,"is_reserved":false,"is_disabled":false,"rental_uris":{"android":"levelo://app?vid=c7b25214-e785-4cd1-a30d-6df30d28c089","ios":"levelo://app?vid=c7b25214-e785-4cd1-a30d-6df30d28c089"},"vehicle_type_id":"4","last_reported":1752041833,"current_range_meters":20000,"station_id":"st_cvj6r9ubvosntc0bgbag","pricing_plan_id":"cebpf4jnsgd1na2vs0mg"},{"bike_id":"87d13c3c-9453-4492-8a8f-f2b4c8e828c6","system_id":"levelo_inurba_marseille","lat":43.26177,"lon":5.37049,"is_reserved":false,"is_disabled":false,"rental_uris":{"android":"levelo://app?vid=87d13c3c-9453-4492-8a8f-f2b4c8e828c6","ios":"levelo://app?vid=87d13c3c-9453-4492-8a8f-f2b4c8e828c6"},"vehicle_type_id":"4","last_reported":1752041833,"current_range_meters":20400,"station_id":"","pricing_plan_id":"cebpf4jnsgd1na2vs0mg"},{"bike_id":"1c843fea-9154-4ab5-a997-10f28de62d5c","system_id":"levelo_inurba_marseille","lat":43.26547,"lon":5.37383,"is_reserved":false,"is_disabled":false,"rental_uris":{"android":"levelo://app?vid=1c843fea-9154-4ab5-a997-10f28de62d5c","ios":"levelo://app?vid=1c843fea-9154-4ab5-a997-10f28de62d5c"},"vehicle_type_id":"4","last_reported":1752041833,"current_range_meters":20400,"station_id":"","pricing_plan_id":"cebpf4jnsgd1na2vs0mg"},{"bike_id":"9f5e74ce-2459-4c6f-a171-f6d1e8a1ed83","system_id":"levelo_inurba_marseille","lat":43.318566,"lon":5.375365,"is_reserved":false,"is_disabled":false,"rental_uris":{"android":"levelo://app?vid=9f5e74ce-2459-4c6f-a171-f6d1e8a1ed83","ios":"levelo://app?vid=9f5e74ce-2459-4c6f-a171-f6d1e8a1ed83"},"vehicle_type_id":"4","last_reported":1752041833,"current_range_meters":20400,"station_id":"","pricing_plan_id":"cebpf4jnsgd1na2vs0mg"},{"bike_id":"50a7658a-d4b7-4a9f-94be-c4ee3dd322ad","system_id":"levelo_inurba_marseille","lat":43.28441,"lon":5.3499,"is_reserved":false,"is_disabled":false,"rental_uris":{"android":"levelo://app?vid=50a7658a-d4b7-4a9f-94be-c4ee3dd322ad","ios":"levelo://app?vid=50a7658a-d4b7-4a9f-94be-c4ee3dd322ad"},"vehicle_type_id":"4","last_reported":1752041833,"current_range_meters":20400,"station_id":"ce4bhbh2rcd13ifvqepg","pricing_plan_id":"cebpf4jnsgd1na2vs0mg"},{"bike_id":"ef6311b9-c394-4e85-b3f2-bf62d7fa6877","system_id":"levelo_inurba_marseille","lat":43.245477,"lon":5.395235,"is_reserved":false,"is_disabled":false,"rental_uris":{"android":"levelo://app?vid=ef6311b9-c394-4e85-b3f2-bf62d7fa6877","ios":"levelo://app?vid=ef6311b9-c394-4e85-b3f2-bf62d7fa6877"},"vehicle_type_id":"4","last_reported":1752041833,"current_range_meters":20400,"station_id":"ce4bhlp2rcd13ifvqgjg","pricing_plan_id":"cebpf4jnsgd1na2vs0mg"},{"bike_id":"aca47642-4ceb-4a40-bae0-66b7f0d6dee2","system_id":"levelo_inurba_marseille","lat":43.22502,"lon":5.34794,"is_reserved":false,"is_disabled":false,"rental_uris":{"android":"levelo://app?vid=aca47642-4ceb-4a40-bae0-66b7f0d6dee2","ios":"levelo://app?vid=aca47642-4ceb-4a40-bae0-66b7f0d6dee2"},"vehicle_type_id":"4","last_reported":1752041833,"current_range_meters":20400,"station_id":"st_cvj5dfep6f1abm77gieg","pricing_plan_id":"cebpf4jnsgd1na2vs0mg"},{"bike_id":"01f47fa4-609f-4221-9c79-bfad2fbad8d5","system_id":"levelo_inurba_marseille","lat":43.30586,"lon":5.39365,"is_reserved":false,"is_disabled":false,"rental_uris":{"android":"levelo://app?vid=01f47fa4-609f-4221-9c79-bfad2fbad8d5","ios":"levelo://app?vid=01f47fa4-609f-4221-9c79-bfad2fbad8d5"},"vehicle_type_id":"4","last_reported":1752041833,"current_range_meters":20800,"station_id":"","pricing_plan_id":"cebpf4jnsgd1na2vs0mg"},{"bike_id":"f851f41c-853b-42a0-a3c5-72fea8cb411f","system_id":"levelo_inurba_marseille","lat":43.2776,"lon":5.39914,"is_reserved":false,"is_disabled":false,"rental_uris":{"android":"levelo://app?vid=f851f41c-853b-42a0-a3c5-72fea8cb411f","ios":"levelo://app?vid=f851f41c-853b-42a0-a3c5-72fea8cb411f"},"vehicle_type_id":"4","last_reported":1752041833,"current_range_meters":20800,"station_id":"","pricing_plan_id":"cebpf4jnsgd1na2vs0mg"},{"bike_id":"994cd609-6dd7-4fb4-afe1-6000044d05ac","system_id":"levelo_inurba_marseille","lat":43.29632,"lon":5.37166,"is_reserved":false,"is_disabled":false,"rental_uris":{"android":"levelo://app?vid=994cd609-6dd7-4fb4-afe1-6000044d05ac","ios":"levelo://app?vid=994cd609-6dd7-4fb4-afe1-6000044d05ac"},"vehicle_type_id":"4","last_reported":1752041833,"current_range_meters":20800,"station_id":"ce4bgnh2rcd13ifvqc0g","pricing_plan_id":"cebpf4jnsgd1na2vs0mg"},{"bike_id":"2f7778fa-24ea-4f52-b6cc-d154553fde38","system_id":"levelo_inurba_marseille","lat":43.28402,"lon":5.34964,"is_reserved":false,"is_disabled":false,"rental_uris":{"android":"levelo://app?vid=2f7778fa-24ea-4f52-b6cc-d154553fde38","ios":"levelo://app?vid=2f7778fa-24ea-4f52-b6cc-d154553fde38"},"vehicle_type_id":"4","last_reported":1752041833,"current_range_meters":20800,"station_id":"ce4bhbh2rcd13ifvqepg","pricing_plan_id":"cebpf4jnsgd1na2vs0mg"},{"bike_id":"fe393e70-3017-4f74-9643-ce2ab31a2adc","system_id":"levelo_inurba_marseille","lat":43.286196,"lon":5.350981,"is_reserved":false,"is_disabled":false,"rental_uris":{"android":"levelo://app?vid=fe393e70-3017-4f74-9643-ce2ab31a2adc","ios":"levelo://app?vid=fe393e70-3017-4f74-9643-ce2ab31a2adc"},"vehicle_type_id":"4","last_reported":1752041833,"current_range_meters":20800,"station_id":"ce4bhch2rcd13ifvqeug","pricing_plan_id":"cebpf4jnsgd1na2vs0mg"},{"bike_id":"32a62487-ecbb-4881-8526-16ca13257b4f","system_id":"levelo_inurba_marseille","lat":43.26484,"lon":5.3955,"is_reserved":false,"is_disabled":false,"rental_uris":{"android":"levelo://app?vid=32a62487-ecbb-4881-8526-16ca13257b4f","ios":"levelo://app?vid=32a62487-ecbb-4881-8526-16ca13257b4f"},"vehicle_type_id":"4","last_reported":1752041833,"current_range_meters":20800,"station_id":"ce4bhi12rcd13ifvqfq0","pricing_plan_id":"cebpf4jnsgd1na2vs0mg"},{"bike_id":"a2bd025b-f0e6-4a3d-b3d9-ebfa621fa75c","system_id":"levelo_inurba_marseille","lat":43.22934,"lon":5.35401,"is_reserved":false,"is_disabled":false,"rental_uris":{"android":"levelo://app?vid=a2bd025b-f0e6-4a3d-b3d9-ebfa621fa75c","ios":"levelo://app?vid=a2bd025b-f0e6-4a3d-b3d9-ebfa621fa75c"},"vehicle_type_id":"4","last_reported":1752041833,"current_range_meters":20800,"station_id":"cpo3532slgdg3j2ikp40","pricing_plan_id":"cebpf4jnsgd1na2vs0mg"},{"bike_id":"fa87fcb5-aacb-41a1-a789-0296bbd02085","system_id":"levelo_inurba_marseille","lat":43.24577,"lon":5.3737,"is_reserved":false,"is_disabled":false,"rental_uris":{"android":"levelo://app?vid=fa87fcb5-aacb-41a1-a789-0296bbd02085","ios":"levelo://app?vid=fa87fcb5-aacb-41a1-a789-0296bbd02085"},"vehicle_type_id":"4","last_reported":1752041833,"current_range_meters":21600,"station_id":"","pricing_plan_id":"cebpf4jnsgd1na2vs0mg"},{"bike_id":"fde530d0-eeed-4692-bb9c-2c65ba0cdd9f","system_id":"levelo_inurba_marseille","lat":43.30845,"lon":5.42555,"is_reserved":false,"is_disabled":false,"rental_uris":{"android":"levelo://app?vid=fde530d0-eeed-4692-bb9c-2c65ba0cdd9f","ios":"levelo://app?vid=fde530d0-eeed-4692-bb9c-2c65ba0cdd9f"},"vehicle_type_id":"4","last_reported":1752041833,"current_range_meters":21600,"station_id":"","pricing_plan_id":"cebpf4jnsgd1na2vs0mg"},{"bike_id":"7f5066f0-39ba-4ed0-854a-62610be0e110","system_id":"levelo_inurba_marseille","lat":43.31076,"lon":5.38355,"is_reserved":false,"is_disabled":false,"rental_uris":{"android":"levelo://app?vid=7f5066f0-39ba-4ed0-854a-62610be0e110","ios":"levelo://app?vid=7f5066f0-39ba-4ed0-854a-62610be0e110"},"vehicle_type_id":"4","last_reported":1752041833,"current_range_meters":21600,"station_id":"ce4bgv92rcd13ifvqcr0","pricing_plan_id":"cebpf4jnsgd1na2vs0mg"},{"bike_id":"a1790ffb-7156-4a05-935e-ed5772513479","system_id":"levelo_inurba_marseille","lat":43.281032,"lon":5.378469,"is_reserved":false,"is_disabled":false,"rental_uris":{"android":"levelo://app?vid=a1790ffb-7156-4a05-935e-ed5772513479","ios":"levelo://app?vid=a1790ffb-7156-4a05-935e-ed5772513479"},"vehicle_type_id":"4","last_reported":1752041833,"current_range_meters":21600,"station_id":"ce4bha12rcd13ifvqee0","pricing_plan_id":"cebpf4jnsgd1na2vs0mg"},{"bike_id":"90d41ba8-3738-4914-a34d-3962908e7ddc","system_id":"levelo_inurba_marseille","lat":43.32353,"lon":5.36744,"is_reserved":false,"is_disabled":false,"rental_uris":{"android":"levelo://app?vid=90d41ba8-3738-4914-a34d-3962908e7ddc","ios":"levelo://app?vid=90d41ba8-3738-4914-a34d-3962908e7ddc"},"vehicle_type_id":"4","last_reported":1752041833,"current_range_meters":21600,"station_id":"ce4bhsh2rcd13ifvqi2g","pricing_plan_id":"cebpf4jnsgd1na2vs0mg"},{"bike_id":"746c66af-2aa1-42c6-ad43-29946f6e6a21","system_id":"levelo_inurba_marseille","lat":43.30535,"lon":5.36714,"is_reserved":false,"is_disabled":false,"rental_uris":{"android":"levelo://app?vid=746c66af-2aa1-42c6-ad43-29946f6e6a21","ios":"levelo://app?vid=746c66af-2aa1-42c6-ad43-29946f6e6a21"},"vehicle_type_id":"4","last_reported":1752041833,"current_range_meters":22000,"station_id":"ce4bgrp2rcd13ifvqc9g","pricing_plan_id":"cebpf4jnsgd1na2vs0mg"},{"bike_id":"b0bf01a1-6ffc-4948-a8f4-566c17b0eaee","system_id":"levelo_inurba_marseille","lat":43.231905,"lon":5.399747,"is_reserved":false,"is_disabled":false,"rental_uris":{"android":"levelo://app?vid=b0bf01a1-6ffc-4948-a8f4-566c17b0eaee","ios":"levelo://app?vid=b0bf01a1-6ffc-4948-a8f4-566c17b0eaee"},"vehicle_type_id":"4","last_reported":1752041833,"current_range_meters":22000,"station_id":"ce4bhn12rcd13ifvqgqg","pricing_plan_id":"cebpf4jnsgd1na2vs0mg"},{"bike_id":"7285158b-f3e6-429d-b6fc-78ece6452704","system_id":"levelo_inurba_marseille","lat":43.3176,"lon":5.39013,"is_reserved":false,"is_disabled":false,"rental_uris":{"android":"levelo://app?vid=7285158b-f3e6-429d-b6fc-78ece6452704","ios":"levelo://app?vid=7285158b-f3e6-429d-b6fc-78ece6452704"},"vehicle_type_id":"4","last_reported":1752041833,"current_range_meters":22000,"station_id":"ce4bhqp2rcd13ifvqhng","pricing_plan_id":"cebpf4jnsgd1na2vs0mg"},{"bike_id":"7405c651-a868-4f97-b0fd-445de387662c","system_id":"levelo_inurba_marseille","lat":43.21742,"lon":5.34602,"is_reserved":false,"is_disabled":false,"rental_uris":{"android":"levelo://app?vid=7405c651-a868-4f97-b0fd-445de387662c","ios":"levelo://app?vid=7405c651-a868-4f97-b0fd-445de387662c"},"vehicle_type_id":"4","last_reported":1752041833,"current_range_meters":22000,"station_id":"st_cvj6r9ubvosntc0bgbag","pricing_plan_id":"cebpf4jnsgd1na2vs0mg"},{"bike_id":"51d3cab3-3bb3-4357-a3a5-f7dd39edc0c5","system_id":"levelo_inurba_marseille","lat":43.25451,"lon":5.37946,"is_reserved":false,"is_disabled":false,"rental_uris":{"android":"levelo://app?vid=51d3cab3-3bb3-4357-a3a5-f7dd39edc0c5","ios":"levelo://app?vid=51d3cab3-3bb3-4357-a3a5-f7dd39edc0c5"},"vehicle_type_id":"4","last_reported":1752041833,"current_range_meters":22400,"station_id":"","pricing_plan_id":"cebpf4jnsgd1na2vs0mg"},{"bike_id":"4e209b0c-855f-4b51-8120-2faef8673853","system_id":"levelo_inurba_marseille","lat":43.306039,"lon":5.369261,"is_reserved":false,"is_disabled":false,"rental_uris":{"android":"levelo://app?vid=4e209b0c-855f-4b51-8120-2faef8673853","ios":"levelo://app?vid=4e209b0c-855f-4b51-8120-2faef8673853"},"vehicle_type_id":"4","last_reported":1752041833,"current_range_meters":22400,"station_id":"","pricing_plan_id":"cebpf4jnsgd1na2vs0mg"},{"bike_id":"87c40f4b-11a5-4cb2-a6a2-08d53f12b98a","system_id":"levelo_inurba_marseille","lat":43.3112,"lon":5.37779,"is_reserved":false,"is_disabled":false,"rental_uris":{"android":"levelo://app?vid=87c40f4b-11a5-4cb2-a6a2-08d53f12b98a","ios":"levelo://app?vid=87c40f4b-11a5-4cb2-a6a2-08d53f12b98a"},"vehicle_type_id":"4","last_reported":1752041833,"current_range_meters":22400,"station_id":"ce4bgt92rcd13ifvqcg0","pricing_plan_id":"cebpf4jnsgd1na2vs0mg"},{"bike_id":"0d568aac-58c6-453d-8dee-0f9573bb4329","system_id":"levelo_inurba_marseille","lat":43.304754,"lon":5.37895,"is_reserved":false,"is_disabled":false,"rental_uris":{"android":"levelo://app?vid=0d568aac-58c6-453d-8dee-0f9573bb4329","ios":"levelo://app?vid=0d568aac-58c6-453d-8dee-0f9573bb4329"},"vehicle_type_id":"4","last_reported":1752041833,"current_range_meters":22400,"station_id":"ce4bgup2rcd13ifvqcn0","pricing_plan_id":"cebpf4jnsgd1na2vs0mg"},{"bike_id":"7fae2724-e9e2-48fc-ad73-c9e7ee2197ec","system_id":"levelo_inurba_marseille","lat":43.24389,"lon":5.37058,"is_reserved":false,"is_disabled":false,"rental_uris":{"android":"levelo://app?vid=7fae2724-e9e2-48fc-ad73-c9e7ee2197ec","ios":"levelo://app?vid=7fae2724-e9e2-48fc-ad73-c9e7ee2197ec"},"vehicle_type_id":"4","last_reported":1752041833,"current_range_meters":22400,"station_id":"ce4bhhh2rcd13ifvqfk0","pricing_plan_id":"cebpf4jnsgd1na2vs0mg"},{"bike_id":"e05d0f63-e912-4ab9-beb8-92affa7812ec","system_id":"levelo_inurba_marseille","lat":43.25961,"lon":5.40866,"is_reserved":false,"is_disabled":false,"rental_uris":{"android":"levelo://app?vid=e05d0f63-e912-4ab9-beb8-92affa7812ec","ios":"levelo://app?vid=e05d0f63-e912-4ab9-beb8-92affa7812ec"},"vehicle_type_id":"4","last_reported":1752041833,"current_range_meters":22400,"station_id":"ce4bhm92rcd13ifvqglg","pricing_plan_id":"cebpf4jnsgd1na2vs0mg"},{"bike_id":"c09c93e9-32b3-496d-b629-f018509092cb","system_id":"levelo_inurba_marseille","lat":43.32338,"lon":5.406,"is_reserved":false,"is_disabled":false,"rental_uris":{"android":"levelo://app?vid=c09c93e9-32b3-496d-b629-f018509092cb","ios":"levelo://app?vid=c09c93e9-32b3-496d-b629-f018509092cb"},"vehicle_type_id":"4","last_reported":1752041833,"current_range_meters":22400,"station_id":"ce4bhq92rcd13ifvqhjg","pricing_plan_id":"cebpf4jnsgd1na2vs0mg"},{"bike_id":"1300fc66-ca4d-4458-b575-775662c44530","system_id":"levelo_inurba_marseille","lat":43.21745,"lon":5.34604,"is_reserved":false,"is_disabled":false,"rental_uris":{"android":"levelo://app?vid=1300fc66-ca4d-4458-b575-775662c44530","ios":"levelo://app?vid=1300fc66-ca4d-4458-b575-775662c44530"},"vehicle_type_id":"4","last_reported":1752041833,"current_range_meters":22400,"station_id":"st_cvj6r9ubvosntc0bgbag","pricing_plan_id":"cebpf4jnsgd1na2vs0mg"},{"bike_id":"ee1ac907-8623-4d00-ac01-d41dd90be9fe","system_id":"levelo_inurba_marseille","lat":43.21229,"lon":5.3509,"is_reserved":false,"is_disabled":false,"rental_uris":{"android":"levelo://app?vid=ee1ac907-8623-4d00-ac01-d41dd90be9fe","ios":"levelo://app?vid=ee1ac907-8623-4d00-ac01-d41dd90be9fe"},"vehicle_type_id":"4","last_reported":1752041833,"current_range_meters":22800,"station_id":"","pricing_plan_id":"cebpf4jnsgd1na2vs0mg"},{"bike_id":"01675154-43d6-4e94-8de7-123eceef5f9b","system_id":"levelo_inurba_marseille","lat":43.30146,"lon":5.3807,"is_reserved":false,"is_disabled":false,"rental_uris":{"android":"levelo://app?vid=01675154-43d6-4e94-8de7-123eceef5f9b","ios":"levelo://app?vid=01675154-43d6-4e94-8de7-123eceef5f9b"},"vehicle_type_id":"4","last_reported":1752041833,"current_range_meters":22800,"station_id":"ce4bgjp2rcd13ifvqbh0","pricing_plan_id":"cebpf4jnsgd1na2vs0mg"},{"bike_id":"9f43593a-521e-433f-9466-56f7a4e268dc","system_id":"levelo_inurba_marseille","lat":43.30534,"lon":5.36703,"is_reserved":false,"is_disabled":false,"rental_uris":{"android":"levelo://app?vid=9f43593a-521e-433f-9466-56f7a4e268dc","ios":"levelo://app?vid=9f43593a-521e-433f-9466-56f7a4e268dc"},"vehicle_type_id":"4","last_reported":1752041833,"current_range_meters":22800,"station_id":"ce4bgrp2rcd13ifvqc9g","pricing_plan_id":"cebpf4jnsgd1na2vs0mg"},{"bike_id":"4c429313-36ed-4aac-9d6c-f564d9479bc5","system_id":"levelo_inurba_marseille","lat":43.30901,"lon":5.37185,"is_reserved":false,"is_disabled":false,"rental_uris":{"android":"levelo://app?vid=4c429313-36ed-4aac-9d6c-f564d9479bc5","ios":"levelo://app?vid=4c429313-36ed-4aac-9d6c-f564d9479bc5"},"vehicle_type_id":"4","last_reported":1752041833,"current_range_meters":22800,"station_id":"ce4bguh2rcd13ifvqckg","pricing_plan_id":"cebpf4jnsgd1na2vs0mg"},{"bike_id":"99856cfb-b5cc-48e3-aa77-8d3add6d1b14","system_id":"levelo_inurba_marseille","lat":43.3047,"lon":5.379,"is_reserved":false,"is_disabled":false,"rental_uris":{"android":"levelo://app?vid=99856cfb-b5cc-48e3-aa77-8d3add6d1b14","ios":"levelo://app?vid=99856cfb-b5cc-48e3-aa77-8d3add6d1b14"},"vehicle_type_id":"4","last_reported":1752041833,"current_range_meters":22800,"station_id":"ce4bgup2rcd13ifvqcn0","pricing_plan_id":"cebpf4jnsgd1na2vs0mg"},{"bike_id":"55eb3ee3-207d-45c9-a356-7e275a6ee08e","system_id":"levelo_inurba_marseille","lat":43.322208,"lon":5.407363,"is_reserved":false,"is_disabled":false,"rental_uris":{"android":"levelo://app?vid=55eb3ee3-207d-45c9-a356-7e275a6ee08e","ios":"levelo://app?vid=55eb3ee3-207d-45c9-a356-7e275a6ee08e"},"vehicle_type_id":"4","last_reported":1752041833,"current_range_meters":22800,"station_id":"ce4bh092rcd13ifvqd30","pricing_plan_id":"cebpf4jnsgd1na2vs0mg"},{"bike_id":"13633c27-0b2e-4abf-9090-f938e89feb6a","system_id":"levelo_inurba_marseille","lat":43.284112,"lon":5.349884,"is_reserved":false,"is_disabled":false,"rental_uris":{"android":"levelo://app?vid=13633c27-0b2e-4abf-9090-f938e89feb6a","ios":"levelo://app?vid=13633c27-0b2e-4abf-9090-f938e89feb6a"},"vehicle_type_id":"4","last_reported":1752041833,"current_range_meters":22800,"station_id":"ce4bhbh2rcd13ifvqepg","pricing_plan_id":"cebpf4jnsgd1na2vs0mg"},{"bike_id":"fd57f382-2f68-48a5-8520-2afe37014ce0","system_id":"levelo_inurba_marseille","lat":43.265611,"lon":5.372973,"is_reserved":false,"is_disabled":false,"rental_uris":{"android":"levelo://app?vid=fd57f382-2f68-48a5-8520-2afe37014ce0","ios":"levelo://app?vid=fd57f382-2f68-48a5-8520-2afe37014ce0"},"vehicle_type_id":"4","last_reported":1752041833,"current_range_meters":22800,"station_id":"ce4bhg12rcd13ifvqf70","pricing_plan_id":"cebpf4jnsgd1na2vs0mg"},{"bike_id":"12671aaf-df30-48df-969a-0e8ba311c0d9","system_id":"levelo_inurba_marseille","lat":43.299257,"lon":5.374755,"is_reserved":false,"is_disabled":false,"rental_uris":{"android":"levelo://app?vid=12671aaf-df30-48df-969a-0e8ba311c0d9","ios":"levelo://app?vid=12671aaf-df30-48df-969a-0e8ba311c0d9"},"vehicle_type_id":"4","last_reported":1752041833,"current_range_meters":23200,"station_id":"","pricing_plan_id":"cebpf4jnsgd1na2vs0mg"},{"bike_id":"24b17f7b-dff1-4936-b27a-7c2c6813a894","system_id":"levelo_inurba_marseille","lat":43.24576,"lon":5.37366,"is_reserved":false,"is_disabled":false,"rental_uris":{"android":"levelo://app?vid=24b17f7b-dff1-4936-b27a-7c2c6813a894","ios":"levelo://app?vid=24b17f7b-dff1-4936-b27a-7c2c6813a894"},"vehicle_type_id":"4","last_reported":1752041833,"current_range_meters":23200,"station_id":"","pricing_plan_id":"cebpf4jnsgd1na2vs0mg"},{"bike_id":"2676d6ed-392e-4888-a2f9-53392870d491","system_id":"levelo_inurba_marseille","lat":43.31359,"lon":5.36694,"is_reserved":false,"is_disabled":false,"rental_uris":{"android":"levelo://app?vid=2676d6ed-392e-4888-a2f9-53392870d491","ios":"levelo://app?vid=2676d6ed-392e-4888-a2f9-53392870d491"},"vehicle_type_id":"4","last_reported":1752041833,"current_range_meters":23200,"station_id":"ce4bgr92rcd13ifvqc6g","pricing_plan_id":"cebpf4jnsgd1na2vs0mg"},{"bike_id":"97c2acde-fb41-443e-b2fa-16534b0f0083","system_id":"levelo_inurba_marseille","lat":43.28485,"lon":5.38555,"is_reserved":false,"is_disabled":false,"rental_uris":{"android":"levelo://app?vid=97c2acde-fb41-443e-b2fa-16534b0f0083","ios":"levelo://app?vid=97c2acde-fb41-443e-b2fa-16534b0f0083"},"vehicle_type_id":"4","last_reported":1752041833,"current_range_meters":23200,"station_id":"ce4bh8p2rcd13ifvqeb0","pricing_plan_id":"cebpf4jnsgd1na2vs0mg"},{"bike_id":"e5c4a51d-0e49-4860-8ddf-8a5e1aa16788","system_id":"levelo_inurba_marseille","lat":43.284217,"lon":5.349903,"is_reserved":false,"is_disabled":false,"rental_uris":{"android":"levelo://app?vid=e5c4a51d-0e49-4860-8ddf-8a5e1aa16788","ios":"levelo://app?vid=e5c4a51d-0e49-4860-8ddf-8a5e1aa16788"},"vehicle_type_id":"4","last_reported":1752041833,"current_range_meters":23200,"station_id":"ce4bhbh2rcd13ifvqepg","pricing_plan_id":"cebpf4jnsgd1na2vs0mg"},{"bike_id":"8f89e4f3-495a-4317-bd6d-37a19186d65b","system_id":"levelo_inurba_marseille","lat":43.337276,"lon":5.391865,"is_reserved":false,"is_disabled":false,"rental_uris":{"android":"levelo://app?vid=8f89e4f3-495a-4317-bd6d-37a19186d65b","ios":"levelo://app?vid=8f89e4f3-495a-4317-bd6d-37a19186d65b"},"vehicle_type_id":"4","last_reported":1752041833,"current_range_meters":23200,"station_id":"ce4bhr92rcd13ifvqhsg","pricing_plan_id":"cebpf4jnsgd1na2vs0mg"},{"bike_id":"d5bc4049-7927-4d0c-bfe2-3edd7a5e0a25","system_id":"levelo_inurba_marseille","lat":43.28439,"lon":5.3498,"is_reserved":false,"is_disabled":false,"rental_uris":{"android":"levelo://app?vid=d5bc4049-7927-4d0c-bfe2-3edd7a5e0a25","ios":"levelo://app?vid=d5bc4049-7927-4d0c-bfe2-3edd7a5e0a25"},"vehicle_type_id":"4","last_reported":1752041833,"current_range_meters":24000,"station_id":"ce4bhbh2rcd13ifvqepg","pricing_plan_id":"cebpf4jnsgd1na2vs0mg"},{"bike_id":"6006a9aa-40e9-4dd0-9916-778076e2eaee","system_id":"levelo_inurba_marseille","lat":43.28434,"lon":5.34985,"is_reserved":false,"is_disabled":false,"rental_uris":{"android":"levelo://app?vid=6006a9aa-40e9-4dd0-9916-778076e2eaee","ios":"levelo://app?vid=6006a9aa-40e9-4dd0-9916-778076e2eaee"},"vehicle_type_id":"4","last_reported":1752041833,"current_range_meters":24000,"station_id":"ce4bhbh2rcd13ifvqepg","pricing_plan_id":"cebpf4jnsgd1na2vs0mg"},{"bike_id":"0e374bd0-694e-4bbe-b0e9-e61ea8f99021","system_id":"levelo_inurba_marseille","lat":43.24063,"lon":5.37744,"is_reserved":false,"is_disabled":false,"rental_uris":{"android":"levelo://app?vid=0e374bd0-694e-4bbe-b0e9-e61ea8f99021","ios":"levelo://app?vid=0e374bd0-694e-4bbe-b0e9-e61ea8f99021"},"vehicle_type_id":"4","last_reported":1752041833,"current_range_meters":24000,"station_id":"ce4bhnp2rcd13ifvqgvg","pricing_plan_id":"cebpf4jnsgd1na2vs0mg"},{"bike_id":"a5a6c2c1-2d48-4581-8647-6eab6c0bbb54","system_id":"levelo_inurba_marseille","lat":43.268999,"lon":5.369174,"is_reserved":false,"is_disabled":false,"rental_uris":{"android":"levelo://app?vid=a5a6c2c1-2d48-4581-8647-6eab6c0bbb54","ios":"levelo://app?vid=a5a6c2c1-2d48-4581-8647-6eab6c0bbb54"},"vehicle_type_id":"4","last_reported":1752041833,"current_range_meters":24400,"station_id":"","pricing_plan_id":"cebpf4jnsgd1na2vs0mg"},{"bike_id":"59ffcca6-ef42-4099-838a-b0c1fd275a2c","system_id":"levelo_inurba_marseille","lat":43.25675,"lon":5.41908,"is_reserved":false,"is_disabled":false,"rental_uris":{"android":"levelo://app?vid=59ffcca6-ef42-4099-838a-b0c1fd275a2c","ios":"levelo://app?vid=59ffcca6-ef42-4099-838a-b0c1fd275a2c"},"vehicle_type_id":"4","last_reported":1752041833,"current_range_meters":24400,"station_id":"","pricing_plan_id":"cebpf4jnsgd1na2vs0mg"},{"bike_id":"d7ce632b-2be5-4ad7-ade2-051952e6deeb","system_id":"levelo_inurba_marseille","lat":43.29511,"lon":5.37503,"is_reserved":false,"is_disabled":false,"rental_uris":{"android":"levelo://app?vid=d7ce632b-2be5-4ad7-ade2-051952e6deeb","ios":"levelo://app?vid=d7ce632b-2be5-4ad7-ade2-051952e6deeb"},"vehicle_type_id":"4","last_reported":1752041833,"current_range_meters":24400,"station_id":"ce4bgkp2rcd13ifvqbmg","pricing_plan_id":"cebpf4jnsgd1na2vs0mg"},{"bike_id":"ff96cc3c-fc50-474a-8049-0362220fc9cb","system_id":"levelo_inurba_marseille","lat":43.31348,"lon":5.36701,"is_reserved":false,"is_disabled":false,"rental_uris":{"android":"levelo://app?vid=ff96cc3c-fc50-474a-8049-0362220fc9cb","ios":"levelo://app?vid=ff96cc3c-fc50-474a-8049-0362220fc9cb"},"vehicle_type_id":"4","last_reported":1752041833,"current_range_meters":24400,"station_id":"ce4bgr92rcd13ifvqc6g","pricing_plan_id":"cebpf4jnsgd1na2vs0mg"},{"bike_id":"450a0ef2-f719-44d6-a072-668219a28b13","system_id":"levelo_inurba_marseille","lat":43.28371,"lon":5.3863,"is_reserved":false,"is_disabled":false,"rental_uris":{"android":"levelo://app?vid=450a0ef2-f719-44d6-a072-668219a28b13","ios":"levelo://app?vid=450a0ef2-f719-44d6-a072-668219a28b13"},"vehicle_type_id":"4","last_reported":1752041833,"current_range_meters":24400,"station_id":"ce4bh492rcd13ifvqdvg","pricing_plan_id":"cebpf4jnsgd1na2vs0mg"},{"bike_id":"e510ade2-3bf1-4e76-bfa8-7ebe6d4288a2","system_id":"levelo_inurba_marseille","lat":43.28425,"lon":5.3498,"is_reserved":false,"is_disabled":false,"rental_uris":{"android":"levelo://app?vid=e510ade2-3bf1-4e76-bfa8-7ebe6d4288a2","ios":"levelo://app?vid=e510ade2-3bf1-4e76-bfa8-7ebe6d4288a2"},"vehicle_type_id":"4","last_reported":1752041833,"current_range_meters":24400,"station_id":"ce4bhbh2rcd13ifvqepg","pricing_plan_id":"cebpf4jnsgd1na2vs0mg"},{"bike_id":"0a225275-cd83-4669-b5bb-3c64d6a04caf","system_id":"levelo_inurba_marseille","lat":43.284105,"lon":5.349906,"is_reserved":false,"is_disabled":false,"rental_uris":{"android":"levelo://app?vid=0a225275-cd83-4669-b5bb-3c64d6a04caf","ios":"levelo://app?vid=0a225275-cd83-4669-b5bb-3c64d6a04caf"},"vehicle_type_id":"4","last_reported":1752041833,"current_range_meters":24400,"station_id":"ce4bhbh2rcd13ifvqepg","pricing_plan_id":"cebpf4jnsgd1na2vs0mg"},{"bike_id":"a87d31b4-ab04-46ec-8f36-a164498b6257","system_id":"levelo_inurba_marseille","lat":43.23956,"lon":5.36655,"is_reserved":false,"is_disabled":false,"rental_uris":{"android":"levelo://app?vid=a87d31b4-ab04-46ec-8f36-a164498b6257","ios":"levelo://app?vid=a87d31b4-ab04-46ec-8f36-a164498b6257"},"vehicle_type_id":"4","last_reported":1752041833,"current_range_meters":24400,"station_id":"ce4bhi12rcd13ifvqfp0","pricing_plan_id":"cebpf4jnsgd1na2vs0mg"},{"bike_id":"bda5bb46-2fc0-43f7-bbea-1485281ee796","system_id":"levelo_inurba_marseille","lat":43.24179,"lon":5.39729,"is_reserved":false,"is_disabled":false,"rental_uris":{"android":"levelo://app?vid=bda5bb46-2fc0-43f7-bbea-1485281ee796","ios":"levelo://app?vid=bda5bb46-2fc0-43f7-bbea-1485281ee796"},"vehicle_type_id":"4","last_reported":1752041833,"current_range_meters":24400,"station_id":"ce4bhn12rcd13ifvqgpg","pricing_plan_id":"cebpf4jnsgd1na2vs0mg"},{"bike_id":"2ec11ccc-3027-480d-bd93-2d90ea9776fc","system_id":"levelo_inurba_marseille","lat":43.24087,"lon":5.37758,"is_reserved":false,"is_disabled":false,"rental_uris":{"android":"levelo://app?vid=2ec11ccc-3027-480d-bd93-2d90ea9776fc","ios":"levelo://app?vid=2ec11ccc-3027-480d-bd93-2d90ea9776fc"},"vehicle_type_id":"4","last_reported":1752041833,"current_range_meters":24400,"station_id":"ce4bhnp2rcd13ifvqgvg","pricing_plan_id":"cebpf4jnsgd1na2vs0mg"},{"bike_id":"7c89f401-3f7e-4e8d-81f9-da3a8c552f24","system_id":"levelo_inurba_marseille","lat":43.28717,"lon":5.39969,"is_reserved":false,"is_disabled":false,"rental_uris":{"android":"levelo://app?vid=7c89f401-3f7e-4e8d-81f9-da3a8c552f24","ios":"levelo://app?vid=7c89f401-3f7e-4e8d-81f9-da3a8c552f24"},"vehicle_type_id":"4","last_reported":1752041833,"current_range_meters":24400,"station_id":"ce4bho92rcd13ifvqh3g","pricing_plan_id":"cebpf4jnsgd1na2vs0mg"},{"bike_id":"6a3704ac-19c4-46e3-8c3c-550faad28cd0","system_id":"levelo_inurba_marseille","lat":43.27993,"lon":5.40004,"is_reserved":false,"is_disabled":false,"rental_uris":{"android":"levelo://app?vid=6a3704ac-19c4-46e3-8c3c-550faad28cd0","ios":"levelo://app?vid=6a3704ac-19c4-46e3-8c3c-550faad28cd0"},"vehicle_type_id":"4","last_reported":1752041833,"current_range_meters":24400,"station_id":"ce4bho92rcd13ifvqh4g","pricing_plan_id":"cebpf4jnsgd1na2vs0mg"},{"bike_id":"ca82af78-77e6-4092-9d8e-80a6b4175624","system_id":"levelo_inurba_marseille","lat":43.297582,"lon":5.460028,"is_reserved":false,"is_disabled":false,"rental_uris":{"android":"levelo://app?vid=ca82af78-77e6-4092-9d8e-80a6b4175624","ios":"levelo://app?vid=ca82af78-77e6-4092-9d8e-80a6b4175624"},"vehicle_type_id":"4","last_reported":1752041833,"current_range_meters":24800,"station_id":"","pricing_plan_id":"cebpf4jnsgd1na2vs0mg"},{"bike_id":"6a306cb9-e7d4-4cdc-a963-4733240c522c","system_id":"levelo_inurba_marseille","lat":43.29266,"lon":5.37632,"is_reserved":false,"is_disabled":false,"rental_uris":{"android":"levelo://app?vid=6a306cb9-e7d4-4cdc-a963-4733240c522c","ios":"levelo://app?vid=6a306cb9-e7d4-4cdc-a963-4733240c522c"},"vehicle_type_id":"4","last_reported":1752041833,"current_range_meters":24800,"station_id":"ce4bgi12rcd13ifvqb80","pricing_plan_id":"cebpf4jnsgd1na2vs0mg"},{"bike_id":"6d7689c3-1ab6-417d-a767-d73d37ea944b","system_id":"levelo_inurba_marseille","lat":43.30474,"lon":5.3791,"is_reserved":false,"is_disabled":false,"rental_uris":{"android":"levelo://app?vid=6d7689c3-1ab6-417d-a767-d73d37ea944b","ios":"levelo://app?vid=6d7689c3-1ab6-417d-a767-d73d37ea944b"},"vehicle_type_id":"4","last_reported":1752041833,"current_range_meters":24800,"station_id":"ce4bgup2rcd13ifvqcn0","pricing_plan_id":"cebpf4jnsgd1na2vs0mg"},{"bike_id":"5a73aab1-301d-4828-aab0-62221aa470db","system_id":"levelo_inurba_marseille","lat":43.28458,"lon":5.35883,"is_reserved":false,"is_disabled":false,"rental_uris":{"android":"levelo://app?vid=5a73aab1-301d-4828-aab0-62221aa470db","ios":"levelo://app?vid=5a73aab1-301d-4828-aab0-62221aa470db"},"vehicle_type_id":"4","last_reported":1752041833,"current_range_meters":24800,"station_id":"ce4bhah2rcd13ifvqei0","pricing_plan_id":"cebpf4jnsgd1na2vs0mg"},{"bike_id":"3e017a38-9a20-4013-9bac-ee785f5060be","system_id":"levelo_inurba_marseille","lat":43.284226,"lon":5.349806,"is_reserved":false,"is_disabled":false,"rental_uris":{"android":"levelo://app?vid=3e017a38-9a20-4013-9bac-ee785f5060be","ios":"levelo://app?vid=3e017a38-9a20-4013-9bac-ee785f5060be"},"vehicle_type_id":"4","last_reported":1752041833,"current_range_meters":24800,"station_id":"ce4bhbh2rcd13ifvqepg","pricing_plan_id":"cebpf4jnsgd1na2vs0mg"},{"bike_id":"12db3c92-dda8-4f6c-9435-f11c8a491e05","system_id":"levelo_inurba_marseille","lat":43.292691,"lon":5.368496,"is_reserved":false,"is_disabled":false,"rental_uris":{"android":"levelo://app?vid=12db3c92-dda8-4f6c-9435-f11c8a491e05","ios":"levelo://app?vid=12db3c92-dda8-4f6c-9435-f11c8a491e05"},"vehicle_type_id":"4","last_reported":1752041833,"current_range_meters":24800,"station_id":"ce4bhbp2rcd13ifvqesg","pricing_plan_id":"cebpf4jnsgd1na2vs0mg"},{"bike_id":"caf11116-68e4-4652-ae18-4fe4b20da076","system_id":"levelo_inurba_marseille","lat":43.25951,"lon":5.40874,"is_reserved":false,"is_disabled":false,"rental_uris":{"android":"levelo://app?vid=caf11116-68e4-4652-ae18-4fe4b20da076","ios":"levelo://app?vid=caf11116-68e4-4652-ae18-4fe4b20da076"},"vehicle_type_id":"4","last_reported":1752041833,"current_range_meters":24800,"station_id":"ce4bhm92rcd13ifvqglg","pricing_plan_id":"cebpf4jnsgd1na2vs0mg"},