{"last_updated":1727259009,"ttl":60,"version":"2.2","data":{"bikes":[{"bike_id":"5277adc5-4c40-4c9f-9b79-715c47ddb28a","system_id":"levelo_inurba_marseille","lat":43.29957,"lon":5.38508,"is_reserved":false,"is_disabled":false,"rental_uris":{"android":"levelo://app?vid=5277adc5-4c40-4c9f-9b79-715c47ddb28a","ios":"levelo://app?vid=5277adc5-4c40-4c9f-9b79-715c47ddb28a"},"vehicle_type_id":"4","last_reported":1727259009,"current_range_meters":28400,"station_id":"ce4bgj92rcd13ifvqbd0","pricing_plan_id":"cebpf4jnsgd1na2vs0mg"},{"bike_id":"131f38a6-d932-4236-b71f-70b7e9de3dff","system_id":"levelo_inurba_marseille","lat":43.29587,"lon":5.37497,"is_reserved":false,"is_disabled":false,"rental_uris":{"android":"levelo://app?vid=131f38a6-d932-4236-b71f-70b7e9de3dff","ios":"levelo://app?vid=131f38a6-d932-4236-b71f-70b7e9de3dff"},"vehicle_type_id":"4","last_reported":1727259009,"current_range_meters":13600,"station_id":"ce4bgh92rcd13ifvqb50","pricing_plan_id":"cebpf4jnsgd1na2vs0mg"},{"bike_id":"6109ada7-505d-440e-a420-8d4d66c41f19","system_id":"levelo_inurba_marseille","lat":43.27438,"lon":5.42467,"is_reserved":false,"is_disabled":false,"rental_uris":{"android":"levelo://app?vid=6109ada7-505d-440e-a420-8d4d66c41f19","ios":"levelo://app?vid=6109ada7-505d-440e-a420-8d4d66c41f19"},"vehicle_type_id":"4","last_reported":1727259009,"current_range_meters":25200,"station_id":"","pricing_plan_id":"cebpf4jnsgd1na2vs0mg"},{"bike_id":"3fe61eae-fff5-435c-940c-609471f0f3fb","system_id":"levelo_inurba_marseille","lat":43.30543,"lon":5.36548,"is_reserved":false,"is_disabled":false,"rental_uris":{"android":"levelo://app?vid=3fe61eae-fff5-435c-940c-609471f0f3fb","ios":"levelo://app?vid=3fe61eae-fff5-435c-940c-609471f0f3fb"},"vehicle_type_id":"4","last_reported":1727259009,"current_range_meters":17200,"station_id":"ce4bgs12rcd13ifvqcag","pricing_plan_id":"cebpf4jnsgd1na2vs0mg"},{"bike_id":"f7a338af-1395-4aab-9a8f-5f637cc6b9d3","system_id":"levelo_inurba_marseille","lat":43.30901,"lon":5.36876,"is_reserved":false,"is_disabled":false,"rental_uris":{"android":"levelo://app?vid=f7a338af-1395-4aab-9a8f-5f637cc6b9d3","ios":"levelo://app?vid=f7a338af-1395-4aab-9a8f-5f637cc6b9d3"},"vehicle_type_id":"4","last_reported":1727259009,"current_range_meters":22000,"station_id":"ce4bgn92rcd13ifvqbvg","pricing_plan_id":"cebpf4jnsgd1na2vs0mg"},{"bike_id":"9de15766-f6e5-4718-b239-efcc3a94df68","system_id":"levelo_inurba_marseille","lat":43.30152,"lon":5.38088,"is_reserved":false,"is_disabled":false,"rental_uris":{"android":"levelo://app?vid=9de15766-f6e5-4718-b239-efcc3a94df68","ios":"levelo://app?vid=9de15766-f6e5-4718-b239-efcc3a94df68"},"vehicle_type_id":"4","last_reported":1727259009,"current_range_meters":38800,"station_id":"ce4bgjp2rcd13ifvqbh0","pricing_plan_id":"cebpf4jnsgd1na2vs0mg"},{"bike_id":"10fc6660-aa40-4ed8-9fb8-62949ea510f0","system_id":"levelo_inurba_marseille","lat":43.31324,"lon":5.39696,"is_reserved":false,"is_disabled":false,"rental_uris":{"android":"levelo://app?vid=10fc6660-aa40-4ed8-9fb8-62949ea510f0","ios":"levelo://app?vid=10fc6660-aa40-4ed8-9fb8-62949ea510f0"},"vehicle_type_id":"4","last_reported":1727259009,"current_range_meters":25200,"station_id":"ce4bgvp2rcd13ifvqcu0","pricing_plan_id":"cebpf4jnsgd1na2vs0mg"},{"bike_id":"a13a21d3-c9d7-4a90-83d9-baa8b0ca5eb2","system_id":"levelo_inurba_marseille","lat":43.28262,"lon":5.35063,"is_reserved":false,"is_disabled":false,"rental_uris":{"android":"levelo://app?vid=a13a21d3-c9d7-4a90-83d9-baa8b0ca5eb2","ios":"levelo://app?vid=a13a21d3-c9d7-4a90-83d9-baa8b0ca5eb2"},"vehicle_type_id":"4","last_reported":1727259009,"current_range_meters":30000,"station_id":"ce4bhbp2rcd13ifvqerg","pricing_plan_id":"cebpf4jnsgd1na2vs0mg"},{"bike_id":"b3b4ffea-4a69-495a-b61a-866742dfd2d7","system_id":"levelo_inurba_marseille","lat":43.337444,"lon":5.374475,"is_reserved":false,"is_disabled":false,"rental_uris":{"android":"levelo://app?vid=b3b4ffea-4a69-495a-b61a-866742dfd2d7","ios":"levelo://app?vid=b3b4ffea-4a69-495a-b61a-866742dfd2d7"},"vehicle_type_id":"4","last_reported":1727259009,"current_range_meters":35200,"station_id":"","pricing_plan_id":"cebpf4jnsgd1na2vs0mg"},{"bike_id":"25efd241-95d4-4957-9414-50676d4f1256","system_id":"levelo_inurba_marseille","lat":43.32652,"lon":5.40986,"is_reserved":false,"is_disabled":false,"rental_uris":{"android":"levelo://app?vid=25efd241-95d4-4957-9414-50676d4f1256","ios":"levelo://app?vid=25efd241-95d4-4957-9414-50676d4f1256"},"vehicle_type_id":"4","last_reported":1727259009,"current_range_meters":36800,"station_id":"ce4bhpp2rcd13ifvqhgg","pricing_plan_id":"cebpf4jnsgd1na2vs0mg"},{"bike_id":"4ac043ad-5ea1-485f-8c27-124cec421b8c","system_id":"levelo_inurba_marseille","lat":43.27816,"lon":5.40712,"is_reserved":false,"is_disabled":false,"rental_uris":{"android":"levelo://app?vid=4ac043ad-5ea1-485f-8c27-124cec421b8c","ios":"levelo://app?vid=4ac043ad-5ea1-485f-8c27-124cec421b8c"},"vehicle_type_id":"4","last_reported":1727259009,"current_range_meters":36400,"station_id":"ce4bhnh2rcd13ifvqgtg","pricing_plan_id":"cebpf4jnsgd1na2vs0mg"},{"bike_id":"82570b0d-38e2-4ab9-ba53-e02f5e0e5fc4","system_id":"levelo_inurba_marseille","lat":43.2916,"lon":5.37151,"is_reserved":false,"is_disabled":false,"rental_uris":{"android":"levelo://app?vid=82570b0d-38e2-4ab9-ba53-e02f5e0e5fc4","ios":"levelo://app?vid=82570b0d-38e2-4ab9-ba53-e02f5e0e5fc4"},"vehicle_type_id":"4","last_reported":1727259009,"current_range_meters":33200,"station_id":"ce4bha92rcd13ifvqeh0","pricing_plan_id":"cebpf4jnsgd1na2vs0mg"},{"bike_id":"dec73f4f-b681-4818-a068-daca63f0a22d","system_id":"levelo_inurba_marseille","lat":43.22937,"lon":5.35381,"is_reserved":false,"is_disabled":false,"rental_uris":{"android":"levelo://app?vid=dec73f4f-b681-4818-a068-daca63f0a22d","ios":"levelo://app?vid=dec73f4f-b681-4818-a068-daca63f0a22d"},"vehicle_type_id":"4","last_reported":1727259009,"current_range_meters":38400,"station_id":"cpo3532slgdg3j2ikp40","pricing_plan_id":"cebpf4jnsgd1na2vs0mg"},{"bike_id":"99ed4ece-98c1-4abe-a8d6-039d61e8a41f","system_id":"levelo_inurba_marseille","lat":43.29002,"lon":5.35602,"is_reserved":false,"is_disabled":false,"rental_uris":{"android":"levelo://app?vid=99ed4ece-98c1-4abe-a8d6-039d61e8a41f","ios":"levelo://app?vid=99ed4ece-98c1-4abe-a8d6-039d61e8a41f"},"vehicle_type_id":"4","last_reported":1727259009,"current_range_meters":22400,"station_id":"ce4bhb92rcd13ifvqen0","pricing_plan_id":"cebpf4jnsgd1na2vs0mg"},{"bike_id":"9926f8d4-52ff-41d7-995b-39e4b6d4cdc0","system_id":"levelo_inurba_marseille","lat":43.32487,"lon":5.36559,"is_reserved":false,"is_disabled":false,"rental_uris":{"android":"levelo://app?vid=9926f8d4-52ff-41d7-995b-39e4b6d4cdc0","ios":"levelo://app?vid=9926f8d4-52ff-41d7-995b-39e4b6d4cdc0"},"vehicle_type_id":"4","last_reported":1727259009,"current_range_meters":39200,"station_id":"ce4bhs12rcd13ifvqhvg","pricing_plan_id":"cebpf4jnsgd1na2vs0mg"},{"bike_id":"b364556d-d4ec-424f-98e4-9127b2ed7f4b","system_id":"levelo_inurba_marseille","lat":43.29369,"lon":5.37838,"is_reserved":false,"is_disabled":false,"rental_uris":{"android":"levelo://app?vid=b364556d-d4ec-424f-98e4-9127b2ed7f4b","ios":"levelo://app?vid=b364556d-d4ec-424f-98e4-9127b2ed7f4b"},"vehicle_type_id":"4","last_reported":1727259009,"current_range_meters":36400,"station_id":"ce4bgjh2rcd13ifvqbf0","pricing_plan_id":"cebpf4jnsgd1na2vs0mg"},{"bike_id":"bb12d251-5d23-49a2-a2a5-87d7ed7ece91","system_id":"levelo_inurba_marseille","lat":43.31372,"lon":5.36679,"is_reserved":false,"is_disabled":false,"rental_uris":{"android":"levelo://app?vid=bb12d251-5d23-49a2-a2a5-87d7ed7ece91","ios":"levelo://app?vid=bb12d251-5d23-49a2-a2a5-87d7ed7ece91"},"vehicle_type_id":"4","last_reported":1727259009,"current_range_meters":38400,"station_id":"ce4bgr92rcd13ifvqc6g","pricing_plan_id":"cebpf4jnsgd1na2vs0mg"},{"bike_id":"6ebd79af-e7b7-4220-b00f-b9299c7bd04f","system_id":"levelo_inurba_marseille","lat":43.27482,"lon":5.42454,"is_reserved":false,"is_disabled":false,"rental_uris":{"android":"levelo://app?vid=6ebd79af-e7b7-4220-b00f-b9299c7bd04f","ios":"levelo://app?vid=6ebd79af-e7b7-4220-b00f-b9299c7bd04f"},"vehicle_type_id":"4","last_reported":1727259009,"current_range_meters":28800,"station_id":"ce4bhn92rcd13ifvqgrg","pricing_plan_id":"cebpf4jnsgd1na2vs0mg"},{"bike_id":"d477464b-61be-4271-b05a-4891a6455bb3","system_id":"levelo_inurba_marseille","lat":43.24384,"lon":5.37053,"is_reserved":false,"is_disabled":false,"rental_uris":{"android":"levelo://app?vid=d477464b-61be-4271-b05a-4891a6455bb3","ios":"levelo://app?vid=d477464b-61be-4271-b05a-4891a6455bb3"},"vehicle_type_id":"4","last_reported":1727259009,"current_range_meters":25600,"station_id":"ce4bhhh2rcd13ifvqfk0","pricing_plan_id":"cebpf4jnsgd1na2vs0mg"},{"bike_id":"aeea4805-d17d-4c4c-a385-15625beb0d39","system_id":"levelo_inurba_marseille","lat":43.30292,"lon":5.36922,"is_reserved":false,"is_disabled":false,"rental_uris":{"android":"levelo://app?vid=aeea4805-d17d-4c4c-a385-15625beb0d39","ios":"levelo://app?vid=aeea4805-d17d-4c4c-a385-15625beb0d39"},"vehicle_type_id":"4","last_reported":1727259009,"current_range_meters":38800,"station_id":"ce4bgqh2rcd13ifvqc5g","pricing_plan_id":"cebpf4jnsgd1na2vs0mg"},{"bike_id":"cb63d342-63b2-41e3-8455-4366ca08c9e6","system_id":"levelo_inurba_marseille","lat":43.31357,"lon":5.3669,"is_reserved":false,"is_disabled":false,"rental_uris":{"android":"levelo://app?vid=cb63d342-63b2-41e3-8455-4366ca08c9e6","ios":"levelo://app?vid=cb63d342-63b2-41e3-8455-4366ca08c9e6"},"vehicle_type_id":"4","last_reported":1727259009,"current_range_meters":32800,"station_id":"ce4bgr92rcd13ifvqc6g","pricing_plan_id":"cebpf4jnsgd1na2vs0mg"},{"bike_id":"46fa38ec-b4b2-4d33-aeab-fdf60dc4a5d6","system_id":"levelo_inurba_marseille","lat":43.30536,"lon":5.36538,"is_reserved":false,"is_disabled":false,"rental_uris":{"android":"levelo://app?vid=46fa38ec-b4b2-4d33-aeab-fdf60dc4a5d6","ios":"levelo://app?vid=46fa38ec-b4b2-4d33-aeab-fdf60dc4a5d6"},"vehicle_type_id":"4","last_reported":1727259009,"current_range_meters":28400,"station_id":"ce4bgs12rcd13ifvqcag","pricing_plan_id":"cebpf4jnsgd1na2vs0mg"},{"bike_id":"35d46ebf-2c8d-40f1-ac89-c3284b1d1bec","system_id":"levelo_inurba_marseille","lat":43.29907,"lon":5.37453,"is_reserved":false,"is_disabled":false,"rental_uris":{"android":"levelo://app?vid=35d46ebf-2c8d-40f1-ac89-c3284b1d1bec","ios":"levelo://app?vid=35d46ebf-2c8d-40f1-ac89-c3284b1d1bec"},"vehicle_type_id":"4","last_reported":1727259009,"current_range_meters":36800,"station_id":"ce4bgjh2rcd13ifvqbg0","pricing_plan_id":"cebpf4jnsgd1na2vs0mg"},{"bike_id":"7737b815-6daf-41f0-8354-4b28ba75917f","system_id":"levelo_inurba_marseille","lat":43.30188,"lon":5.3982,"is_reserved":false,"is_disabled":false,"rental_uris":{"android":"levelo://app?vid=7737b815-6daf-41f0-8354-4b28ba75917f","ios":"levelo://app?vid=7737b815-6daf-41f0-8354-4b28ba75917f"},"vehicle_type_id":"4","last_reported":1727259009,"current_range_meters":17600,"station_id":"ce4bgvp2rcd13ifvqct0","pricing_plan_id":"cebpf4jnsgd1na2vs0mg"},{"bike_id":"b8d0ef95-6f66-4b45-a83c-7092471dbcda","system_id":"levelo_inurba_marseille","lat":43.26686,"lon":5.38271,"is_reserved":false,"is_disabled":false,"rental_uris":{"android":"levelo://app?vid=b8d0ef95-6f66-4b45-a83c-7092471dbcda","ios":"levelo://app?vid=b8d0ef95-6f66-4b45-a83c-7092471dbcda"},"vehicle_type_id":"4","last_reported":1727259009,"current_range_meters":25200,"station_id":"ce4bhg92rcd13ifvqf90","pricing_plan_id":"cebpf4jnsgd1na2vs0mg"},{"bike_id":"a3691229-f740-4615-913d-7e4fc3191580","system_id":"levelo_inurba_marseille","lat":43.2979,"lon":5.38116,"is_reserved":false,"is_disabled":false,"rental_uris":{"android":"levelo://app?vid=a3691229-f740-4615-913d-7e4fc3191580","ios":"levelo://app?vid=a3691229-f740-4615-913d-7e4fc3191580"},"vehicle_type_id":"4","last_reported":1727259009,"current_range_meters":26000,"station_id":"ce4bgip2rcd13ifvqbb0","pricing_plan_id":"cebpf4jnsgd1na2vs0mg"},{"bike_id":"836a9120-3836-4611-8ce4-eaea9bb5d922","system_id":"levelo_inurba_marseille","lat":43.26681,"lon":5.38271,"is_reserved":false,"is_disabled":false,"rental_uris":{"android":"levelo://app?vid=836a9120-3836-4611-8ce4-eaea9bb5d922","ios":"levelo://app?vid=836a9120-3836-4611-8ce4-eaea9bb5d922"},"vehicle_type_id":"4","last_reported":1727259009,"current_range_meters":3200,"station_id":"ce4bhg92rcd13ifvqf90","pricing_plan_id":"cebpf4jnsgd1na2vs0mg"},{"bike_id":"1a12c837-f89e-4ed8-8674-d39ae475ada8","system_id":"levelo_inurba_marseille","lat":43.26033,"lon":5.37548,"is_reserved":false,"is_disabled":false,"rental_uris":{"android":"levelo://app?vid=1a12c837-f89e-4ed8-8674-d39ae475ada8","ios":"levelo://app?vid=1a12c837-f89e-4ed8-8674-d39ae475ada8"},"vehicle_type_id":"4","last_reported":1727259009,"current_range_meters":37600,"station_id":"ce4bhgh2rcd13ifvqfa0","pricing_plan_id":"cebpf4jnsgd1na2vs0mg"},{"bike_id":"3b195df4-d71b-45c6-b4ee-0701cb9345da","system_id":"levelo_inurba_marseille","lat":43.30133,"lon":5.37421,"is_reserved":false,"is_disabled":false,"rental_uris":{"android":"levelo://app?vid=3b195df4-d71b-45c6-b4ee-0701cb9345da","ios":"levelo://app?vid=3b195df4-d71b-45c6-b4ee-0701cb9345da"},"vehicle_type_id":"4","last_reported":1727259009,"current_range_meters":27200,"station_id":"ce4bgs92rcd13ifvqcc0","pricing_plan_id":"cebpf4jnsgd1na2vs0mg"},{"bike_id":"f57f9a2b-463a-495e-b929-b7d110fc5488","system_id":"levelo_inurba_marseille","lat":43.2984,"lon":5.36265,"is_reserved":false,"is_disabled":false,"rental_uris":{"android":"levelo://app?vid=f57f9a2b-463a-495e-b929-b7d110fc5488","ios":"levelo://app?vid=f57f9a2b-463a-495e-b929-b7d110fc5488"},"vehicle_type_id":"4","last_reported":1727259009,"current_range_meters":12000,"station_id":"ce4bgpp2rcd13ifvqc3g","pricing_plan_id":"cebpf4jnsgd1na2vs0mg"},{"bike_id":"025a3640-34e0-41b1-9f03-688f7087332e","system_id":"levelo_inurba_marseille","lat":43.24073,"lon":5.37755,"is_reserved":false,"is_disabled":false,"rental_uris":{"android":"levelo://app?vid=025a3640-34e0-41b1-9f03-688f7087332e","ios":"levelo://app?vid=025a3640-34e0-41b1-9f03-688f7087332e"},"vehicle_type_id":"4","last_reported":1727259009,"current_range_meters":25600,"station_id":"ce4bhg12rcd13ifvqf60","pricing_plan_id":"cebpf4jnsgd1na2vs0mg"},{"bike_id":"86b6dccf-ea7c-412a-a291-bf2084731947","system_id":"levelo_inurba_marseille","lat":43.27373,"lon":5.3626,"is_reserved":false,"is_disabled":false,"rental_uris":{"android":"levelo://app?vid=86b6dccf-ea7c-412a-a291-bf2084731947","ios":"levelo://app?vid=86b6dccf-ea7c-412a-a291-bf2084731947"},"vehicle_type_id":"4","last_reported":1727259009,"current_range_meters":36800,"station_id":"ce4bhbh2rcd13ifvqeo0","pricing_plan_id":"cebpf4jnsgd1na2vs0mg"},{"bike_id":"018d8f2c-1f49-47f8-89f5-4514d0fac62d","system_id":"levelo_inurba_marseille","lat":43.27992,"lon":5.4165,"is_reserved":false,"is_disabled":false,"rental_uris":{"android":"levelo://app?vid=018d8f2c-1f49-47f8-89f5-4514d0fac62d","ios":"levelo://app?vid=018d8f2c-1f49-47f8-89f5-4514d0fac62d"},"vehicle_type_id":"4","last_reported":1727259009,"current_range_meters":3200,"station_id":"ce4bho12rcd13ifvqh1g","pricing_plan_id":"cebpf4jnsgd1na2vs0mg"},{"bike_id":"661c4b92-1dae-452a-9176-0eb449d0c367","system_id":"levelo_inurba_marseille","lat":43.30806,"lon":5.3815,"is_reserved":false,"is_disabled":false,"rental_uris":{"android":"levelo://app?vid=661c4b92-1dae-452a-9176-0eb449d0c367","ios":"levelo://app?vid=661c4b92-1dae-452a-9176-0eb449d0c367"},"vehicle_type_id":"4","last_reported":1727259009,"current_range_meters":36800,"station_id":"ce4bgt12rcd13ifvqce0","pricing_plan_id":"cebpf4jnsgd1na2vs0mg"},{"bike_id":"7a8458d5-44ac-4f2e-abef-3f01eb31f7ca","system_id":"levelo_inurba_marseille","lat":43.337444,"lon":5.374475,"is_reserved":false,"is_disabled":false,"rental_uris":{"android":"levelo://app?vid=7a8458d5-44ac-4f2e-abef-3f01eb31f7ca","ios":"levelo://app?vid=7a8458d5-44ac-4f2e-abef-3f01eb31f7ca"},"vehicle_type_id":"4","last_reported":1727259009,"current_range_meters":26000,"station_id":"","pricing_plan_id":"cebpf4jnsgd1na2vs0mg"},{"bike_id":"ccc4a9ac-4137-49df-8c2d-479eb8e7cea8","system_id":"levelo_inurba_marseille","lat":43.2971,"lon":5.36594,"is_reserved":false,"is_disabled":false,"rental_uris":{"android":"levelo://app?vid=ccc4a9ac-4137-49df-8c2d-479eb8e7cea8","ios":"levelo://app?vid=ccc4a9ac-4137-49df-8c2d-479eb8e7cea8"},"vehicle_type_id":"4","last_reported":1727259009,"current_range_meters":27200,"station_id":"ce4bgn12rcd13ifvqbt0","pricing_plan_id":"cebpf4jnsgd1na2vs0mg"},{"bike_id":"e86d5d26-054d-4691-88ed-a5bd7c9707d9","system_id":"levelo_inurba_marseille","lat":43.23065,"lon":5.35488,"is_reserved":false,"is_disabled":false,"rental_uris":{"android":"levelo://app?vid=e86d5d26-054d-4691-88ed-a5bd7c9707d9","ios":"levelo://app?vid=e86d5d26-054d-4691-88ed-a5bd7c9707d9"},"vehicle_type_id":"4","last_reported":1727259009,"current_range_meters":14000,"station_id":"cpo3342slgdg3j2ifvpg","pricing_plan_id":"cebpf4jnsgd1na2vs0mg"},{"bike_id":"5b80f534-31aa-493e-a7af-c5c257fa4e9e","system_id":"levelo_inurba_marseille","lat":43.29674,"lon":5.37306,"is_reserved":false,"is_disabled":false,"rental_uris":{"android":"levelo://app?vid=5b80f534-31aa-493e-a7af-c5c257fa4e9e","ios":"levelo://app?vid=5b80f534-31aa-493e-a7af-c5c257fa4e9e"},"vehicle_type_id":"4","last_reported":1727259009,"current_range_meters":38800,"station_id":"ce4bgk12rcd13ifvqbj0","pricing_plan_id":"cebpf4jnsgd1na2vs0mg"},{"bike_id":"a5bed6c7-0181-4d5a-bf16-c9aae083ea7a","system_id":"levelo_inurba_marseille","lat":43.27485,"lon":5.42454,"is_reserved":false,"is_disabled":false,"rental_uris":{"android":"levelo://app?vid=a5bed6c7-0181-4d5a-bf16-c9aae083ea7a","ios":"levelo://app?vid=a5bed6c7-0181-4d5a-bf16-c9aae083ea7a"},"vehicle_type_id":"4","last_reported":1727259009,"current_range_meters":27600,"station_id":"ce4bhn92rcd13ifvqgrg","pricing_plan_id":"cebpf4jnsgd1na2vs0mg"},{"bike_id":"0b1e4c37-3578-47d3-9fbc-3d280b331de0","system_id":"levelo_inurba_marseille","lat":43.33736,"lon":5.37443,"is_reserved":false,"is_disabled":false,"rental_uris":{"android":"levelo://app?vid=0b1e4c37-3578-47d3-9fbc-3d280b331de0","ios":"levelo://app?vid=0b1e4c37-3578-47d3-9fbc-3d280b331de0"},"vehicle_type_id":"4","last_reported":1727259009,"current_range_meters":10800,"station_id":"","pricing_plan_id":"cebpf4jnsgd1na2vs0mg"},{"bike_id":"48a1014a-70e8-4865-a31e-f528f055402d","system_id":"levelo_inurba_marseille","lat":43.3116,"lon":5.3871,"is_reserved":false,"is_disabled":false,"rental_uris":{"android":"levelo://app?vid=48a1014a-70e8-4865-a31e-f528f055402d","ios":"levelo://app?vid=48a1014a-70e8-4865-a31e-f528f055402d"},"vehicle_type_id":"4","last_reported":1727259009,"current_range_meters":10800,"station_id":"ce4bgv12rcd13ifvqcp0","pricing_plan_id":"cebpf4jnsgd1na2vs0mg"},{"bike_id":"15300eb9-9609-4833-bf7c-718f7db799de","system_id":"levelo_inurba_marseille","lat":43.25935,"lon":5.40896,"is_reserved":false,"is_disabled":false,"rental_uris":{"android":"levelo://app?vid=15300eb9-9609-4833-bf7c-718f7db799de","ios":"levelo://app?vid=15300eb9-9609-4833-bf7c-718f7db799de"},"vehicle_type_id":"4","last_reported":1727259009,"current_range_meters":22400,"station_id":"ce4bhm92rcd13ifvqglg","pricing_plan_id":"cebpf4jnsgd1na2vs0mg"},{"bike_id":"6327c9ec-d66c-465e-93f3-b4e1d757683e","system_id":"levelo_inurba_marseille","lat":43.26209,"lon":5.37441,"is_reserved":false,"is_disabled":false,"rental_uris":{"android":"levelo://app?vid=6327c9ec-d66c-465e-93f3-b4e1d757683e","ios":"levelo://app?vid=6327c9ec-d66c-465e-93f3-b4e1d757683e"},"vehicle_type_id":"4","last_reported":1727259009,"current_range_meters":30800,"station_id":"ce4bhgp2rcd13ifvqfc0","pricing_plan_id":"cebpf4jnsgd1na2vs0mg"},{"bike_id":"dd465522-3087-49e2-9113-2124bc39ada9","system_id":"levelo_inurba_marseille","lat":43.28456,"lon":5.35885,"is_reserved":false,"is_disabled":false,"rental_uris":{"android":"levelo://app?vid=dd465522-3087-49e2-9113-2124bc39ada9","ios":"levelo://app?vid=dd465522-3087-49e2-9113-2124bc39ada9"},"vehicle_type_id":"4","last_reported":1727259009,"current_range_meters":11200,"station_id":"ce4bhah2rcd13ifvqei0","pricing_plan_id":"cebpf4jnsgd1na2vs0mg"},{"bike_id":"c9caa42e-e8a7-4b6e-b172-795704959513","system_id":"levelo_inurba_marseille","lat":43.30906,"lon":5.3685,"is_reserved":false,"is_disabled":false,"rental_uris":{"android":"levelo://app?vid=c9caa42e-e8a7-4b6e-b172-795704959513","ios":"levelo://app?vid=c9caa42e-e8a7-4b6e-b172-795704959513"},"vehicle_type_id":"4","last_reported":1727259009,"current_range_meters":32000,"station_id":"ce4bgn92rcd13ifvqbvg","pricing_plan_id":"cebpf4jnsgd1na2vs0mg"},{"bike_id":"560ec151-6932-49c2-96c9-d829b4dcbf21","system_id":"levelo_inurba_marseille","lat":43.2929,"lon":5.37451,"is_reserved":false,"is_disabled":false,"rental_uris":{"android":"levelo://app?vid=560ec151-6932-49c2-96c9-d829b4dcbf21","ios":"levelo://app?vid=560ec151-6932-49c2-96c9-d829b4dcbf21"},"vehicle_type_id":"4","last_reported":1727259009,"current_range_meters":16800,"station_id":"ce4bgi12rcd13ifvqb70","pricing_plan_id":"cebpf4jnsgd1na2vs0mg"},{"bike_id":"1d06b237-a8aa-4a35-b362-32dd906f65d3","system_id":"levelo_inurba_marseille","lat":43.29963,"lon":5.38497,"is_reserved":false,"is_disabled":false,"rental_uris":{"android":"levelo://app?vid=1d06b237-a8aa-4a35-b362-32dd906f65d3","ios":"levelo://app?vid=1d06b237-a8aa-4a35-b362-32dd906f65d3"},"vehicle_type_id":"4","last_reported":1727259009,"current_range_meters":38800,"station_id":"ce4bgj92rcd13ifvqbd0","pricing_plan_id":"cebpf4jnsgd1na2vs0mg"},{"bike_id":"d32afec2-3e03-4df6-9495-d6ecc4c3ce3d","system_id":"levelo_inurba_marseille","lat":43.31221,"lon":5.36858,"is_reserved":false,"is_disabled":false,"rental_uris":{"android":"levelo://app?vid=d32afec2-3e03-4df6-9495-d6ecc4c3ce3d","ios":"levelo://app?vid=d32afec2-3e03-4df6-9495-d6ecc4c3ce3d"},"vehicle_type_id":"4","last_reported":1727259009,"current_range_meters":24400,"station_id":"ce4bgl92rcd13ifvqbq0","pricing_plan_id":"cebpf4jnsgd1na2vs0mg"},{"bike_id":"d5295ca5-7669-4790-822f-8f258ba64fec","system_id":"levelo_inurba_marseille","lat":43.26552,"lon":5.37282,"is_reserved":false,"is_disabled":false,"rental_uris":{"android":"levelo://app?vid=d5295ca5-7669-4790-822f-8f258ba64fec","ios":"levelo://app?vid=d5295ca5-7669-4790-822f-8f258ba64fec"},"vehicle_type_id":"4","last_reported":1727259009,"current_range_meters":24400,"station_id":"ce4bhg12rcd13ifvqf70","pricing_plan_id":"cebpf4jnsgd1na2vs0mg"},{"bike_id":"cefb6643-fc89-4b04-b95f-6cff2759399c","system_id":"levelo_inurba_marseille","lat":43.32294,"lon":5.38273,"is_reserved":false,"is_disabled":false,"rental_uris":{"android":"levelo://app?vid=cefb6643-fc89-4b04-b95f-6cff2759399c","ios":"levelo://app?vid=cefb6643-fc89-4b04-b95f-6cff2759399c"},"vehicle_type_id":"4","last_reported":1727259009,"current_range_meters":39200,"station_id":"ce4bhr12rcd13ifvqhqg","pricing_plan_id":"cebpf4jnsgd1na2vs0mg"},{"bike_id":"88cf1e9e-bae5-4242-b0c9-d6f998116d6a","system_id":"levelo_inurba_marseille","lat":43.30539,"lon":5.36539,"is_reserved":false,"is_disabled":false,"rental_uris":{"android":"levelo://app?vid=88cf1e9e-bae5-4242-b0c9-d6f998116d6a","ios":"levelo://app?vid=88cf1e9e-bae5-4242-b0c9-d6f998116d6a"},"vehicle_type_id":"4","last_reported":1727259009,"current_range_meters":27600,"station_id":"ce4bgs12rcd13ifvqcag","pricing_plan_id":"cebpf4jnsgd1na2vs0mg"},{"bike_id":"02fa48cb-472c-4868-a0bd-be777312bbdb","system_id":"levelo_inurba_marseille","lat":43.30084,"lon":5.3907,"is_reserved":false,"is_disabled":false,"rental_uris":{"android":"levelo://app?vid=02fa48cb-472c-4868-a0bd-be777312bbdb","ios":"levelo://app?vid=02fa48cb-472c-4868-a0bd-be777312bbdb"},"vehicle_type_id":"4","last_reported":1727259009,"current_range_meters":38000,"station_id":"ce4bh192rcd13ifvqdb0","pricing_plan_id":"cebpf4jnsgd1na2vs0mg"},{"bike_id":"44944327-804d-4efd-957d-c88684856ece","system_id":"levelo_inurba_marseille","lat":43.3377,"lon":5.37436,"is_reserved":false,"is_disabled":false,"rental_uris":{"android":"levelo://app?vid=44944327-804d-4efd-957d-c88684856ece","ios":"levelo://app?vid=44944327-804d-4efd-957d-c88684856ece"},"vehicle_type_id":"4","last_reported":1727259009,"current_range_meters":36800,"station_id":"","pricing_plan_id":"cebpf4jnsgd1na2vs0mg"},{"bike_id":"c41f74aa-939b-4e11-af58-cbe3613d9e0b","system_id":"levelo_inurba_marseille","lat":43.29971,"lon":5.38492,"is_reserved":false,"is_disabled":false,"rental_uris":{"android":"levelo://app?vid=c41f74aa-939b-4e11-af58-cbe3613d9e0b","ios":"levelo://app?vid=c41f74aa-939b-4e11-af58-cbe3613d9e0b"},"vehicle_type_id":"4","last_reported":1727259009,"current_range_meters":36800,"station_id":"ce4bgj92rcd13ifvqbd0","pricing_plan_id":"cebpf4jnsgd1na2vs0mg"},{"bike_id":"c616d233-ea67-4895-8880-51b610224d27","system_id":"levelo_inurba_marseille","lat":43.30542,"lon":5.365483,"is_reserved":false,"is_disabled":false,"rental_uris":{"android":"levelo://app?vid=c616d233-ea67-4895-8880-51b610224d27","ios":"levelo://app?vid=c616d233-ea67-4895-8880-51b610224d27"},"vehicle_type_id":"4","last_reported":1727259009,"current_range_meters":16400,"station_id":"ce4bgs12rcd13ifvqcag","pricing_plan_id":"cebpf4jnsgd1na2vs0mg"},{"bike_id":"76283a7a-d652-4a31-a3dd-020438b6b2e2","system_id":"levelo_inurba_marseille","lat":43.30889,"lon":5.36857,"is_reserved":false,"is_disabled":false,"rental_uris":{"android":"levelo://app?vid=76283a7a-d652-4a31-a3dd-020438b6b2e2","ios":"levelo://app?vid=76283a7a-d652-4a31-a3dd-020438b6b2e2"},"vehicle_type_id":"4","last_reported":1727259009,"current_range_meters":37600,"station_id":"ce4bgn92rcd13ifvqbvg","pricing_plan_id":"cebpf4jnsgd1na2vs0mg"},{"bike_id":"25c2da3d-9bb6-48b8-8579-2ff6744c67cb","system_id":"levelo_inurba_marseille","lat":43.23153,"lon":5.43711,"is_reserved":false,"is_disabled":false,"rental_uris":{"android":"levelo://app?vid=25c2da3d-9bb6-48b8-8579-2ff6744c67cb","ios":"levelo://app?vid=25c2da3d-9bb6-48b8-8579-2ff6744c67cb"},"vehicle_type_id":"4","last_reported":1727259009,"current_range_meters":37600,"station_id":"ce4bhmp2rcd13ifvqgog","pricing_plan_id":"cebpf4jnsgd1na2vs0mg"},{"bike_id":"122ace9b-7a6c-42e7-8d05-0b17e62223f9","system_id":"levelo_inurba_marseille","lat":43.28696,"lon":5.39975,"is_reserved":false,"is_disabled":false,"rental_uris":{"android":"levelo://app?vid=122ace9b-7a6c-42e7-8d05-0b17e62223f9","ios":"levelo://app?vid=122ace9b-7a6c-42e7-8d05-0b17e62223f9"},"vehicle_type_id":"4","last_reported":1727259009,"current_range_meters":15200,"station_id":"ce4bho92rcd13ifvqh3g","pricing_plan_id":"cebpf4jnsgd1na2vs0mg"},{"bike_id":"908d9174-fcfd-458b-b0f0-554f56187ce8","system_id":"levelo_inurba_marseille","lat":43.2465,"lon":5.38893,"is_reserved":false,"is_disabled":false,"rental_uris":{"android":"levelo://app?vid=908d9174-fcfd-458b-b0f0-554f56187ce8","ios":"levelo://app?vid=908d9174-fcfd-458b-b0f0-554f56187ce8"},"vehicle_type_id":"4","last_reported":1727259009,"current_range_meters":28800,"station_id":"ce4bhg12rcd13ifvqf60","pricing_plan_id":"cebpf4jnsgd1na2vs0mg"},{"bike_id":"79a05bb1-ccec-47f0-8ebd-1f95854549f8","system_id":"levelo_inurba_marseille","lat":43.31285,"lon":5.38042,"is_reserved":false,"is_disabled":false,"rental_uris":{"android":"levelo://app?vid=79a05bb1-ccec-47f0-8ebd-1f95854549f8","ios":"levelo://app?vid=79a05bb1-ccec-47f0-8ebd-1f95854549f8"},"vehicle_type_id":"4","last_reported":1727259009,"current_range_meters":11600,"station_id":"","pricing_plan_id":"cebpf4jnsgd1na2vs0mg"},{"bike_id":"82a46f4c-338e-4f2c-bb15-b73bebda5189","system_id":"levelo_inurba_marseille","lat":43.23148,"lon":5.4372,"is_reserved":false,"is_disabled":false,"rental_uris":{"android":"levelo://app?vid=82a46f4c-338e-4f2c-bb15-b73bebda5189","ios":"levelo://app?vid=82a46f4c-338e-4f2c-bb15-b73bebda5189"},"vehicle_type_id":"4","last_reported":1727259009,"current_range_meters":37600,"station_id":"ce4bhmp2rcd13ifvqgog","pricing_plan_id":"cebpf4jnsgd1na2vs0mg"},{"bike_id":"a7dda44d-b4e8-46a3-80c6-5567c11ca62e","system_id":"levelo_inurba_marseille","lat":43.3054,"lon":5.38428,"is_reserved":false,"is_disabled":false,"rental_uris":{"android":"levelo://app?vid=a7dda44d-b4e8-46a3-80c6-5567c11ca62e","ios":"levelo://app?vid=a7dda44d-b4e8-46a3-80c6-5567c11ca62e"},"vehicle_type_id":"4","last_reported":1727259009,"current_range_meters":4800,"station_id":"ce4bgg92rcd13ifvqb30","pricing_plan_id":"cebpf4jnsgd1na2vs0mg"},{"bike_id":"73477a2f-63ea-472b-bce9-5356dd705210","system_id":"levelo_inurba_marseille","lat":43.29105,"lon":5.38128,"is_reserved":false,"is_disabled":false,"rental_uris":{"android":"levelo://app?vid=73477a2f-63ea-472b-bce9-5356dd705210","ios":"levelo://app?vid=73477a2f-63ea-472b-bce9-5356dd705210"},"vehicle_type_id":"4","last_reported":1727259009,"current_range_meters":25200,"station_id":"ce4bgi92rcd13ifvqb90","pricing_plan_id":"cebpf4jnsgd1na2vs0mg"},{"bike_id":"5b12a650-46c3-42bd-802a-cfdc13bbbac9","system_id":"levelo_inurba_marseille","lat":43.33746,"lon":5.37482,"is_reserved":false,"is_disabled":false,"rental_uris":{"android":"levelo://app?vid=5b12a650-46c3-42bd-802a-cfdc13bbbac9","ios":"levelo://app?vid=5b12a650-46c3-42bd-802a-cfdc13bbbac9"},"vehicle_type_id":"4","last_reported":1727259009,"current_range_meters":36800,"station_id":"","pricing_plan_id":"cebpf4jnsgd1na2vs0mg"},{"bike_id":"796cb342-ddc2-46b9-af55-e1044983438d","system_id":"levelo_inurba_marseille","lat":43.30312,"lon":5.36906,"is_reserved":false,"is_disabled":false,"rental_uris":{"android":"levelo://app?vid=796cb342-ddc2-46b9-af55-e1044983438d","ios":"levelo://app?vid=796cb342-ddc2-46b9-af55-e1044983438d"},"vehicle_type_id":"4","last_reported":1727259009,"current_range_meters":33200,"station_id":"ce4bgqh2rcd13ifvqc5g","pricing_plan_id":"cebpf4jnsgd1na2vs0mg"},{"bike_id":"ebeb70da-8ff5-40cf-ac44-86d03368836f","system_id":"levelo_inurba_marseille","lat":43.293671,"lon":5.378456,"is_reserved":false,"is_disabled":false,"rental_uris":{"android":"levelo://app?vid=ebeb70da-8ff5-40cf-ac44-86d03368836f","ios":"levelo://app?vid=ebeb70da-8ff5-40cf-ac44-86d03368836f"},"vehicle_type_id":"4","last_reported":1727259009,"current_range_meters":8400,"station_id":"ce4bhah2rcd13ifvqej0","pricing_plan_id":"cebpf4jnsgd1na2vs0mg"},{"bike_id":"bf118c14-84c8-488e-853b-532bada62136","system_id":"levelo_inurba_marseille","lat":43.29005,"lon":5.35601,"is_reserved":false,"is_disabled":false,"rental_uris":{"android":"levelo://app?vid=bf118c14-84c8-488e-853b-532bada62136","ios":"levelo://app?vid=bf118c14-84c8-488e-853b-532bada62136"},"vehicle_type_id":"4","last_reported":1727259009,"current_range_meters":38800,"station_id":"ce4bhb92rcd13ifvqen0","pricing_plan_id":"cebpf4jnsgd1na2vs0mg"},{"bike_id":"3fb94ac6-1872-4a49-be5f-fc77bf5b3901","system_id":"levelo_inurba_marseille","lat":43.30907,"lon":5.36858,"is_reserved":false,"is_disabled":false,"rental_uris":{"android":"levelo://app?vid=3fb94ac6-1872-4a49-be5f-fc77bf5b3901","ios":"levelo://app?vid=3fb94ac6-1872-4a49-be5f-fc77bf5b3901"},"vehicle_type_id":"4","last_reported":1727259009,"current_range_meters":36800,"station_id":"ce4bgn92rcd13ifvqbvg","pricing_plan_id":"cebpf4jnsgd1na2vs0mg"},{"bike_id":"502cbdd1-7512-43b9-8e5c-8a510463b77f","system_id":"levelo_inurba_marseille","lat":43.25935,"lon":5.40908,"is_reserved":false,"is_disabled":false,"rental_uris":{"android":"levelo://app?vid=502cbdd1-7512-43b9-8e5c-8a510463b77f","ios":"levelo://app?vid=502cbdd1-7512-43b9-8e5c-8a510463b77f"},"vehicle_type_id":"4","last_reported":1727259009,"current_range_meters":19600,"station_id":"ce4bhm92rcd13ifvqglg","pricing_plan_id":"cebpf4jnsgd1na2vs0mg"},{"bike_id":"ecb70881-b110-48a8-b751-24b4690d4031","system_id":"levelo_inurba_marseille","lat":43.23191,"lon":5.39976,"is_reserved":false,"is_disabled":false,"rental_uris":{"android":"levelo://app?vid=ecb70881-b110-48a8-b751-24b4690d4031","ios":"levelo://app?vid=ecb70881-b110-48a8-b751-24b4690d4031"},"vehicle_type_id":"4","last_reported":1727259009,"current_range_meters":8000,"station_id":"ce4bhn12rcd13ifvqgqg","pricing_plan_id":"cebpf4jnsgd1na2vs0mg"},{"bike_id":"d8a8068d-65ed-4f41-b2cf-23a1db74680a","system_id":"levelo_inurba_marseille","lat":43.3137,"lon":5.36679,"is_reserved":false,"is_disabled":false,"rental_uris":{"android":"levelo://app?vid=d8a8068d-65ed-4f41-b2cf-23a1db74680a","ios":"levelo://app?vid=d8a8068d-65ed-4f41-b2cf-23a1db74680a"},"vehicle_type_id":"4","last_reported":1727259009,"current_range_meters":28000,"station_id":"ce4bgr92rcd13ifvqc6g","pricing_plan_id":"cebpf4jnsgd1na2vs0mg"},{"bike_id":"25bd7405-be80-4a77-a761-8a1efed52652","system_id":"levelo_inurba_marseille","lat":43.299,"lon":5.43655,"is_reserved":false,"is_disabled":false,"rental_uris":{"android":"levelo://app?vid=25bd7405-be80-4a77-a761-8a1efed52652","ios":"levelo://app?vid=25bd7405-be80-4a77-a761-8a1efed52652"},"vehicle_type_id":"4","last_reported":1727259009,"current_range_meters":39200,"station_id":"ce4bhpp2rcd13ifvqhfg","pricing_plan_id":"cebpf4jnsgd1na2vs0mg"},{"bike_id":"bbd31db5-c137-4320-95f9-7cb19235dc07","system_id":"levelo_inurba_marseille","lat":43.30797,"lon":5.43518,"is_reserved":false,"is_disabled":false,"rental_uris":{"android":"levelo://app?vid=bbd31db5-c137-4320-95f9-7cb19235dc07","ios":"levelo://app?vid=bbd31db5-c137-4320-95f9-7cb19235dc07"},"vehicle_type_id":"4","last_reported":1727259009,"current_range_meters":38800,"station_id":"ce4bhph2rcd13ifvqheg","pricing_plan_id":"cebpf4jnsgd1na2vs0mg"},{"bike_id":"f6275728-f078-4fe3-a4cc-467a5a2ab004","system_id":"levelo_inurba_marseille","lat":43.31475,"lon":5.36952,"is_reserved":false,"is_disabled":false,"rental_uris":{"android":"levelo://app?vid=f6275728-f078-4fe3-a4cc-467a5a2ab004","ios":"levelo://app?vid=f6275728-f078-4fe3-a4cc-467a5a2ab004"},"vehicle_type_id":"4","last_reported":1727259009,"current_range_meters":35600,"station_id":"","pricing_plan_id":"cebpf4jnsgd1na2vs0mg"},{"bike_id":"124ed7b5-473e-4a00-a600-343137f4cef9","system_id":"levelo_inurba_marseille","lat":43.33722,"lon":5.39182,"is_reserved":false,"is_disabled":false,"rental_uris":{"android":"levelo://app?vid=124ed7b5-473e-4a00-a600-343137f4cef9","ios":"levelo://app?vid=124ed7b5-473e-4a00-a600-343137f4cef9"},"vehicle_type_id":"4","last_reported":1727259009,"current_range_meters":27600,"station_id":"ce4bhr92rcd13ifvqhsg","pricing_plan_id":"cebpf4jnsgd1na2vs0mg"},{"bike_id":"0728f0ed-31f2-4606-8bb7-4a823154a64b","system_id":"levelo_inurba_marseille","lat":43.30536,"lon":5.36697,"is_reserved":false,"is_disabled":false,"rental_uris":{"android":"levelo://app?vid=0728f0ed-31f2-4606-8bb7-4a823154a64b","ios":"levelo://app?vid=0728f0ed-31f2-4606-8bb7-4a823154a64b"},"vehicle_type_id":"4","last_reported":1727259009,"current_range_meters":31200,"station_id":"ce4bgrp2rcd13ifvqc9g","pricing_plan_id":"cebpf4jnsgd1na2vs0mg"},{"bike_id":"0241c604-0077-49ef-82e0-189955129125","system_id":"levelo_inurba_marseille","lat":43.27965,"lon":5.38717,"is_reserved":false,"is_disabled":false,"rental_uris":{"android":"levelo://app?vid=0241c604-0077-49ef-82e0-189955129125","ios":"levelo://app?vid=0241c604-0077-49ef-82e0-189955129125"},"vehicle_type_id":"4","last_reported":1727259009,"current_range_meters":32400,"station_id":"ce4bhg12rcd13ifvqf80","pricing_plan_id":"cebpf4jnsgd1na2vs0mg"},{"bike_id":"e4b18f69-ea5b-4e69-83ca-668b2a5eda2a","system_id":"levelo_inurba_marseille","lat":43.27893,"lon":5.38013,"is_reserved":false,"is_disabled":false,"rental_uris":{"android":"levelo://app?vid=e4b18f69-ea5b-4e69-83ca-668b2a5eda2a","ios":"levelo://app?vid=e4b18f69-ea5b-4e69-83ca-668b2a5eda2a"},"vehicle_type_id":"4","last_reported":1727259009,"current_range_meters":35200,"station_id":"ce4bhf92rcd13ifvqf50","pricing_plan_id":"cebpf4jnsgd1na2vs0mg"},{"bike_id":"13a1e33e-798f-4bb2-8dc3-298b7f165b22","system_id":"levelo_inurba_marseille","lat":43.29022,"lon":5.37564,"is_reserved":false,"is_disabled":false,"rental_uris":{"android":"levelo://app?vid=13a1e33e-798f-4bb2-8dc3-298b7f165b22","ios":"levelo://app?vid=13a1e33e-798f-4bb2-8dc3-298b7f165b22"},"vehicle_type_id":"4","last_reported":1727259009,"current_range_meters":38400,"station_id":"ce4bh692rcd13ifvqe90","pricing_plan_id":"cebpf4jnsgd1na2vs0mg"},{"bike_id":"d18e33d1-440e-4c0b-9a8b-2d2580d7559d","system_id":"levelo_inurba_marseille","lat":43.32484,"lon":5.36563,"is_reserved":false,"is_disabled":false,"rental_uris":{"android":"levelo://app?vid=d18e33d1-440e-4c0b-9a8b-2d2580d7559d","ios":"levelo://app?vid=d18e33d1-440e-4c0b-9a8b-2d2580d7559d"},"vehicle_type_id":"4","last_reported":1727259009,"current_range_meters":3600,"station_id":"ce4bhs12rcd13ifvqhvg","pricing_plan_id":"cebpf4jnsgd1na2vs0mg"},{"bike_id":"a7eee6ce-0022-4354-b743-58dc97eb3988","system_id":"levelo_inurba_marseille","lat":43.29367,"lon":5.37832,"is_reserved":false,"is_disabled":false,"rental_uris":{"android":"levelo://app?vid=a7eee6ce-0022-4354-b743-58dc97eb3988","ios":"levelo://app?vid=a7eee6ce-0022-4354-b743-58dc97eb3988"},"vehicle_type_id":"4","last_reported":1727259009,"current_range_meters":28400,"station_id":"ce4bgjh2rcd13ifvqbf0","pricing_plan_id":"cebpf4jnsgd1na2vs0mg"},{"bike_id":"9e0d7cb9-bd10-47a4-932f-0e2d3b375713","system_id":"levelo_inurba_marseille","lat":43.23152,"lon":5.43722,"is_reserved":false,"is_disabled":false,"rental_uris":{"android":"levelo://app?vid=9e0d7cb9-bd10-47a4-932f-0e2d3b375713","ios":"levelo://app?vid=9e0d7cb9-bd10-47a4-932f-0e2d3b375713"},"vehicle_type_id":"4","last_reported":1727259009,"current_range_meters":31200,"station_id":"ce4bhmp2rcd13ifvqgog","pricing_plan_id":"cebpf4jnsgd1na2vs0mg"},{"bike_id":"dd59969c-92f1-4a29-9626-db2ce1115720","system_id":"levelo_inurba_marseille","lat":43.31704,"lon":5.37746,"is_reserved":false,"is_disabled":false,"rental_uris":{"android":"levelo://app?vid=dd59969c-92f1-4a29-9626-db2ce1115720","ios":"levelo://app?vid=dd59969c-92f1-4a29-9626-db2ce1115720"},"vehicle_type_id":"4","last_reported":1727259009,"current_range_meters":38800,"station_id":"ce4bgth2rcd13ifvqch0","pricing_plan_id":"cebpf4jnsgd1na2vs0mg"},{"bike_id":"1802deb5-1c46-4f67-afa3-157e0fdc0220","system_id":"levelo_inurba_marseille","lat":43.27811,"lon":5.40716,"is_reserved":false,"is_disabled":false,"rental_uris":{"android":"levelo://app?vid=1802deb5-1c46-4f67-afa3-157e0fdc0220","ios":"levelo://app?vid=1802deb5-1c46-4f67-afa3-157e0fdc0220"},"vehicle_type_id":"4","last_reported":1727259009,"current_range_meters":24800,"station_id":"ce4bhnh2rcd13ifvqgtg","pricing_plan_id":"cebpf4jnsgd1na2vs0mg"},{"bike_id":"dd242317-41e5-44f2-bc98-6bc74d7c5925","system_id":"levelo_inurba_marseille","lat":43.23154,"lon":5.43704,"is_reserved":false,"is_disabled":false,"rental_uris":{"android":"levelo://app?vid=dd242317-41e5-44f2-bc98-6bc74d7c5925","ios":"levelo://app?vid=dd242317-41e5-44f2-bc98-6bc74d7c5925"},"vehicle_type_id":"4","last_reported":1727259009,"current_range_meters":22000,"station_id":"ce4bhmp2rcd13ifvqgog","pricing_plan_id":"cebpf4jnsgd1na2vs0mg"},{"bike_id":"2fb0fc57-8a81-4d2e-a35d-ac88f05ffb63","system_id":"levelo_inurba_marseille","lat":43.33604,"lon":5.41026,"is_reserved":false,"is_disabled":false,"rental_uris":{"android":"levelo://app?vid=2fb0fc57-8a81-4d2e-a35d-ac88f05ffb63","ios":"levelo://app?vid=2fb0fc57-8a81-4d2e-a35d-ac88f05ffb63"},"vehicle_type_id":"4","last_reported":1727259009,"current_range_meters":8400,"station_id":"ce4bhqh2rcd13ifvqhmg","pricing_plan_id":"cebpf4jnsgd1na2vs0mg"},{"bike_id":"6b05d1b6-58bb-4caa-86c1-fd0559805b4c","system_id":"levelo_inurba_marseille","lat":43.25497,"lon":5.37652,"is_reserved":false,"is_disabled":false,"rental_uris":{"android":"levelo://app?vid=6b05d1b6-58bb-4caa-86c1-fd0559805b4c","ios":"levelo://app?vid=6b05d1b6-58bb-4caa-86c1-fd0559805b4c"},"vehicle_type_id":"4","last_reported":1727259009,"current_range_meters":17600,"station_id":"ce4bhh12rcd13ifvqff0","pricing_plan_id":"cebpf4jnsgd1na2vs0mg"},{"bike_id":"7d1c5f24-b2c4-4b39-a45e-5cd31c748af9","system_id":"levelo_inurba_marseille","lat":43.32482,"lon":5.36565,"is_reserved":false,"is_disabled":false,"rental_uris":{"android":"levelo://app?vid=7d1c5f24-b2c4-4b39-a45e-5cd31c748af9","ios":"levelo://app?vid=7d1c5f24-b2c4-4b39-a45e-5cd31c748af9"},"vehicle_type_id":"4","last_reported":1727259009,"current_range_meters":34800,"station_id":"ce4bhs12rcd13ifvqhvg","pricing_plan_id":"cebpf4jnsgd1na2vs0mg"},{"bike_id":"f3ac9d56-8a6b-4b8b-83b8-4e8b660e9afe","system_id":"levelo_inurba_marseille","lat":43.23958,"lon":5.36625,"is_reserved":false,"is_disabled":false,"rental_uris":{"android":"levelo://app?vid=f3ac9d56-8a6b-4b8b-83b8-4e8b660e9afe","ios":"levelo://app?vid=f3ac9d56-8a6b-4b8b-83b8-4e8b660e9afe"},"vehicle_type_id":"4","last_reported":1727259009,"current_range_meters":27600,"station_id":"ce4bhi12rcd13ifvqfp0","pricing_plan_id":"cebpf4jnsgd1na2vs0mg"},{"bike_id":"bbddceb9-0d3d-460d-a783-5bae7f38d6bd","system_id":"levelo_inurba_marseille","lat":43.29913,"lon":5.3814,"is_reserved":false,"is_disabled":false,"rental_uris":{"android":"levelo://app?vid=bbddceb9-0d3d-460d-a783-5bae7f38d6bd","ios":"levelo://app?vid=bbddceb9-0d3d-460d-a783-5bae7f38d6bd"},"vehicle_type_id":"4","last_reported":1727259009,"current_range_meters":36800,"station_id":"ce4bgj12rcd13ifvqbc0","pricing_plan_id":"cebpf4jnsgd1na2vs0mg"},{"bike_id":"c3603bd2-71ff-4acc-80f6-dbc56b8e4a31","system_id":"levelo_inurba_marseille","lat":43.29167,"lon":5.37154,"is_reserved":false,"is_disabled":false,"rental_uris":{"android":"levelo://app?vid=c3603bd2-71ff-4acc-80f6-dbc56b8e4a31","ios":"levelo://app?vid=c3603bd2-71ff-4acc-80f6-dbc56b8e4a31"},"vehicle_type_id":"4","last_reported":1727259009,"current_range_meters":23200,"station_id":"ce4bha92rcd13ifvqeh0","pricing_plan_id":"cebpf4jnsgd1na2vs0mg"},{"bike_id":"873052f7-9bc5-4a04-9907-f5412dc2735a","system_id":"levelo_inurba_marseille","lat":43.337444,"lon":5.374475,"is_reserved":false,"is_disabled":false,"rental_uris":{"android":"levelo://app?vid=873052f7-9bc5-4a04-9907-f5412dc2735a","ios":"levelo://app?vid=873052f7-9bc5-4a04-9907-f5412dc2735a"},"vehicle_type_id":"4","last_reported":1727259009,"current_range_meters":27600,"station_id":"","pricing_plan_id":"cebpf4jnsgd1na2vs0mg"},{"bike_id":"40e8f74b-e490-42cb-8b96-2f519227f431","system_id":"levelo_inurba_marseille","lat":43.33767,"lon":5.37439,"is_reserved":false,"is_disabled":false,"rental_uris":{"android":"levelo://app?vid=40e8f74b-e490-42cb-8b96-2f519227f431","ios":"levelo://app?vid=40e8f74b-e490-42cb-8b96-2f519227f431"},"vehicle_type_id":"4","last_reported":1727259009,"current_range_meters":17200,"station_id":"","pricing_plan_id":"cebpf4jnsgd1na2vs0mg"},{"bike_id":"f24f457c-b638-4a05-a4da-606c7ade2a4e","system_id":"levelo_inurba_marseille","lat":43.29303,"lon":5.37157,"is_reserved":false,"is_disabled":false,"rental_uris":{"android":"levelo://app?vid=f24f457c-b638-4a05-a4da-606c7ade2a4e","ios":"levelo://app?vid=f24f457c-b638-4a05-a4da-606c7ade2a4e"},"vehicle_type_id":"4","last_reported":1727259009,"current_range_meters":27200,"station_id":"ce4bgh92rcd13ifvqb40","pricing_plan_id":"cebpf4jnsgd1na2vs0mg"},{"bike_id":"95922da9-8e3a-4e38-b1e0-cae2ba2e80d6","system_id":"levelo_inurba_marseille","lat":43.29759,"lon":5.3711,"is_reserved":false,"is_disabled":false,"rental_uris":{"android":"levelo://app?vid=95922da9-8e3a-4e38-b1e0-cae2ba2e80d6","ios":"levelo://app?vid=95922da9-8e3a-4e38-b1e0-cae2ba2e80d6"},"vehicle_type_id":"4","last_reported":1727259009,"current_range_meters":6400,"station_id":"ce4bgop2rcd13ifvqc1g","pricing_plan_id":"cebpf4jnsgd1na2vs0mg"},{"bike_id":"18441033-26d4-420f-9eae-7aacb10ec103","system_id":"levelo_inurba_marseille","lat":43.29302,"lon":5.37438,"is_reserved":false,"is_disabled":false,"rental_uris":{"android":"levelo://app?vid=18441033-26d4-420f-9eae-7aacb10ec103","ios":"levelo://app?vid=18441033-26d4-420f-9eae-7aacb10ec103"},"vehicle_type_id":"4","last_reported":1727259009,"current_range_meters":24400,"station_id":"ce4bgi12rcd13ifvqb70","pricing_plan_id":"cebpf4jnsgd1na2vs0mg"},{"bike_id":"5a4aef1f-508a-457d-94bd-5b9b738c8fae","system_id":"levelo_inurba_marseille","lat":43.26205,"lon":5.37441,"is_reserved":false,"is_disabled":false,"rental_uris":{"android":"levelo://app?vid=5a4aef1f-508a-457d-94bd-5b9b738c8fae","ios":"levelo://app?vid=5a4aef1f-508a-457d-94bd-5b9b738c8fae"},"vehicle_type_id":"4","last_reported":1727259009,"current_range_meters":14400,"station_id":"ce4bhgp2rcd13ifvqfc0","pricing_plan_id":"cebpf4jnsgd1na2vs0mg"},{"bike_id":"49ca3321-1a53-4394-86c7-9520cac48114","system_id":"levelo_inurba_marseille","lat":43.29522,"lon":5.39047,"is_reserved":false,"is_disabled":false,"rental_uris":{"android":"levelo://app?vid=49ca3321-1a53-4394-86c7-9520cac48114","ios":"levelo://app?vid=49ca3321-1a53-4394-86c7-9520cac48114"},"vehicle_type_id":"4","last_reported":1727259009,"current_range_meters":38000,"station_id":"ce4bh3p2rcd13ifvqdp0","pricing_plan_id":"cebpf4jnsgd1na2vs0mg"},{"bike_id":"73e7f655-b2b9-4127-a50c-dc2251f994d0","system_id":"levelo_inurba_marseille","lat":43.28759,"lon":5.39699,"is_reserved":false,"is_disabled":false,"rental_uris":{"android":"levelo://app?vid=73e7f655-b2b9-4127-a50c-dc2251f994d0","ios":"levelo://app?vid=73e7f655-b2b9-4127-a50c-dc2251f994d0"},"vehicle_type_id":"4","last_reported":1727259009,"current_range_meters":36000,"station_id":"","pricing_plan_id":"cebpf4jnsgd1na2vs0mg"},{"bike_id":"9a8cfe9c-0644-4e37-8ca8-8275253c03f1","system_id":"levelo_inurba_marseille","lat":43.30547,"lon":5.36553,"is_reserved":false,"is_disabled":false,"rental_uris":{"android":"levelo://app?vid=9a8cfe9c-0644-4e37-8ca8-8275253c03f1","ios":"levelo://app?vid=9a8cfe9c-0644-4e37-8ca8-8275253c03f1"},"vehicle_type_id":"4","last_reported":1727259009,"current_range_meters":20400,"station_id":"ce4bgs12rcd13ifvqcag","pricing_plan_id":"cebpf4jnsgd1na2vs0mg"},{"bike_id":"a75d11e4-5000-41f8-9ff2-fbd2a76366d5","system_id":"levelo_inurba_marseille","lat":43.33967,"lon":5.42056,"is_reserved":false,"is_disabled":false,"rental_uris":{"android":"levelo://app?vid=a75d11e4-5000-41f8-9ff2-fbd2a76366d5","ios":"levelo://app?vid=a75d11e4-5000-41f8-9ff2-fbd2a76366d5"},"vehicle_type_id":"4","last_reported":1727259009,"current_range_meters":22000,"station_id":"","pricing_plan_id":"cebpf4jnsgd1na2vs0mg"},{"bike_id":"61f7d7bb-d075-459b-8c7d-9bce356e323b","system_id":"levelo_inurba_marseille","lat":43.29526,"lon":5.3854,"is_reserved":false,"is_disabled":false,"rental_uris":{"android":"levelo://app?vid=61f7d7bb-d075-459b-8c7d-9bce356e323b","ios":"levelo://app?vid=61f7d7bb-d075-459b-8c7d-9bce356e323b"},"vehicle_type_id":"4","last_reported":1727259009,"current_range_meters":37600,"station_id":"ce4bgih2rcd13ifvqba0","pricing_plan_id":"cebpf4jnsgd1na2vs0mg"},{"bike_id":"ea4f7293-f9ba-4702-a0ef-940482517fb3","system_id":"levelo_inurba_marseille","lat":43.26211,"lon":5.3744,"is_reserved":false,"is_disabled":false,"rental_uris":{"android":"levelo://app?vid=ea4f7293-f9ba-4702-a0ef-940482517fb3","ios":"levelo://app?vid=ea4f7293-f9ba-4702-a0ef-940482517fb3"},"vehicle_type_id":"4","last_reported":1727259009,"current_range_meters":24800,"station_id":"ce4bhgp2rcd13ifvqfc0","pricing_plan_id":"cebpf4jnsgd1na2vs0mg"},{"bike_id":"a4e76940-b202-484e-b67e-c240816f6482","system_id":"levelo_inurba_marseille","lat":43.3015,"lon":5.38075,"is_reserved":false,"is_disabled":false,"rental_uris":{"android":"levelo://app?vid=a4e76940-b202-484e-b67e-c240816f6482","ios":"levelo://app?vid=a4e76940-b202-484e-b67e-c240816f6482"},"vehicle_type_id":"4","last_reported":1727259009,"current_range_meters":38800,"station_id":"ce4bgjp2rcd13ifvqbh0","pricing_plan_id":"cebpf4jnsgd1na2vs0mg"},{"bike_id":"b219bd9e-1b0a-4956-9e88-9fbe4e039fad","system_id":"levelo_inurba_marseille","lat":43.27069,"lon":5.42278,"is_reserved":false,"is_disabled":false,"rental_uris":{"android":"levelo://app?vid=b219bd9e-1b0a-4956-9e88-9fbe4e039fad","ios":"levelo://app?vid=b219bd9e-1b0a-4956-9e88-9fbe4e039fad"},"vehicle_type_id":"4","last_reported":1727259009,"current_range_meters":21600,"station_id":"ce4bhk92rcd13ifvqgb0","pricing_plan_id":"cebpf4jnsgd1na2vs0mg"},{"bike_id":"51cd11a4-6be8-4923-8cfc-71555cfa90b0","system_id":"levelo_inurba_marseille","lat":43.255,"lon":5.3765,"is_reserved":false,"is_disabled":false,"rental_uris":{"android":"levelo://app?vid=51cd11a4-6be8-4923-8cfc-71555cfa90b0","ios":"levelo://app?vid=51cd11a4-6be8-4923-8cfc-71555cfa90b0"},"vehicle_type_id":"4","last_reported":1727259009,"current_range_meters":4400,"station_id":"ce4bhh12rcd13ifvqff0","pricing_plan_id":"cebpf4jnsgd1na2vs0mg"},{"bike_id":"9fd8e932-0bbe-45a7-a9ac-3aa157bc97f4","system_id":"levelo_inurba_marseille","lat":43.27374,"lon":5.36259,"is_reserved":false,"is_disabled":false,"rental_uris":{"android":"levelo://app?vid=9fd8e932-0bbe-45a7-a9ac-3aa157bc97f4","ios":"levelo://app?vid=9fd8e932-0bbe-45a7-a9ac-3aa157bc97f4"},"vehicle_type_id":"4","last_reported":1727259009,"current_range_meters":38800,"station_id":"ce4bhbh2rcd13ifvqeo0","pricing_plan_id":"cebpf4jnsgd1na2vs0mg"},{"bike_id":"d2b29a3f-a9f9-4e26-bd8f-3dbbdf2f5a97","system_id":"levelo_inurba_marseille","lat":43.30536,"lon":5.36539,"is_reserved":false,"is_disabled":false,"rental_uris":{"android":"levelo://app?vid=d2b29a3f-a9f9-4e26-bd8f-3dbbdf2f5a97","ios":"levelo://app?vid=d2b29a3f-a9f9-4e26-bd8f-3dbbdf2f5a97"},"vehicle_type_id":"4","last_reported":1727259009,"current_range_meters":36000,"station_id":"ce4bgs12rcd13ifvqcag","pricing_plan_id":"cebpf4jnsgd1na2vs0mg"},{"bike_id":"d2e964e8-4e2f-49e4-aa9d-3a8d70993580","system_id":"levelo_inurba_marseille","lat":43.2968,"lon":5.37285,"is_reserved":false,"is_disabled":false,"rental_uris":{"android":"levelo://app?vid=d2e964e8-4e2f-49e4-aa9d-3a8d70993580","ios":"levelo://app?vid=d2e964e8-4e2f-49e4-aa9d-3a8d70993580"},"vehicle_type_id":"4","last_reported":1727259009,"current_range_meters":23200,"station_id":"ce4bgk12rcd13ifvqbj0","pricing_plan_id":"cebpf4jnsgd1na2vs0mg"},{"bike_id":"ab8a776f-7a05-4324-9e26-529ce9006afc","system_id":"levelo_inurba_marseille","lat":43.29273,"lon":5.36842,"is_reserved":false,"is_disabled":false,"rental_uris":{"android":"levelo://app?vid=ab8a776f-7a05-4324-9e26-529ce9006afc","ios":"levelo://app?vid=ab8a776f-7a05-4324-9e26-529ce9006afc"},"vehicle_type_id":"4","last_reported":1727259009,"current_range_meters":38400,"station_id":"ce4bhbp2rcd13ifvqesg","pricing_plan_id":"cebpf4jnsgd1na2vs0mg"},{"bike_id":"10a437b8-b58e-40b1-b0b7-6372b1519414","system_id":"levelo_inurba_marseille","lat":43.30301,"lon":5.36898,"is_reserved":false,"is_disabled":false,"rental_uris":{"android":"levelo://app?vid=10a437b8-b58e-40b1-b0b7-6372b1519414","ios":"levelo://app?vid=10a437b8-b58e-40b1-b0b7-6372b1519414"},"vehicle_type_id":"4","last_reported":1727259009,"current_range_meters":30800,"station_id":"ce4bgqh2rcd13ifvqc5g","pricing_plan_id":"cebpf4jnsgd1na2vs0mg"},{"bike_id":"c80eec86-a8c9-4662-a1ea-3fc69eb420b2","system_id":"levelo_inurba_marseille","lat":43.30549,"lon":5.36698,"is_reserved":false,"is_disabled":false,"rental_uris":{"android":"levelo://app?vid=c80eec86-a8c9-4662-a1ea-3fc69eb420b2","ios":"levelo://app?vid=c80eec86-a8c9-4662-a1ea-3fc69eb420b2"},"vehicle_type_id":"4","last_reported":1727259009,"current_range_meters":24800,"station_id":"ce4bgrp2rcd13ifvqc9g","pricing_plan_id":"cebpf4jnsgd1na2vs0mg"},{"bike_id":"dff5b480-2f0f-4235-8970-6a378b475319","system_id":"levelo_inurba_marseille","lat":43.29897,"lon":5.43669,"is_reserved":false,"is_disabled":false,"rental_uris":{"android":"levelo://app?vid=dff5b480-2f0f-4235-8970-6a378b475319","ios":"levelo://app?vid=dff5b480-2f0f-4235-8970-6a378b475319"},"vehicle_type_id":"4","last_reported":1727259009,"current_range_meters":24000,"station_id":"ce4bhpp2rcd13ifvqhfg","pricing_plan_id":"cebpf4jnsgd1na2vs0mg"},{"bike_id":"db846659-9f58-4c95-8df7-1391089048a8","system_id":"levelo_inurba_marseille","lat":43.27176,"lon":5.40994,"is_reserved":false,"is_disabled":false,"rental_uris":{"android":"levelo://app?vid=db846659-9f58-4c95-8df7-1391089048a8","ios":"levelo://app?vid=db846659-9f58-4c95-8df7-1391089048a8"},"vehicle_type_id":"4","last_reported":1727259009,"current_range_meters":38400,"station_id":"ce4bhl12rcd13ifvqgf0","pricing_plan_id":"cebpf4jnsgd1na2vs0mg"},{"bike_id":"b4706c34-b833-4c37-b2c3-67a06c70f9de","system_id":"levelo_inurba_marseille","lat":43.23966,"lon":5.36627,"is_reserved":false,"is_disabled":false,"rental_uris":{"android":"levelo://app?vid=b4706c34-b833-4c37-b2c3-67a06c70f9de","ios":"levelo://app?vid=b4706c34-b833-4c37-b2c3-67a06c70f9de"},"vehicle_type_id":"4","last_reported":1727259009,"current_range_meters":24800,"station_id":"ce4bhi12rcd13ifvqfp0","pricing_plan_id":"cebpf4jnsgd1na2vs0mg"},{"bike_id":"8ec9580e-a7cd-4f91-a2da-8d835bff022c","system_id":"levelo_inurba_marseille","lat":43.29677,"lon":5.37702,"is_reserved":false,"is_disabled":false,"rental_uris":{"android":"levelo://app?vid=8ec9580e-a7cd-4f91-a2da-8d835bff022c","ios":"levelo://app?vid=8ec9580e-a7cd-4f91-a2da-8d835bff022c"},"vehicle_type_id":"4","last_reported":1727259009,"current_range_meters":6800,"station_id":"ce4bgkh2rcd13ifvqbl0","pricing_plan_id":"cebpf4jnsgd1na2vs0mg"},{"bike_id":"6c661229-f21b-4873-a65c-9bd0065ccb8d","system_id":"levelo_inurba_marseille","lat":43.287054,"lon":5.373809,"is_reserved":false,"is_disabled":false,"rental_uris":{"android":"levelo://app?vid=6c661229-f21b-4873-a65c-9bd0065ccb8d","ios":"levelo://app?vid=6c661229-f21b-4873-a65c-9bd0065ccb8d"},"vehicle_type_id":"4","last_reported":1727259009,"current_range_meters":35200,"station_id":"ce4bh3p2rcd13ifvqdq0","pricing_plan_id":"cebpf4jnsgd1na2vs0mg"},{"bike_id":"0a4710f5-a2ae-4573-9abc-f5634b0a0e7d","system_id":"levelo_inurba_marseille","lat":43.31356,"lon":5.36703,"is_reserved":false,"is_disabled":false,"rental_uris":{"android":"levelo://app?vid=0a4710f5-a2ae-4573-9abc-f5634b0a0e7d","ios":"levelo://app?vid=0a4710f5-a2ae-4573-9abc-f5634b0a0e7d"},"vehicle_type_id":"4","last_reported":1727259009,"current_range_meters":38800,"station_id":"ce4bgr92rcd13ifvqc6g","pricing_plan_id":"cebpf4jnsgd1na2vs0mg"},{"bike_id":"69821ebc-0dfd-418d-b8ce-9e2a1cbb4f94","system_id":"levelo_inurba_marseille","lat":43.2799,"lon":5.41659,"is_reserved":false,"is_disabled":false,"rental_uris":{"android":"levelo://app?vid=69821ebc-0dfd-418d-b8ce-9e2a1cbb4f94","ios":"levelo://app?vid=69821ebc-0dfd-418d-b8ce-9e2a1cbb4f94"},"vehicle_type_id":"4","last_reported":1727259009,"current_range_meters":18000,"station_id":"ce4bho12rcd13ifvqh1g","pricing_plan_id":"cebpf4jnsgd1na2vs0mg"},{"bike_id":"be4dd43a-a4a6-4cbb-a2f0-23522b47702d","system_id":"levelo_inurba_marseille","lat":43.29272,"lon":5.36845,"is_reserved":false,"is_disabled":false,"rental_uris":{"android":"levelo://app?vid=be4dd43a-a4a6-4cbb-a2f0-23522b47702d","ios":"levelo://app?vid=be4dd43a-a4a6-4cbb-a2f0-23522b47702d"},"vehicle_type_id":"4","last_reported":1727259009,"current_range_meters":38800,"station_id":"ce4bhbp2rcd13ifvqesg","pricing_plan_id":"cebpf4jnsgd1na2vs0mg"},{"bike_id":"8282acf3-1e10-4e7a-9e2e-d47e811adce2","system_id":"levelo_inurba_marseille","lat":43.25503,"lon":5.37652,"is_reserved":false,"is_disabled":false,"rental_uris":{"android":"levelo://app?vid=8282acf3-1e10-4e7a-9e2e-d47e811adce2","ios":"levelo://app?vid=8282acf3-1e10-4e7a-9e2e-d47e811adce2"},"vehicle_type_id":"4","last_reported":1727259009,"current_range_meters":39200,"station_id":"ce4bhh12rcd13ifvqff0","pricing_plan_id":"cebpf4jnsgd1na2vs0mg"},{"bike_id":"b5717e6d-263f-4ba7-ac7b-5c1f8b58814e","system_id":"levelo_inurba_marseille","lat":43.29574,"lon":5.37518,"is_reserved":false,"is_disabled":false,"rental_uris":{"android":"levelo://app?vid=b5717e6d-263f-4ba7-ac7b-5c1f8b58814e","ios":"levelo://app?vid=b5717e6d-263f-4ba7-ac7b-5c1f8b58814e"},"vehicle_type_id":"4","last_reported":1727259009,"current_range_meters":2800,"station_id":"ce4bgh92rcd13ifvqb50","pricing_plan_id":"cebpf4jnsgd1na2vs0mg"},{"bike_id":"ebec7cd5-5fed-46ce-abdb-3cd659f607ac","system_id":"levelo_inurba_marseille","lat":43.29557,"lon":5.42272,"is_reserved":false,"is_disabled":false,"rental_uris":{"android":"levelo://app?vid=ebec7cd5-5fed-46ce-abdb-3cd659f607ac","ios":"levelo://app?vid=ebec7cd5-5fed-46ce-abdb-3cd659f607ac"},"vehicle_type_id":"4","last_reported":1727259009,"current_range_meters":34800,"station_id":"ce4bhph2rcd13ifvqhdg","pricing_plan_id":"cebpf4jnsgd1na2vs0mg"},{"bike_id":"ba5e5b6e-f560-44e9-b9dd-e78f414352ad","system_id":"levelo_inurba_marseille","lat":43.30463,"lon":5.37888,"is_reserved":false,"is_disabled":false,"rental_uris":{"android":"levelo://app?vid=ba5e5b6e-f560-44e9-b9dd-e78f414352ad","ios":"levelo://app?vid=ba5e5b6e-f560-44e9-b9dd-e78f414352ad"},"vehicle_type_id":"4","last_reported":1727259009,"current_range_meters":38800,"station_id":"ce4bgup2rcd13ifvqcn0","pricing_plan_id":"cebpf4jnsgd1na2vs0mg"},{"bike_id":"54188f6d-2012-4e5c-b3e6-34e8145f836a","system_id":"levelo_inurba_marseille","lat":43.29977,"lon":5.38497,"is_reserved":false,"is_disabled":false,"rental_uris":{"android":"levelo://app?vid=54188f6d-2012-4e5c-b3e6-34e8145f836a","ios":"levelo://app?vid=54188f6d-2012-4e5c-b3e6-34e8145f836a"},"vehicle_type_id":"4","last_reported":1727259009,"current_range_meters":26000,"station_id":"ce4bgj92rcd13ifvqbd0","pricing_plan_id":"cebpf4jnsgd1na2vs0mg"},{"bike_id":"df5b38d2-64cb-4df0-856f-ea9bd22c082c","system_id":"levelo_inurba_marseille","lat":43.23187,"lon":5.35556,"is_reserved":false,"is_disabled":false,"rental_uris":{"android":"levelo://app?vid=df5b38d2-64cb-4df0-856f-ea9bd22c082c","ios":"levelo://app?vid=df5b38d2-64cb-4df0-856f-ea9bd22c082c"},"vehicle_type_id":"4","last_reported":1727259009,"current_range_meters":8400,"station_id":"ce4bhu92rcd13ifvqi70","pricing_plan_id":"cebpf4jnsgd1na2vs0mg"},{"bike_id":"707528d8-0988-4632-94dc-544d37620d76","system_id":"levelo_inurba_marseille","lat":43.33604,"lon":5.41015,"is_reserved":false,"is_disabled":false,"rental_uris":{"android":"levelo://app?vid=707528d8-0988-4632-94dc-544d37620d76","ios":"levelo://app?vid=707528d8-0988-4632-94dc-544d37620d76"},"vehicle_type_id":"4","last_reported":1727259009,"current_range_meters":39200,"station_id":"ce4bhqh2rcd13ifvqhmg","pricing_plan_id":"cebpf4jnsgd1na2vs0mg"},{"bike_id":"891137de-5805-4e25-8c63-e02660ead314","system_id":"levelo_inurba_marseille","lat":43.25855,"lon":5.39898,"is_reserved":false,"is_disabled":false,"rental_uris":{"android":"levelo://app?vid=891137de-5805-4e25-8c63-e02660ead314","ios":"levelo://app?vid=891137de-5805-4e25-8c63-e02660ead314"},"vehicle_type_id":"4","last_reported":1727259009,"current_range_meters":32800,"station_id":"ce4bhl92rcd13ifvqghg","pricing_plan_id":"cebpf4jnsgd1na2vs0mg"},{"bike_id":"752c36e5-5b1f-41f1-845d-c09a02895ccf","system_id":"levelo_inurba_marseille","lat":43.26682,"lon":5.38274,"is_reserved":false,"is_disabled":false,"rental_uris":{"android":"levelo://app?vid=752c36e5-5b1f-41f1-845d-c09a02895ccf","ios":"levelo://app?vid=752c36e5-5b1f-41f1-845d-c09a02895ccf"},"vehicle_type_id":"4","last_reported":1727259009,"current_range_meters":18000,"station_id":"ce4bhg92rcd13ifvqf90","pricing_plan_id":"cebpf4jnsgd1na2vs0mg"},{"bike_id":"8b825796-5aea-45b9-9d5d-0791d3a29a6a","system_id":"levelo_inurba_marseille","lat":43.30315,"lon":5.36899,"is_reserved":false,"is_disabled":false,"rental_uris":{"android":"levelo://app?vid=8b825796-5aea-45b9-9d5d-0791d3a29a6a","ios":"levelo://app?vid=8b825796-5aea-45b9-9d5d-0791d3a29a6a"},"vehicle_type_id":"4","last_reported":1727259009,"current_range_meters":24000,"station_id":"ce4bgqh2rcd13ifvqc5g","pricing_plan_id":"cebpf4jnsgd1na2vs0mg"},{"bike_id":"973ba348-0d86-4fce-a992-c5ef0fb5edd5","system_id":"levelo_inurba_marseille","lat":43.27048,"lon":5.40267,"is_reserved":false,"is_disabled":false,"rental_uris":{"android":"levelo://app?vid=973ba348-0d86-4fce-a992-c5ef0fb5edd5","ios":"levelo://app?vid=973ba348-0d86-4fce-a992-c5ef0fb5edd5"},"vehicle_type_id":"4","last_reported":1727259009,"current_range_meters":8800,"station_id":"ce4bhk92rcd13ifvqgc0","pricing_plan_id":"cebpf4jnsgd1na2vs0mg"},{"bike_id":"e6581c86-ea5b-4865-89e9-2d08bc65b701","system_id":"levelo_inurba_marseille","lat":43.27193,"lon":5.40974,"is_reserved":false,"is_disabled":false,"rental_uris":{"android":"levelo://app?vid=e6581c86-ea5b-4865-89e9-2d08bc65b701","ios":"levelo://app?vid=e6581c86-ea5b-4865-89e9-2d08bc65b701"},"vehicle_type_id":"4","last_reported":1727259009,"current_range_meters":9600,"station_id":"ce4bhl12rcd13ifvqgf0","pricing_plan_id":"cebpf4jnsgd1na2vs0mg"},{"bike_id":"b001c319-9fe6-40dd-b580-6c149f34cfba","system_id":"levelo_inurba_marseille","lat":43.31226,"lon":5.36874,"is_reserved":false,"is_disabled":false,"rental_uris":{"android":"levelo://app?vid=b001c319-9fe6-40dd-b580-6c149f34cfba","ios":"levelo://app?vid=b001c319-9fe6-40dd-b580-6c149f34cfba"},"vehicle_type_id":"4","last_reported":1727259009,"current_range_meters":12800,"station_id":"ce4bgl92rcd13ifvqbq0","pricing_plan_id":"cebpf4jnsgd1na2vs0mg"},{"bike_id":"bca81bcc-db8f-4252-98dd-a19370662d96","system_id":"levelo_inurba_marseille","lat":43.30136,"lon":5.37408,"is_reserved":false,"is_disabled":false,"rental_uris":{"android":"levelo://app?vid=bca81bcc-db8f-4252-98dd-a19370662d96","ios":"levelo://app?vid=bca81bcc-db8f-4252-98dd-a19370662d96"},"vehicle_type_id":"4","last_reported":1727259009,"current_range_meters":22400,"station_id":"ce4bgs92rcd13ifvqcc0","pricing_plan_id":"cebpf4jnsgd1na2vs0mg"},{"bike_id":"8aa7f227-e068-48f9-917f-a45488a1187d","system_id":"levelo_inurba_marseille","lat":43.291992,"lon":5.358054,"is_reserved":false,"is_disabled":false,"rental_uris":{"android":"levelo://app?vid=8aa7f227-e068-48f9-917f-a45488a1187d","ios":"levelo://app?vid=8aa7f227-e068-48f9-917f-a45488a1187d"},"vehicle_type_id":"4","last_reported":1727259009,"current_range_meters":27200,"station_id":"ce4bhb12rcd13ifvqel0","pricing_plan_id":"cebpf4jnsgd1na2vs0mg"},{"bike_id":"a0dcec91-3a28-40a5-830f-3daf1736a026","system_id":"levelo_inurba_marseille","lat":43.30888,"lon":5.39635,"is_reserved":false,"is_disabled":false,"rental_uris":{"android":"levelo://app?vid=a0dcec91-3a28-40a5-830f-3daf1736a026","ios":"levelo://app?vid=a0dcec91-3a28-40a5-830f-3daf1736a026"},"vehicle_type_id":"4","last_reported":1727259009,"current_range_meters":23200,"station_id":"ce4bh012rcd13ifvqcv0","pricing_plan_id":"cebpf4jnsgd1na2vs0mg"},{"bike_id":"27431c98-bcee-4fbc-9005-ef4fd6a106b8","system_id":"levelo_inurba_marseille","lat":43.2319,"lon":5.39969,"is_reserved":false,"is_disabled":false,"rental_uris":{"android":"levelo://app?vid=27431c98-bcee-4fbc-9005-ef4fd6a106b8","ios":"levelo://app?vid=27431c98-bcee-4fbc-9005-ef4fd6a106b8"},"vehicle_type_id":"4","last_reported":1727259009,"current_range_meters":11600,"station_id":"ce4bhn12rcd13ifvqgqg","pricing_plan_id":"cebpf4jnsgd1na2vs0mg"},{"bike_id":"f1bddba5-3de2-4996-80f2-28e6def469bb","system_id":"levelo_inurba_marseille","lat":43.30543,"lon":5.36695,"is_reserved":false,"is_disabled":false,"rental_uris":{"android":"levelo://app?vid=f1bddba5-3de2-4996-80f2-28e6def469bb","ios":"levelo://app?vid=f1bddba5-3de2-4996-80f2-28e6def469bb"},"vehicle_type_id":"4","last_reported":1727259009,"current_range_meters":30400,"station_id":"ce4bgrp2rcd13ifvqc9g","pricing_plan_id":"cebpf4jnsgd1na2vs0mg"},{"bike_id":"aa700376-e517-449f-950c-eb828997453f","system_id":"levelo_inurba_marseille","lat":43.31364,"lon":5.38485,"is_reserved":false,"is_disabled":false,"rental_uris":{"android":"levelo://app?vid=aa700376-e517-449f-950c-eb828997453f","ios":"levelo://app?vid=aa700376-e517-449f-950c-eb828997453f"},"vehicle_type_id":"4","last_reported":1727259009,"current_range_meters":17600,"station_id":"ce4bgt92rcd13ifvqcf0","pricing_plan_id":"cebpf4jnsgd1na2vs0mg"},{"bike_id":"72db74d2-2c4f-4a12-a06e-67002269c7dd","system_id":"levelo_inurba_marseille","lat":43.30461,"lon":5.37898,"is_reserved":false,"is_disabled":false,"rental_uris":{"android":"levelo://app?vid=72db74d2-2c4f-4a12-a06e-67002269c7dd","ios":"levelo://app?vid=72db74d2-2c4f-4a12-a06e-67002269c7dd"},"vehicle_type_id":"4","last_reported":1727259009,"current_range_meters":37600,"station_id":"ce4bgup2rcd13ifvqcn0","pricing_plan_id":"cebpf4jnsgd1na2vs0mg"},{"bike_id":"707e189c-cf20-4c5e-91f9-08c22a18b76a","system_id":"levelo_inurba_marseille","lat":43.29903,"lon":5.38159,"is_reserved":false,"is_disabled":false,"rental_uris":{"android":"levelo://app?vid=707e189c-cf20-4c5e-91f9-08c22a18b76a","ios":"levelo://app?vid=707e189c-cf20-4c5e-91f9-08c22a18b76a"},"vehicle_type_id":"4","last_reported":1727259009,"current_range_meters":26800,"station_id":"ce4bgj12rcd13ifvqbc0","pricing_plan_id":"cebpf4jnsgd1na2vs0mg"},{"bike_id":"903507de-16f6-48d0-a454-2c9d4c61bdc6","system_id":"levelo_inurba_marseille","lat":43.30143,"lon":5.37417,"is_reserved":false,"is_disabled":false,"rental_uris":{"android":"levelo://app?vid=903507de-16f6-48d0-a454-2c9d4c61bdc6","ios":"levelo://app?vid=903507de-16f6-48d0-a454-2c9d4c61bdc6"},"vehicle_type_id":"4","last_reported":1727259009,"current_range_meters":28000,"station_id":"ce4bgs92rcd13ifvqcc0","pricing_plan_id":"cebpf4jnsgd1na2vs0mg"},{"bike_id":"5464bd4b-5c6d-4472-9105-7bc381bf630a","system_id":"levelo_inurba_marseille","lat":43.29987,"lon":5.37173,"is_reserved":false,"is_disabled":false,"rental_uris":{"android":"levelo://app?vid=5464bd4b-5c6d-4472-9105-7bc381bf630a","ios":"levelo://app?vid=5464bd4b-5c6d-4472-9105-7bc381bf630a"},"vehicle_type_id":"4","last_reported":1727259009,"current_range_meters":7200,"station_id":"ce4bgr92rcd13ifvqc7g","pricing_plan_id":"cebpf4jnsgd1na2vs0mg"},{"bike_id":"3ddc1fc9-4fe8-4c82-b6c6-96c8768afd76","system_id":"levelo_inurba_marseille","lat":43.30549,"lon":5.36706,"is_reserved":false,"is_disabled":false,"rental_uris":{"android":"levelo://app?vid=3ddc1fc9-4fe8-4c82-b6c6-96c8768afd76","ios":"levelo://app?vid=3ddc1fc9-4fe8-4c82-b6c6-96c8768afd76"},"vehicle_type_id":"4","last_reported":1727259009,"current_range_meters":26000,"station_id":"ce4bgrp2rcd13ifvqc9g","pricing_plan_id":"cebpf4jnsgd1na2vs0mg"},{"bike_id":"50a7fcdc-a7ea-4fa4-8d14-fa81d39361e4","system_id":"levelo_inurba_marseille","lat":43.30903,"lon":5.37175,"is_reserved":false,"is_disabled":false,"rental_uris":{"android":"levelo://app?vid=50a7fcdc-a7ea-4fa4-8d14-fa81d39361e4","ios":"levelo://app?vid=50a7fcdc-a7ea-4fa4-8d14-fa81d39361e4"},"vehicle_type_id":"4","last_reported":1727259009,"current_range_meters":8400,"station_id":"ce4bguh2rcd13ifvqckg","pricing_plan_id":"cebpf4jnsgd1na2vs0mg"},{"bike_id":"1274b247-fec9-43e7-b337-0b053285a2d8","system_id":"levelo_inurba_marseille","lat":43.29849,"lon":5.36274,"is_reserved":false,"is_disabled":false,"rental_uris":{"android":"levelo://app?vid=1274b247-fec9-43e7-b337-0b053285a2d8","ios":"levelo://app?vid=1274b247-fec9-43e7-b337-0b053285a2d8"},"vehicle_type_id":"4","last_reported":1727259009,"current_range_meters":38800,"station_id":"ce4bgpp2rcd13ifvqc3g","pricing_plan_id":"cebpf4jnsgd1na2vs0mg"},{"bike_id":"72dccb5f-1d84-41fe-9146-a3d2680464fd","system_id":"levelo_inurba_marseille","lat":43.27073,"lon":5.42274,"is_reserved":false,"is_disabled":false,"rental_uris":{"android":"levelo://app?vid=72dccb5f-1d84-41fe-9146-a3d2680464fd","ios":"levelo://app?vid=72dccb5f-1d84-41fe-9146-a3d2680464fd"},"vehicle_type_id":"4","last_reported":1727259009,"current_range_meters":24800,"station_id":"ce4bhk92rcd13ifvqgb0","pricing_plan_id":"cebpf4jnsgd1na2vs0mg"},{"bike_id":"a1d82605-350d-4120-889c-7761b40719ec","system_id":"levelo_inurba_marseille","lat":43.32106,"lon":5.36783,"is_reserved":false,"is_disabled":false,"rental_uris":{"android":"levelo://app?vid=a1d82605-350d-4120-889c-7761b40719ec","ios":"levelo://app?vid=a1d82605-350d-4120-889c-7761b40719ec"},"vehicle_type_id":"4","last_reported":1727259009,"current_range_meters":20400,"station_id":"ce4bhrh2rcd13ifvqhug","pricing_plan_id":"cebpf4jnsgd1na2vs0mg"},{"bike_id":"45c962d2-6a7e-406f-a364-432c7532adb1","system_id":"levelo_inurba_marseille","lat":43.26684,"lon":5.38272,"is_reserved":false,"is_disabled":false,"rental_uris":{"android":"levelo://app?vid=45c962d2-6a7e-406f-a364-432c7532adb1","ios":"levelo://app?vid=45c962d2-6a7e-406f-a364-432c7532adb1"},"vehicle_type_id":"4","last_reported":1727259009,"current_range_meters":4000,"station_id":"ce4bhg92rcd13ifvqf90","pricing_plan_id":"cebpf4jnsgd1na2vs0mg"},{"bike_id":"8fb232c5-d21b-4052-928e-b0f8d765da85","system_id":"levelo_inurba_marseille","lat":43.30152,"lon":5.38086,"is_reserved":false,"is_disabled":false,"rental_uris":{"android":"levelo://app?vid=8fb232c5-d21b-4052-928e-b0f8d765da85","ios":"levelo://app?vid=8fb232c5-d21b-4052-928e-b0f8d765da85"},"vehicle_type_id":"4","last_reported":1727259009,"current_range_meters":36800,"station_id":"ce4bgjp2rcd13ifvqbh0","pricing_plan_id":"cebpf4jnsgd1na2vs0mg"},{"bike_id":"ca34f3a1-4357-4248-9b7e-a10cd15ae5a3","system_id":"levelo_inurba_marseille","lat":43.27927,"lon":5.37994,"is_reserved":false,"is_disabled":false,"rental_uris":{"android":"levelo://app?vid=ca34f3a1-4357-4248-9b7e-a10cd15ae5a3","ios":"levelo://app?vid=ca34f3a1-4357-4248-9b7e-a10cd15ae5a3"},"vehicle_type_id":"4","last_reported":1727259009,"current_range_meters":29600,"station_id":"ce4bhf92rcd13ifvqf50","pricing_plan_id":"cebpf4jnsgd1na2vs0mg"},{"bike_id":"c6bf9329-ad8f-477b-a937-0e107709e9c3","system_id":"levelo_inurba_marseille","lat":43.337405,"lon":5.374678,"is_reserved":false,"is_disabled":false,"rental_uris":{"android":"levelo://app?vid=c6bf9329-ad8f-477b-a937-0e107709e9c3","ios":"levelo://app?vid=c6bf9329-ad8f-477b-a937-0e107709e9c3"},"vehicle_type_id":"4","last_reported":1727259009,"current_range_meters":27600,"station_id":"","pricing_plan_id":"cebpf4jnsgd1na2vs0mg"},{"bike_id":"2a833e04-2817-4767-9247-6bdeb1b80229","system_id":"levelo_inurba_marseille","lat":43.29307,"lon":5.3746,"is_reserved":false,"is_disabled":false,"rental_uris":{"android":"levelo://app?vid=2a833e04-2817-4767-9247-6bdeb1b80229","ios":"levelo://app?vid=2a833e04-2817-4767-9247-6bdeb1b80229"},"vehicle_type_id":"4","last_reported":1727259009,"current_range_meters":28800,"station_id":"ce4bgi12rcd13ifvqb70","pricing_plan_id":"cebpf4jnsgd1na2vs0mg"},{"bike_id":"ff495dbe-f7fe-444c-9cdf-9a07b503c647","system_id":"levelo_inurba_marseille","lat":43.30294,"lon":5.39216,"is_reserved":false,"is_disabled":false,"rental_uris":{"android":"levelo://app?vid=ff495dbe-f7fe-444c-9cdf-9a07b503c647","ios":"levelo://app?vid=ff495dbe-f7fe-444c-9cdf-9a07b503c647"},"vehicle_type_id":"4","last_reported":1727259009,"current_range_meters":32800,"station_id":"ce4bgkh2rcd13ifvqbk0","pricing_plan_id":"cebpf4jnsgd1na2vs0mg"},{"bike_id":"3833f1ff-a1dd-4e25-a558-1268c7b7c0f8","system_id":"levelo_inurba_marseille","lat":43.30606,"lon":5.37235,"is_reserved":false,"is_disabled":false,"rental_uris":{"android":"levelo://app?vid=3833f1ff-a1dd-4e25-a558-1268c7b7c0f8","ios":"levelo://app?vid=3833f1ff-a1dd-4e25-a558-1268c7b7c0f8"},"vehicle_type_id":"4","last_reported":1727259009,"current_range_meters":36800,"station_id":"ce4bgqh2rcd13ifvqc4g","pricing_plan_id":"cebpf4jnsgd1na2vs0mg"},{"bike_id":"05197832-2a7e-4a5d-8828-dacdedef72ab","system_id":"levelo_inurba_marseille","lat":43.29706,"lon":5.37683,"is_reserved":false,"is_disabled":false,"rental_uris":{"android":"levelo://app?vid=05197832-2a7e-4a5d-8828-dacdedef72ab","ios":"levelo://app?vid=05197832-2a7e-4a5d-8828-dacdedef72ab"},"vehicle_type_id":"4","last_reported":1727259009,"current_range_meters":27600,"station_id":"ce4bgkh2rcd13ifvqbl0","pricing_plan_id":"cebpf4jnsgd1na2vs0mg"},{"bike_id":"a9b5ef82-4273-45d0-b93e-a999e67c47fd","system_id":"levelo_inurba_marseille","lat":43.30156,"lon":5.38079,"is_reserved":false,"is_disabled":false,"rental_uris":{"android":"levelo://app?vid=a9b5ef82-4273-45d0-b93e-a999e67c47fd","ios":"levelo://app?vid=a9b5ef82-4273-45d0-b93e-a999e67c47fd"},"vehicle_type_id":"4","last_reported":1727259009,"current_range_meters":38000,"station_id":"ce4bgjp2rcd13ifvqbh0","pricing_plan_id":"cebpf4jnsgd1na2vs0mg"},{"bike_id":"249c9091-61aa-4e8e-8e7b-4cdb5273009f","system_id":"levelo_inurba_marseille","lat":43.301361,"lon":5.374236,"is_reserved":false,"is_disabled":false,"rental_uris":{"android":"levelo://app?vid=249c9091-61aa-4e8e-8e7b-4cdb5273009f","ios":"levelo://app?vid=249c9091-61aa-4e8e-8e7b-4cdb5273009f"},"vehicle_type_id":"4","last_reported":1727259009,"current_range_meters":38800,"station_id":"ce4bgs92rcd13ifvqcc0","pricing_plan_id":"cebpf4jnsgd1na2vs0mg"},{"bike_id":"9d669928-70c4-4f73-a6f5-ceed2e87e7a7","system_id":"levelo_inurba_marseille","lat":43.302833,"lon":5.376977,"is_reserved":false,"is_disabled":false,"rental_uris":{"android":"levelo://app?vid=9d669928-70c4-4f73-a6f5-ceed2e87e7a7","ios":"levelo://app?vid=9d669928-70c4-4f73-a6f5-ceed2e87e7a7"},"vehicle_type_id":"4","last_reported":1727259009,"current_range_meters":12000,"station_id":"ce4bguh2rcd13ifvqcj0","pricing_plan_id":"cebpf4jnsgd1na2vs0mg"},{"bike_id":"17701005-77c3-4e4f-a0b4-b2ece630517d","system_id":"levelo_inurba_marseille","lat":43.23955,"lon":5.36638,"is_reserved":false,"is_disabled":false,"rental_uris":{"android":"levelo://app?vid=17701005-77c3-4e4f-a0b4-b2ece630517d","ios":"levelo://app?vid=17701005-77c3-4e4f-a0b4-b2ece630517d"},"vehicle_type_id":"4","last_reported":1727259009,"current_range_meters":37600,"station_id":"ce4bhi12rcd13ifvqfp0","pricing_plan_id":"cebpf4jnsgd1na2vs0mg"},{"bike_id":"20b02bf8-7c07-47cd-bbba-31b992e68154","system_id":"levelo_inurba_marseille","lat":43.30147,"lon":5.38087,"is_reserved":false,"is_disabled":false,"rental_uris":{"android":"levelo://app?vid=20b02bf8-7c07-47cd-bbba-31b992e68154","ios":"levelo://app?vid=20b02bf8-7c07-47cd-bbba-31b992e68154"},"vehicle_type_id":"4","last_reported":1727259009,"current_range_meters":37600,"station_id":"ce4bgjp2rcd13ifvqbh0","pricing_plan_id":"cebpf4jnsgd1na2vs0mg"},{"bike_id":"8db7d6b2-354e-4092-b3b6-e09ab77d2c49","system_id":"levelo_inurba_marseille","lat":43.29972,"lon":5.38491,"is_reserved":false,"is_disabled":false,"rental_uris":{"android":"levelo://app?vid=8db7d6b2-354e-4092-b3b6-e09ab77d2c49","ios":"levelo://app?vid=8db7d6b2-354e-4092-b3b6-e09ab77d2c49"},"vehicle_type_id":"4","last_reported":1727259009,"current_range_meters":38800,"station_id":"ce4bgj92rcd13ifvqbd0","pricing_plan_id":"cebpf4jnsgd1na2vs0mg"},{"bike_id":"b16c4cae-8747-4e06-bc44-1d13c49aa0fb","system_id":"levelo_inurba_marseille","lat":43.27178,"lon":5.40986,"is_reserved":false,"is_disabled":false,"rental_uris":{"android":"levelo://app?vid=b16c4cae-8747-4e06-bc44-1d13c49aa0fb","ios":"levelo://app?vid=b16c4cae-8747-4e06-bc44-1d13c49aa0fb"},"vehicle_type_id":"4","last_reported":1727259009,"current_range_meters":28800,"station_id":"ce4bhl12rcd13ifvqgf0","pricing_plan_id":"cebpf4jnsgd1na2vs0mg"},{"bike_id":"6b0f87a0-5b1e-4702-8fee-4746ea2ad047","system_id":"levelo_inurba_marseille","lat":43.28998,"lon":5.35607,"is_reserved":false,"is_disabled":false,"rental_uris":{"android":"levelo://app?vid=6b0f87a0-5b1e-4702-8fee-4746ea2ad047","ios":"levelo://app?vid=6b0f87a0-5b1e-4702-8fee-4746ea2ad047"},"vehicle_type_id":"4","last_reported":1727259009,"current_range_meters":38400,"station_id":"ce4bhb92rcd13ifvqen0","pricing_plan_id":"cebpf4jnsgd1na2vs0mg"},{"bike_id":"6c6b14c3-545c-4c13-865a-cd6e59e5ddff","system_id":"levelo_inurba_marseille","lat":43.26548,"lon":5.37282,"is_reserved":false,"is_disabled":false,"rental_uris":{"android":"levelo://app?vid=6c6b14c3-545c-4c13-865a-cd6e59e5ddff","ios":"levelo://app?vid=6c6b14c3-545c-4c13-865a-cd6e59e5ddff"},"vehicle_type_id":"4","last_reported":1727259009,"current_range_meters":25200,"station_id":"ce4bhg12rcd13ifvqf70","pricing_plan_id":"cebpf4jnsgd1na2vs0mg"},{"bike_id":"148a2904-6a3f-4978-ad46-822deb5c0a69","system_id":"levelo_inurba_marseille","lat":43.29707,"lon":5.36595,"is_reserved":false,"is_disabled":false,"rental_uris":{"android":"levelo://app?vid=148a2904-6a3f-4978-ad46-822deb5c0a69","ios":"levelo://app?vid=148a2904-6a3f-4978-ad46-822deb5c0a69"},"vehicle_type_id":"4","last_reported":1727259009,"current_range_meters":4800,"station_id":"ce4bgn12rcd13ifvqbt0","pricing_plan_id":"cebpf4jnsgd1na2vs0mg"},{"bike_id":"8e890df9-1215-4fb6-873e-d625163b0e12","system_id":"levelo_inurba_marseille","lat":43.3054,"lon":5.36533,"is_reserved":false,"is_disabled":false,"rental_uris":{"android":"levelo://app?vid=8e890df9-1215-4fb6-873e-d625163b0e12","ios":"levelo://app?vid=8e890df9-1215-4fb6-873e-d625163b0e12"},"vehicle_type_id":"4","last_reported":1727259009,"current_range_meters":18800,"station_id":"ce4bgs12rcd13ifvqcag","pricing_plan_id":"cebpf4jnsgd1na2vs0mg"},{"bike_id":"b1c6f62a-361d-4707-9dc7-b403f39177cc","system_id":"levelo_inurba_marseille","lat":43.32531,"lon":5.41451,"is_reserved":false,"is_disabled":false,"rental_uris":{"android":"levelo://app?vid=b1c6f62a-361d-4707-9dc7-b403f39177cc","ios":"levelo://app?vid=b1c6f62a-361d-4707-9dc7-b403f39177cc"},"vehicle_type_id":"4","last_reported":1727259009,"current_range_meters":11600,"station_id":"ce4bhq12rcd13ifvqhhg","pricing_plan_id":"cebpf4jnsgd1na2vs0mg"},{"bike_id":"698546c4-f977-4161-9001-3ab25c71858b","system_id":"levelo_inurba_marseille","lat":43.24649,"lon":5.38889,"is_reserved":false,"is_disabled":false,"rental_uris":{"android":"levelo://app?vid=698546c4-f977-4161-9001-3ab25c71858b","ios":"levelo://app?vid=698546c4-f977-4161-9001-3ab25c71858b"},"vehicle_type_id":"4","last_reported":1727259009,"current_range_meters":20000,"station_id":"ce4bhg12rcd13ifvqf60","pricing_plan_id":"cebpf4jnsgd1na2vs0mg"},{"bike_id":"27c6aca1-71bb-483a-a691-d3a6d1775cc5","system_id":"levelo_inurba_marseille","lat":43.30102,"lon":5.38055,"is_reserved":false,"is_disabled":false,"rental_uris":{"android":"levelo://app?vid=27c6aca1-71bb-483a-a691-d3a6d1775cc5","ios":"levelo://app?vid=27c6aca1-71bb-483a-a691-d3a6d1775cc5"},"vehicle_type_id":"4","last_reported":1727259009,"current_range_meters":31200,"station_id":"","pricing_plan_id":"cebpf4jnsgd1na2vs0mg"},{"bike_id":"41365770-2189-4ef1-83d5-95c5dc94ea60","system_id":"levelo_inurba_marseille","lat":43.32047,"lon":5.4155,"is_reserved":false,"is_disabled":false,"rental_uris":{"android":"levelo://app?vid=41365770-2189-4ef1-83d5-95c5dc94ea60","ios":"levelo://app?vid=41365770-2189-4ef1-83d5-95c5dc94ea60"},"vehicle_type_id":"4","last_reported":1727259009,"current_range_meters":21600,"station_id":"ce4bhq92rcd13ifvqhkg","pricing_plan_id":"cebpf4jnsgd1na2vs0mg"},{"bike_id":"60094dbc-2b68-4180-a709-7e0b5894cbda","system_id":"levelo_inurba_marseille","lat":43.32107,"lon":5.36769,"is_reserved":false,"is_disabled":false,"rental_uris":{"android":"levelo://app?vid=60094dbc-2b68-4180-a709-7e0b5894cbda","ios":"levelo://app?vid=60094dbc-2b68-4180-a709-7e0b5894cbda"},"vehicle_type_id":"4","last_reported":1727259009,"current_range_meters":31200,"station_id":"ce4bhrh2rcd13ifvqhug","pricing_plan_id":"cebpf4jnsgd1na2vs0mg"},{"bike_id":"4f9ea5e0-5b2e-4f79-8d22-a0d3ac7c3131","system_id":"levelo_inurba_marseille","lat":43.27902,"lon":5.38018,"is_reserved":false,"is_disabled":false,"rental_uris":{"android":"levelo://app?vid=4f9ea5e0-5b2e-4f79-8d22-a0d3ac7c3131","ios":"levelo://app?vid=4f9ea5e0-5b2e-4f79-8d22-a0d3ac7c3131"},"vehicle_type_id":"4","last_reported":1727259009,"current_range_meters":22000,"station_id":"ce4bhf92rcd13ifvqf50","pricing_plan_id":"cebpf4jnsgd1na2vs0mg"},{"bike_id":"e828d106-339e-45bb-8cc1-41a306883c3a","system_id":"levelo_inurba_marseille","lat":43.33772,"lon":5.37437,"is_reserved":false,"is_disabled":false,"rental_uris":{"android":"levelo://app?vid=e828d106-339e-45bb-8cc1-41a306883c3a","ios":"levelo://app?vid=e828d106-339e-45bb-8cc1-41a306883c3a"},"vehicle_type_id":"4","last_reported":1727259009,"current_range_meters":35600,"station_id":"","pricing_plan_id":"cebpf4jnsgd1na2vs0mg"},{"bike_id":"4f34251a-756e-4076-8519-c07eba74b37a","system_id":"levelo_inurba_marseille","lat":43.279694,"lon":5.407743,"is_reserved":false,"is_disabled":false,"rental_uris":{"android":"levelo://app?vid=4f34251a-756e-4076-8519-c07eba74b37a","ios":"levelo://app?vid=4f34251a-756e-4076-8519-c07eba74b37a"},"vehicle_type_id":"4","last_reported":1727259009,"current_range_meters":8800,"station_id":"","pricing_plan_id":"cebpf4jnsgd1na2vs0mg"},{"bike_id":"57518da1-16f8-4797-9d4b-6fb4d18d4040","system_id":"levelo_inurba_marseille","lat":43.302482,"lon":5.396975,"is_reserved":false,"is_disabled":false,"rental_uris":{"android":"levelo://app?vid=57518da1-16f8-4797-9d4b-6fb4d18d4040","ios":"levelo://app?vid=57518da1-16f8-4797-9d4b-6fb4d18d4040"},"vehicle_type_id":"4","last_reported":1727259009,"current_range_meters":36000,"station_id":"ce4bh0h2rcd13ifvqd50","pricing_plan_id":"cebpf4jnsgd1na2vs0mg"},{"bike_id":"4c43b43f-be17-43d2-95e0-fab0c099fe37","system_id":"levelo_inurba_marseille","lat":43.23161,"lon":5.43702,"is_reserved":false,"is_disabled":false,"rental_uris":{"android":"levelo://app?vid=4c43b43f-be17-43d2-95e0-fab0c099fe37","ios":"levelo://app?vid=4c43b43f-be17-43d2-95e0-fab0c099fe37"},"vehicle_type_id":"4","last_reported":1727259009,"current_range_meters":37600,"station_id":"ce4bhmp2rcd13ifvqgog","pricing_plan_id":"cebpf4jnsgd1na2vs0mg"},{"bike_id":"dc473676-824d-41ad-aeb7-667c159f885c","system_id":"levelo_inurba_marseille","lat":43.23188,"lon":5.35541,"is_reserved":false,"is_disabled":false,"rental_uris":{"android":"levelo://app?vid=dc473676-824d-41ad-aeb7-667c159f885c","ios":"levelo://app?vid=dc473676-824d-41ad-aeb7-667c159f885c"},"vehicle_type_id":"4","last_reported":1727259009,"current_range_meters":28000,"station_id":"ce4bhu92rcd13ifvqi70","pricing_plan_id":"cebpf4jnsgd1na2vs0mg"},{"bike_id":"a7bca3df-0344-4204-86d7-b742d4769839","system_id":"levelo_inurba_marseille","lat":43.30863,"lon":5.3685,"is_reserved":false,"is_disabled":false,"rental_uris":{"android":"levelo://app?vid=a7bca3df-0344-4204-86d7-b742d4769839","ios":"levelo://app?vid=a7bca3df-0344-4204-86d7-b742d4769839"},"vehicle_type_id":"4","last_reported":1727259009,"current_range_meters":28400,"station_id":"ce4bgn92rcd13ifvqbvg","pricing_plan_id":"cebpf4jnsgd1na2vs0mg"},{"bike_id":"680c4830-39c6-40b3-beb2-89188190aea1","system_id":"levelo_inurba_marseille","lat":43.27808,"lon":5.40713,"is_reserved":false,"is_disabled":false,"rental_uris":{"android":"levelo://app?vid=680c4830-39c6-40b3-beb2-89188190aea1","ios":"levelo://app?vid=680c4830-39c6-40b3-beb2-89188190aea1"},"vehicle_type_id":"4","last_reported":1727259009,"current_range_meters":28000,"station_id":"ce4bhnh2rcd13ifvqgtg","pricing_plan_id":"cebpf4jnsgd1na2vs0mg"},{"bike_id":"a02ad640-5f0a-4ccd-9e19-871d927e35c2","system_id":"levelo_inurba_marseille","lat":43.293675,"lon":5.378506,"is_reserved":false,"is_disabled":false,"rental_uris":{"android":"levelo://app?vid=a02ad640-5f0a-4ccd-9e19-871d927e35c2","ios":"levelo://app?vid=a02ad640-5f0a-4ccd-9e19-871d927e35c2"},"vehicle_type_id":"4","last_reported":1727259009,"current_range_meters":19600,"station_id":"ce4bgjh2rcd13ifvqbf0","pricing_plan_id":"cebpf4jnsgd1na2vs0mg"},{"bike_id":"22a93696-29c8-4204-b668-5cf26c040a0d","system_id":"levelo_inurba_marseille","lat":43.32364,"lon":5.38887,"is_reserved":false,"is_disabled":false,"rental_uris":{"android":"levelo://app?vid=22a93696-29c8-4204-b668-5cf26c040a0d","ios":"levelo://app?vid=22a93696-29c8-4204-b668-5cf26c040a0d"},"vehicle_type_id":"4","last_reported":1727259009,"current_range_meters":27200,"station_id":"ce4bhqp2rcd13ifvqhog","pricing_plan_id":"cebpf4jnsgd1na2vs0mg"},{"bike_id":"ac4c8e29-0856-449d-bc90-35283c138610","system_id":"levelo_inurba_marseille","lat":43.29154,"lon":5.37148,"is_reserved":false,"is_disabled":false,"rental_uris":{"android":"levelo://app?vid=ac4c8e29-0856-449d-bc90-35283c138610","ios":"levelo://app?vid=ac4c8e29-0856-449d-bc90-35283c138610"},"vehicle_type_id":"4","last_reported":1727259009,"current_range_meters":22400,"station_id":"ce4bha92rcd13ifvqeh0","pricing_plan_id":"cebpf4jnsgd1na2vs0mg"},{"bike_id":"1445523c-8bfd-4b79-9158-8e8d8842f6b1","system_id":"levelo_inurba_marseille","lat":43.30147,"lon":5.37414,"is_reserved":false,"is_disabled":false,"rental_uris":{"android":"levelo://app?vid=1445523c-8bfd-4b79-9158-8e8d8842f6b1","ios":"levelo://app?vid=1445523c-8bfd-4b79-9158-8e8d8842f6b1"},"vehicle_type_id":"4","last_reported":1727259009,"current_range_meters":28400,"station_id":"ce4bgs92rcd13ifvqcc0","pricing_plan_id":"cebpf4jnsgd1na2vs0mg"},{"bike_id":"7827170f-fe53-4f76-acc5-1f9d10e67145","system_id":"levelo_inurba_marseille","lat":43.22932,"lon":5.35375,"is_reserved":false,"is_disabled":false,"rental_uris":{"android":"levelo://app?vid=7827170f-fe53-4f76-acc5-1f9d10e67145","ios":"levelo://app?vid=7827170f-fe53-4f76-acc5-1f9d10e67145"},"vehicle_type_id":"4","last_reported":1727259009,"current_range_meters":38400,"station_id":"cpo3532slgdg3j2ikp40","pricing_plan_id":"cebpf4jnsgd1na2vs0mg"},{"bike_id":"d831a0c8-0bcd-4449-91a5-836df1a52d4b","system_id":"levelo_inurba_marseille","lat":43.307183,"lon":5.37276,"is_reserved":false,"is_disabled":false,"rental_uris":{"android":"levelo://app?vid=d831a0c8-0bcd-4449-91a5-836df1a52d4b","ios":"levelo://app?vid=d831a0c8-0bcd-4449-91a5-836df1a52d4b"},"vehicle_type_id":"4","last_reported":1727259009,"current_range_meters":10800,"station_id":"","pricing_plan_id":"cebpf4jnsgd1na2vs0mg"},{"bike_id":"37ea3e6e-16e9-42b3-b4f9-836c84a7a894","system_id":"levelo_inurba_marseille","lat":43.23191,"lon":5.39977,"is_reserved":false,"is_disabled":false,"rental_uris":{"android":"levelo://app?vid=37ea3e6e-16e9-42b3-b4f9-836c84a7a894","ios":"levelo://app?vid=37ea3e6e-16e9-42b3-b4f9-836c84a7a894"},"vehicle_type_id":"4","last_reported":1727259009,"current_range_meters":27600,"station_id":"ce4bhn12rcd13ifvqgqg","pricing_plan_id":"cebpf4jnsgd1na2vs0mg"},{"bike_id":"337d797f-5bad-4e42-a3a9-741eceae0aa0","system_id":"levelo_inurba_marseille","lat":43.33724,"lon":5.39177,"is_reserved":false,"is_disabled":false,"rental_uris":{"android":"levelo://app?vid=337d797f-5bad-4e42-a3a9-741eceae0aa0","ios":"levelo://app?vid=337d797f-5bad-4e42-a3a9-741eceae0aa0"},"vehicle_type_id":"4","last_reported":1727259009,"current_range_meters":38400,"station_id":"ce4bhr92rcd13ifvqhsg","pricing_plan_id":"cebpf4jnsgd1na2vs0mg"},{"bike_id":"fde2e2f3-1a7b-4e7d-92a5-f15b1d8dd0f6","system_id":"levelo_inurba_marseille","lat":43.30539,"lon":5.36545,"is_reserved":false,"is_disabled":false,"rental_uris":{"android":"levelo://app?vid=fde2e2f3-1a7b-4e7d-92a5-f15b1d8dd0f6","ios":"levelo://app?vid=fde2e2f3-1a7b-4e7d-92a5-f15b1d8dd0f6"},"vehicle_type_id":"4","last_reported":1727259009,"current_range_meters":29600,"station_id":"ce4bgs12rcd13ifvqcag","pricing_plan_id":"cebpf4jnsgd1na2vs0mg"},{"bike_id":"7d13bfe6-cac1-417a-a866-11f3f6431dbc","system_id":"levelo_inurba_marseille","lat":43.28858,"lon":5.37148,"is_reserved":false,"is_disabled":false,"rental_uris":{"android":"levelo://app?vid=7d13bfe6-cac1-417a-a866-11f3f6431dbc","ios":"levelo://app?vid=7d13bfe6-cac1-417a-a866-11f3f6431dbc"},"vehicle_type_id":"4","last_reported":1727259009,"current_range_meters":27200,"station_id":"ce4bht12rcd13ifvqi60","pricing_plan_id":"cebpf4jnsgd1na2vs0mg"},{"bike_id":"4a4bfd88-bdfc-4802-b3a8-e798e4274727","system_id":"levelo_inurba_marseille","lat":43.32288,"lon":5.38252,"is_reserved":false,"is_disabled":false,"rental_uris":{"android":"levelo://app?vid=4a4bfd88-bdfc-4802-b3a8-e798e4274727","ios":"levelo://app?vid=4a4bfd88-bdfc-4802-b3a8-e798e4274727"},"vehicle_type_id":"4","last_reported":1727259009,"current_range_meters":28800,"station_id":"ce4bhr12rcd13ifvqhqg","pricing_plan_id":"cebpf4jnsgd1na2vs0mg"},{"bike_id":"59192e51-e733-422f-a258-8263531a309d","system_id":"levelo_inurba_marseille","lat":43.29778,"lon":5.38103,"is_reserved":false,"is_disabled":false,"rental_uris":{"android":"levelo://app?vid=59192e51-e733-422f-a258-8263531a309d","ios":"levelo://app?vid=59192e51-e733-422f-a258-8263531a309d"},"vehicle_type_id":"4","last_reported":1727259009,"current_range_meters":17600,"station_id":"ce4bgip2rcd13ifvqbb0","pricing_plan_id":"cebpf4jnsgd1na2vs0mg"},{"bike_id":"6d96f985-9c01-48a6-84cc-38d4437fa126","system_id":"levelo_inurba_marseille","lat":43.23155,"lon":5.43706,"is_reserved":false,"is_disabled":false,"rental_uris":{"android":"levelo://app?vid=6d96f985-9c01-48a6-84cc-38d4437fa126","ios":"levelo://app?vid=6d96f985-9c01-48a6-84cc-38d4437fa126"},"vehicle_type_id":"4","last_reported":1727259009,"current_range_meters":13600,"station_id":"ce4bhmp2rcd13ifvqgog","pricing_plan_id":"cebpf4jnsgd1na2vs0mg"},{"bike_id":"6e26fd40-fb44-40d1-afbb-79f17e933784","system_id":"levelo_inurba_marseille","lat":43.30947,"lon":5.390355,"is_reserved":false,"is_disabled":false,"rental_uris":{"android":"levelo://app?vid=6e26fd40-fb44-40d1-afbb-79f17e933784","ios":"levelo://app?vid=6e26fd40-fb44-40d1-afbb-79f17e933784"},"vehicle_type_id":"4","last_reported":1727259009,"current_range_meters":34000,"station_id":"ce4bgup2rcd13ifvqco0","pricing_plan_id":"cebpf4jnsgd1na2vs0mg"},{"bike_id":"83ba5108-5b0a-4d30-bc54-2eaa9d223d59","system_id":"levelo_inurba_marseille","lat":43.30467,"lon":5.37903,"is_reserved":false,"is_disabled":false,"rental_uris":{"android":"levelo://app?vid=83ba5108-5b0a-4d30-bc54-2eaa9d223d59","ios":"levelo://app?vid=83ba5108-5b0a-4d30-bc54-2eaa9d223d59"},"vehicle_type_id":"4","last_reported":1727259009,"current_range_meters":39200,"station_id":"ce4bgup2rcd13ifvqcn0","pricing_plan_id":"cebpf4jnsgd1na2vs0mg"},{"bike_id":"95b59248-193a-47df-9847-7d547353f860","system_id":"levelo_inurba_marseille","lat":43.30469,"lon":5.37907,"is_reserved":false,"is_disabled":false,"rental_uris":{"android":"levelo://app?vid=95b59248-193a-47df-9847-7d547353f860","ios":"levelo://app?vid=95b59248-193a-47df-9847-7d547353f860"},"vehicle_type_id":"4","last_reported":1727259009,"current_range_meters":38000,"station_id":"ce4bgup2rcd13ifvqcn0","pricing_plan_id":"cebpf4jnsgd1na2vs0mg"},{"bike_id":"0fa02f19-62ea-444b-908b-23c26cd28fb0","system_id":"levelo_inurba_marseille","lat":43.30139,"lon":5.37422,"is_reserved":false,"is_disabled":false,"rental_uris":{"android":"levelo://app?vid=0fa02f19-62ea-444b-908b-23c26cd28fb0","ios":"levelo://app?vid=0fa02f19-62ea-444b-908b-23c26cd28fb0"},"vehicle_type_id":"4","last_reported":1727259009,"current_range_meters":38800,"station_id":"ce4bgs92rcd13ifvqcc0","pricing_plan_id":"cebpf4jnsgd1na2vs0mg"},{"bike_id":"4d31a4eb-f1f8-4c48-aaf0-bc7a81a344c8","system_id":"levelo_inurba_marseille","lat":43.30138,"lon":5.37418,"is_reserved":false,"is_disabled":false,"rental_uris":{"android":"levelo://app?vid=4d31a4eb-f1f8-4c48-aaf0-bc7a81a344c8","ios":"levelo://app?vid=4d31a4eb-f1f8-4c48-aaf0-bc7a81a344c8"},"vehicle_type_id":"4","last_reported":1727259009,"current_range_meters":30400,"station_id":"ce4bgs92rcd13ifvqcc0","pricing_plan_id":"cebpf4jnsgd1na2vs0mg"},{"bike_id":"f5fec03c-8a5d-4e98-89b5-985ff8911023","system_id":"levelo_inurba_marseille","lat":43.29065,"lon":5.37161,"is_reserved":false,"is_disabled":false,"rental_uris":{"android":"levelo://app?vid=f5fec03c-8a5d-4e98-89b5-985ff8911023","ios":"levelo://app?vid=f5fec03c-8a5d-4e98-89b5-985ff8911023"},"vehicle_type_id":"4","last_reported":1727259009,"current_range_meters":24800,"station_id":"ce4bh5p2rcd13ifvqe4g","pricing_plan_id":"cebpf4jnsgd1na2vs0mg"},{"bike_id":"c795e955-3e44-4c63-b732-a1b93f5eb0c5","system_id":"levelo_inurba_marseille","lat":43.29713,"lon":5.37686,"is_reserved":false,"is_disabled":false,"rental_uris":{"android":"levelo://app?vid=c795e955-3e44-4c63-b732-a1b93f5eb0c5","ios":"levelo://app?vid=c795e955-3e44-4c63-b732-a1b93f5eb0c5"},"vehicle_type_id":"4","last_reported":1727259009,"current_range_meters":38400,"station_id":"ce4bgkh2rcd13ifvqbl0","pricing_plan_id":"cebpf4jnsgd1na2vs0mg"},{"bike_id":"5e787303-50e2-4b6f-ac85-c0e6d3015235","system_id":"levelo_inurba_marseille","lat":43.29899,"lon":5.4366,"is_reserved":false,"is_disabled":false,"rental_uris":{"android":"levelo://app?vid=5e787303-50e2-4b6f-ac85-c0e6d3015235","ios":"levelo://app?vid=5e787303-50e2-4b6f-ac85-c0e6d3015235"},"vehicle_type_id":"4","last_reported":1727259009,"current_range_meters":38000,"station_id":"ce4bhpp2rcd13ifvqhfg","pricing_plan_id":"cebpf4jnsgd1na2vs0mg"},{"bike_id":"d45e1e15-7d29-48e1-a876-f3aec1272207","system_id":"levelo_inurba_marseille","lat":43.27208,"lon":5.39176,"is_reserved":false,"is_disabled":false,"rental_uris":{"android":"levelo://app?vid=d45e1e15-7d29-48e1-a876-f3aec1272207","ios":"levelo://app?vid=d45e1e15-7d29-48e1-a876-f3aec1272207"},"vehicle_type_id":"4","last_reported":1727259009,"current_range_meters":33200,"station_id":"ce4bhhp2rcd13ifvqfm0","pricing_plan_id":"cebpf4jnsgd1na2vs0mg"},{"bike_id":"ede37da0-431f-462e-af97-45c71435ab2a","system_id":"levelo_inurba_marseille","lat":43.24177,"lon":5.39712,"is_reserved":false,"is_disabled":false,"rental_uris":{"android":"levelo://app?vid=ede37da0-431f-462e-af97-45c71435ab2a","ios":"levelo://app?vid=ede37da0-431f-462e-af97-45c71435ab2a"},"vehicle_type_id":"4","last_reported":1727259009,"current_range_meters":20800,"station_id":"ce4bhn12rcd13ifvqgpg","pricing_plan_id":"cebpf4jnsgd1na2vs0mg"},{"bike_id":"5f382580-7123-4ed7-9363-794ed4ff431e","system_id":"levelo_inurba_marseille","lat":43.30462,"lon":5.37901,"is_reserved":false,"is_disabled":false,"rental_uris":{"android":"levelo://app?vid=5f382580-7123-4ed7-9363-794ed4ff431e","ios":"levelo://app?vid=5f382580-7123-4ed7-9363-794ed4ff431e"},"vehicle_type_id":"4","last_reported":1727259009,"current_range_meters":39200,"station_id":"ce4bgup2rcd13ifvqcn0","pricing_plan_id":"cebpf4jnsgd1na2vs0mg"},{"bike_id":"8dd2d7f6-be53-40b8-8307-1fb1dc3d6431","system_id":"levelo_inurba_marseille","lat":43.26314,"lon":5.37828,"is_reserved":false,"is_disabled":false,"rental_uris":{"android":"levelo://app?vid=8dd2d7f6-be53-40b8-8307-1fb1dc3d6431","ios":"levelo://app?vid=8dd2d7f6-be53-40b8-8307-1fb1dc3d6431"},"vehicle_type_id":"4","last_reported":1727259009,"current_range_meters":22400,"station_id":"ce4bhih2rcd13ifvqfs0","pricing_plan_id":"cebpf4jnsgd1na2vs0mg"},{"bike_id":"5a424b04-e0fc-4717-afab-aacb064c7c38","system_id":"levelo_inurba_marseille","lat":43.30159,"lon":5.38078,"is_reserved":false,"is_disabled":false,"rental_uris":{"android":"levelo://app?vid=5a424b04-e0fc-4717-afab-aacb064c7c38","ios":"levelo://app?vid=5a424b04-e0fc-4717-afab-aacb064c7c38"},"vehicle_type_id":"4","last_reported":1727259009,"current_range_meters":36800,"station_id":"ce4bgjp2rcd13ifvqbh0","pricing_plan_id":"cebpf4jnsgd1na2vs0mg"},{"bike_id":"59de1e17-14ce-41ff-9f0d-efd3f90cb9d1","system_id":"levelo_inurba_marseille","lat":43.30884,"lon":5.39616,"is_reserved":false,"is_disabled":false,"rental_uris":{"android":"levelo://app?vid=59de1e17-14ce-41ff-9f0d-efd3f90cb9d1","ios":"levelo://app?vid=59de1e17-14ce-41ff-9f0d-efd3f90cb9d1"},"vehicle_type_id":"4","last_reported":1727259009,"current_range_meters":33200,"station_id":"ce4bh012rcd13ifvqcv0","pricing_plan_id":"cebpf4jnsgd1na2vs0mg"},{"bike_id":"c78b727f-3719-45a6-b464-04be9b669e84","system_id":"levelo_inurba_marseille","lat":43.23154,"lon":5.43708,"is_reserved":false,"is_disabled":false,"rental_uris":{"android":"levelo://app?vid=c78b727f-3719-45a6-b464-04be9b669e84","ios":"levelo://app?vid=c78b727f-3719-45a6-b464-04be9b669e84"},"vehicle_type_id":"4","last_reported":1727259009,"current_range_meters":26800,"station_id":"ce4bhmp2rcd13ifvqgog","pricing_plan_id":"cebpf4jnsgd1na2vs0mg"},{"bike_id":"3d160dae-6782-4e53-81e7-e40908ad46c5","system_id":"levelo_inurba_marseille","lat":43.31867,"lon":5.37417,"is_reserved":false,"is_disabled":false,"rental_uris":{"android":"levelo://app?vid=3d160dae-6782-4e53-81e7-e40908ad46c5","ios":"levelo://app?vid=3d160dae-6782-4e53-81e7-e40908ad46c5"},"vehicle_type_id":"4","last_reported":1727259009,"current_range_meters":36000,"station_id":"","pricing_plan_id":"cebpf4jnsgd1na2vs0mg"},{"bike_id":"23527418-a8f2-4758-b5c0-b6e8c37602a3","system_id":"levelo_inurba_marseille","lat":43.301578,"lon":5.380778,"is_reserved":false,"is_disabled":false,"rental_uris":{"android":"levelo://app?vid=23527418-a8f2-4758-b5c0-b6e8c37602a3","ios":"levelo://app?vid=23527418-a8f2-4758-b5c0-b6e8c37602a3"},"vehicle_type_id":"4","last_reported":1727259009,"current_range_meters":30400,"station_id":"ce4bgjp2rcd13ifvqbh0","pricing_plan_id":"cebpf4jnsgd1na2vs0mg"},{"bike_id":"20939ede-63f2-4154-b3ad-9d02db837d19","system_id":"levelo_inurba_marseille","lat":43.299093,"lon":5.374583,"is_reserved":false,"is_disabled":false,"rental_uris":{"android":"levelo://app?vid=20939ede-63f2-4154-b3ad-9d02db837d19","ios":"levelo://app?vid=20939ede-63f2-4154-b3ad-9d02db837d19"},"vehicle_type_id":"4","last_reported":1727259009,"current_range_meters":17600,"station_id":"ce4bgjh2rcd13ifvqbg0","pricing_plan_id":"cebpf4jnsgd1na2vs0mg"},{"bike_id":"e494ad43-dc18-4997-9b44-a87daaa04eae","system_id":"levelo_inurba_marseille","lat":43.2781,"lon":5.40712,"is_reserved":false,"is_disabled":false,"rental_uris":{"android":"levelo://app?vid=e494ad43-dc18-4997-9b44-a87daaa04eae","ios":"levelo://app?vid=e494ad43-dc18-4997-9b44-a87daaa04eae"},"vehicle_type_id":"4","last_reported":1727259009,"current_range_meters":24400,"station_id":"ce4bhnh2rcd13ifvqgtg","pricing_plan_id":"cebpf4jnsgd1na2vs0mg"},{"bike_id":"d0da2fb6-2155-4c4d-8d53-9c4d82ef5520","system_id":"levelo_inurba_marseille","lat":43.30538,"lon":5.36542,"is_reserved":false,"is_disabled":false,"rental_uris":{"android":"levelo://app?vid=d0da2fb6-2155-4c4d-8d53-9c4d82ef5520","ios":"levelo://app?vid=d0da2fb6-2155-4c4d-8d53-9c4d82ef5520"},"vehicle_type_id":"4","last_reported":1727259009,"current_range_meters":37600,"station_id":"ce4bgs12rcd13ifvqcag","pricing_plan_id":"cebpf4jnsgd1na2vs0mg"},{"bike_id":"3cdb199b-bacd-44b6-8eed-476c74758fbd","system_id":"levelo_inurba_marseille","lat":43.32105,"lon":5.36776,"is_reserved":false,"is_disabled":false,"rental_uris":{"android":"levelo://app?vid=3cdb199b-bacd-44b6-8eed-476c74758fbd","ios":"levelo://app?vid=3cdb199b-bacd-44b6-8eed-476c74758fbd"},"vehicle_type_id":"4","last_reported":1727259009,"current_range_meters":26000,"station_id":"ce4bhrh2rcd13ifvqhug","pricing_plan_id":"cebpf4jnsgd1na2vs0mg"},{"bike_id":"97fdfaae-f63f-44a0-a772-f5d34e503ce7","system_id":"levelo_inurba_marseille","lat":43.29776,"lon":5.37103,"is_reserved":false,"is_disabled":false,"rental_uris":{"android":"levelo://app?vid=97fdfaae-f63f-44a0-a772-f5d34e503ce7","ios":"levelo://app?vid=97fdfaae-f63f-44a0-a772-f5d34e503ce7"},"vehicle_type_id":"4","last_reported":1727259009,"current_range_meters":37600,"station_id":"ce4bgop2rcd13ifvqc1g","pricing_plan_id":"cebpf4jnsgd1na2vs0mg"},{"bike_id":"33430b0a-ef2e-45dc-853c-19e2a52996ef","system_id":"levelo_inurba_marseille","lat":43.32481,"lon":5.36559,"is_reserved":false,"is_disabled":false,"rental_uris":{"android":"levelo://app?vid=33430b0a-ef2e-45dc-853c-19e2a52996ef","ios":"levelo://app?vid=33430b0a-ef2e-45dc-853c-19e2a52996ef"},"vehicle_type_id":"4","last_reported":1727259009,"current_range_meters":38800,"station_id":"ce4bhs12rcd13ifvqhvg","pricing_plan_id":"cebpf4jnsgd1na2vs0mg"},{"bike_id":"41167142-09dd-4910-b05b-bcd58a9413d1","system_id":"levelo_inurba_marseille","lat":43.30547,"lon":5.36702,"is_reserved":false,"is_disabled":false,"rental_uris":{"android":"levelo://app?vid=41167142-09dd-4910-b05b-bcd58a9413d1","ios":"levelo://app?vid=41167142-09dd-4910-b05b-bcd58a9413d1"},"vehicle_type_id":"4","last_reported":1727259009,"current_range_meters":29600,"station_id":"ce4bgrp2rcd13ifvqc9g","pricing_plan_id":"cebpf4jnsgd1na2vs0mg"},{"bike_id":"5c57de69-699d-4053-9bf9-3968c5331f1b","system_id":"levelo_inurba_marseille","lat":43.33023,"lon":5.39036,"is_reserved":false,"is_disabled":false,"rental_uris":{"android":"levelo://app?vid=5c57de69-699d-4053-9bf9-3968c5331f1b","ios":"levelo://app?vid=5c57de69-699d-4053-9bf9-3968c5331f1b"},"vehicle_type_id":"4","last_reported":1727259009,"current_range_meters":37600,"station_id":"ce4bhr92rcd13ifvqhrg","pricing_plan_id":"cebpf4jnsgd1na2vs0mg"},{"bike_id":"97e0886d-a6b3-4345-ae85-30a441ba92a0","system_id":"levelo_inurba_marseille","lat":43.30216,"lon":5.3946,"is_reserved":false,"is_disabled":false,"rental_uris":{"android":"levelo://app?vid=97e0886d-a6b3-4345-ae85-30a441ba92a0","ios":"levelo://app?vid=97e0886d-a6b3-4345-ae85-30a441ba92a0"},"vehicle_type_id":"4","last_reported":1727259009,"current_range_meters":24000,"station_id":"ce4bh0p2rcd13ifvqd70","pricing_plan_id":"cebpf4jnsgd1na2vs0mg"},