{"last_updated":1744654466,"ttl":60,"version":"2.2","data":{"bikes":[{"bike_id":"f6542436-8c96-4476-93fc-f591a7ba6805","system_id":"levelo_inurba_marseille","lat":43.2926,"lon":5.38448,"is_reserved":false,"is_disabled":false,"rental_uris":{"android":"levelo://app?vid=f6542436-8c96-4476-93fc-f591a7ba6805","ios":"levelo://app?vid=f6542436-8c96-4476-93fc-f591a7ba6805"},"vehicle_type_id":"4","last_reported":1744654466,"current_range_meters":2800,"station_id":"ce4bh692rcd13ifvqea0","pricing_plan_id":"cebpf4jnsgd1na2vs0mg"},{"bike_id":"a6a9e146-d64e-409f-939a-5117ac5ecc6b","system_id":"levelo_inurba_marseille","lat":43.279638,"lon":5.386977,"is_reserved":false,"is_disabled":false,"rental_uris":{"android":"levelo://app?vid=a6a9e146-d64e-409f-939a-5117ac5ecc6b","ios":"levelo://app?vid=a6a9e146-d64e-409f-939a-5117ac5ecc6b"},"vehicle_type_id":"4","last_reported":1744654466,"current_range_meters":2800,"station_id":"ce4bhlh2rcd13ifvqgig","pricing_plan_id":"cebpf4jnsgd1na2vs0mg"},{"bike_id":"67dd4f09-3835-4752-a0d8-179212cb032f","system_id":"levelo_inurba_marseille","lat":43.31111,"lon":5.37763,"is_reserved":false,"is_disabled":false,"rental_uris":{"android":"levelo://app?vid=67dd4f09-3835-4752-a0d8-179212cb032f","ios":"levelo://app?vid=67dd4f09-3835-4752-a0d8-179212cb032f"},"vehicle_type_id":"4","last_reported":1744654466,"current_range_meters":3200,"station_id":"ce4bgt92rcd13ifvqcg0","pricing_plan_id":"cebpf4jnsgd1na2vs0mg"},{"bike_id":"9d685cec-3e77-4ac6-ae3e-5b56d8905606","system_id":"levelo_inurba_marseille","lat":43.29273,"lon":5.3684,"is_reserved":false,"is_disabled":false,"rental_uris":{"android":"levelo://app?vid=9d685cec-3e77-4ac6-ae3e-5b56d8905606","ios":"levelo://app?vid=9d685cec-3e77-4ac6-ae3e-5b56d8905606"},"vehicle_type_id":"4","last_reported":1744654466,"current_range_meters":3200,"station_id":"ce4bhbp2rcd13ifvqesg","pricing_plan_id":"cebpf4jnsgd1na2vs0mg"},{"bike_id":"c8af78c6-277c-4e7b-8433-983b612e3afd","system_id":"levelo_inurba_marseille","lat":43.26483,"lon":5.39548,"is_reserved":false,"is_disabled":false,"rental_uris":{"android":"levelo://app?vid=c8af78c6-277c-4e7b-8433-983b612e3afd","ios":"levelo://app?vid=c8af78c6-277c-4e7b-8433-983b612e3afd"},"vehicle_type_id":"4","last_reported":1744654466,"current_range_meters":3200,"station_id":"ce4bhi12rcd13ifvqfq0","pricing_plan_id":"cebpf4jnsgd1na2vs0mg"},{"bike_id":"6d14f9dc-af60-421a-b483-f32d5f6f3968","system_id":"levelo_inurba_marseille","lat":43.29304,"lon":5.37178,"is_reserved":false,"is_disabled":false,"rental_uris":{"android":"levelo://app?vid=6d14f9dc-af60-421a-b483-f32d5f6f3968","ios":"levelo://app?vid=6d14f9dc-af60-421a-b483-f32d5f6f3968"},"vehicle_type_id":"4","last_reported":1744654466,"current_range_meters":2800,"station_id":"ce4bgh92rcd13ifvqb40","pricing_plan_id":"cebpf4jnsgd1na2vs0mg"},{"bike_id":"944bddab-9f41-4da7-80e2-b3e803e6b9a5","system_id":"levelo_inurba_marseille","lat":43.21199,"lon":5.35087,"is_reserved":false,"is_disabled":false,"rental_uris":{"android":"levelo://app?vid=944bddab-9f41-4da7-80e2-b3e803e6b9a5","ios":"levelo://app?vid=944bddab-9f41-4da7-80e2-b3e803e6b9a5"},"vehicle_type_id":"4","last_reported":1744654466,"current_range_meters":3200,"station_id":"st_cvj6sg6p6f1abm77japg","pricing_plan_id":"cebpf4jnsgd1na2vs0mg"},{"bike_id":"a64efc41-7858-45f7-8dcd-639611ad6cdb","system_id":"levelo_inurba_marseille","lat":43.30134,"lon":5.39855,"is_reserved":false,"is_disabled":false,"rental_uris":{"android":"levelo://app?vid=a64efc41-7858-45f7-8dcd-639611ad6cdb","ios":"levelo://app?vid=a64efc41-7858-45f7-8dcd-639611ad6cdb"},"vehicle_type_id":"4","last_reported":1744654466,"current_range_meters":3200,"station_id":"ce4bh0h2rcd13ifvqd40","pricing_plan_id":"cebpf4jnsgd1na2vs0mg"},{"bike_id":"5e12335f-850c-4e07-86ab-12d1dc594606","system_id":"levelo_inurba_marseille","lat":43.276601,"lon":5.361477,"is_reserved":false,"is_disabled":false,"rental_uris":{"android":"levelo://app?vid=5e12335f-850c-4e07-86ab-12d1dc594606","ios":"levelo://app?vid=5e12335f-850c-4e07-86ab-12d1dc594606"},"vehicle_type_id":"4","last_reported":1744654466,"current_range_meters":2800,"station_id":"ce4bha12rcd13ifvqef0","pricing_plan_id":"cebpf4jnsgd1na2vs0mg"},{"bike_id":"2e481c41-243f-47cc-850b-1405acf38c77","system_id":"levelo_inurba_marseille","lat":43.30948,"lon":5.39039,"is_reserved":false,"is_disabled":false,"rental_uris":{"android":"levelo://app?vid=2e481c41-243f-47cc-850b-1405acf38c77","ios":"levelo://app?vid=2e481c41-243f-47cc-850b-1405acf38c77"},"vehicle_type_id":"4","last_reported":1744654466,"current_range_meters":3600,"station_id":"ce4bgup2rcd13ifvqco0","pricing_plan_id":"cebpf4jnsgd1na2vs0mg"},{"bike_id":"c2e844ea-49be-440e-a082-ce55868175e5","system_id":"levelo_inurba_marseille","lat":43.30882,"lon":5.39667,"is_reserved":false,"is_disabled":false,"rental_uris":{"android":"levelo://app?vid=c2e844ea-49be-440e-a082-ce55868175e5","ios":"levelo://app?vid=c2e844ea-49be-440e-a082-ce55868175e5"},"vehicle_type_id":"4","last_reported":1744654466,"current_range_meters":3600,"station_id":"ce4bh012rcd13ifvqcv0","pricing_plan_id":"cebpf4jnsgd1na2vs0mg"},{"bike_id":"6db93bc8-c7a5-430b-85c6-1725072957c9","system_id":"levelo_inurba_marseille","lat":43.30031,"lon":5.37742,"is_reserved":false,"is_disabled":false,"rental_uris":{"android":"levelo://app?vid=6db93bc8-c7a5-430b-85c6-1725072957c9","ios":"levelo://app?vid=6db93bc8-c7a5-430b-85c6-1725072957c9"},"vehicle_type_id":"4","last_reported":1744654466,"current_range_meters":3600,"station_id":"","pricing_plan_id":"cebpf4jnsgd1na2vs0mg"},{"bike_id":"e7761cb3-7bb9-4051-8e50-5625241206ba","system_id":"levelo_inurba_marseille","lat":43.31011,"lon":5.37121,"is_reserved":false,"is_disabled":false,"rental_uris":{"android":"levelo://app?vid=e7761cb3-7bb9-4051-8e50-5625241206ba","ios":"levelo://app?vid=e7761cb3-7bb9-4051-8e50-5625241206ba"},"vehicle_type_id":"4","last_reported":1744654466,"current_range_meters":4000,"station_id":"","pricing_plan_id":"cebpf4jnsgd1na2vs0mg"},{"bike_id":"3d16c2e3-7c12-4342-883a-029e0fc16b05","system_id":"levelo_inurba_marseille","lat":43.31004,"lon":5.37098,"is_reserved":false,"is_disabled":false,"rental_uris":{"android":"levelo://app?vid=3d16c2e3-7c12-4342-883a-029e0fc16b05","ios":"levelo://app?vid=3d16c2e3-7c12-4342-883a-029e0fc16b05"},"vehicle_type_id":"4","last_reported":1744654466,"current_range_meters":3600,"station_id":"","pricing_plan_id":"cebpf4jnsgd1na2vs0mg"},{"bike_id":"e914ccdb-80a0-4ea0-bc19-3385a95b7428","system_id":"levelo_inurba_marseille","lat":43.27681,"lon":5.38985,"is_reserved":false,"is_disabled":false,"rental_uris":{"android":"levelo://app?vid=e914ccdb-80a0-4ea0-bc19-3385a95b7428","ios":"levelo://app?vid=e914ccdb-80a0-4ea0-bc19-3385a95b7428"},"vehicle_type_id":"4","last_reported":1744654466,"current_range_meters":3600,"station_id":"","pricing_plan_id":"cebpf4jnsgd1na2vs0mg"},{"bike_id":"001bd3ff-cbd6-444a-bf72-468027c8bf27","system_id":"levelo_inurba_marseille","lat":43.29885,"lon":5.38907,"is_reserved":false,"is_disabled":false,"rental_uris":{"android":"levelo://app?vid=001bd3ff-cbd6-444a-bf72-468027c8bf27","ios":"levelo://app?vid=001bd3ff-cbd6-444a-bf72-468027c8bf27"},"vehicle_type_id":"4","last_reported":1744654466,"current_range_meters":4000,"station_id":"ce4bh392rcd13ifvqdl0","pricing_plan_id":"cebpf4jnsgd1na2vs0mg"},{"bike_id":"b18e9fa5-4ba1-41fe-a90e-2b4350f03e1a","system_id":"levelo_inurba_marseille","lat":43.30212,"lon":5.39468,"is_reserved":false,"is_disabled":false,"rental_uris":{"android":"levelo://app?vid=b18e9fa5-4ba1-41fe-a90e-2b4350f03e1a","ios":"levelo://app?vid=b18e9fa5-4ba1-41fe-a90e-2b4350f03e1a"},"vehicle_type_id":"4","last_reported":1744654466,"current_range_meters":3600,"station_id":"ce4bh0p2rcd13ifvqd70","pricing_plan_id":"cebpf4jnsgd1na2vs0mg"},{"bike_id":"7985b006-3288-451c-b406-c6cd1b104f83","system_id":"levelo_inurba_marseille","lat":43.240743,"lon":5.377576,"is_reserved":false,"is_disabled":false,"rental_uris":{"android":"levelo://app?vid=7985b006-3288-451c-b406-c6cd1b104f83","ios":"levelo://app?vid=7985b006-3288-451c-b406-c6cd1b104f83"},"vehicle_type_id":"4","last_reported":1744654466,"current_range_meters":3600,"station_id":"ce4bhnp2rcd13ifvqgvg","pricing_plan_id":"cebpf4jnsgd1na2vs0mg"},{"bike_id":"a2edff8e-9058-4381-a120-b24ee7b6f27c","system_id":"levelo_inurba_marseille","lat":43.29881,"lon":5.38905,"is_reserved":false,"is_disabled":false,"rental_uris":{"android":"levelo://app?vid=a2edff8e-9058-4381-a120-b24ee7b6f27c","ios":"levelo://app?vid=a2edff8e-9058-4381-a120-b24ee7b6f27c"},"vehicle_type_id":"4","last_reported":1744654466,"current_range_meters":4000,"station_id":"ce4bh392rcd13ifvqdl0","pricing_plan_id":"cebpf4jnsgd1na2vs0mg"},{"bike_id":"81d39627-1ced-458b-8549-5be3e53558b9","system_id":"levelo_inurba_marseille","lat":43.29305,"lon":5.37174,"is_reserved":false,"is_disabled":false,"rental_uris":{"android":"levelo://app?vid=81d39627-1ced-458b-8549-5be3e53558b9","ios":"levelo://app?vid=81d39627-1ced-458b-8549-5be3e53558b9"},"vehicle_type_id":"4","last_reported":1744654466,"current_range_meters":7200,"station_id":"ce4bgh92rcd13ifvqb40","pricing_plan_id":"cebpf4jnsgd1na2vs0mg"},{"bike_id":"128e37b1-0cb4-4b51-8779-c5fac30f906e","system_id":"levelo_inurba_marseille","lat":43.29521,"lon":5.39406,"is_reserved":false,"is_disabled":false,"rental_uris":{"android":"levelo://app?vid=128e37b1-0cb4-4b51-8779-c5fac30f906e","ios":"levelo://app?vid=128e37b1-0cb4-4b51-8779-c5fac30f906e"},"vehicle_type_id":"4","last_reported":1744654466,"current_range_meters":4000,"station_id":"ce4bh292rcd13ifvqdf0","pricing_plan_id":"cebpf4jnsgd1na2vs0mg"},{"bike_id":"ae8e1f29-85bc-4c3c-997b-fc33f33f029f","system_id":"levelo_inurba_marseille","lat":43.28454,"lon":5.35896,"is_reserved":false,"is_disabled":false,"rental_uris":{"android":"levelo://app?vid=ae8e1f29-85bc-4c3c-997b-fc33f33f029f","ios":"levelo://app?vid=ae8e1f29-85bc-4c3c-997b-fc33f33f029f"},"vehicle_type_id":"4","last_reported":1744654466,"current_range_meters":4400,"station_id":"ce4bhah2rcd13ifvqei0","pricing_plan_id":"cebpf4jnsgd1na2vs0mg"},{"bike_id":"c63ed2ec-8177-467b-8581-8cb5a65609fb","system_id":"levelo_inurba_marseille","lat":43.24387,"lon":5.37056,"is_reserved":false,"is_disabled":false,"rental_uris":{"android":"levelo://app?vid=c63ed2ec-8177-467b-8581-8cb5a65609fb","ios":"levelo://app?vid=c63ed2ec-8177-467b-8581-8cb5a65609fb"},"vehicle_type_id":"4","last_reported":1744654466,"current_range_meters":4400,"station_id":"ce4bhhh2rcd13ifvqfk0","pricing_plan_id":"cebpf4jnsgd1na2vs0mg"},{"bike_id":"49a2f1b6-a6db-4482-930f-3b404f2245dd","system_id":"levelo_inurba_marseille","lat":43.30902,"lon":5.36857,"is_reserved":false,"is_disabled":false,"rental_uris":{"android":"levelo://app?vid=49a2f1b6-a6db-4482-930f-3b404f2245dd","ios":"levelo://app?vid=49a2f1b6-a6db-4482-930f-3b404f2245dd"},"vehicle_type_id":"4","last_reported":1744654466,"current_range_meters":4400,"station_id":"ce4bgn92rcd13ifvqbvg","pricing_plan_id":"cebpf4jnsgd1na2vs0mg"},{"bike_id":"4bebc003-cfd8-40fb-8385-8a41d8639be6","system_id":"levelo_inurba_marseille","lat":43.28152,"lon":5.42645,"is_reserved":false,"is_disabled":false,"rental_uris":{"android":"levelo://app?vid=4bebc003-cfd8-40fb-8385-8a41d8639be6","ios":"levelo://app?vid=4bebc003-cfd8-40fb-8385-8a41d8639be6"},"vehicle_type_id":"4","last_reported":1744654466,"current_range_meters":4400,"station_id":"ce4bhnh2rcd13ifvqgug","pricing_plan_id":"cebpf4jnsgd1na2vs0mg"},{"bike_id":"0f6d142c-2786-4b3f-a9b1-4e2489d0850f","system_id":"levelo_inurba_marseille","lat":43.28946,"lon":5.36407,"is_reserved":false,"is_disabled":false,"rental_uris":{"android":"levelo://app?vid=0f6d142c-2786-4b3f-a9b1-4e2489d0850f","ios":"levelo://app?vid=0f6d142c-2786-4b3f-a9b1-4e2489d0850f"},"vehicle_type_id":"4","last_reported":1744654466,"current_range_meters":4400,"station_id":"ce4bhc92rcd13ifvqetg","pricing_plan_id":"cebpf4jnsgd1na2vs0mg"},{"bike_id":"78db9c2f-6194-4220-bf78-52f2317f70df","system_id":"levelo_inurba_marseille","lat":43.30605,"lon":5.37224,"is_reserved":false,"is_disabled":false,"rental_uris":{"android":"levelo://app?vid=78db9c2f-6194-4220-bf78-52f2317f70df","ios":"levelo://app?vid=78db9c2f-6194-4220-bf78-52f2317f70df"},"vehicle_type_id":"4","last_reported":1744654466,"current_range_meters":4400,"station_id":"ce4bgqh2rcd13ifvqc4g","pricing_plan_id":"cebpf4jnsgd1na2vs0mg"},{"bike_id":"caffca0f-4aa3-4aaf-a020-b7190befb739","system_id":"levelo_inurba_marseille","lat":43.30139,"lon":5.38786,"is_reserved":false,"is_disabled":true,"rental_uris":{"android":"levelo://app?vid=caffca0f-4aa3-4aaf-a020-b7190befb739","ios":"levelo://app?vid=caffca0f-4aa3-4aaf-a020-b7190befb739"},"vehicle_type_id":"4","last_reported":1744654466,"current_range_meters":4800,"station_id":"ce4bghh2rcd13ifvqb60","pricing_plan_id":"cebpf4jnsgd1na2vs0mg"},{"bike_id":"697b7861-0b83-4f96-b026-a8e7a961eef4","system_id":"levelo_inurba_marseille","lat":43.24647,"lon":5.38894,"is_reserved":false,"is_disabled":false,"rental_uris":{"android":"levelo://app?vid=697b7861-0b83-4f96-b026-a8e7a961eef4","ios":"levelo://app?vid=697b7861-0b83-4f96-b026-a8e7a961eef4"},"vehicle_type_id":"4","last_reported":1744654466,"current_range_meters":4800,"station_id":"ce4bhg12rcd13ifvqf60","pricing_plan_id":"cebpf4jnsgd1na2vs0mg"},{"bike_id":"76450c2c-888f-4d08-a5c0-d825237615aa","system_id":"levelo_inurba_marseille","lat":43.272287,"lon":5.423034,"is_reserved":false,"is_disabled":false,"rental_uris":{"android":"levelo://app?vid=76450c2c-888f-4d08-a5c0-d825237615aa","ios":"levelo://app?vid=76450c2c-888f-4d08-a5c0-d825237615aa"},"vehicle_type_id":"4","last_reported":1744654466,"current_range_meters":5600,"station_id":"","pricing_plan_id":"cebpf4jnsgd1na2vs0mg"},{"bike_id":"48d5284b-0280-403d-a58d-b244fb16c42d","system_id":"levelo_inurba_marseille","lat":43.30794,"lon":5.37655,"is_reserved":false,"is_disabled":false,"rental_uris":{"android":"levelo://app?vid=48d5284b-0280-403d-a58d-b244fb16c42d","ios":"levelo://app?vid=48d5284b-0280-403d-a58d-b244fb16c42d"},"vehicle_type_id":"4","last_reported":1744654466,"current_range_meters":5600,"station_id":"ce4bgv92rcd13ifvqcq0","pricing_plan_id":"cebpf4jnsgd1na2vs0mg"},{"bike_id":"88e6c73f-c55d-40a5-be69-0ee50e103d2a","system_id":"levelo_inurba_marseille","lat":43.309283,"lon":5.40141,"is_reserved":false,"is_disabled":false,"rental_uris":{"android":"levelo://app?vid=88e6c73f-c55d-40a5-be69-0ee50e103d2a","ios":"levelo://app?vid=88e6c73f-c55d-40a5-be69-0ee50e103d2a"},"vehicle_type_id":"4","last_reported":1744654466,"current_range_meters":5600,"station_id":"ce4bgvp2rcd13ifvqct0","pricing_plan_id":"cebpf4jnsgd1na2vs0mg"},{"bike_id":"ec6184fe-9c18-47b5-86ac-2dd8c260c6ca","system_id":"levelo_inurba_marseille","lat":43.28661,"lon":5.36356,"is_reserved":false,"is_disabled":false,"rental_uris":{"android":"levelo://app?vid=ec6184fe-9c18-47b5-86ac-2dd8c260c6ca","ios":"levelo://app?vid=ec6184fe-9c18-47b5-86ac-2dd8c260c6ca"},"vehicle_type_id":"4","last_reported":1744654466,"current_range_meters":6000,"station_id":"ce4bhah2rcd13ifvqej0","pricing_plan_id":"cebpf4jnsgd1na2vs0mg"},{"bike_id":"69ed9040-6de9-46f3-a57e-e79e57bd52f9","system_id":"levelo_inurba_marseille","lat":43.3037,"lon":5.41878,"is_reserved":false,"is_disabled":false,"rental_uris":{"android":"levelo://app?vid=69ed9040-6de9-46f3-a57e-e79e57bd52f9","ios":"levelo://app?vid=69ed9040-6de9-46f3-a57e-e79e57bd52f9"},"vehicle_type_id":"4","last_reported":1744654466,"current_range_meters":6000,"station_id":"ce4bhop2rcd13ifvqh7g","pricing_plan_id":"cebpf4jnsgd1na2vs0mg"},{"bike_id":"17637803-ed28-487c-b796-1f9bd7ef5a65","system_id":"levelo_inurba_marseille","lat":43.23078,"lon":5.35524,"is_reserved":false,"is_disabled":false,"rental_uris":{"android":"levelo://app?vid=17637803-ed28-487c-b796-1f9bd7ef5a65","ios":"levelo://app?vid=17637803-ed28-487c-b796-1f9bd7ef5a65"},"vehicle_type_id":"4","last_reported":1744654466,"current_range_meters":6000,"station_id":"cpo3342slgdg3j2ifvpg","pricing_plan_id":"cebpf4jnsgd1na2vs0mg"},{"bike_id":"8c6de4db-44d5-4762-b77c-7842cbd49df9","system_id":"levelo_inurba_marseille","lat":43.278149,"lon":5.407152,"is_reserved":false,"is_disabled":false,"rental_uris":{"android":"levelo://app?vid=8c6de4db-44d5-4762-b77c-7842cbd49df9","ios":"levelo://app?vid=8c6de4db-44d5-4762-b77c-7842cbd49df9"},"vehicle_type_id":"4","last_reported":1744654466,"current_range_meters":6000,"station_id":"ce4bhnh2rcd13ifvqgtg","pricing_plan_id":"cebpf4jnsgd1na2vs0mg"},{"bike_id":"78e5e9fc-0fc5-41fa-a1b1-617b5e4db10c","system_id":"levelo_inurba_marseille","lat":43.21786,"lon":5.34601,"is_reserved":false,"is_disabled":false,"rental_uris":{"android":"levelo://app?vid=78e5e9fc-0fc5-41fa-a1b1-617b5e4db10c","ios":"levelo://app?vid=78e5e9fc-0fc5-41fa-a1b1-617b5e4db10c"},"vehicle_type_id":"4","last_reported":1744654466,"current_range_meters":6000,"station_id":"","pricing_plan_id":"cebpf4jnsgd1na2vs0mg"},{"bike_id":"2576d25a-e498-4963-8c55-8e0fa47c0f6a","system_id":"levelo_inurba_marseille","lat":43.281543,"lon":5.426456,"is_reserved":false,"is_disabled":false,"rental_uris":{"android":"levelo://app?vid=2576d25a-e498-4963-8c55-8e0fa47c0f6a","ios":"levelo://app?vid=2576d25a-e498-4963-8c55-8e0fa47c0f6a"},"vehicle_type_id":"4","last_reported":1744654466,"current_range_meters":6000,"station_id":"ce4bhnh2rcd13ifvqgug","pricing_plan_id":"cebpf4jnsgd1na2vs0mg"},{"bike_id":"8166f7fa-9f7a-475b-b853-2637fdef21da","system_id":"levelo_inurba_marseille","lat":43.27977,"lon":5.41665,"is_reserved":false,"is_disabled":false,"rental_uris":{"android":"levelo://app?vid=8166f7fa-9f7a-475b-b853-2637fdef21da","ios":"levelo://app?vid=8166f7fa-9f7a-475b-b853-2637fdef21da"},"vehicle_type_id":"4","last_reported":1744654466,"current_range_meters":6400,"station_id":"ce4bho12rcd13ifvqh1g","pricing_plan_id":"cebpf4jnsgd1na2vs0mg"},{"bike_id":"ea57a632-faf4-41db-ad02-90c8174c7665","system_id":"levelo_inurba_marseille","lat":43.28269,"lon":5.35074,"is_reserved":false,"is_disabled":false,"rental_uris":{"android":"levelo://app?vid=ea57a632-faf4-41db-ad02-90c8174c7665","ios":"levelo://app?vid=ea57a632-faf4-41db-ad02-90c8174c7665"},"vehicle_type_id":"4","last_reported":1744654466,"current_range_meters":6400,"station_id":"ce4bhbp2rcd13ifvqerg","pricing_plan_id":"cebpf4jnsgd1na2vs0mg"},{"bike_id":"989917e3-d380-4364-9ee4-45cddc21cd20","system_id":"levelo_inurba_marseille","lat":43.29001,"lon":5.35609,"is_reserved":false,"is_disabled":false,"rental_uris":{"android":"levelo://app?vid=989917e3-d380-4364-9ee4-45cddc21cd20","ios":"levelo://app?vid=989917e3-d380-4364-9ee4-45cddc21cd20"},"vehicle_type_id":"4","last_reported":1744654466,"current_range_meters":6000,"station_id":"ce4bhb92rcd13ifvqen0","pricing_plan_id":"cebpf4jnsgd1na2vs0mg"},{"bike_id":"096a4e82-2497-4811-be14-c347ad2e57e9","system_id":"levelo_inurba_marseille","lat":43.30888,"lon":5.39654,"is_reserved":false,"is_disabled":false,"rental_uris":{"android":"levelo://app?vid=096a4e82-2497-4811-be14-c347ad2e57e9","ios":"levelo://app?vid=096a4e82-2497-4811-be14-c347ad2e57e9"},"vehicle_type_id":"4","last_reported":1744654466,"current_range_meters":6400,"station_id":"ce4bh012rcd13ifvqcv0","pricing_plan_id":"cebpf4jnsgd1na2vs0mg"},{"bike_id":"8e89f110-a7d4-475f-aa63-049e04cf7a2a","system_id":"levelo_inurba_marseille","lat":43.28852,"lon":5.35852,"is_reserved":false,"is_disabled":false,"rental_uris":{"android":"levelo://app?vid=8e89f110-a7d4-475f-aa63-049e04cf7a2a","ios":"levelo://app?vid=8e89f110-a7d4-475f-aa63-049e04cf7a2a"},"vehicle_type_id":"4","last_reported":1744654466,"current_range_meters":6400,"station_id":"ce4bhb12rcd13ifvqem0","pricing_plan_id":"cebpf4jnsgd1na2vs0mg"},{"bike_id":"58760ace-ce77-41d1-8fff-13adfe6644fd","system_id":"levelo_inurba_marseille","lat":43.2558,"lon":5.38238,"is_reserved":false,"is_disabled":false,"rental_uris":{"android":"levelo://app?vid=58760ace-ce77-41d1-8fff-13adfe6644fd","ios":"levelo://app?vid=58760ace-ce77-41d1-8fff-13adfe6644fd"},"vehicle_type_id":"4","last_reported":1744654466,"current_range_meters":6400,"station_id":"ce4bhih2rcd13ifvqfs0","pricing_plan_id":"cebpf4jnsgd1na2vs0mg"},{"bike_id":"ee05ba73-c6af-49e0-bf3f-822b8084a334","system_id":"levelo_inurba_marseille","lat":43.32537,"lon":5.41429,"is_reserved":false,"is_disabled":false,"rental_uris":{"android":"levelo://app?vid=ee05ba73-c6af-49e0-bf3f-822b8084a334","ios":"levelo://app?vid=ee05ba73-c6af-49e0-bf3f-822b8084a334"},"vehicle_type_id":"4","last_reported":1744654466,"current_range_meters":6400,"station_id":"ce4bhq12rcd13ifvqhhg","pricing_plan_id":"cebpf4jnsgd1na2vs0mg"},{"bike_id":"103a0598-bcdb-4ecd-93d5-9a88a653e8eb","system_id":"levelo_inurba_marseille","lat":43.28624,"lon":5.35067,"is_reserved":false,"is_disabled":false,"rental_uris":{"android":"levelo://app?vid=103a0598-bcdb-4ecd-93d5-9a88a653e8eb","ios":"levelo://app?vid=103a0598-bcdb-4ecd-93d5-9a88a653e8eb"},"vehicle_type_id":"4","last_reported":1744654466,"current_range_meters":6400,"station_id":"ce4bhch2rcd13ifvqeug","pricing_plan_id":"cebpf4jnsgd1na2vs0mg"},{"bike_id":"bb9bb216-fb17-455b-abed-0af845bc5cb1","system_id":"levelo_inurba_marseille","lat":43.293267,"lon":5.372528,"is_reserved":false,"is_disabled":false,"rental_uris":{"android":"levelo://app?vid=bb9bb216-fb17-455b-abed-0af845bc5cb1","ios":"levelo://app?vid=bb9bb216-fb17-455b-abed-0af845bc5cb1"},"vehicle_type_id":"4","last_reported":1744654466,"current_range_meters":6400,"station_id":"ce4bgh92rcd13ifvqb40","pricing_plan_id":"cebpf4jnsgd1na2vs0mg"},{"bike_id":"b37e9ae2-5902-4756-845e-f76f5bc22770","system_id":"levelo_inurba_marseille","lat":43.24077,"lon":5.37759,"is_reserved":false,"is_disabled":false,"rental_uris":{"android":"levelo://app?vid=b37e9ae2-5902-4756-845e-f76f5bc22770","ios":"levelo://app?vid=b37e9ae2-5902-4756-845e-f76f5bc22770"},"vehicle_type_id":"4","last_reported":1744654466,"current_range_meters":6000,"station_id":"ce4bhnp2rcd13ifvqgvg","pricing_plan_id":"cebpf4jnsgd1na2vs0mg"},{"bike_id":"e164f831-c423-4a4c-ab46-aaa381e5dd7d","system_id":"levelo_inurba_marseille","lat":43.31119,"lon":5.37772,"is_reserved":false,"is_disabled":false,"rental_uris":{"android":"levelo://app?vid=e164f831-c423-4a4c-ab46-aaa381e5dd7d","ios":"levelo://app?vid=e164f831-c423-4a4c-ab46-aaa381e5dd7d"},"vehicle_type_id":"4","last_reported":1744654466,"current_range_meters":6800,"station_id":"ce4bgt92rcd13ifvqcg0","pricing_plan_id":"cebpf4jnsgd1na2vs0mg"},{"bike_id":"ad2cb50d-d4f1-4fca-923d-df97062387a9","system_id":"levelo_inurba_marseille","lat":43.25504,"lon":5.3766,"is_reserved":false,"is_disabled":false,"rental_uris":{"android":"levelo://app?vid=ad2cb50d-d4f1-4fca-923d-df97062387a9","ios":"levelo://app?vid=ad2cb50d-d4f1-4fca-923d-df97062387a9"},"vehicle_type_id":"4","last_reported":1744654466,"current_range_meters":6800,"station_id":"ce4bhh12rcd13ifvqff0","pricing_plan_id":"cebpf4jnsgd1na2vs0mg"},{"bike_id":"b55dd5e7-54b2-4035-b945-7b626dd7afc7","system_id":"levelo_inurba_marseille","lat":43.28014,"lon":5.40623,"is_reserved":false,"is_disabled":false,"rental_uris":{"android":"levelo://app?vid=b55dd5e7-54b2-4035-b945-7b626dd7afc7","ios":"levelo://app?vid=b55dd5e7-54b2-4035-b945-7b626dd7afc7"},"vehicle_type_id":"4","last_reported":1744654466,"current_range_meters":6800,"station_id":"","pricing_plan_id":"cebpf4jnsgd1na2vs0mg"},{"bike_id":"8103a265-04ac-47ce-97f6-9150e490ae38","system_id":"levelo_inurba_marseille","lat":43.30919,"lon":5.40161,"is_reserved":false,"is_disabled":false,"rental_uris":{"android":"levelo://app?vid=8103a265-04ac-47ce-97f6-9150e490ae38","ios":"levelo://app?vid=8103a265-04ac-47ce-97f6-9150e490ae38"},"vehicle_type_id":"4","last_reported":1744654466,"current_range_meters":6800,"station_id":"ce4bgvp2rcd13ifvqct0","pricing_plan_id":"cebpf4jnsgd1na2vs0mg"},{"bike_id":"aba0471a-6d5a-4ace-add4-2c37cf78cc14","system_id":"levelo_inurba_marseille","lat":43.28689,"lon":5.3738,"is_reserved":false,"is_disabled":false,"rental_uris":{"android":"levelo://app?vid=aba0471a-6d5a-4ace-add4-2c37cf78cc14","ios":"levelo://app?vid=aba0471a-6d5a-4ace-add4-2c37cf78cc14"},"vehicle_type_id":"4","last_reported":1744654466,"current_range_meters":6800,"station_id":"ce4bh3p2rcd13ifvqdq0","pricing_plan_id":"cebpf4jnsgd1na2vs0mg"},{"bike_id":"ca722915-c5d7-46d8-80cd-7729abd1cbca","system_id":"levelo_inurba_marseille","lat":43.31118,"lon":5.37768,"is_reserved":false,"is_disabled":false,"rental_uris":{"android":"levelo://app?vid=ca722915-c5d7-46d8-80cd-7729abd1cbca","ios":"levelo://app?vid=ca722915-c5d7-46d8-80cd-7729abd1cbca"},"vehicle_type_id":"4","last_reported":1744654466,"current_range_meters":6400,"station_id":"ce4bgt92rcd13ifvqcg0","pricing_plan_id":"cebpf4jnsgd1na2vs0mg"},{"bike_id":"729563a6-41a3-4ff3-a068-44e58651bb98","system_id":"levelo_inurba_marseille","lat":43.25872,"lon":5.39894,"is_reserved":false,"is_disabled":false,"rental_uris":{"android":"levelo://app?vid=729563a6-41a3-4ff3-a068-44e58651bb98","ios":"levelo://app?vid=729563a6-41a3-4ff3-a068-44e58651bb98"},"vehicle_type_id":"4","last_reported":1744654466,"current_range_meters":6800,"station_id":"ce4bhl92rcd13ifvqghg","pricing_plan_id":"cebpf4jnsgd1na2vs0mg"},{"bike_id":"1db06f83-e2df-4c88-abff-fe3fd63cf02f","system_id":"levelo_inurba_marseille","lat":43.24544,"lon":5.39521,"is_reserved":false,"is_disabled":false,"rental_uris":{"android":"levelo://app?vid=1db06f83-e2df-4c88-abff-fe3fd63cf02f","ios":"levelo://app?vid=1db06f83-e2df-4c88-abff-fe3fd63cf02f"},"vehicle_type_id":"4","last_reported":1744654466,"current_range_meters":6800,"station_id":"ce4bhlp2rcd13ifvqgjg","pricing_plan_id":"cebpf4jnsgd1na2vs0mg"},{"bike_id":"cdefaf23-b564-4f66-ad44-d79e40a15561","system_id":"levelo_inurba_marseille","lat":43.30425,"lon":5.4131,"is_reserved":false,"is_disabled":false,"rental_uris":{"android":"levelo://app?vid=cdefaf23-b564-4f66-ad44-d79e40a15561","ios":"levelo://app?vid=cdefaf23-b564-4f66-ad44-d79e40a15561"},"vehicle_type_id":"4","last_reported":1744654466,"current_range_meters":6800,"station_id":"ce4bhop2rcd13ifvqh8g","pricing_plan_id":"cebpf4jnsgd1na2vs0mg"},{"bike_id":"442fbf35-1865-493c-b37c-659773d16a76","system_id":"levelo_inurba_marseille","lat":43.29166,"lon":5.37164,"is_reserved":false,"is_disabled":false,"rental_uris":{"android":"levelo://app?vid=442fbf35-1865-493c-b37c-659773d16a76","ios":"levelo://app?vid=442fbf35-1865-493c-b37c-659773d16a76"},"vehicle_type_id":"4","last_reported":1744654466,"current_range_meters":6800,"station_id":"ce4bha92rcd13ifvqeh0","pricing_plan_id":"cebpf4jnsgd1na2vs0mg"},{"bike_id":"52bbc640-cff9-4811-8edf-0c386f2ac4c2","system_id":"levelo_inurba_marseille","lat":43.304811,"lon":5.390161,"is_reserved":false,"is_disabled":false,"rental_uris":{"android":"levelo://app?vid=52bbc640-cff9-4811-8edf-0c386f2ac4c2","ios":"levelo://app?vid=52bbc640-cff9-4811-8edf-0c386f2ac4c2"},"vehicle_type_id":"4","last_reported":1744654466,"current_range_meters":6800,"station_id":"ce4bh012rcd13ifvqd10","pricing_plan_id":"cebpf4jnsgd1na2vs0mg"},{"bike_id":"bbde4bbf-b8a5-4705-ba62-c564b6e8a93b","system_id":"levelo_inurba_marseille","lat":43.269684,"lon":5.39032,"is_reserved":false,"is_disabled":false,"rental_uris":{"android":"levelo://app?vid=bbde4bbf-b8a5-4705-ba62-c564b6e8a93b","ios":"levelo://app?vid=bbde4bbf-b8a5-4705-ba62-c564b6e8a93b"},"vehicle_type_id":"4","last_reported":1744654466,"current_range_meters":7200,"station_id":"ce4bhhh2rcd13ifvqfl0","pricing_plan_id":"cebpf4jnsgd1na2vs0mg"},{"bike_id":"1a64aad8-555a-45f0-af4d-44a9af48b648","system_id":"levelo_inurba_marseille","lat":43.295897,"lon":5.381621,"is_reserved":false,"is_disabled":false,"rental_uris":{"android":"levelo://app?vid=1a64aad8-555a-45f0-af4d-44a9af48b648","ios":"levelo://app?vid=1a64aad8-555a-45f0-af4d-44a9af48b648"},"vehicle_type_id":"4","last_reported":1744654466,"current_range_meters":7200,"station_id":"ce4bh2h2rcd13ifvqdh0","pricing_plan_id":"cebpf4jnsgd1na2vs0mg"},{"bike_id":"ffd9a623-0631-4899-8f41-7f2e09483ce4","system_id":"levelo_inurba_marseille","lat":43.28453,"lon":5.35895,"is_reserved":false,"is_disabled":false,"rental_uris":{"android":"levelo://app?vid=ffd9a623-0631-4899-8f41-7f2e09483ce4","ios":"levelo://app?vid=ffd9a623-0631-4899-8f41-7f2e09483ce4"},"vehicle_type_id":"4","last_reported":1744654466,"current_range_meters":7200,"station_id":"ce4bhah2rcd13ifvqei0","pricing_plan_id":"cebpf4jnsgd1na2vs0mg"},{"bike_id":"f014744e-cd84-4de3-bb8f-f0ab619c1fbe","system_id":"levelo_inurba_marseille","lat":43.28667,"lon":5.36354,"is_reserved":false,"is_disabled":false,"rental_uris":{"android":"levelo://app?vid=f014744e-cd84-4de3-bb8f-f0ab619c1fbe","ios":"levelo://app?vid=f014744e-cd84-4de3-bb8f-f0ab619c1fbe"},"vehicle_type_id":"4","last_reported":1744654466,"current_range_meters":7200,"station_id":"ce4bhah2rcd13ifvqej0","pricing_plan_id":"cebpf4jnsgd1na2vs0mg"},{"bike_id":"a98a0159-c1be-483e-b0a5-a6a6974ddd4d","system_id":"levelo_inurba_marseille","lat":43.24188,"lon":5.39743,"is_reserved":false,"is_disabled":false,"rental_uris":{"android":"levelo://app?vid=a98a0159-c1be-483e-b0a5-a6a6974ddd4d","ios":"levelo://app?vid=a98a0159-c1be-483e-b0a5-a6a6974ddd4d"},"vehicle_type_id":"4","last_reported":1744654466,"current_range_meters":7200,"station_id":"ce4bhn12rcd13ifvqgpg","pricing_plan_id":"cebpf4jnsgd1na2vs0mg"},{"bike_id":"77f29589-fdae-4886-8022-2155a978ed5b","system_id":"levelo_inurba_marseille","lat":43.308,"lon":5.43521,"is_reserved":false,"is_disabled":false,"rental_uris":{"android":"levelo://app?vid=77f29589-fdae-4886-8022-2155a978ed5b","ios":"levelo://app?vid=77f29589-fdae-4886-8022-2155a978ed5b"},"vehicle_type_id":"4","last_reported":1744654466,"current_range_meters":8000,"station_id":"ce4bhph2rcd13ifvqheg","pricing_plan_id":"cebpf4jnsgd1na2vs0mg"},{"bike_id":"303bb363-25a7-4764-a095-c72c9a0d609f","system_id":"levelo_inurba_marseille","lat":43.28157,"lon":5.42645,"is_reserved":false,"is_disabled":false,"rental_uris":{"android":"levelo://app?vid=303bb363-25a7-4764-a095-c72c9a0d609f","ios":"levelo://app?vid=303bb363-25a7-4764-a095-c72c9a0d609f"},"vehicle_type_id":"4","last_reported":1744654466,"current_range_meters":8000,"station_id":"ce4bhnh2rcd13ifvqgug","pricing_plan_id":"cebpf4jnsgd1na2vs0mg"},{"bike_id":"f54621ed-18a4-407d-b2a5-fca9dc05a814","system_id":"levelo_inurba_marseille","lat":43.29304,"lon":5.37164,"is_reserved":false,"is_disabled":false,"rental_uris":{"android":"levelo://app?vid=f54621ed-18a4-407d-b2a5-fca9dc05a814","ios":"levelo://app?vid=f54621ed-18a4-407d-b2a5-fca9dc05a814"},"vehicle_type_id":"4","last_reported":1744654466,"current_range_meters":8000,"station_id":"ce4bgh92rcd13ifvqb40","pricing_plan_id":"cebpf4jnsgd1na2vs0mg"},{"bike_id":"d1592486-0ff9-4d98-b3c2-f671d7eea471","system_id":"levelo_inurba_marseille","lat":43.29799,"lon":5.404,"is_reserved":false,"is_disabled":false,"rental_uris":{"android":"levelo://app?vid=d1592486-0ff9-4d98-b3c2-f671d7eea471","ios":"levelo://app?vid=d1592486-0ff9-4d98-b3c2-f671d7eea471"},"vehicle_type_id":"4","last_reported":1744654466,"current_range_meters":8000,"station_id":"ce4bh112rcd13ifvqd90","pricing_plan_id":"cebpf4jnsgd1na2vs0mg"},{"bike_id":"2adaa2cb-c0d5-4f18-b8a6-1467f9548961","system_id":"levelo_inurba_marseille","lat":43.29602,"lon":5.38105,"is_reserved":false,"is_disabled":false,"rental_uris":{"android":"levelo://app?vid=2adaa2cb-c0d5-4f18-b8a6-1467f9548961","ios":"levelo://app?vid=2adaa2cb-c0d5-4f18-b8a6-1467f9548961"},"vehicle_type_id":"4","last_reported":1744654466,"current_range_meters":8000,"station_id":"ce4bgl12rcd13ifvqbo0","pricing_plan_id":"cebpf4jnsgd1na2vs0mg"},{"bike_id":"4b41b651-f3de-4b6a-9173-d3a1ac286cf1","system_id":"levelo_inurba_marseille","lat":43.31687,"lon":5.40458,"is_reserved":false,"is_disabled":false,"rental_uris":{"android":"levelo://app?vid=4b41b651-f3de-4b6a-9173-d3a1ac286cf1","ios":"levelo://app?vid=4b41b651-f3de-4b6a-9173-d3a1ac286cf1"},"vehicle_type_id":"4","last_reported":1744654466,"current_range_meters":8000,"station_id":"ce4bh012rcd13ifvqd00","pricing_plan_id":"cebpf4jnsgd1na2vs0mg"},{"bike_id":"5ce0821c-33e8-424c-878a-b39e506684f0","system_id":"levelo_inurba_marseille","lat":43.29416,"lon":5.38619,"is_reserved":false,"is_disabled":false,"rental_uris":{"android":"levelo://app?vid=5ce0821c-33e8-424c-878a-b39e506684f0","ios":"levelo://app?vid=5ce0821c-33e8-424c-878a-b39e506684f0"},"vehicle_type_id":"4","last_reported":1744654466,"current_range_meters":8400,"station_id":"ce4bh2h2rcd13ifvqdh0","pricing_plan_id":"cebpf4jnsgd1na2vs0mg"},{"bike_id":"8f2adbcd-b044-4ad0-b1eb-0aa42ca31983","system_id":"levelo_inurba_marseille","lat":43.3106,"lon":5.38341,"is_reserved":false,"is_disabled":false,"rental_uris":{"android":"levelo://app?vid=8f2adbcd-b044-4ad0-b1eb-0aa42ca31983","ios":"levelo://app?vid=8f2adbcd-b044-4ad0-b1eb-0aa42ca31983"},"vehicle_type_id":"4","last_reported":1744654466,"current_range_meters":12000,"station_id":"ce4bgv92rcd13ifvqcr0","pricing_plan_id":"cebpf4jnsgd1na2vs0mg"},{"bike_id":"bc1e941d-5514-4193-a637-cfb6de114bfa","system_id":"levelo_inurba_marseille","lat":43.25614,"lon":5.3824,"is_reserved":false,"is_disabled":false,"rental_uris":{"android":"levelo://app?vid=bc1e941d-5514-4193-a637-cfb6de114bfa","ios":"levelo://app?vid=bc1e941d-5514-4193-a637-cfb6de114bfa"},"vehicle_type_id":"4","last_reported":1744654466,"current_range_meters":8400,"station_id":"ce4bhih2rcd13ifvqfs0","pricing_plan_id":"cebpf4jnsgd1na2vs0mg"},{"bike_id":"63fa6274-f5a7-4ac5-803d-1a0fec34bba0","system_id":"levelo_inurba_marseille","lat":43.28363,"lon":5.3811,"is_reserved":false,"is_disabled":false,"rental_uris":{"android":"levelo://app?vid=63fa6274-f5a7-4ac5-803d-1a0fec34bba0","ios":"levelo://app?vid=63fa6274-f5a7-4ac5-803d-1a0fec34bba0"},"vehicle_type_id":"4","last_reported":1744654466,"current_range_meters":8400,"station_id":"ce4bh412rcd13ifvqdr0","pricing_plan_id":"cebpf4jnsgd1na2vs0mg"},{"bike_id":"35abd90b-a356-4d2e-8bd4-567e3d57e9d2","system_id":"levelo_inurba_marseille","lat":43.24817,"lon":5.3746,"is_reserved":false,"is_disabled":false,"rental_uris":{"android":"levelo://app?vid=35abd90b-a356-4d2e-8bd4-567e3d57e9d2","ios":"levelo://app?vid=35abd90b-a356-4d2e-8bd4-567e3d57e9d2"},"vehicle_type_id":"4","last_reported":1744654466,"current_range_meters":8400,"station_id":"ce4bhgh2rcd13ifvqfb0","pricing_plan_id":"cebpf4jnsgd1na2vs0mg"},{"bike_id":"a2f164c5-684a-49e0-b8c8-fc7c782a757a","system_id":"levelo_inurba_marseille","lat":43.306334,"lon":5.400778,"is_reserved":false,"is_disabled":false,"rental_uris":{"android":"levelo://app?vid=a2f164c5-684a-49e0-b8c8-fc7c782a757a","ios":"levelo://app?vid=a2f164c5-684a-49e0-b8c8-fc7c782a757a"},"vehicle_type_id":"4","last_reported":1744654466,"current_range_meters":8400,"station_id":"ce4bh112rcd13ifvqda0","pricing_plan_id":"cebpf4jnsgd1na2vs0mg"},{"bike_id":"38261717-f02f-43b6-8a1c-13705d388de3","system_id":"levelo_inurba_marseille","lat":43.31083,"lon":5.42431,"is_reserved":false,"is_disabled":false,"rental_uris":{"android":"levelo://app?vid=38261717-f02f-43b6-8a1c-13705d388de3","ios":"levelo://app?vid=38261717-f02f-43b6-8a1c-13705d388de3"},"vehicle_type_id":"4","last_reported":1744654466,"current_range_meters":4000,"station_id":"ce4bhp92rcd13ifvqhag","pricing_plan_id":"cebpf4jnsgd1na2vs0mg"},{"bike_id":"e0c72d1c-76a0-4e6a-98ea-c00c4bdfd0b7","system_id":"levelo_inurba_marseille","lat":43.30885,"lon":5.39655,"is_reserved":false,"is_disabled":false,"rental_uris":{"android":"levelo://app?vid=e0c72d1c-76a0-4e6a-98ea-c00c4bdfd0b7","ios":"levelo://app?vid=e0c72d1c-76a0-4e6a-98ea-c00c4bdfd0b7"},"vehicle_type_id":"4","last_reported":1744654466,"current_range_meters":8800,"station_id":"ce4bh012rcd13ifvqcv0","pricing_plan_id":"cebpf4jnsgd1na2vs0mg"},{"bike_id":"e1cfb2db-9308-45d0-913f-899415789267","system_id":"levelo_inurba_marseille","lat":43.25824,"lon":5.39425,"is_reserved":false,"is_disabled":false,"rental_uris":{"android":"levelo://app?vid=e1cfb2db-9308-45d0-913f-899415789267","ios":"levelo://app?vid=e1cfb2db-9308-45d0-913f-899415789267"},"vehicle_type_id":"4","last_reported":1744654466,"current_range_meters":8800,"station_id":"ce4bhip2rcd13ifvqft0","pricing_plan_id":"cebpf4jnsgd1na2vs0mg"},{"bike_id":"16e8b54f-5e1a-4922-ab71-6fd5cabb1fcc","system_id":"levelo_inurba_marseille","lat":43.27941,"lon":5.41039,"is_reserved":false,"is_disabled":false,"rental_uris":{"android":"levelo://app?vid=16e8b54f-5e1a-4922-ab71-6fd5cabb1fcc","ios":"levelo://app?vid=16e8b54f-5e1a-4922-ab71-6fd5cabb1fcc"},"vehicle_type_id":"4","last_reported":1744654466,"current_range_meters":8800,"station_id":"ce4bhnp2rcd13ifvqh0g","pricing_plan_id":"cebpf4jnsgd1na2vs0mg"},{"bike_id":"8a58a04e-f069-487b-905a-c2f308a407cd","system_id":"levelo_inurba_marseille","lat":43.33022,"lon":5.39046,"is_reserved":false,"is_disabled":false,"rental_uris":{"android":"levelo://app?vid=8a58a04e-f069-487b-905a-c2f308a407cd","ios":"levelo://app?vid=8a58a04e-f069-487b-905a-c2f308a407cd"},"vehicle_type_id":"4","last_reported":1744654466,"current_range_meters":8800,"station_id":"ce4bhr92rcd13ifvqhrg","pricing_plan_id":"cebpf4jnsgd1na2vs0mg"},{"bike_id":"16a2b383-68c4-40a9-8f59-77dc12518cf4","system_id":"levelo_inurba_marseille","lat":43.28686,"lon":5.37376,"is_reserved":false,"is_disabled":false,"rental_uris":{"android":"levelo://app?vid=16a2b383-68c4-40a9-8f59-77dc12518cf4","ios":"levelo://app?vid=16a2b383-68c4-40a9-8f59-77dc12518cf4"},"vehicle_type_id":"4","last_reported":1744654466,"current_range_meters":8800,"station_id":"ce4bh3p2rcd13ifvqdq0","pricing_plan_id":"cebpf4jnsgd1na2vs0mg"},{"bike_id":"b6ed0a66-3ddf-4db3-97da-b5c4b0ebe94b","system_id":"levelo_inurba_marseille","lat":43.31167,"lon":5.38715,"is_reserved":false,"is_disabled":false,"rental_uris":{"android":"levelo://app?vid=b6ed0a66-3ddf-4db3-97da-b5c4b0ebe94b","ios":"levelo://app?vid=b6ed0a66-3ddf-4db3-97da-b5c4b0ebe94b"},"vehicle_type_id":"4","last_reported":1744654466,"current_range_meters":8800,"station_id":"ce4bgv12rcd13ifvqcp0","pricing_plan_id":"cebpf4jnsgd1na2vs0mg"},{"bike_id":"aaeab5e2-1426-4054-aa04-9dfb87f37424","system_id":"levelo_inurba_marseille","lat":43.26059,"lon":5.39398,"is_reserved":false,"is_disabled":false,"rental_uris":{"android":"levelo://app?vid=aaeab5e2-1426-4054-aa04-9dfb87f37424","ios":"levelo://app?vid=aaeab5e2-1426-4054-aa04-9dfb87f37424"},"vehicle_type_id":"4","last_reported":1744654466,"current_range_meters":8800,"station_id":"","pricing_plan_id":"cebpf4jnsgd1na2vs0mg"},{"bike_id":"e8f703a1-eb3b-45ed-827d-ca43a8842bf7","system_id":"levelo_inurba_marseille","lat":43.2996,"lon":5.38489,"is_reserved":false,"is_disabled":true,"rental_uris":{"android":"levelo://app?vid=e8f703a1-eb3b-45ed-827d-ca43a8842bf7","ios":"levelo://app?vid=e8f703a1-eb3b-45ed-827d-ca43a8842bf7"},"vehicle_type_id":"4","last_reported":1744654466,"current_range_meters":8800,"station_id":"ce4bgj92rcd13ifvqbd0","pricing_plan_id":"cebpf4jnsgd1na2vs0mg"},{"bike_id":"19a89524-a9e5-411c-9a2d-95c0f553dcf9","system_id":"levelo_inurba_marseille","lat":43.32004,"lon":5.3814,"is_reserved":false,"is_disabled":false,"rental_uris":{"android":"levelo://app?vid=19a89524-a9e5-411c-9a2d-95c0f553dcf9","ios":"levelo://app?vid=19a89524-a9e5-411c-9a2d-95c0f553dcf9"},"vehicle_type_id":"4","last_reported":1744654466,"current_range_meters":8800,"station_id":"ce4bhr12rcd13ifvqhpg","pricing_plan_id":"cebpf4jnsgd1na2vs0mg"},{"bike_id":"8d24a072-21ed-41cd-b0aa-05b3f1373b74","system_id":"levelo_inurba_marseille","lat":43.31074,"lon":5.383487,"is_reserved":false,"is_disabled":true,"rental_uris":{"android":"levelo://app?vid=8d24a072-21ed-41cd-b0aa-05b3f1373b74","ios":"levelo://app?vid=8d24a072-21ed-41cd-b0aa-05b3f1373b74"},"vehicle_type_id":"4","last_reported":1744654466,"current_range_meters":9200,"station_id":"ce4bgv92rcd13ifvqcr0","pricing_plan_id":"cebpf4jnsgd1na2vs0mg"},{"bike_id":"49452ba2-809b-4d52-801d-7c63072cd009","system_id":"levelo_inurba_marseille","lat":43.29248,"lon":5.4091,"is_reserved":false,"is_disabled":false,"rental_uris":{"android":"levelo://app?vid=49452ba2-809b-4d52-801d-7c63072cd009","ios":"levelo://app?vid=49452ba2-809b-4d52-801d-7c63072cd009"},"vehicle_type_id":"4","last_reported":1744654466,"current_range_meters":8800,"station_id":"ce4bh192rcd13ifvqdc0","pricing_plan_id":"cebpf4jnsgd1na2vs0mg"},{"bike_id":"97a2f28b-9eb5-41e2-8096-cc304fa5f303","system_id":"levelo_inurba_marseille","lat":43.28462,"lon":5.35895,"is_reserved":false,"is_disabled":false,"rental_uris":{"android":"levelo://app?vid=97a2f28b-9eb5-41e2-8096-cc304fa5f303","ios":"levelo://app?vid=97a2f28b-9eb5-41e2-8096-cc304fa5f303"},"vehicle_type_id":"4","last_reported":1744654466,"current_range_meters":9200,"station_id":"ce4bhah2rcd13ifvqei0","pricing_plan_id":"cebpf4jnsgd1na2vs0mg"},{"bike_id":"096372fd-453f-4307-a283-7db926ecc79c","system_id":"levelo_inurba_marseille","lat":43.28612,"lon":5.35102,"is_reserved":false,"is_disabled":false,"rental_uris":{"android":"levelo://app?vid=096372fd-453f-4307-a283-7db926ecc79c","ios":"levelo://app?vid=096372fd-453f-4307-a283-7db926ecc79c"},"vehicle_type_id":"4","last_reported":1744654466,"current_range_meters":9200,"station_id":"ce4bhch2rcd13ifvqeug","pricing_plan_id":"cebpf4jnsgd1na2vs0mg"},{"bike_id":"18ce97ee-5b2d-4b31-91fd-cf30957da029","system_id":"levelo_inurba_marseille","lat":43.33023,"lon":5.39036,"is_reserved":false,"is_disabled":false,"rental_uris":{"android":"levelo://app?vid=18ce97ee-5b2d-4b31-91fd-cf30957da029","ios":"levelo://app?vid=18ce97ee-5b2d-4b31-91fd-cf30957da029"},"vehicle_type_id":"4","last_reported":1744654466,"current_range_meters":8800,"station_id":"ce4bhr92rcd13ifvqhrg","pricing_plan_id":"cebpf4jnsgd1na2vs0mg"},{"bike_id":"5cacdac6-936a-44c6-9e06-3d5924e24ab3","system_id":"levelo_inurba_marseille","lat":43.2842,"lon":5.34991,"is_reserved":false,"is_disabled":false,"rental_uris":{"android":"levelo://app?vid=5cacdac6-936a-44c6-9e06-3d5924e24ab3","ios":"levelo://app?vid=5cacdac6-936a-44c6-9e06-3d5924e24ab3"},"vehicle_type_id":"4","last_reported":1744654466,"current_range_meters":9200,"station_id":"ce4bhbh2rcd13ifvqepg","pricing_plan_id":"cebpf4jnsgd1na2vs0mg"},{"bike_id":"c3a32f8a-9407-4ddd-9e73-bccb9215daad","system_id":"levelo_inurba_marseille","lat":43.2894,"lon":5.36664,"is_reserved":false,"is_disabled":false,"rental_uris":{"android":"levelo://app?vid=c3a32f8a-9407-4ddd-9e73-bccb9215daad","ios":"levelo://app?vid=c3a32f8a-9407-4ddd-9e73-bccb9215daad"},"vehicle_type_id":"4","last_reported":1744654466,"current_range_meters":6000,"station_id":"ce4bhap2rcd13ifvqek0","pricing_plan_id":"cebpf4jnsgd1na2vs0mg"},{"bike_id":"e85ec5e8-a45c-400a-a46c-ec97b4e0979f","system_id":"levelo_inurba_marseille","lat":43.286816,"lon":5.386822,"is_reserved":false,"is_disabled":false,"rental_uris":{"android":"levelo://app?vid=e85ec5e8-a45c-400a-a46c-ec97b4e0979f","ios":"levelo://app?vid=e85ec5e8-a45c-400a-a46c-ec97b4e0979f"},"vehicle_type_id":"4","last_reported":1744654466,"current_range_meters":9200,"station_id":"ce4bh492rcd13ifvqdug","pricing_plan_id":"cebpf4jnsgd1na2vs0mg"},{"bike_id":"c711ec7d-4d18-4748-b3ab-a531308862b2","system_id":"levelo_inurba_marseille","lat":43.30417,"lon":5.41296,"is_reserved":false,"is_disabled":false,"rental_uris":{"android":"levelo://app?vid=c711ec7d-4d18-4748-b3ab-a531308862b2","ios":"levelo://app?vid=c711ec7d-4d18-4748-b3ab-a531308862b2"},"vehicle_type_id":"4","last_reported":1744654466,"current_range_meters":9200,"station_id":"ce4bhop2rcd13ifvqh8g","pricing_plan_id":"cebpf4jnsgd1na2vs0mg"},{"bike_id":"d279e27b-fcc1-41ff-b4b7-afd601484144","system_id":"levelo_inurba_marseille","lat":43.302278,"lon":5.400707,"is_reserved":false,"is_disabled":false,"rental_uris":{"android":"levelo://app?vid=d279e27b-fcc1-41ff-b4b7-afd601484144","ios":"levelo://app?vid=d279e27b-fcc1-41ff-b4b7-afd601484144"},"vehicle_type_id":"4","last_reported":1744654466,"current_range_meters":9200,"station_id":"ce4bgvh2rcd13ifvqcs0","pricing_plan_id":"cebpf4jnsgd1na2vs0mg"},{"bike_id":"52467ef2-bb23-4d5a-aebd-2782338dc161","system_id":"levelo_inurba_marseille","lat":43.21189,"lon":5.35074,"is_reserved":false,"is_disabled":false,"rental_uris":{"android":"levelo://app?vid=52467ef2-bb23-4d5a-aebd-2782338dc161","ios":"levelo://app?vid=52467ef2-bb23-4d5a-aebd-2782338dc161"},"vehicle_type_id":"4","last_reported":1744654466,"current_range_meters":9200,"station_id":"st_cvj6sg6p6f1abm77japg","pricing_plan_id":"cebpf4jnsgd1na2vs0mg"},{"bike_id":"f7f06e55-e789-43bf-be38-e6e23e0f162c","system_id":"levelo_inurba_marseille","lat":43.26564,"lon":5.38994,"is_reserved":false,"is_disabled":false,"rental_uris":{"android":"levelo://app?vid=f7f06e55-e789-43bf-be38-e6e23e0f162c","ios":"levelo://app?vid=f7f06e55-e789-43bf-be38-e6e23e0f162c"},"vehicle_type_id":"4","last_reported":1744654466,"current_range_meters":9200,"station_id":"ce4bhe12rcd13ifvqf30","pricing_plan_id":"cebpf4jnsgd1na2vs0mg"},{"bike_id":"74e408b3-4ba3-400a-b405-14db6989d3a5","system_id":"levelo_inurba_marseille","lat":43.30593,"lon":5.39364,"is_reserved":false,"is_disabled":false,"rental_uris":{"android":"levelo://app?vid=74e408b3-4ba3-400a-b405-14db6989d3a5","ios":"levelo://app?vid=74e408b3-4ba3-400a-b405-14db6989d3a5"},"vehicle_type_id":"4","last_reported":1744654466,"current_range_meters":9200,"station_id":"ce4bh0p2rcd13ifvqd80","pricing_plan_id":"cebpf4jnsgd1na2vs0mg"},{"bike_id":"2b29cbd3-4c4f-4341-b19c-00d388af3b18","system_id":"levelo_inurba_marseille","lat":43.28663,"lon":5.36356,"is_reserved":false,"is_disabled":false,"rental_uris":{"android":"levelo://app?vid=2b29cbd3-4c4f-4341-b19c-00d388af3b18","ios":"levelo://app?vid=2b29cbd3-4c4f-4341-b19c-00d388af3b18"},"vehicle_type_id":"4","last_reported":1744654466,"current_range_meters":9600,"station_id":"ce4bhah2rcd13ifvqej0","pricing_plan_id":"cebpf4jnsgd1na2vs0mg"},{"bike_id":"61f247c8-8777-4bcc-862d-441ae99dcd93","system_id":"levelo_inurba_marseille","lat":43.2706,"lon":5.40261,"is_reserved":false,"is_disabled":false,"rental_uris":{"android":"levelo://app?vid=61f247c8-8777-4bcc-862d-441ae99dcd93","ios":"levelo://app?vid=61f247c8-8777-4bcc-862d-441ae99dcd93"},"vehicle_type_id":"4","last_reported":1744654466,"current_range_meters":9600,"station_id":"ce4bhk92rcd13ifvqgc0","pricing_plan_id":"cebpf4jnsgd1na2vs0mg"},{"bike_id":"b62d1434-c42b-4d2d-977d-d90a2291da9b","system_id":"levelo_inurba_marseille","lat":43.2696,"lon":5.40284,"is_reserved":false,"is_disabled":true,"rental_uris":{"android":"levelo://app?vid=b62d1434-c42b-4d2d-977d-d90a2291da9b","ios":"levelo://app?vid=b62d1434-c42b-4d2d-977d-d90a2291da9b"},"vehicle_type_id":"4","last_reported":1744654466,"current_range_meters":9600,"station_id":"cjm6bp8fraef2m0cb0m0","pricing_plan_id":"cebpf4jnsgd1na2vs0mg"},{"bike_id":"e0c49b4e-20fa-4104-917d-fcb54a76eaa0","system_id":"levelo_inurba_marseille","lat":43.2836,"lon":5.381,"is_reserved":false,"is_disabled":false,"rental_uris":{"android":"levelo://app?vid=e0c49b4e-20fa-4104-917d-fcb54a76eaa0","ios":"levelo://app?vid=e0c49b4e-20fa-4104-917d-fcb54a76eaa0"},"vehicle_type_id":"4","last_reported":1744654466,"current_range_meters":9600,"station_id":"ce4bh412rcd13ifvqdr0","pricing_plan_id":"cebpf4jnsgd1na2vs0mg"},{"bike_id":"843838ea-15ea-4750-a740-a6a4d52b3162","system_id":"levelo_inurba_marseille","lat":43.27995,"lon":5.41658,"is_reserved":false,"is_disabled":false,"rental_uris":{"android":"levelo://app?vid=843838ea-15ea-4750-a740-a6a4d52b3162","ios":"levelo://app?vid=843838ea-15ea-4750-a740-a6a4d52b3162"},"vehicle_type_id":"4","last_reported":1744654466,"current_range_meters":10000,"station_id":"ce4bho12rcd13ifvqh1g","pricing_plan_id":"cebpf4jnsgd1na2vs0mg"},{"bike_id":"dd1445c8-e738-4556-9cfd-5eefa79c1cef","system_id":"levelo_inurba_marseille","lat":43.2558,"lon":5.3825,"is_reserved":false,"is_disabled":false,"rental_uris":{"android":"levelo://app?vid=dd1445c8-e738-4556-9cfd-5eefa79c1cef","ios":"levelo://app?vid=dd1445c8-e738-4556-9cfd-5eefa79c1cef"},"vehicle_type_id":"4","last_reported":1744654466,"current_range_meters":9600,"station_id":"ce4bhih2rcd13ifvqfs0","pricing_plan_id":"cebpf4jnsgd1na2vs0mg"},{"bike_id":"75bcff2a-5e54-453d-a595-c622776c8e78","system_id":"levelo_inurba_marseille","lat":43.24153,"lon":5.39731,"is_reserved":false,"is_disabled":false,"rental_uris":{"android":"levelo://app?vid=75bcff2a-5e54-453d-a595-c622776c8e78","ios":"levelo://app?vid=75bcff2a-5e54-453d-a595-c622776c8e78"},"vehicle_type_id":"4","last_reported":1744654466,"current_range_meters":10000,"station_id":"ce4bhn12rcd13ifvqgpg","pricing_plan_id":"cebpf4jnsgd1na2vs0mg"},{"bike_id":"7283a6a9-1a2b-4c38-9915-fa8691c9f1d2","system_id":"levelo_inurba_marseille","lat":43.27841,"lon":5.39212,"is_reserved":false,"is_disabled":false,"rental_uris":{"android":"levelo://app?vid=7283a6a9-1a2b-4c38-9915-fa8691c9f1d2","ios":"levelo://app?vid=7283a6a9-1a2b-4c38-9915-fa8691c9f1d2"},"vehicle_type_id":"4","last_reported":1744654466,"current_range_meters":9600,"station_id":"ce4bhjp2rcd13ifvqga0","pricing_plan_id":"cebpf4jnsgd1na2vs0mg"},{"bike_id":"3b446131-033c-4a69-a131-e3915ecaee00","system_id":"levelo_inurba_marseille","lat":43.29943,"lon":5.36548,"is_reserved":false,"is_disabled":false,"rental_uris":{"android":"levelo://app?vid=3b446131-033c-4a69-a131-e3915ecaee00","ios":"levelo://app?vid=3b446131-033c-4a69-a131-e3915ecaee00"},"vehicle_type_id":"4","last_reported":1744654466,"current_range_meters":10000,"station_id":"ce4bgm92rcd13ifvqbr0","pricing_plan_id":"cebpf4jnsgd1na2vs0mg"},{"bike_id":"3f9cca5d-310d-4c78-9203-87e1b62a0bed","system_id":"levelo_inurba_marseille","lat":43.28817,"lon":5.35793,"is_reserved":false,"is_disabled":false,"rental_uris":{"android":"levelo://app?vid=3f9cca5d-310d-4c78-9203-87e1b62a0bed","ios":"levelo://app?vid=3f9cca5d-310d-4c78-9203-87e1b62a0bed"},"vehicle_type_id":"4","last_reported":1744654466,"current_range_meters":10000,"station_id":"","pricing_plan_id":"cebpf4jnsgd1na2vs0mg"},{"bike_id":"677b30b3-8594-46cc-a68a-9743c3dc2167","system_id":"levelo_inurba_marseille","lat":43.28851,"lon":5.35868,"is_reserved":false,"is_disabled":false,"rental_uris":{"android":"levelo://app?vid=677b30b3-8594-46cc-a68a-9743c3dc2167","ios":"levelo://app?vid=677b30b3-8594-46cc-a68a-9743c3dc2167"},"vehicle_type_id":"4","last_reported":1744654466,"current_range_meters":10000,"station_id":"ce4bhb12rcd13ifvqem0","pricing_plan_id":"cebpf4jnsgd1na2vs0mg"},{"bike_id":"a805b716-d3f2-41f8-8ac2-43d02ff2936a","system_id":"levelo_inurba_marseille","lat":43.28339,"lon":5.38083,"is_reserved":false,"is_disabled":false,"rental_uris":{"android":"levelo://app?vid=a805b716-d3f2-41f8-8ac2-43d02ff2936a","ios":"levelo://app?vid=a805b716-d3f2-41f8-8ac2-43d02ff2936a"},"vehicle_type_id":"4","last_reported":1744654466,"current_range_meters":10000,"station_id":"ce4bh412rcd13ifvqdr0","pricing_plan_id":"cebpf4jnsgd1na2vs0mg"},{"bike_id":"000cce46-0aba-4c03-8967-d18cf441ccd3","system_id":"levelo_inurba_marseille","lat":43.30321,"lon":5.40442,"is_reserved":false,"is_disabled":false,"rental_uris":{"android":"levelo://app?vid=000cce46-0aba-4c03-8967-d18cf441ccd3","ios":"levelo://app?vid=000cce46-0aba-4c03-8967-d18cf441ccd3"},"vehicle_type_id":"4","last_reported":1744654466,"current_range_meters":10000,"station_id":"ce4bh012rcd13ifvqd10","pricing_plan_id":"cebpf4jnsgd1na2vs0mg"},{"bike_id":"f4d0523c-f7eb-4944-bb84-72a1dacaa200","system_id":"levelo_inurba_marseille","lat":43.27909,"lon":5.39586,"is_reserved":false,"is_disabled":false,"rental_uris":{"android":"levelo://app?vid=f4d0523c-f7eb-4944-bb84-72a1dacaa200","ios":"levelo://app?vid=f4d0523c-f7eb-4944-bb84-72a1dacaa200"},"vehicle_type_id":"4","last_reported":1744654466,"current_range_meters":10000,"station_id":"ce4bhf92rcd13ifvqf40","pricing_plan_id":"cebpf4jnsgd1na2vs0mg"},{"bike_id":"e2b0293e-9cc0-4d7f-87ef-f2880e7c8264","system_id":"levelo_inurba_marseille","lat":43.28037,"lon":5.36958,"is_reserved":false,"is_disabled":false,"rental_uris":{"android":"levelo://app?vid=e2b0293e-9cc0-4d7f-87ef-f2880e7c8264","ios":"levelo://app?vid=e2b0293e-9cc0-4d7f-87ef-f2880e7c8264"},"vehicle_type_id":"4","last_reported":1744654466,"current_range_meters":10800,"station_id":"ce4bha12rcd13ifvqef0","pricing_plan_id":"cebpf4jnsgd1na2vs0mg"},{"bike_id":"fe1a207e-0368-4df6-8e3d-aa5766bd2a70","system_id":"levelo_inurba_marseille","lat":43.27911,"lon":5.39585,"is_reserved":false,"is_disabled":false,"rental_uris":{"android":"levelo://app?vid=fe1a207e-0368-4df6-8e3d-aa5766bd2a70","ios":"levelo://app?vid=fe1a207e-0368-4df6-8e3d-aa5766bd2a70"},"vehicle_type_id":"4","last_reported":1744654466,"current_range_meters":10800,"station_id":"ce4bhf92rcd13ifvqf40","pricing_plan_id":"cebpf4jnsgd1na2vs0mg"},{"bike_id":"3cd132f2-4343-4551-82b5-23cd67025484","system_id":"levelo_inurba_marseille","lat":43.25575,"lon":5.38261,"is_reserved":false,"is_disabled":false,"rental_uris":{"android":"levelo://app?vid=3cd132f2-4343-4551-82b5-23cd67025484","ios":"levelo://app?vid=3cd132f2-4343-4551-82b5-23cd67025484"},"vehicle_type_id":"4","last_reported":1744654466,"current_range_meters":10800,"station_id":"ce4bhih2rcd13ifvqfs0","pricing_plan_id":"cebpf4jnsgd1na2vs0mg"},{"bike_id":"bf5b7275-8760-4145-bdf9-28a587bd0ffd","system_id":"levelo_inurba_marseille","lat":43.30542,"lon":5.365549,"is_reserved":false,"is_disabled":false,"rental_uris":{"android":"levelo://app?vid=bf5b7275-8760-4145-bdf9-28a587bd0ffd","ios":"levelo://app?vid=bf5b7275-8760-4145-bdf9-28a587bd0ffd"},"vehicle_type_id":"4","last_reported":1744654466,"current_range_meters":14000,"station_id":"ce4bha92rcd13ifvqeh0","pricing_plan_id":"cebpf4jnsgd1na2vs0mg"},{"bike_id":"d2104f9d-4181-493a-8f41-b657e7b1425a","system_id":"levelo_inurba_marseille","lat":43.28096,"lon":5.37837,"is_reserved":false,"is_disabled":false,"rental_uris":{"android":"levelo://app?vid=d2104f9d-4181-493a-8f41-b657e7b1425a","ios":"levelo://app?vid=d2104f9d-4181-493a-8f41-b657e7b1425a"},"vehicle_type_id":"4","last_reported":1744654466,"current_range_meters":10800,"station_id":"ce4bha12rcd13ifvqee0","pricing_plan_id":"cebpf4jnsgd1na2vs0mg"},{"bike_id":"0c9c9bb1-57e8-4557-ad9f-5c2c8714aa2c","system_id":"levelo_inurba_marseille","lat":43.27839,"lon":5.40715,"is_reserved":false,"is_disabled":false,"rental_uris":{"android":"levelo://app?vid=0c9c9bb1-57e8-4557-ad9f-5c2c8714aa2c","ios":"levelo://app?vid=0c9c9bb1-57e8-4557-ad9f-5c2c8714aa2c"},"vehicle_type_id":"4","last_reported":1744654466,"current_range_meters":10800,"station_id":"ce4bhnh2rcd13ifvqgtg","pricing_plan_id":"cebpf4jnsgd1na2vs0mg"},{"bike_id":"3882cb8f-1fde-43da-810d-3d466b79cdd1","system_id":"levelo_inurba_marseille","lat":43.309495,"lon":5.390334,"is_reserved":false,"is_disabled":false,"rental_uris":{"android":"levelo://app?vid=3882cb8f-1fde-43da-810d-3d466b79cdd1","ios":"levelo://app?vid=3882cb8f-1fde-43da-810d-3d466b79cdd1"},"vehicle_type_id":"4","last_reported":1744654466,"current_range_meters":10800,"station_id":"ce4bgup2rcd13ifvqco0","pricing_plan_id":"cebpf4jnsgd1na2vs0mg"},{"bike_id":"6c41ce82-3ce7-4d83-af6d-6eb0fdf49328","system_id":"levelo_inurba_marseille","lat":43.2803,"lon":5.36957,"is_reserved":false,"is_disabled":false,"rental_uris":{"android":"levelo://app?vid=6c41ce82-3ce7-4d83-af6d-6eb0fdf49328","ios":"levelo://app?vid=6c41ce82-3ce7-4d83-af6d-6eb0fdf49328"},"vehicle_type_id":"4","last_reported":1744654466,"current_range_meters":11200,"station_id":"ce4bha12rcd13ifvqef0","pricing_plan_id":"cebpf4jnsgd1na2vs0mg"},{"bike_id":"8ce6473e-0111-4b8a-9b5a-61eac3902e7f","system_id":"levelo_inurba_marseille","lat":43.2901,"lon":5.35606,"is_reserved":false,"is_disabled":false,"rental_uris":{"android":"levelo://app?vid=8ce6473e-0111-4b8a-9b5a-61eac3902e7f","ios":"levelo://app?vid=8ce6473e-0111-4b8a-9b5a-61eac3902e7f"},"vehicle_type_id":"4","last_reported":1744654466,"current_range_meters":11200,"station_id":"ce4bhb92rcd13ifvqen0","pricing_plan_id":"cebpf4jnsgd1na2vs0mg"},{"bike_id":"2f93173f-d02c-4e29-ab59-1fff882697d7","system_id":"levelo_inurba_marseille","lat":43.24071,"lon":5.37777,"is_reserved":false,"is_disabled":false,"rental_uris":{"android":"levelo://app?vid=2f93173f-d02c-4e29-ab59-1fff882697d7","ios":"levelo://app?vid=2f93173f-d02c-4e29-ab59-1fff882697d7"},"vehicle_type_id":"4","last_reported":1744654466,"current_range_meters":11200,"station_id":"ce4bhnp2rcd13ifvqgvg","pricing_plan_id":"cebpf4jnsgd1na2vs0mg"},{"bike_id":"26be2dd4-e35b-409f-a1d5-08cb09316c22","system_id":"levelo_inurba_marseille","lat":43.30797,"lon":5.3815,"is_reserved":false,"is_disabled":false,"rental_uris":{"android":"levelo://app?vid=26be2dd4-e35b-409f-a1d5-08cb09316c22","ios":"levelo://app?vid=26be2dd4-e35b-409f-a1d5-08cb09316c22"},"vehicle_type_id":"4","last_reported":1744654466,"current_range_meters":10800,"station_id":"ce4bgt12rcd13ifvqce0","pricing_plan_id":"cebpf4jnsgd1na2vs0mg"},{"bike_id":"b4a19ddd-ec2c-4178-96c7-9e5bf749190e","system_id":"levelo_inurba_marseille","lat":43.29901,"lon":5.43677,"is_reserved":false,"is_disabled":false,"rental_uris":{"android":"levelo://app?vid=b4a19ddd-ec2c-4178-96c7-9e5bf749190e","ios":"levelo://app?vid=b4a19ddd-ec2c-4178-96c7-9e5bf749190e"},"vehicle_type_id":"4","last_reported":1744654466,"current_range_meters":11600,"station_id":"ce4bhpp2rcd13ifvqhfg","pricing_plan_id":"cebpf4jnsgd1na2vs0mg"},{"bike_id":"82567083-88f8-4e9c-9e50-3199403c735c","system_id":"levelo_inurba_marseille","lat":43.2992,"lon":5.37491,"is_reserved":false,"is_disabled":false,"rental_uris":{"android":"levelo://app?vid=82567083-88f8-4e9c-9e50-3199403c735c","ios":"levelo://app?vid=82567083-88f8-4e9c-9e50-3199403c735c"},"vehicle_type_id":"4","last_reported":1744654466,"current_range_meters":11600,"station_id":"ce4bgjh2rcd13ifvqbg0","pricing_plan_id":"cebpf4jnsgd1na2vs0mg"},{"bike_id":"45f31d51-ee64-4ad2-9f6e-bdaf7112098c","system_id":"levelo_inurba_marseille","lat":43.26076,"lon":5.39395,"is_reserved":false,"is_disabled":false,"rental_uris":{"android":"levelo://app?vid=45f31d51-ee64-4ad2-9f6e-bdaf7112098c","ios":"levelo://app?vid=45f31d51-ee64-4ad2-9f6e-bdaf7112098c"},"vehicle_type_id":"4","last_reported":1744654466,"current_range_meters":11600,"station_id":"ce4bhh92rcd13ifvqfj0","pricing_plan_id":"cebpf4jnsgd1na2vs0mg"},{"bike_id":"fb13c941-1858-46a4-86ad-2a5e302996c3","system_id":"levelo_inurba_marseille","lat":43.25853,"lon":5.39907,"is_reserved":false,"is_disabled":true,"rental_uris":{"android":"levelo://app?vid=fb13c941-1858-46a4-86ad-2a5e302996c3","ios":"levelo://app?vid=fb13c941-1858-46a4-86ad-2a5e302996c3"},"vehicle_type_id":"4","last_reported":1744654466,"current_range_meters":11600,"station_id":"ce4bhl92rcd13ifvqghg","pricing_plan_id":"cebpf4jnsgd1na2vs0mg"},{"bike_id":"a034729c-5bf9-45b7-a0cf-74dd0b7180be","system_id":"levelo_inurba_marseille","lat":43.30245,"lon":5.40064,"is_reserved":false,"is_disabled":false,"rental_uris":{"android":"levelo://app?vid=a034729c-5bf9-45b7-a0cf-74dd0b7180be","ios":"levelo://app?vid=a034729c-5bf9-45b7-a0cf-74dd0b7180be"},"vehicle_type_id":"4","last_reported":1744654466,"current_range_meters":11200,"station_id":"ce4bgvh2rcd13ifvqcs0","pricing_plan_id":"cebpf4jnsgd1na2vs0mg"},{"bike_id":"022baaf1-34d5-40c6-9c9b-91fd506eb8b4","system_id":"levelo_inurba_marseille","lat":43.25584,"lon":5.38248,"is_reserved":false,"is_disabled":false,"rental_uris":{"android":"levelo://app?vid=022baaf1-34d5-40c6-9c9b-91fd506eb8b4","ios":"levelo://app?vid=022baaf1-34d5-40c6-9c9b-91fd506eb8b4"},"vehicle_type_id":"4","last_reported":1744654466,"current_range_meters":11600,"station_id":"ce4bhih2rcd13ifvqfs0","pricing_plan_id":"cebpf4jnsgd1na2vs0mg"},{"bike_id":"876a4082-3758-44b8-a7b1-d4a64cba7a6e","system_id":"levelo_inurba_marseille","lat":43.28445,"lon":5.39207,"is_reserved":false,"is_disabled":false,"rental_uris":{"android":"levelo://app?vid=876a4082-3758-44b8-a7b1-d4a64cba7a6e","ios":"levelo://app?vid=876a4082-3758-44b8-a7b1-d4a64cba7a6e"},"vehicle_type_id":"4","last_reported":1744654466,"current_range_meters":11600,"station_id":"ce4bhoh2rcd13ifvqh5g","pricing_plan_id":"cebpf4jnsgd1na2vs0mg"},{"bike_id":"41da61f5-9ea1-4677-b0c9-d7df20f4d79b","system_id":"levelo_inurba_marseille","lat":43.29283,"lon":5.38462,"is_reserved":false,"is_disabled":false,"rental_uris":{"android":"levelo://app?vid=41da61f5-9ea1-4677-b0c9-d7df20f4d79b","ios":"levelo://app?vid=41da61f5-9ea1-4677-b0c9-d7df20f4d79b"},"vehicle_type_id":"4","last_reported":1744654466,"current_range_meters":12000,"station_id":"ce4bh692rcd13ifvqea0","pricing_plan_id":"cebpf4jnsgd1na2vs0mg"},{"bike_id":"32ef499e-ccb6-4e90-bac0-d4a1b914c43c","system_id":"levelo_inurba_marseille","lat":43.28732,"lon":5.36085,"is_reserved":false,"is_disabled":false,"rental_uris":{"android":"levelo://app?vid=32ef499e-ccb6-4e90-bac0-d4a1b914c43c","ios":"levelo://app?vid=32ef499e-ccb6-4e90-bac0-d4a1b914c43c"},"vehicle_type_id":"4","last_reported":1744654466,"current_range_meters":12000,"station_id":"cki0cbj6b192h4jlfktg","pricing_plan_id":"cebpf4jnsgd1na2vs0mg"},{"bike_id":"05c71861-3894-4762-b830-fdaba06f8660","system_id":"levelo_inurba_marseille","lat":43.28156,"lon":5.4265,"is_reserved":false,"is_disabled":false,"rental_uris":{"android":"levelo://app?vid=05c71861-3894-4762-b830-fdaba06f8660","ios":"levelo://app?vid=05c71861-3894-4762-b830-fdaba06f8660"},"vehicle_type_id":"4","last_reported":1744654466,"current_range_meters":12400,"station_id":"ce4bhnh2rcd13ifvqgug","pricing_plan_id":"cebpf4jnsgd1na2vs0mg"},{"bike_id":"b7f2ab3e-7333-4a50-9375-1a8103e49920","system_id":"levelo_inurba_marseille","lat":43.25817,"lon":5.39422,"is_reserved":false,"is_disabled":false,"rental_uris":{"android":"levelo://app?vid=b7f2ab3e-7333-4a50-9375-1a8103e49920","ios":"levelo://app?vid=b7f2ab3e-7333-4a50-9375-1a8103e49920"},"vehicle_type_id":"4","last_reported":1744654466,"current_range_meters":12400,"station_id":"ce4bhip2rcd13ifvqft0","pricing_plan_id":"cebpf4jnsgd1na2vs0mg"},{"bike_id":"038f24e5-d8e3-47c1-a2bf-21ad4ab92bed","system_id":"levelo_inurba_marseille","lat":43.31073,"lon":5.38358,"is_reserved":false,"is_disabled":false,"rental_uris":{"android":"levelo://app?vid=038f24e5-d8e3-47c1-a2bf-21ad4ab92bed","ios":"levelo://app?vid=038f24e5-d8e3-47c1-a2bf-21ad4ab92bed"},"vehicle_type_id":"4","last_reported":1744654466,"current_range_meters":12400,"station_id":"ce4bgv92rcd13ifvqcr0","pricing_plan_id":"cebpf4jnsgd1na2vs0mg"},{"bike_id":"9032fd9f-8258-4b06-828f-3216c8110290","system_id":"levelo_inurba_marseille","lat":43.31008,"lon":5.41755,"is_reserved":false,"is_disabled":false,"rental_uris":{"android":"levelo://app?vid=9032fd9f-8258-4b06-828f-3216c8110290","ios":"levelo://app?vid=9032fd9f-8258-4b06-828f-3216c8110290"},"vehicle_type_id":"4","last_reported":1744654466,"current_range_meters":12400,"station_id":"","pricing_plan_id":"cebpf4jnsgd1na2vs0mg"},{"bike_id":"d8aae37e-0673-4630-b6de-1d0b9f5318cc","system_id":"levelo_inurba_marseille","lat":43.27811,"lon":5.40713,"is_reserved":false,"is_disabled":false,"rental_uris":{"android":"levelo://app?vid=d8aae37e-0673-4630-b6de-1d0b9f5318cc","ios":"levelo://app?vid=d8aae37e-0673-4630-b6de-1d0b9f5318cc"},"vehicle_type_id":"4","last_reported":1744654466,"current_range_meters":12000,"station_id":"ce4bhnh2rcd13ifvqgtg","pricing_plan_id":"cebpf4jnsgd1na2vs0mg"},{"bike_id":"c8e7d58b-1c20-41ed-a03f-09cce623af30","system_id":"levelo_inurba_marseille","lat":43.24389,"lon":5.37062,"is_reserved":false,"is_disabled":false,"rental_uris":{"android":"levelo://app?vid=c8e7d58b-1c20-41ed-a03f-09cce623af30","ios":"levelo://app?vid=c8e7d58b-1c20-41ed-a03f-09cce623af30"},"vehicle_type_id":"4","last_reported":1744654466,"current_range_meters":12400,"station_id":"ce4bhhh2rcd13ifvqfk0","pricing_plan_id":"cebpf4jnsgd1na2vs0mg"},{"bike_id":"cef0e4ab-0b9b-40b8-a3a0-54fbc81863e1","system_id":"levelo_inurba_marseille","lat":43.25852,"lon":5.39432,"is_reserved":false,"is_disabled":false,"rental_uris":{"android":"levelo://app?vid=cef0e4ab-0b9b-40b8-a3a0-54fbc81863e1","ios":"levelo://app?vid=cef0e4ab-0b9b-40b8-a3a0-54fbc81863e1"},"vehicle_type_id":"4","last_reported":1744654466,"current_range_meters":12800,"station_id":"ce4bhip2rcd13ifvqft0","pricing_plan_id":"cebpf4jnsgd1na2vs0mg"},{"bike_id":"7443c95a-e2ff-44b0-917e-08afd4539b9b","system_id":"levelo_inurba_marseille","lat":43.29269,"lon":5.36847,"is_reserved":false,"is_disabled":false,"rental_uris":{"android":"levelo://app?vid=7443c95a-e2ff-44b0-917e-08afd4539b9b","ios":"levelo://app?vid=7443c95a-e2ff-44b0-917e-08afd4539b9b"},"vehicle_type_id":"4","last_reported":1744654466,"current_range_meters":12800,"station_id":"ce4bhbp2rcd13ifvqesg","pricing_plan_id":"cebpf4jnsgd1na2vs0mg"},{"bike_id":"295323cf-54d4-48a4-8b2c-3fd30feb9a9c","system_id":"levelo_inurba_marseille","lat":43.26055,"lon":5.394,"is_reserved":false,"is_disabled":false,"rental_uris":{"android":"levelo://app?vid=295323cf-54d4-48a4-8b2c-3fd30feb9a9c","ios":"levelo://app?vid=295323cf-54d4-48a4-8b2c-3fd30feb9a9c"},"vehicle_type_id":"4","last_reported":1744654466,"current_range_meters":12800,"station_id":"ce4bhh92rcd13ifvqfj0","pricing_plan_id":"cebpf4jnsgd1na2vs0mg"},{"bike_id":"209a0192-0fdc-4e02-9c79-b42f732cc1f7","system_id":"levelo_inurba_marseille","lat":43.23964,"lon":5.36645,"is_reserved":false,"is_disabled":false,"rental_uris":{"android":"levelo://app?vid=209a0192-0fdc-4e02-9c79-b42f732cc1f7","ios":"levelo://app?vid=209a0192-0fdc-4e02-9c79-b42f732cc1f7"},"vehicle_type_id":"4","last_reported":1744654466,"current_range_meters":12800,"station_id":"ce4bhi12rcd13ifvqfp0","pricing_plan_id":"cebpf4jnsgd1na2vs0mg"},{"bike_id":"0e8e0d85-2932-4765-902a-4c3b14a3eac4","system_id":"levelo_inurba_marseille","lat":43.25664,"lon":5.37645,"is_reserved":false,"is_disabled":false,"rental_uris":{"android":"levelo://app?vid=0e8e0d85-2932-4765-902a-4c3b14a3eac4","ios":"levelo://app?vid=0e8e0d85-2932-4765-902a-4c3b14a3eac4"},"vehicle_type_id":"4","last_reported":1744654466,"current_range_meters":12800,"station_id":"","pricing_plan_id":"cebpf4jnsgd1na2vs0mg"},{"bike_id":"9150690c-4dbe-4c60-a177-af8ea973e079","system_id":"levelo_inurba_marseille","lat":43.28944,"lon":5.36633,"is_reserved":false,"is_disabled":false,"rental_uris":{"android":"levelo://app?vid=9150690c-4dbe-4c60-a177-af8ea973e079","ios":"levelo://app?vid=9150690c-4dbe-4c60-a177-af8ea973e079"},"vehicle_type_id":"4","last_reported":1744654466,"current_range_meters":12800,"station_id":"ce4bhap2rcd13ifvqek0","pricing_plan_id":"cebpf4jnsgd1na2vs0mg"},{"bike_id":"5bac84e2-3c94-4fdd-a5a6-3f7db5002922","system_id":"levelo_inurba_marseille","lat":43.26814,"lon":5.4025,"is_reserved":false,"is_disabled":false,"rental_uris":{"android":"levelo://app?vid=5bac84e2-3c94-4fdd-a5a6-3f7db5002922","ios":"levelo://app?vid=5bac84e2-3c94-4fdd-a5a6-3f7db5002922"},"vehicle_type_id":"4","last_reported":1744654466,"current_range_meters":13600,"station_id":"ce501612rcd8frsf0b60","pricing_plan_id":"cebpf4jnsgd1na2vs0mg"},{"bike_id":"fe2183b0-8d32-4caf-998e-dac087aa2382","system_id":"levelo_inurba_marseille","lat":43.30114,"lon":5.39854,"is_reserved":false,"is_disabled":false,"rental_uris":{"android":"levelo://app?vid=fe2183b0-8d32-4caf-998e-dac087aa2382","ios":"levelo://app?vid=fe2183b0-8d32-4caf-998e-dac087aa2382"},"vehicle_type_id":"4","last_reported":1744654466,"current_range_meters":13600,"station_id":"ce4bh0h2rcd13ifvqd40","pricing_plan_id":"cebpf4jnsgd1na2vs0mg"},{"bike_id":"ec78ee56-ff03-47d2-8352-2bb0946054f4","system_id":"levelo_inurba_marseille","lat":43.27987,"lon":5.41665,"is_reserved":false,"is_disabled":false,"rental_uris":{"android":"levelo://app?vid=ec78ee56-ff03-47d2-8352-2bb0946054f4","ios":"levelo://app?vid=ec78ee56-ff03-47d2-8352-2bb0946054f4"},"vehicle_type_id":"4","last_reported":1744654466,"current_range_meters":13600,"station_id":"ce4bho12rcd13ifvqh1g","pricing_plan_id":"cebpf4jnsgd1na2vs0mg"},{"bike_id":"d974283f-b87f-448e-af4e-0b9749a8d4b6","system_id":"levelo_inurba_marseille","lat":43.24165,"lon":5.36393,"is_reserved":false,"is_disabled":false,"rental_uris":{"android":"levelo://app?vid=d974283f-b87f-448e-af4e-0b9749a8d4b6","ios":"levelo://app?vid=d974283f-b87f-448e-af4e-0b9749a8d4b6"},"vehicle_type_id":"4","last_reported":1744654466,"current_range_meters":13600,"station_id":"cpo36qri1sfpv3e86is0","pricing_plan_id":"cebpf4jnsgd1na2vs0mg"},{"bike_id":"27a55245-8dd2-4f1a-af63-95a9d7b71690","system_id":"levelo_inurba_marseille","lat":43.31067,"lon":5.37851,"is_reserved":false,"is_disabled":true,"rental_uris":{"android":"levelo://app?vid=27a55245-8dd2-4f1a-af63-95a9d7b71690","ios":"levelo://app?vid=27a55245-8dd2-4f1a-af63-95a9d7b71690"},"vehicle_type_id":"4","last_reported":1744654466,"current_range_meters":13600,"station_id":"","pricing_plan_id":"cebpf4jnsgd1na2vs0mg"},{"bike_id":"dadb8a94-c00e-418b-b75b-7a32cb55bfeb","system_id":"levelo_inurba_marseille","lat":43.33026,"lon":5.39046,"is_reserved":false,"is_disabled":false,"rental_uris":{"android":"levelo://app?vid=dadb8a94-c00e-418b-b75b-7a32cb55bfeb","ios":"levelo://app?vid=dadb8a94-c00e-418b-b75b-7a32cb55bfeb"},"vehicle_type_id":"4","last_reported":1744654466,"current_range_meters":14000,"station_id":"ce4bhr92rcd13ifvqhrg","pricing_plan_id":"cebpf4jnsgd1na2vs0mg"},{"bike_id":"a739453d-434a-492f-a1a2-593c49e2a19f","system_id":"levelo_inurba_marseille","lat":43.29442,"lon":5.39745,"is_reserved":false,"is_disabled":false,"rental_uris":{"android":"levelo://app?vid=a739453d-434a-492f-a1a2-593c49e2a19f","ios":"levelo://app?vid=a739453d-434a-492f-a1a2-593c49e2a19f"},"vehicle_type_id":"4","last_reported":1744654466,"current_range_meters":13600,"station_id":"ce4bh3h2rcd13ifvqdo0","pricing_plan_id":"cebpf4jnsgd1na2vs0mg"},{"bike_id":"06c8a589-4cfb-4f47-b1d5-1493b51b4276","system_id":"levelo_inurba_marseille","lat":43.28101,"lon":5.37837,"is_reserved":false,"is_disabled":false,"rental_uris":{"android":"levelo://app?vid=06c8a589-4cfb-4f47-b1d5-1493b51b4276","ios":"levelo://app?vid=06c8a589-4cfb-4f47-b1d5-1493b51b4276"},"vehicle_type_id":"4","last_reported":1744654466,"current_range_meters":13600,"station_id":"ce4bha12rcd13ifvqee0","pricing_plan_id":"cebpf4jnsgd1na2vs0mg"},{"bike_id":"9357e327-cb00-4fd9-852c-698a42e274fa","system_id":"levelo_inurba_marseille","lat":43.29912,"lon":5.43655,"is_reserved":false,"is_disabled":false,"rental_uris":{"android":"levelo://app?vid=9357e327-cb00-4fd9-852c-698a42e274fa","ios":"levelo://app?vid=9357e327-cb00-4fd9-852c-698a42e274fa"},"vehicle_type_id":"4","last_reported":1744654466,"current_range_meters":14000,"station_id":"ce4bhpp2rcd13ifvqhfg","pricing_plan_id":"cebpf4jnsgd1na2vs0mg"},{"bike_id":"dd55a95c-84ae-4f2d-9924-3ca8c1853af4","system_id":"levelo_inurba_marseille","lat":43.26819,"lon":5.40262,"is_reserved":false,"is_disabled":false,"rental_uris":{"android":"levelo://app?vid=dd55a95c-84ae-4f2d-9924-3ca8c1853af4","ios":"levelo://app?vid=dd55a95c-84ae-4f2d-9924-3ca8c1853af4"},"vehicle_type_id":"4","last_reported":1744654466,"current_range_meters":14000,"station_id":"ce501612rcd8frsf0b60","pricing_plan_id":"cebpf4jnsgd1na2vs0mg"},{"bike_id":"61377ee4-fd99-4c2f-b5ad-a5ac167d945b","system_id":"levelo_inurba_marseille","lat":43.23189,"lon":5.43708,"is_reserved":false,"is_disabled":false,"rental_uris":{"android":"levelo://app?vid=61377ee4-fd99-4c2f-b5ad-a5ac167d945b","ios":"levelo://app?vid=61377ee4-fd99-4c2f-b5ad-a5ac167d945b"},"vehicle_type_id":"4","last_reported":1744654466,"current_range_meters":14000,"station_id":"ce4bhmp2rcd13ifvqgog","pricing_plan_id":"cebpf4jnsgd1na2vs0mg"},{"bike_id":"aabc70ea-331b-4d07-a07f-3484c098c96a","system_id":"levelo_inurba_marseille","lat":43.28456,"lon":5.35888,"is_reserved":false,"is_disabled":false,"rental_uris":{"android":"levelo://app?vid=aabc70ea-331b-4d07-a07f-3484c098c96a","ios":"levelo://app?vid=aabc70ea-331b-4d07-a07f-3484c098c96a"},"vehicle_type_id":"4","last_reported":1744654466,"current_range_meters":14000,"station_id":"ce4bhah2rcd13ifvqei0","pricing_plan_id":"cebpf4jnsgd1na2vs0mg"},{"bike_id":"52e340c3-039a-4c47-97af-26d5c54a9440","system_id":"levelo_inurba_marseille","lat":43.28939,"lon":5.3963,"is_reserved":false,"is_disabled":false,"rental_uris":{"android":"levelo://app?vid=52e340c3-039a-4c47-97af-26d5c54a9440","ios":"levelo://app?vid=52e340c3-039a-4c47-97af-26d5c54a9440"},"vehicle_type_id":"4","last_reported":1744654466,"current_range_meters":14400,"station_id":"ce4bh3h2rcd13ifvqdn0","pricing_plan_id":"cebpf4jnsgd1na2vs0mg"},{"bike_id":"3a43efc2-e874-4fa3-979d-9b71f6f804fe","system_id":"levelo_inurba_marseille","lat":43.29001,"lon":5.35615,"is_reserved":false,"is_disabled":false,"rental_uris":{"android":"levelo://app?vid=3a43efc2-e874-4fa3-979d-9b71f6f804fe","ios":"levelo://app?vid=3a43efc2-e874-4fa3-979d-9b71f6f804fe"},"vehicle_type_id":"4","last_reported":1744654466,"current_range_meters":14400,"station_id":"ce4bhb92rcd13ifvqen0","pricing_plan_id":"cebpf4jnsgd1na2vs0mg"},{"bike_id":"7e721af5-4572-4950-ac49-a2c164cdd75a","system_id":"levelo_inurba_marseille","lat":43.29798,"lon":5.40403,"is_reserved":false,"is_disabled":false,"rental_uris":{"android":"levelo://app?vid=7e721af5-4572-4950-ac49-a2c164cdd75a","ios":"levelo://app?vid=7e721af5-4572-4950-ac49-a2c164cdd75a"},"vehicle_type_id":"4","last_reported":1744654466,"current_range_meters":14400,"station_id":"ce4bh112rcd13ifvqd90","pricing_plan_id":"cebpf4jnsgd1na2vs0mg"},{"bike_id":"9481a4d4-998c-4242-822b-0b8fa3017440","system_id":"levelo_inurba_marseille","lat":43.28903,"lon":5.3935,"is_reserved":false,"is_disabled":true,"rental_uris":{"android":"levelo://app?vid=9481a4d4-998c-4242-822b-0b8fa3017440","ios":"levelo://app?vid=9481a4d4-998c-4242-822b-0b8fa3017440"},"vehicle_type_id":"4","last_reported":1744654466,"current_range_meters":14800,"station_id":"ce4bh2p2rcd13ifvqdi0","pricing_plan_id":"cebpf4jnsgd1na2vs0mg"},{"bike_id":"56135a82-d19f-45ea-a72c-58b1131d0fcb","system_id":"levelo_inurba_marseille","lat":43.28086,"lon":5.39654,"is_reserved":false,"is_disabled":true,"rental_uris":{"android":"levelo://app?vid=56135a82-d19f-45ea-a72c-58b1131d0fcb","ios":"levelo://app?vid=56135a82-d19f-45ea-a72c-58b1131d0fcb"},"vehicle_type_id":"4","last_reported":1744654466,"current_range_meters":14800,"station_id":"ce4bho12rcd13ifvqh2g","pricing_plan_id":"cebpf4jnsgd1na2vs0mg"},{"bike_id":"adc57c37-ce55-4115-a740-875a9e1ac006","system_id":"levelo_inurba_marseille","lat":43.28489,"lon":5.35874,"is_reserved":false,"is_disabled":false,"rental_uris":{"android":"levelo://app?vid=adc57c37-ce55-4115-a740-875a9e1ac006","ios":"levelo://app?vid=adc57c37-ce55-4115-a740-875a9e1ac006"},"vehicle_type_id":"4","last_reported":1744654466,"current_range_meters":14800,"station_id":"ce4bhah2rcd13ifvqei0","pricing_plan_id":"cebpf4jnsgd1na2vs0mg"},{"bike_id":"72e2f883-7cc3-46c1-9b14-a70145be55d3","system_id":"levelo_inurba_marseille","lat":43.312037,"lon":5.368573,"is_reserved":false,"is_disabled":false,"rental_uris":{"android":"levelo://app?vid=72e2f883-7cc3-46c1-9b14-a70145be55d3","ios":"levelo://app?vid=72e2f883-7cc3-46c1-9b14-a70145be55d3"},"vehicle_type_id":"4","last_reported":1744654466,"current_range_meters":14400,"station_id":"ce4bgl92rcd13ifvqbq0","pricing_plan_id":"cebpf4jnsgd1na2vs0mg"},{"bike_id":"c2247376-6a7d-45ca-b16a-a8ba6e95d0b6","system_id":"levelo_inurba_marseille","lat":43.26954,"lon":5.38631,"is_reserved":false,"is_disabled":false,"rental_uris":{"android":"levelo://app?vid=c2247376-6a7d-45ca-b16a-a8ba6e95d0b6","ios":"levelo://app?vid=c2247376-6a7d-45ca-b16a-a8ba6e95d0b6"},"vehicle_type_id":"4","last_reported":1744654466,"current_range_meters":14400,"station_id":"ce4bhh92rcd13ifvqfh0","pricing_plan_id":"cebpf4jnsgd1na2vs0mg"},{"bike_id":"1517ea2d-5207-45ac-96e9-9f6f47a065b4","system_id":"levelo_inurba_marseille","lat":43.29897,"lon":5.43673,"is_reserved":false,"is_disabled":false,"rental_uris":{"android":"levelo://app?vid=1517ea2d-5207-45ac-96e9-9f6f47a065b4","ios":"levelo://app?vid=1517ea2d-5207-45ac-96e9-9f6f47a065b4"},"vehicle_type_id":"4","last_reported":1744654466,"current_range_meters":15200,"station_id":"ce4bhpp2rcd13ifvqhfg","pricing_plan_id":"cebpf4jnsgd1na2vs0mg"},{"bike_id":"b3161fd5-d378-4fe5-a95a-ee40759ea511","system_id":"levelo_inurba_marseille","lat":43.28378,"lon":5.38653,"is_reserved":false,"is_disabled":false,"rental_uris":{"android":"levelo://app?vid=b3161fd5-d378-4fe5-a95a-ee40759ea511","ios":"levelo://app?vid=b3161fd5-d378-4fe5-a95a-ee40759ea511"},"vehicle_type_id":"4","last_reported":1744654466,"current_range_meters":15200,"station_id":"ce4bh492rcd13ifvqdvg","pricing_plan_id":"cebpf4jnsgd1na2vs0mg"},{"bike_id":"0cd65ed9-4d6f-4a29-ad53-4aa8fba524ea","system_id":"levelo_inurba_marseille","lat":43.30796,"lon":5.38148,"is_reserved":false,"is_disabled":false,"rental_uris":{"android":"levelo://app?vid=0cd65ed9-4d6f-4a29-ad53-4aa8fba524ea","ios":"levelo://app?vid=0cd65ed9-4d6f-4a29-ad53-4aa8fba524ea"},"vehicle_type_id":"4","last_reported":1744654466,"current_range_meters":15200,"station_id":"ce4bgt12rcd13ifvqce0","pricing_plan_id":"cebpf4jnsgd1na2vs0mg"},{"bike_id":"c982b9d5-0af8-4516-bb15-2e04fca48a52","system_id":"levelo_inurba_marseille","lat":43.28709,"lon":5.37412,"is_reserved":false,"is_disabled":false,"rental_uris":{"android":"levelo://app?vid=c982b9d5-0af8-4516-bb15-2e04fca48a52","ios":"levelo://app?vid=c982b9d5-0af8-4516-bb15-2e04fca48a52"},"vehicle_type_id":"4","last_reported":1744654466,"current_range_meters":15200,"station_id":"ce4bh3p2rcd13ifvqdq0","pricing_plan_id":"cebpf4jnsgd1na2vs0mg"},{"bike_id":"93b02a0f-e2f5-49ef-90ae-4a058707e43d","system_id":"levelo_inurba_marseille","lat":43.29695,"lon":5.37277,"is_reserved":false,"is_disabled":true,"rental_uris":{"android":"levelo://app?vid=93b02a0f-e2f5-49ef-90ae-4a058707e43d","ios":"levelo://app?vid=93b02a0f-e2f5-49ef-90ae-4a058707e43d"},"vehicle_type_id":"4","last_reported":1744654466,"current_range_meters":15200,"station_id":"ce4bgk12rcd13ifvqbj0","pricing_plan_id":"cebpf4jnsgd1na2vs0mg"},{"bike_id":"02dc5853-d17c-47ac-a646-82ded7ba5800","system_id":"levelo_inurba_marseille","lat":43.30222,"lon":5.40056,"is_reserved":false,"is_disabled":true,"rental_uris":{"android":"levelo://app?vid=02dc5853-d17c-47ac-a646-82ded7ba5800","ios":"levelo://app?vid=02dc5853-d17c-47ac-a646-82ded7ba5800"},"vehicle_type_id":"4","last_reported":1744654466,"current_range_meters":16000,"station_id":"ce4bgvh2rcd13ifvqcs0","pricing_plan_id":"cebpf4jnsgd1na2vs0mg"},{"bike_id":"9fc301a4-cfe4-46d0-9b07-89eb173ef9fa","system_id":"levelo_inurba_marseille","lat":43.2977,"lon":5.37144,"is_reserved":false,"is_disabled":false,"rental_uris":{"android":"levelo://app?vid=9fc301a4-cfe4-46d0-9b07-89eb173ef9fa","ios":"levelo://app?vid=9fc301a4-cfe4-46d0-9b07-89eb173ef9fa"},"vehicle_type_id":"4","last_reported":1744654466,"current_range_meters":16000,"station_id":"ce4bgop2rcd13ifvqc1g","pricing_plan_id":"cebpf4jnsgd1na2vs0mg"},{"bike_id":"8b96af38-dffa-4188-8b57-3b8c5db8e9ab","system_id":"levelo_inurba_marseille","lat":43.25823,"lon":5.39437,"is_reserved":false,"is_disabled":false,"rental_uris":{"android":"levelo://app?vid=8b96af38-dffa-4188-8b57-3b8c5db8e9ab","ios":"levelo://app?vid=8b96af38-dffa-4188-8b57-3b8c5db8e9ab"},"vehicle_type_id":"4","last_reported":1744654466,"current_range_meters":16000,"station_id":"ce4bhip2rcd13ifvqft0","pricing_plan_id":"cebpf4jnsgd1na2vs0mg"},{"bike_id":"860ffd61-384e-4318-b060-ba775e74ce15","system_id":"levelo_inurba_marseille","lat":43.29257,"lon":5.38441,"is_reserved":false,"is_disabled":false,"rental_uris":{"android":"levelo://app?vid=860ffd61-384e-4318-b060-ba775e74ce15","ios":"levelo://app?vid=860ffd61-384e-4318-b060-ba775e74ce15"},"vehicle_type_id":"4","last_reported":1744654466,"current_range_meters":16000,"station_id":"ce4bh692rcd13ifvqea0","pricing_plan_id":"cebpf4jnsgd1na2vs0mg"},{"bike_id":"43cb02b1-296e-4e53-b61f-b50c10352fe7","system_id":"levelo_inurba_marseille","lat":43.28925,"lon":5.38403,"is_reserved":false,"is_disabled":false,"rental_uris":{"android":"levelo://app?vid=43cb02b1-296e-4e53-b61f-b50c10352fe7","ios":"levelo://app?vid=43cb02b1-296e-4e53-b61f-b50c10352fe7"},"vehicle_type_id":"4","last_reported":1744654466,"current_range_meters":15200,"station_id":"ce4bh612rcd13ifvqe6g","pricing_plan_id":"cebpf4jnsgd1na2vs0mg"},{"bike_id":"917bf86a-454f-4eaf-bd45-2b926249d6f9","system_id":"levelo_inurba_marseille","lat":43.25722,"lon":5.41099,"is_reserved":false,"is_disabled":false,"rental_uris":{"android":"levelo://app?vid=917bf86a-454f-4eaf-bd45-2b926249d6f9","ios":"levelo://app?vid=917bf86a-454f-4eaf-bd45-2b926249d6f9"},"vehicle_type_id":"4","last_reported":1744654466,"current_range_meters":16000,"station_id":"ce4bhkp2rcd13ifvqgd0","pricing_plan_id":"cebpf4jnsgd1na2vs0mg"},{"bike_id":"72d5a4c3-cc27-4154-a278-55a9531ec7de","system_id":"levelo_inurba_marseille","lat":43.28661,"lon":5.36352,"is_reserved":false,"is_disabled":false,"rental_uris":{"android":"levelo://app?vid=72d5a4c3-cc27-4154-a278-55a9531ec7de","ios":"levelo://app?vid=72d5a4c3-cc27-4154-a278-55a9531ec7de"},"vehicle_type_id":"4","last_reported":1744654466,"current_range_meters":15200,"station_id":"ce4bhah2rcd13ifvqej0","pricing_plan_id":"cebpf4jnsgd1na2vs0mg"},{"bike_id":"45152fd8-c07c-4d52-b7a7-6670add35e00","system_id":"levelo_inurba_marseille","lat":43.2611,"lon":5.42077,"is_reserved":false,"is_disabled":false,"rental_uris":{"android":"levelo://app?vid=45152fd8-c07c-4d52-b7a7-6670add35e00","ios":"levelo://app?vid=45152fd8-c07c-4d52-b7a7-6670add35e00"},"vehicle_type_id":"4","last_reported":1744654466,"current_range_meters":16000,"station_id":"","pricing_plan_id":"cebpf4jnsgd1na2vs0mg"},{"bike_id":"af909c33-12fd-4b6b-ba7d-577ce03c0a58","system_id":"levelo_inurba_marseille","lat":43.2941,"lon":5.38645,"is_reserved":false,"is_disabled":false,"rental_uris":{"android":"levelo://app?vid=af909c33-12fd-4b6b-ba7d-577ce03c0a58","ios":"levelo://app?vid=af909c33-12fd-4b6b-ba7d-577ce03c0a58"},"vehicle_type_id":"4","last_reported":1744654466,"current_range_meters":16000,"station_id":"ce4bh2h2rcd13ifvqdh0","pricing_plan_id":"cebpf4jnsgd1na2vs0mg"},{"bike_id":"d469f276-1a67-4f3e-9f03-2f2983403d7a","system_id":"levelo_inurba_marseille","lat":43.28695,"lon":5.37388,"is_reserved":false,"is_disabled":false,"rental_uris":{"android":"levelo://app?vid=d469f276-1a67-4f3e-9f03-2f2983403d7a","ios":"levelo://app?vid=d469f276-1a67-4f3e-9f03-2f2983403d7a"},"vehicle_type_id":"4","last_reported":1744654466,"current_range_meters":16400,"station_id":"ce4bh3p2rcd13ifvqdq0","pricing_plan_id":"cebpf4jnsgd1na2vs0mg"},{"bike_id":"b3f3917b-babe-4e57-b21e-9f79ef1e3bdd","system_id":"levelo_inurba_marseille","lat":43.29512,"lon":5.39395,"is_reserved":false,"is_disabled":false,"rental_uris":{"android":"levelo://app?vid=b3f3917b-babe-4e57-b21e-9f79ef1e3bdd","ios":"levelo://app?vid=b3f3917b-babe-4e57-b21e-9f79ef1e3bdd"},"vehicle_type_id":"4","last_reported":1744654466,"current_range_meters":16400,"station_id":"ce4bh292rcd13ifvqdf0","pricing_plan_id":"cebpf4jnsgd1na2vs0mg"},{"bike_id":"37342bdf-d586-43ba-a25b-da22b3393da6","system_id":"levelo_inurba_marseille","lat":43.29205,"lon":5.37529,"is_reserved":false,"is_disabled":false,"rental_uris":{"android":"levelo://app?vid=37342bdf-d586-43ba-a25b-da22b3393da6","ios":"levelo://app?vid=37342bdf-d586-43ba-a25b-da22b3393da6"},"vehicle_type_id":"4","last_reported":1744654466,"current_range_meters":16400,"station_id":"","pricing_plan_id":"cebpf4jnsgd1na2vs0mg"},{"bike_id":"86507adb-43c1-4a89-acc7-c74cd80a099f","system_id":"levelo_inurba_marseille","lat":43.23131,"lon":5.36661,"is_reserved":false,"is_disabled":false,"rental_uris":{"android":"levelo://app?vid=86507adb-43c1-4a89-acc7-c74cd80a099f","ios":"levelo://app?vid=86507adb-43c1-4a89-acc7-c74cd80a099f"},"vehicle_type_id":"4","last_reported":1744654466,"current_range_meters":16400,"station_id":"","pricing_plan_id":"cebpf4jnsgd1na2vs0mg"},{"bike_id":"73959a43-9756-4b39-a84d-4c6b1e62b877","system_id":"levelo_inurba_marseille","lat":43.32285,"lon":5.38275,"is_reserved":false,"is_disabled":false,"rental_uris":{"android":"levelo://app?vid=73959a43-9756-4b39-a84d-4c6b1e62b877","ios":"levelo://app?vid=73959a43-9756-4b39-a84d-4c6b1e62b877"},"vehicle_type_id":"4","last_reported":1744654466,"current_range_meters":16000,"station_id":"ce4bhr12rcd13ifvqhqg","pricing_plan_id":"cebpf4jnsgd1na2vs0mg"},{"bike_id":"292466ba-6ccd-4303-ab23-3d9295ea937f","system_id":"levelo_inurba_marseille","lat":43.29195,"lon":5.39342,"is_reserved":false,"is_disabled":false,"rental_uris":{"android":"levelo://app?vid=292466ba-6ccd-4303-ab23-3d9295ea937f","ios":"levelo://app?vid=292466ba-6ccd-4303-ab23-3d9295ea937f"},"vehicle_type_id":"4","last_reported":1744654466,"current_range_meters":16400,"station_id":"ce4bh192rcd13ifvqdd0","pricing_plan_id":"cebpf4jnsgd1na2vs0mg"},{"bike_id":"5c0cc5dd-7c03-4f8b-838c-65a8bfb31b5b","system_id":"levelo_inurba_marseille","lat":43.24658,"lon":5.38168,"is_reserved":false,"is_disabled":false,"rental_uris":{"android":"levelo://app?vid=5c0cc5dd-7c03-4f8b-838c-65a8bfb31b5b","ios":"levelo://app?vid=5c0cc5dd-7c03-4f8b-838c-65a8bfb31b5b"},"vehicle_type_id":"4","last_reported":1744654466,"current_range_meters":16800,"station_id":"ce4bhih2rcd13ifvqfr0","pricing_plan_id":"cebpf4jnsgd1na2vs0mg"},{"bike_id":"5e2af133-40aa-4c3c-a4e9-1dadd9bc9ab0","system_id":"levelo_inurba_marseille","lat":43.29411,"lon":5.38619,"is_reserved":false,"is_disabled":false,"rental_uris":{"android":"levelo://app?vid=5e2af133-40aa-4c3c-a4e9-1dadd9bc9ab0","ios":"levelo://app?vid=5e2af133-40aa-4c3c-a4e9-1dadd9bc9ab0"},"vehicle_type_id":"4","last_reported":1744654466,"current_range_meters":16800,"station_id":"ce4bh2h2rcd13ifvqdh0","pricing_plan_id":"cebpf4jnsgd1na2vs0mg"},{"bike_id":"a6df17eb-3570-436e-862c-fc5ce65d2e7e","system_id":"levelo_inurba_marseille","lat":43.28614,"lon":5.35105,"is_reserved":false,"is_disabled":false,"rental_uris":{"android":"levelo://app?vid=a6df17eb-3570-436e-862c-fc5ce65d2e7e","ios":"levelo://app?vid=a6df17eb-3570-436e-862c-fc5ce65d2e7e"},"vehicle_type_id":"4","last_reported":1744654466,"current_range_meters":16800,"station_id":"ce4bhch2rcd13ifvqeug","pricing_plan_id":"cebpf4jnsgd1na2vs0mg"},{"bike_id":"09b5c77e-8283-49d7-80ff-183b80cc9e48","system_id":"levelo_inurba_marseille","lat":43.27902,"lon":5.38015,"is_reserved":false,"is_disabled":false,"rental_uris":{"android":"levelo://app?vid=09b5c77e-8283-49d7-80ff-183b80cc9e48","ios":"levelo://app?vid=09b5c77e-8283-49d7-80ff-183b80cc9e48"},"vehicle_type_id":"4","last_reported":1744654466,"current_range_meters":16800,"station_id":"ce4bhf92rcd13ifvqf50","pricing_plan_id":"cebpf4jnsgd1na2vs0mg"},{"bike_id":"5988041c-38bc-4174-9c12-35524fd9005b","system_id":"levelo_inurba_marseille","lat":43.28938,"lon":5.36631,"is_reserved":false,"is_disabled":false,"rental_uris":{"android":"levelo://app?vid=5988041c-38bc-4174-9c12-35524fd9005b","ios":"levelo://app?vid=5988041c-38bc-4174-9c12-35524fd9005b"},"vehicle_type_id":"4","last_reported":1744654466,"current_range_meters":16800,"station_id":"ce4bhap2rcd13ifvqek0","pricing_plan_id":"cebpf4jnsgd1na2vs0mg"},{"bike_id":"bfa0681f-9670-4a29-a7ca-aa434efa668e","system_id":"levelo_inurba_marseille","lat":43.299683,"lon":5.384808,"is_reserved":false,"is_disabled":false,"rental_uris":{"android":"levelo://app?vid=bfa0681f-9670-4a29-a7ca-aa434efa668e","ios":"levelo://app?vid=bfa0681f-9670-4a29-a7ca-aa434efa668e"},"vehicle_type_id":"4","last_reported":1744654466,"current_range_meters":16400,"station_id":"ce4bhsp2rcd13ifvqi50","pricing_plan_id":"cebpf4jnsgd1na2vs0mg"},{"bike_id":"fedb9457-c408-43a0-8b5e-ccdff25947f5","system_id":"levelo_inurba_marseille","lat":43.26205,"lon":5.40393,"is_reserved":false,"is_disabled":true,"rental_uris":{"android":"levelo://app?vid=fedb9457-c408-43a0-8b5e-ccdff25947f5","ios":"levelo://app?vid=fedb9457-c408-43a0-8b5e-ccdff25947f5"},"vehicle_type_id":"4","last_reported":1744654466,"current_range_meters":16800,"station_id":"ce4bhlh2rcd13ifvqgig","pricing_plan_id":"cebpf4jnsgd1na2vs0mg"},{"bike_id":"60dcad6e-0bf0-43ed-8c17-3d1b1e91ba96","system_id":"levelo_inurba_marseille","lat":43.29527,"lon":5.38535,"is_reserved":false,"is_disabled":false,"rental_uris":{"android":"levelo://app?vid=60dcad6e-0bf0-43ed-8c17-3d1b1e91ba96","ios":"levelo://app?vid=60dcad6e-0bf0-43ed-8c17-3d1b1e91ba96"},"vehicle_type_id":"4","last_reported":1744654466,"current_range_meters":14800,"station_id":"ce4bgih2rcd13ifvqba0","pricing_plan_id":"cebpf4jnsgd1na2vs0mg"},{"bike_id":"0e82f872-eb67-492d-93c5-bf52655cbc85","system_id":"levelo_inurba_marseille","lat":43.27898,"lon":5.38008,"is_reserved":false,"is_disabled":false,"rental_uris":{"android":"levelo://app?vid=0e82f872-eb67-492d-93c5-bf52655cbc85","ios":"levelo://app?vid=0e82f872-eb67-492d-93c5-bf52655cbc85"},"vehicle_type_id":"4","last_reported":1744654466,"current_range_meters":16800,"station_id":"ce4bhf92rcd13ifvqf50","pricing_plan_id":"cebpf4jnsgd1na2vs0mg"},{"bike_id":"00631e8e-a64b-41fa-9a38-c917653386b3","system_id":"levelo_inurba_marseille","lat":43.29259,"lon":5.36852,"is_reserved":false,"is_disabled":false,"rental_uris":{"android":"levelo://app?vid=00631e8e-a64b-41fa-9a38-c917653386b3","ios":"levelo://app?vid=00631e8e-a64b-41fa-9a38-c917653386b3"},"vehicle_type_id":"4","last_reported":1744654466,"current_range_meters":16800,"station_id":"ce4bhbp2rcd13ifvqesg","pricing_plan_id":"cebpf4jnsgd1na2vs0mg"},{"bike_id":"1c965b24-e0bf-4f15-9a7d-41deff2b0b40","system_id":"levelo_inurba_marseille","lat":43.24077,"lon":5.37763,"is_reserved":false,"is_disabled":false,"rental_uris":{"android":"levelo://app?vid=1c965b24-e0bf-4f15-9a7d-41deff2b0b40","ios":"levelo://app?vid=1c965b24-e0bf-4f15-9a7d-41deff2b0b40"},"vehicle_type_id":"4","last_reported":1744654466,"current_range_meters":16800,"station_id":"ce4bhnp2rcd13ifvqgvg","pricing_plan_id":"cebpf4jnsgd1na2vs0mg"},{"bike_id":"382a1a40-cce5-4bcf-8677-ad51fb5a2457","system_id":"levelo_inurba_marseille","lat":43.288599,"lon":5.393233,"is_reserved":false,"is_disabled":true,"rental_uris":{"android":"levelo://app?vid=382a1a40-cce5-4bcf-8677-ad51fb5a2457","ios":"levelo://app?vid=382a1a40-cce5-4bcf-8677-ad51fb5a2457"},"vehicle_type_id":"4","last_reported":1744654466,"current_range_meters":16800,"station_id":"ce4bh2p2rcd13ifvqdi0","pricing_plan_id":"cebpf4jnsgd1na2vs0mg"},{"bike_id":"a4f6f920-041d-4436-8cef-11b3a21cbdec","system_id":"levelo_inurba_marseille","lat":43.31266,"lon":5.40164,"is_reserved":false,"is_disabled":false,"rental_uris":{"android":"levelo://app?vid=a4f6f920-041d-4436-8cef-11b3a21cbdec","ios":"levelo://app?vid=a4f6f920-041d-4436-8cef-11b3a21cbdec"},"vehicle_type_id":"4","last_reported":1744654466,"current_range_meters":17200,"station_id":"ce4bh092rcd13ifvqd30","pricing_plan_id":"cebpf4jnsgd1na2vs0mg"},{"bike_id":"952707cf-f39b-4f17-95e5-15d401a278de","system_id":"levelo_inurba_marseille","lat":43.28026,"lon":5.3695,"is_reserved":false,"is_disabled":false,"rental_uris":{"android":"levelo://app?vid=952707cf-f39b-4f17-95e5-15d401a278de","ios":"levelo://app?vid=952707cf-f39b-4f17-95e5-15d401a278de"},"vehicle_type_id":"4","last_reported":1744654466,"current_range_meters":17200,"station_id":"ce4bha12rcd13ifvqef0","pricing_plan_id":"cebpf4jnsgd1na2vs0mg"},{"bike_id":"5479afb8-f990-4ac3-b420-d1ea43680a6b","system_id":"levelo_inurba_marseille","lat":43.21752,"lon":5.34604,"is_reserved":false,"is_disabled":false,"rental_uris":{"android":"levelo://app?vid=5479afb8-f990-4ac3-b420-d1ea43680a6b","ios":"levelo://app?vid=5479afb8-f990-4ac3-b420-d1ea43680a6b"},"vehicle_type_id":"4","last_reported":1744654466,"current_range_meters":17200,"station_id":"st_cvj6r9ubvosntc0bgbag","pricing_plan_id":"cebpf4jnsgd1na2vs0mg"},{"bike_id":"ed296113-9ba0-46af-b154-8b0bbad72688","system_id":"levelo_inurba_marseille","lat":43.281575,"lon":5.426508,"is_reserved":false,"is_disabled":false,"rental_uris":{"android":"levelo://app?vid=ed296113-9ba0-46af-b154-8b0bbad72688","ios":"levelo://app?vid=ed296113-9ba0-46af-b154-8b0bbad72688"},"vehicle_type_id":"4","last_reported":1744654466,"current_range_meters":17200,"station_id":"ce4bhnh2rcd13ifvqgug","pricing_plan_id":"cebpf4jnsgd1na2vs0mg"},{"bike_id":"150c92f3-516d-41fe-89f9-fa7bb41a1f80","system_id":"levelo_inurba_marseille","lat":43.30324,"lon":5.40439,"is_reserved":false,"is_disabled":false,"rental_uris":{"android":"levelo://app?vid=150c92f3-516d-41fe-89f9-fa7bb41a1f80","ios":"levelo://app?vid=150c92f3-516d-41fe-89f9-fa7bb41a1f80"},"vehicle_type_id":"4","last_reported":1744654466,"current_range_meters":17200,"station_id":"ce4bh012rcd13ifvqd10","pricing_plan_id":"cebpf4jnsgd1na2vs0mg"},{"bike_id":"d2d37f01-fa46-4fbc-a721-7789f4003663","system_id":"levelo_inurba_marseille","lat":43.24978,"lon":5.38959,"is_reserved":false,"is_disabled":false,"rental_uris":{"android":"levelo://app?vid=d2d37f01-fa46-4fbc-a721-7789f4003663","ios":"levelo://app?vid=d2d37f01-fa46-4fbc-a721-7789f4003663"},"vehicle_type_id":"4","last_reported":1744654466,"current_range_meters":17200,"station_id":"ce4bhgp2rcd13ifvqfd0","pricing_plan_id":"cebpf4jnsgd1na2vs0mg"},{"bike_id":"205a676e-388e-4b5d-b5d4-92bca6b76c07","system_id":"levelo_inurba_marseille","lat":43.31155,"lon":5.38016,"is_reserved":false,"is_disabled":true,"rental_uris":{"android":"levelo://app?vid=205a676e-388e-4b5d-b5d4-92bca6b76c07","ios":"levelo://app?vid=205a676e-388e-4b5d-b5d4-92bca6b76c07"},"vehicle_type_id":"4","last_reported":1744654466,"current_range_meters":17200,"station_id":"","pricing_plan_id":"cebpf4jnsgd1na2vs0mg"},{"bike_id":"08ca8e63-35b8-4bc6-809a-f02ef51474bb","system_id":"levelo_inurba_marseille","lat":43.28698,"lon":5.37391,"is_reserved":false,"is_disabled":false,"rental_uris":{"android":"levelo://app?vid=08ca8e63-35b8-4bc6-809a-f02ef51474bb","ios":"levelo://app?vid=08ca8e63-35b8-4bc6-809a-f02ef51474bb"},"vehicle_type_id":"4","last_reported":1744654466,"current_range_meters":17600,"station_id":"ce4bh3p2rcd13ifvqdq0","pricing_plan_id":"cebpf4jnsgd1na2vs0mg"},{"bike_id":"6d6461fe-09d4-4e63-b9b8-125ee5ef141f","system_id":"levelo_inurba_marseille","lat":43.31273,"lon":5.40185,"is_reserved":false,"is_disabled":false,"rental_uris":{"android":"levelo://app?vid=6d6461fe-09d4-4e63-b9b8-125ee5ef141f","ios":"levelo://app?vid=6d6461fe-09d4-4e63-b9b8-125ee5ef141f"},"vehicle_type_id":"4","last_reported":1744654466,"current_range_meters":17200,"station_id":"ce4bh092rcd13ifvqd30","pricing_plan_id":"cebpf4jnsgd1na2vs0mg"},{"bike_id":"678406f0-2616-4d91-8e8c-d77e5175174c","system_id":"levelo_inurba_marseille","lat":43.284,"lon":5.37516,"is_reserved":false,"is_disabled":false,"rental_uris":{"android":"levelo://app?vid=678406f0-2616-4d91-8e8c-d77e5175174c","ios":"levelo://app?vid=678406f0-2616-4d91-8e8c-d77e5175174c"},"vehicle_type_id":"4","last_reported":1744654466,"current_range_meters":17200,"station_id":"ce4bh412rcd13ifvqds0","pricing_plan_id":"cebpf4jnsgd1na2vs0mg"},{"bike_id":"216c0a2c-fab0-4352-94a0-14b77c387959","system_id":"levelo_inurba_marseille","lat":43.24711,"lon":5.38152,"is_reserved":false,"is_disabled":false,"rental_uris":{"android":"levelo://app?vid=216c0a2c-fab0-4352-94a0-14b77c387959","ios":"levelo://app?vid=216c0a2c-fab0-4352-94a0-14b77c387959"},"vehicle_type_id":"4","last_reported":1744654466,"current_range_meters":17600,"station_id":"ce4bhih2rcd13ifvqfr0","pricing_plan_id":"cebpf4jnsgd1na2vs0mg"},{"bike_id":"1131a45f-d578-4a79-9098-ae48b8be288d","system_id":"levelo_inurba_marseille","lat":43.29,"lon":5.35613,"is_reserved":false,"is_disabled":false,"rental_uris":{"android":"levelo://app?vid=1131a45f-d578-4a79-9098-ae48b8be288d","ios":"levelo://app?vid=1131a45f-d578-4a79-9098-ae48b8be288d"},"vehicle_type_id":"4","last_reported":1744654466,"current_range_meters":17600,"station_id":"ce4bhb92rcd13ifvqen0","pricing_plan_id":"cebpf4jnsgd1na2vs0mg"},{"bike_id":"47a85634-40b2-4bd1-8409-1d1cf2f06bdc","system_id":"levelo_inurba_marseille","lat":43.24074,"lon":5.37772,"is_reserved":false,"is_disabled":false,"rental_uris":{"android":"levelo://app?vid=47a85634-40b2-4bd1-8409-1d1cf2f06bdc","ios":"levelo://app?vid=47a85634-40b2-4bd1-8409-1d1cf2f06bdc"},"vehicle_type_id":"4","last_reported":1744654466,"current_range_meters":18000,"station_id":"ce4bhnp2rcd13ifvqgvg","pricing_plan_id":"cebpf4jnsgd1na2vs0mg"},{"bike_id":"e567e3d0-8a40-4903-884c-d566ebb8d7de","system_id":"levelo_inurba_marseille","lat":43.28461,"lon":5.35884,"is_reserved":false,"is_disabled":false,"rental_uris":{"android":"levelo://app?vid=e567e3d0-8a40-4903-884c-d566ebb8d7de","ios":"levelo://app?vid=e567e3d0-8a40-4903-884c-d566ebb8d7de"},"vehicle_type_id":"4","last_reported":1744654466,"current_range_meters":18000,"station_id":"ce4bhah2rcd13ifvqei0","pricing_plan_id":"cebpf4jnsgd1na2vs0mg"},{"bike_id":"5a23e76b-d659-4d0f-bfe2-c8908f68ca86","system_id":"levelo_inurba_marseille","lat":43.25931,"lon":5.40917,"is_reserved":false,"is_disabled":false,"rental_uris":{"android":"levelo://app?vid=5a23e76b-d659-4d0f-bfe2-c8908f68ca86","ios":"levelo://app?vid=5a23e76b-d659-4d0f-bfe2-c8908f68ca86"},"vehicle_type_id":"4","last_reported":1744654466,"current_range_meters":18000,"station_id":"ce4bhm92rcd13ifvqglg","pricing_plan_id":"cebpf4jnsgd1na2vs0mg"},{"bike_id":"17b543ad-6f08-496d-bdd2-6337f67f5fc8","system_id":"levelo_inurba_marseille","lat":43.28416,"lon":5.37499,"is_reserved":false,"is_disabled":false,"rental_uris":{"android":"levelo://app?vid=17b543ad-6f08-496d-bdd2-6337f67f5fc8","ios":"levelo://app?vid=17b543ad-6f08-496d-bdd2-6337f67f5fc8"},"vehicle_type_id":"4","last_reported":1744654466,"current_range_meters":18000,"station_id":"ce4bh412rcd13ifvqds0","pricing_plan_id":"cebpf4jnsgd1na2vs0mg"},{"bike_id":"805771d8-d83a-43e0-a0c3-9e6f00168680","system_id":"levelo_inurba_marseille","lat":43.28146,"lon":5.42655,"is_reserved":false,"is_disabled":false,"rental_uris":{"android":"levelo://app?vid=805771d8-d83a-43e0-a0c3-9e6f00168680","ios":"levelo://app?vid=805771d8-d83a-43e0-a0c3-9e6f00168680"},"vehicle_type_id":"4","last_reported":1744654466,"current_range_meters":18000,"station_id":"ce4bhnh2rcd13ifvqgug","pricing_plan_id":"cebpf4jnsgd1na2vs0mg"},{"bike_id":"c08b1804-28f3-4483-a130-1b6d111502e0","system_id":"levelo_inurba_marseille","lat":43.31362,"lon":5.38494,"is_reserved":false,"is_disabled":false,"rental_uris":{"android":"levelo://app?vid=c08b1804-28f3-4483-a130-1b6d111502e0","ios":"levelo://app?vid=c08b1804-28f3-4483-a130-1b6d111502e0"},"vehicle_type_id":"4","last_reported":1744654466,"current_range_meters":17600,"station_id":"ce4bgt92rcd13ifvqcf0","pricing_plan_id":"cebpf4jnsgd1na2vs0mg"},{"bike_id":"690344b0-9f80-484a-9c0a-0cb50bc24e58","system_id":"levelo_inurba_marseille","lat":43.31491,"lon":5.37313,"is_reserved":false,"is_disabled":false,"rental_uris":{"android":"levelo://app?vid=690344b0-9f80-484a-9c0a-0cb50bc24e58","ios":"levelo://app?vid=690344b0-9f80-484a-9c0a-0cb50bc24e58"},"vehicle_type_id":"4","last_reported":1744654466,"current_range_meters":18000,"station_id":"ce4bgt12rcd13ifvqcd0","pricing_plan_id":"cebpf4jnsgd1na2vs0mg"},{"bike_id":"53837df3-73ec-4e40-89dc-fba795da7d2e","system_id":"levelo_inurba_marseille","lat":43.28374,"lon":5.38105,"is_reserved":false,"is_disabled":false,"rental_uris":{"android":"levelo://app?vid=53837df3-73ec-4e40-89dc-fba795da7d2e","ios":"levelo://app?vid=53837df3-73ec-4e40-89dc-fba795da7d2e"},"vehicle_type_id":"4","last_reported":1744654466,"current_range_meters":18000,"station_id":"ce4bh412rcd13ifvqdr0","pricing_plan_id":"cebpf4jnsgd1na2vs0mg"},{"bike_id":"bfd7d593-9547-4a2e-b8f7-834a141e4476","system_id":"levelo_inurba_marseille","lat":43.24662,"lon":5.38166,"is_reserved":false,"is_disabled":false,"rental_uris":{"android":"levelo://app?vid=bfd7d593-9547-4a2e-b8f7-834a141e4476","ios":"levelo://app?vid=bfd7d593-9547-4a2e-b8f7-834a141e4476"},"vehicle_type_id":"4","last_reported":1744654466,"current_range_meters":18000,"station_id":"ce4bhih2rcd13ifvqfr0","pricing_plan_id":"cebpf4jnsgd1na2vs0mg"},{"bike_id":"3201b1f7-7806-4555-b466-f1fe6831a081","system_id":"levelo_inurba_marseille","lat":43.26577,"lon":5.39077,"is_reserved":false,"is_disabled":false,"rental_uris":{"android":"levelo://app?vid=3201b1f7-7806-4555-b466-f1fe6831a081","ios":"levelo://app?vid=3201b1f7-7806-4555-b466-f1fe6831a081"},"vehicle_type_id":"4","last_reported":1744654466,"current_range_meters":18800,"station_id":"","pricing_plan_id":"cebpf4jnsgd1na2vs0mg"},{"bike_id":"fafaacd3-c553-4a64-a703-9cf4a4e991a5","system_id":"levelo_inurba_marseille","lat":43.25728,"lon":5.4111,"is_reserved":false,"is_disabled":false,"rental_uris":{"android":"levelo://app?vid=fafaacd3-c553-4a64-a703-9cf4a4e991a5","ios":"levelo://app?vid=fafaacd3-c553-4a64-a703-9cf4a4e991a5"},