{"last_updated":1680199693,"ttl":30,"version":"2.2","data":{"bikes":[{"bike_id":"0d510b5e-ae39-4f58-985d-4686607899c7","system_id":"levelo_inurba_marseille","lat":43.314811,"lon":5.373103,"is_reserved":false,"is_disabled":false,"rental_uris":{"android":"levelo://app?vid=0d510b5e-ae39-4f58-985d-4686607899c7","ios":"levelo://app?vid=0d510b5e-ae39-4f58-985d-4686607899c7"},"vehicle_type_id":"4","last_reported":1680199693,"current_range_meters":18800,"station_id":"ce4bgt12rcd13ifvqcd0","pricing_plan_id":"free"},{"bike_id":"75eeebf4-5a71-4601-9bf9-d7b52892873b","system_id":"levelo_inurba_marseille","lat":43.31491,"lon":5.37313,"is_reserved":false,"is_disabled":false,"rental_uris":{"android":"levelo://app?vid=75eeebf4-5a71-4601-9bf9-d7b52892873b","ios":"levelo://app?vid=75eeebf4-5a71-4601-9bf9-d7b52892873b"},"vehicle_type_id":"4","last_reported":1680199693,"current_range_meters":16400,"station_id":"ce4bgt12rcd13ifvqcd0","pricing_plan_id":"free"},{"bike_id":"b31901a8-d801-4a77-a032-87a0d59c7554","system_id":"levelo_inurba_marseille","lat":43.31515,"lon":5.37302,"is_reserved":false,"is_disabled":false,"rental_uris":{"android":"levelo://app?vid=b31901a8-d801-4a77-a032-87a0d59c7554","ios":"levelo://app?vid=b31901a8-d801-4a77-a032-87a0d59c7554"},"vehicle_type_id":"4","last_reported":1680199693,"current_range_meters":10000,"station_id":"","pricing_plan_id":"free"},{"bike_id":"9bac9fd3-51a3-452f-a673-954d2ae392bd","system_id":"levelo_inurba_marseille","lat":43.30541,"lon":5.36696,"is_reserved":false,"is_disabled":false,"rental_uris":{"android":"levelo://app?vid=9bac9fd3-51a3-452f-a673-954d2ae392bd","ios":"levelo://app?vid=9bac9fd3-51a3-452f-a673-954d2ae392bd"},"vehicle_type_id":"4","last_reported":1680199693,"current_range_meters":20800,"station_id":"","pricing_plan_id":"free"},{"bike_id":"74fb4b39-8491-4c06-b6c1-bba937daa01e","system_id":"levelo_inurba_marseille","lat":43.305989,"lon":5.37225,"is_reserved":false,"is_disabled":false,"rental_uris":{"android":"levelo://app?vid=74fb4b39-8491-4c06-b6c1-bba937daa01e","ios":"levelo://app?vid=74fb4b39-8491-4c06-b6c1-bba937daa01e"},"vehicle_type_id":"4","last_reported":1680199693,"current_range_meters":10400,"station_id":"ce4bgqh2rcd13ifvqc4g","pricing_plan_id":"free"},{"bike_id":"78708cac-3f2c-4f4e-8577-3c1ba7dbe05f","system_id":"levelo_inurba_marseille","lat":43.32123,"lon":5.36776,"is_reserved":false,"is_disabled":false,"rental_uris":{"android":"levelo://app?vid=78708cac-3f2c-4f4e-8577-3c1ba7dbe05f","ios":"levelo://app?vid=78708cac-3f2c-4f4e-8577-3c1ba7dbe05f"},"vehicle_type_id":"4","last_reported":1680199693,"current_range_meters":10800,"station_id":"","pricing_plan_id":"free"},{"bike_id":"ed47e8b1-061f-4d25-ada8-ba3cc03181ad","system_id":"levelo_inurba_marseille","lat":43.31713,"lon":5.37743,"is_reserved":false,"is_disabled":false,"rental_uris":{"android":"levelo://app?vid=ed47e8b1-061f-4d25-ada8-ba3cc03181ad","ios":"levelo://app?vid=ed47e8b1-061f-4d25-ada8-ba3cc03181ad"},"vehicle_type_id":"4","last_reported":1680199693,"current_range_meters":2400,"station_id":"ce4bgth2rcd13ifvqch0","pricing_plan_id":"free"},{"bike_id":"f211016a-e495-478d-949a-ea47423b35e2","system_id":"levelo_inurba_marseille","lat":43.30311,"lon":5.36899,"is_reserved":false,"is_disabled":false,"rental_uris":{"android":"levelo://app?vid=f211016a-e495-478d-949a-ea47423b35e2","ios":"levelo://app?vid=f211016a-e495-478d-949a-ea47423b35e2"},"vehicle_type_id":"4","last_reported":1680199693,"current_range_meters":18000,"station_id":"ce4bgqh2rcd13ifvqc5g","pricing_plan_id":"free"},{"bike_id":"bf495de9-e25e-4d11-8f92-bde7bb7e3de9","system_id":"levelo_inurba_marseille","lat":43.31534,"lon":5.38037,"is_reserved":false,"is_disabled":false,"rental_uris":{"android":"levelo://app?vid=bf495de9-e25e-4d11-8f92-bde7bb7e3de9","ios":"levelo://app?vid=bf495de9-e25e-4d11-8f92-bde7bb7e3de9"},"vehicle_type_id":"4","last_reported":1680199693,"current_range_meters":0,"station_id":"","pricing_plan_id":"free"},{"bike_id":"84e62c1a-2460-4451-83c8-5c42c44d2f35","system_id":"levelo_inurba_marseille","lat":43.31353,"lon":5.38251,"is_reserved":false,"is_disabled":false,"rental_uris":{"android":"levelo://app?vid=84e62c1a-2460-4451-83c8-5c42c44d2f35","ios":"levelo://app?vid=84e62c1a-2460-4451-83c8-5c42c44d2f35"},"vehicle_type_id":"4","last_reported":1680199693,"current_range_meters":18400,"station_id":"","pricing_plan_id":"free"},{"bike_id":"3fa4f89b-1716-4c80-9128-8cfdf06620ba","system_id":"levelo_inurba_marseille","lat":43.308012,"lon":5.381511,"is_reserved":false,"is_disabled":false,"rental_uris":{"android":"levelo://app?vid=3fa4f89b-1716-4c80-9128-8cfdf06620ba","ios":"levelo://app?vid=3fa4f89b-1716-4c80-9128-8cfdf06620ba"},"vehicle_type_id":"4","last_reported":1680199693,"current_range_meters":0,"station_id":"ce4bgt12rcd13ifvqce0","pricing_plan_id":"free"},{"bike_id":"813465e8-446f-43dd-9081-04c1313a2495","system_id":"levelo_inurba_marseille","lat":43.31309,"lon":5.3844,"is_reserved":false,"is_disabled":false,"rental_uris":{"android":"levelo://app?vid=813465e8-446f-43dd-9081-04c1313a2495","ios":"levelo://app?vid=813465e8-446f-43dd-9081-04c1313a2495"},"vehicle_type_id":"4","last_reported":1680199693,"current_range_meters":4800,"station_id":"","pricing_plan_id":"free"},{"bike_id":"79bece35-0236-48b0-acad-1e24be59d0b6","system_id":"levelo_inurba_marseille","lat":43.31361,"lon":5.38497,"is_reserved":false,"is_disabled":false,"rental_uris":{"android":"levelo://app?vid=79bece35-0236-48b0-acad-1e24be59d0b6","ios":"levelo://app?vid=79bece35-0236-48b0-acad-1e24be59d0b6"},"vehicle_type_id":"4","last_reported":1680199693,"current_range_meters":22000,"station_id":"ce4bgt92rcd13ifvqcf0","pricing_plan_id":"free"},{"bike_id":"703834df-6e4e-4340-81b2-eae552720482","system_id":"levelo_inurba_marseille","lat":43.305364,"lon":5.384119,"is_reserved":false,"is_disabled":false,"rental_uris":{"android":"levelo://app?vid=703834df-6e4e-4340-81b2-eae552720482","ios":"levelo://app?vid=703834df-6e4e-4340-81b2-eae552720482"},"vehicle_type_id":"4","last_reported":1680199693,"current_range_meters":0,"station_id":"ce4bgg92rcd13ifvqb30","pricing_plan_id":"free"},{"bike_id":"77325da7-7889-45bc-8d98-5701b46e6169","system_id":"levelo_inurba_marseille","lat":43.297794,"lon":5.370888,"is_reserved":false,"is_disabled":false,"rental_uris":{"android":"levelo://app?vid=77325da7-7889-45bc-8d98-5701b46e6169","ios":"levelo://app?vid=77325da7-7889-45bc-8d98-5701b46e6169"},"vehicle_type_id":"4","last_reported":1680199693,"current_range_meters":2400,"station_id":"ce4bgop2rcd13ifvqc1g","pricing_plan_id":"free"},{"bike_id":"aba8e98d-5879-4f5a-a127-c840d97c2809","system_id":"levelo_inurba_marseille","lat":43.328371,"lon":5.366909,"is_reserved":false,"is_disabled":false,"rental_uris":{"android":"levelo://app?vid=aba8e98d-5879-4f5a-a127-c840d97c2809","ios":"levelo://app?vid=aba8e98d-5879-4f5a-a127-c840d97c2809"},"vehicle_type_id":"4","last_reported":1680199693,"current_range_meters":800,"station_id":"ce4bhs92rcd13ifvqi0g","pricing_plan_id":"free"},{"bike_id":"ec1951c3-7788-4c4a-91aa-a02b7bad0aed","system_id":"levelo_inurba_marseille","lat":43.2969,"lon":5.37295,"is_reserved":false,"is_disabled":false,"rental_uris":{"android":"levelo://app?vid=ec1951c3-7788-4c4a-91aa-a02b7bad0aed","ios":"levelo://app?vid=ec1951c3-7788-4c4a-91aa-a02b7bad0aed"},"vehicle_type_id":"4","last_reported":1680199693,"current_range_meters":0,"station_id":"","pricing_plan_id":"free"},{"bike_id":"c6471657-689b-4ded-b487-243b32833fb7","system_id":"levelo_inurba_marseille","lat":43.29686,"lon":5.37327,"is_reserved":false,"is_disabled":false,"rental_uris":{"android":"levelo://app?vid=c6471657-689b-4ded-b487-243b32833fb7","ios":"levelo://app?vid=c6471657-689b-4ded-b487-243b32833fb7"},"vehicle_type_id":"4","last_reported":1680199693,"current_range_meters":2000,"station_id":"","pricing_plan_id":"free"},{"bike_id":"76d4b6fc-6ae6-4e84-b388-fe1e65a8a61d","system_id":"levelo_inurba_marseille","lat":43.299028,"lon":5.381509,"is_reserved":false,"is_disabled":false,"rental_uris":{"android":"levelo://app?vid=76d4b6fc-6ae6-4e84-b388-fe1e65a8a61d","ios":"levelo://app?vid=76d4b6fc-6ae6-4e84-b388-fe1e65a8a61d"},"vehicle_type_id":"4","last_reported":1680199693,"current_range_meters":800,"station_id":"ce4bgj12rcd13ifvqbc0","pricing_plan_id":"free"},{"bike_id":"369585d0-2088-44a3-8884-6717b7e4fa46","system_id":"levelo_inurba_marseille","lat":43.299028,"lon":5.381509,"is_reserved":false,"is_disabled":false,"rental_uris":{"android":"levelo://app?vid=369585d0-2088-44a3-8884-6717b7e4fa46","ios":"levelo://app?vid=369585d0-2088-44a3-8884-6717b7e4fa46"},"vehicle_type_id":"4","last_reported":1680199693,"current_range_meters":6400,"station_id":"ce4bgj12rcd13ifvqbc0","pricing_plan_id":"free"},{"bike_id":"0a5b3d8d-34c0-4aad-9647-a2a187e45f41","system_id":"levelo_inurba_marseille","lat":43.299028,"lon":5.381509,"is_reserved":false,"is_disabled":false,"rental_uris":{"android":"levelo://app?vid=0a5b3d8d-34c0-4aad-9647-a2a187e45f41","ios":"levelo://app?vid=0a5b3d8d-34c0-4aad-9647-a2a187e45f41"},"vehicle_type_id":"4","last_reported":1680199693,"current_range_meters":18400,"station_id":"ce4bgj12rcd13ifvqbc0","pricing_plan_id":"free"},{"bike_id":"72e1f306-6c66-4a59-b90e-a5999c5d69dc","system_id":"levelo_inurba_marseille","lat":43.31761,"lon":5.39011,"is_reserved":false,"is_disabled":false,"rental_uris":{"android":"levelo://app?vid=72e1f306-6c66-4a59-b90e-a5999c5d69dc","ios":"levelo://app?vid=72e1f306-6c66-4a59-b90e-a5999c5d69dc"},"vehicle_type_id":"4","last_reported":1680199693,"current_range_meters":24400,"station_id":"ce4bhqp2rcd13ifvqhng","pricing_plan_id":"free"},{"bike_id":"c7f27918-3d63-405e-a091-33ee7721e213","system_id":"levelo_inurba_marseille","lat":43.317557,"lon":5.390173,"is_reserved":false,"is_disabled":false,"rental_uris":{"android":"levelo://app?vid=c7f27918-3d63-405e-a091-33ee7721e213","ios":"levelo://app?vid=c7f27918-3d63-405e-a091-33ee7721e213"},"vehicle_type_id":"4","last_reported":1680199693,"current_range_meters":20800,"station_id":"ce4bhqp2rcd13ifvqhng","pricing_plan_id":"free"},{"bike_id":"36680711-1e5e-45fd-bcb4-c5fd77722c51","system_id":"levelo_inurba_marseille","lat":43.29579,"lon":5.37503,"is_reserved":false,"is_disabled":false,"rental_uris":{"android":"levelo://app?vid=36680711-1e5e-45fd-bcb4-c5fd77722c51","ios":"levelo://app?vid=36680711-1e5e-45fd-bcb4-c5fd77722c51"},"vehicle_type_id":"4","last_reported":1680199693,"current_range_meters":0,"station_id":"ce4bgh92rcd13ifvqb50","pricing_plan_id":"free"},{"bike_id":"3cb747b0-f3dd-473d-a2fb-a1d78a755d22","system_id":"levelo_inurba_marseille","lat":43.32606,"lon":5.3836,"is_reserved":false,"is_disabled":false,"rental_uris":{"android":"levelo://app?vid=3cb747b0-f3dd-473d-a2fb-a1d78a755d22","ios":"levelo://app?vid=3cb747b0-f3dd-473d-a2fb-a1d78a755d22"},"vehicle_type_id":"4","last_reported":1680199693,"current_range_meters":5200,"station_id":"ce4bhr92rcd13ifvqhrg","pricing_plan_id":"free"},{"bike_id":"93768ddc-c54a-4eb7-adfd-e4b353f8dfe2","system_id":"levelo_inurba_marseille","lat":43.32367,"lon":5.388836,"is_reserved":false,"is_disabled":false,"rental_uris":{"android":"levelo://app?vid=93768ddc-c54a-4eb7-adfd-e4b353f8dfe2","ios":"levelo://app?vid=93768ddc-c54a-4eb7-adfd-e4b353f8dfe2"},"vehicle_type_id":"4","last_reported":1680199693,"current_range_meters":27600,"station_id":"ce4bhqp2rcd13ifvqhog","pricing_plan_id":"free"},{"bike_id":"fb4cc35e-5b31-4ebe-9c86-2577bfbb0923","system_id":"levelo_inurba_marseille","lat":43.32367,"lon":5.388836,"is_reserved":false,"is_disabled":false,"rental_uris":{"android":"levelo://app?vid=fb4cc35e-5b31-4ebe-9c86-2577bfbb0923","ios":"levelo://app?vid=fb4cc35e-5b31-4ebe-9c86-2577bfbb0923"},"vehicle_type_id":"4","last_reported":1680199693,"current_range_meters":6000,"station_id":"ce4bhqp2rcd13ifvqhog","pricing_plan_id":"free"},{"bike_id":"1e4521c1-b8ab-46a8-af9b-33fe80e892a6","system_id":"levelo_inurba_marseille","lat":43.32367,"lon":5.388836,"is_reserved":false,"is_disabled":false,"rental_uris":{"android":"levelo://app?vid=1e4521c1-b8ab-46a8-af9b-33fe80e892a6","ios":"levelo://app?vid=1e4521c1-b8ab-46a8-af9b-33fe80e892a6"},"vehicle_type_id":"4","last_reported":1680199693,"current_range_meters":13200,"station_id":"ce4bhqp2rcd13ifvqhog","pricing_plan_id":"free"},{"bike_id":"6834d455-e67a-4c31-b571-511dfc2c1d1c","system_id":"levelo_inurba_marseille","lat":43.32367,"lon":5.388836,"is_reserved":false,"is_disabled":false,"rental_uris":{"android":"levelo://app?vid=6834d455-e67a-4c31-b571-511dfc2c1d1c","ios":"levelo://app?vid=6834d455-e67a-4c31-b571-511dfc2c1d1c"},"vehicle_type_id":"4","last_reported":1680199693,"current_range_meters":0,"station_id":"ce4bhqp2rcd13ifvqhog","pricing_plan_id":"free"},{"bike_id":"a30d8e66-6f45-4c66-bf41-88b54ff209b5","system_id":"levelo_inurba_marseille","lat":43.32367,"lon":5.388836,"is_reserved":false,"is_disabled":false,"rental_uris":{"android":"levelo://app?vid=a30d8e66-6f45-4c66-bf41-88b54ff209b5","ios":"levelo://app?vid=a30d8e66-6f45-4c66-bf41-88b54ff209b5"},"vehicle_type_id":"4","last_reported":1680199693,"current_range_meters":0,"station_id":"ce4bhqp2rcd13ifvqhog","pricing_plan_id":"free"},{"bike_id":"e8e88580-4fd6-403f-aa75-1236ad586bc9","system_id":"levelo_inurba_marseille","lat":43.32367,"lon":5.388836,"is_reserved":false,"is_disabled":false,"rental_uris":{"android":"levelo://app?vid=e8e88580-4fd6-403f-aa75-1236ad586bc9","ios":"levelo://app?vid=e8e88580-4fd6-403f-aa75-1236ad586bc9"},"vehicle_type_id":"4","last_reported":1680199693,"current_range_meters":0,"station_id":"ce4bhqp2rcd13ifvqhog","pricing_plan_id":"free"},{"bike_id":"398255bd-73c5-41a4-9ac4-f54800c595b5","system_id":"levelo_inurba_marseille","lat":43.32367,"lon":5.388836,"is_reserved":false,"is_disabled":false,"rental_uris":{"android":"levelo://app?vid=398255bd-73c5-41a4-9ac4-f54800c595b5","ios":"levelo://app?vid=398255bd-73c5-41a4-9ac4-f54800c595b5"},"vehicle_type_id":"4","last_reported":1680199693,"current_range_meters":30400,"station_id":"ce4bhqp2rcd13ifvqhog","pricing_plan_id":"free"},{"bike_id":"88d491a9-d71f-45eb-8136-f1dcc206acdd","system_id":"levelo_inurba_marseille","lat":43.32367,"lon":5.388836,"is_reserved":false,"is_disabled":false,"rental_uris":{"android":"levelo://app?vid=88d491a9-d71f-45eb-8136-f1dcc206acdd","ios":"levelo://app?vid=88d491a9-d71f-45eb-8136-f1dcc206acdd"},"vehicle_type_id":"4","last_reported":1680199693,"current_range_meters":7200,"station_id":"ce4bhqp2rcd13ifvqhog","pricing_plan_id":"free"},{"bike_id":"e726a405-f702-4881-9c6f-5faef72bd96d","system_id":"levelo_inurba_marseille","lat":43.32367,"lon":5.388836,"is_reserved":false,"is_disabled":false,"rental_uris":{"android":"levelo://app?vid=e726a405-f702-4881-9c6f-5faef72bd96d","ios":"levelo://app?vid=e726a405-f702-4881-9c6f-5faef72bd96d"},"vehicle_type_id":"4","last_reported":1680199693,"current_range_meters":12800,"station_id":"ce4bhqp2rcd13ifvqhog","pricing_plan_id":"free"},{"bike_id":"37755a10-04af-453c-afbd-408a511acb43","system_id":"levelo_inurba_marseille","lat":43.293009,"lon":5.374584,"is_reserved":false,"is_disabled":false,"rental_uris":{"android":"levelo://app?vid=37755a10-04af-453c-afbd-408a511acb43","ios":"levelo://app?vid=37755a10-04af-453c-afbd-408a511acb43"},"vehicle_type_id":"4","last_reported":1680199693,"current_range_meters":0,"station_id":"ce4bgi12rcd13ifvqb70","pricing_plan_id":"free"},{"bike_id":"02de1fe9-da61-47fd-bade-86e479aceec1","system_id":"levelo_inurba_marseille","lat":43.293009,"lon":5.374584,"is_reserved":false,"is_disabled":false,"rental_uris":{"android":"levelo://app?vid=02de1fe9-da61-47fd-bade-86e479aceec1","ios":"levelo://app?vid=02de1fe9-da61-47fd-bade-86e479aceec1"},"vehicle_type_id":"4","last_reported":1680199693,"current_range_meters":19600,"station_id":"ce4bgi12rcd13ifvqb70","pricing_plan_id":"free"},{"bike_id":"9ec61c02-4057-4f01-9580-1a6989cb11e0","system_id":"levelo_inurba_marseille","lat":43.305994,"lon":5.393687,"is_reserved":false,"is_disabled":false,"rental_uris":{"android":"levelo://app?vid=9ec61c02-4057-4f01-9580-1a6989cb11e0","ios":"levelo://app?vid=9ec61c02-4057-4f01-9580-1a6989cb11e0"},"vehicle_type_id":"4","last_reported":1680199693,"current_range_meters":0,"station_id":"ce4bh0p2rcd13ifvqd80","pricing_plan_id":"free"},{"bike_id":"2c45c01d-e86e-4a37-8d9e-ae001d6f5776","system_id":"levelo_inurba_marseille","lat":43.29364,"lon":5.37836,"is_reserved":false,"is_disabled":false,"rental_uris":{"android":"levelo://app?vid=2c45c01d-e86e-4a37-8d9e-ae001d6f5776","ios":"levelo://app?vid=2c45c01d-e86e-4a37-8d9e-ae001d6f5776"},"vehicle_type_id":"4","last_reported":1680199693,"current_range_meters":5600,"station_id":"ce4bgjh2rcd13ifvqbf0","pricing_plan_id":"free"},{"bike_id":"d775c1ca-2cd6-4d40-8739-f1b483ae62f1","system_id":"levelo_inurba_marseille","lat":43.2936,"lon":5.37835,"is_reserved":false,"is_disabled":false,"rental_uris":{"android":"levelo://app?vid=d775c1ca-2cd6-4d40-8739-f1b483ae62f1","ios":"levelo://app?vid=d775c1ca-2cd6-4d40-8739-f1b483ae62f1"},"vehicle_type_id":"4","last_reported":1680199693,"current_range_meters":1600,"station_id":"ce4bgjh2rcd13ifvqbf0","pricing_plan_id":"free"},{"bike_id":"db397c00-4068-4835-a134-79682df35a52","system_id":"levelo_inurba_marseille","lat":43.313291,"lon":5.396838,"is_reserved":false,"is_disabled":false,"rental_uris":{"android":"levelo://app?vid=db397c00-4068-4835-a134-79682df35a52","ios":"levelo://app?vid=db397c00-4068-4835-a134-79682df35a52"},"vehicle_type_id":"4","last_reported":1680199693,"current_range_meters":15600,"station_id":"ce4bgvp2rcd13ifvqcu0","pricing_plan_id":"free"},{"bike_id":"464f420d-0247-41bb-8897-4d8e8a48d8b9","system_id":"levelo_inurba_marseille","lat":43.309038,"lon":5.396546,"is_reserved":false,"is_disabled":false,"rental_uris":{"android":"levelo://app?vid=464f420d-0247-41bb-8897-4d8e8a48d8b9","ios":"levelo://app?vid=464f420d-0247-41bb-8897-4d8e8a48d8b9"},"vehicle_type_id":"4","last_reported":1680199693,"current_range_meters":25600,"station_id":"ce4bh012rcd13ifvqcv0","pricing_plan_id":"free"},{"bike_id":"ef65552b-9a05-4f2f-9a7d-a34f37aefbb8","system_id":"levelo_inurba_marseille","lat":43.309038,"lon":5.396546,"is_reserved":false,"is_disabled":false,"rental_uris":{"android":"levelo://app?vid=ef65552b-9a05-4f2f-9a7d-a34f37aefbb8","ios":"levelo://app?vid=ef65552b-9a05-4f2f-9a7d-a34f37aefbb8"},"vehicle_type_id":"4","last_reported":1680199693,"current_range_meters":1200,"station_id":"ce4bh012rcd13ifvqcv0","pricing_plan_id":"free"},{"bike_id":"06a54109-c6b7-4ead-adfa-0da964a36ce8","system_id":"levelo_inurba_marseille","lat":43.309038,"lon":5.396546,"is_reserved":false,"is_disabled":false,"rental_uris":{"android":"levelo://app?vid=06a54109-c6b7-4ead-adfa-0da964a36ce8","ios":"levelo://app?vid=06a54109-c6b7-4ead-adfa-0da964a36ce8"},"vehicle_type_id":"4","last_reported":1680199693,"current_range_meters":2400,"station_id":"ce4bh012rcd13ifvqcv0","pricing_plan_id":"free"},{"bike_id":"99e716a9-5c1d-4482-98cb-620adfedeabd","system_id":"levelo_inurba_marseille","lat":43.29529,"lon":5.385581,"is_reserved":false,"is_disabled":false,"rental_uris":{"android":"levelo://app?vid=99e716a9-5c1d-4482-98cb-620adfedeabd","ios":"levelo://app?vid=99e716a9-5c1d-4482-98cb-620adfedeabd"},"vehicle_type_id":"4","last_reported":1680199693,"current_range_meters":0,"station_id":"ce4bgih2rcd13ifvqba0","pricing_plan_id":"free"},{"bike_id":"c7750dd7-1ed2-48fd-b5de-e21e87ab586a","system_id":"levelo_inurba_marseille","lat":43.29529,"lon":5.385581,"is_reserved":false,"is_disabled":false,"rental_uris":{"android":"levelo://app?vid=c7750dd7-1ed2-48fd-b5de-e21e87ab586a","ios":"levelo://app?vid=c7750dd7-1ed2-48fd-b5de-e21e87ab586a"},"vehicle_type_id":"4","last_reported":1680199693,"current_range_meters":1200,"station_id":"ce4bgih2rcd13ifvqba0","pricing_plan_id":"free"},{"bike_id":"ca66cd82-9063-46da-b158-1911f5f043ab","system_id":"levelo_inurba_marseille","lat":43.290624,"lon":5.359245,"is_reserved":false,"is_disabled":false,"rental_uris":{"android":"levelo://app?vid=ca66cd82-9063-46da-b158-1911f5f043ab","ios":"levelo://app?vid=ca66cd82-9063-46da-b158-1911f5f043ab"},"vehicle_type_id":"4","last_reported":1680199693,"current_range_meters":12800,"station_id":"ce4bha92rcd13ifvqeg0","pricing_plan_id":"free"},{"bike_id":"fc6df283-5472-4173-bc43-e4e628d151d5","system_id":"levelo_inurba_marseille","lat":43.289468,"lon":5.363719,"is_reserved":false,"is_disabled":false,"rental_uris":{"android":"levelo://app?vid=fc6df283-5472-4173-bc43-e4e628d151d5","ios":"levelo://app?vid=fc6df283-5472-4173-bc43-e4e628d151d5"},"vehicle_type_id":"4","last_reported":1680199693,"current_range_meters":800,"station_id":"ce4bhc92rcd13ifvqetg","pricing_plan_id":"free"},{"bike_id":"029b6366-2153-4b78-913e-d7a903806225","system_id":"levelo_inurba_marseille","lat":43.28936,"lon":5.36635,"is_reserved":false,"is_disabled":false,"rental_uris":{"android":"levelo://app?vid=029b6366-2153-4b78-913e-d7a903806225","ios":"levelo://app?vid=029b6366-2153-4b78-913e-d7a903806225"},"vehicle_type_id":"4","last_reported":1680199693,"current_range_meters":800,"station_id":"ce4bhap2rcd13ifvqek0","pricing_plan_id":"free"},{"bike_id":"b961d6e8-34d6-4ac8-9b9f-4cda566de89b","system_id":"levelo_inurba_marseille","lat":43.289184,"lon":5.366408,"is_reserved":false,"is_disabled":false,"rental_uris":{"android":"levelo://app?vid=b961d6e8-34d6-4ac8-9b9f-4cda566de89b","ios":"levelo://app?vid=b961d6e8-34d6-4ac8-9b9f-4cda566de89b"},"vehicle_type_id":"4","last_reported":1680199693,"current_range_meters":3600,"station_id":"ce4bhap2rcd13ifvqek0","pricing_plan_id":"free"},{"bike_id":"bca91232-a25b-490e-8ed3-a1039fe8a6e6","system_id":"levelo_inurba_marseille","lat":43.3133,"lon":5.39961,"is_reserved":false,"is_disabled":false,"rental_uris":{"android":"levelo://app?vid=bca91232-a25b-490e-8ed3-a1039fe8a6e6","ios":"levelo://app?vid=bca91232-a25b-490e-8ed3-a1039fe8a6e6"},"vehicle_type_id":"4","last_reported":1680199693,"current_range_meters":0,"station_id":"","pricing_plan_id":"free"},{"bike_id":"bd98a520-79b3-4460-9f6e-c4edff7003b2","system_id":"levelo_inurba_marseille","lat":43.304274,"lon":5.397513,"is_reserved":false,"is_disabled":false,"rental_uris":{"android":"levelo://app?vid=bd98a520-79b3-4460-9f6e-c4edff7003b2","ios":"levelo://app?vid=bd98a520-79b3-4460-9f6e-c4edff7003b2"},"vehicle_type_id":"4","last_reported":1680199693,"current_range_meters":19200,"station_id":"ce4bh092rcd13ifvqd20","pricing_plan_id":"free"},{"bike_id":"a1c59b0c-c836-4f57-90f7-92eb8bc89e81","system_id":"levelo_inurba_marseille","lat":43.29009,"lon":5.35623,"is_reserved":false,"is_disabled":false,"rental_uris":{"android":"levelo://app?vid=a1c59b0c-c836-4f57-90f7-92eb8bc89e81","ios":"levelo://app?vid=a1c59b0c-c836-4f57-90f7-92eb8bc89e81"},"vehicle_type_id":"4","last_reported":1680199693,"current_range_meters":0,"station_id":"ce4bhb92rcd13ifvqen0","pricing_plan_id":"free"},{"bike_id":"1c981baa-2590-475a-be63-6273cb6465c5","system_id":"levelo_inurba_marseille","lat":43.33045,"lon":5.38915,"is_reserved":false,"is_disabled":false,"rental_uris":{"android":"levelo://app?vid=1c981baa-2590-475a-be63-6273cb6465c5","ios":"levelo://app?vid=1c981baa-2590-475a-be63-6273cb6465c5"},"vehicle_type_id":"4","last_reported":1680199693,"current_range_meters":16400,"station_id":"ce4bhr92rcd13ifvqhrg","pricing_plan_id":"free"},{"bike_id":"fee522eb-cf94-465f-bc52-0f3976bc3c2f","system_id":"levelo_inurba_marseille","lat":43.33045,"lon":5.38916,"is_reserved":false,"is_disabled":false,"rental_uris":{"android":"levelo://app?vid=fee522eb-cf94-465f-bc52-0f3976bc3c2f","ios":"levelo://app?vid=fee522eb-cf94-465f-bc52-0f3976bc3c2f"},"vehicle_type_id":"4","last_reported":1680199693,"current_range_meters":400,"station_id":"ce4bhr92rcd13ifvqhrg","pricing_plan_id":"free"},{"bike_id":"b2c2b7c4-9e88-4c76-b729-0fc372b30dfa","system_id":"levelo_inurba_marseille","lat":43.33046,"lon":5.38915,"is_reserved":false,"is_disabled":false,"rental_uris":{"android":"levelo://app?vid=b2c2b7c4-9e88-4c76-b729-0fc372b30dfa","ios":"levelo://app?vid=b2c2b7c4-9e88-4c76-b729-0fc372b30dfa"},"vehicle_type_id":"4","last_reported":1680199693,"current_range_meters":4800,"station_id":"ce4bhr92rcd13ifvqhrg","pricing_plan_id":"free"},{"bike_id":"e6bce6ab-a4f2-4453-8ace-a2afcead499e","system_id":"levelo_inurba_marseille","lat":43.33043,"lon":5.3892,"is_reserved":false,"is_disabled":false,"rental_uris":{"android":"levelo://app?vid=e6bce6ab-a4f2-4453-8ace-a2afcead499e","ios":"levelo://app?vid=e6bce6ab-a4f2-4453-8ace-a2afcead499e"},"vehicle_type_id":"4","last_reported":1680199693,"current_range_meters":18400,"station_id":"ce4bhr92rcd13ifvqhrg","pricing_plan_id":"free"},{"bike_id":"715a95d4-39a5-4118-b836-be31f2509fbb","system_id":"levelo_inurba_marseille","lat":43.33046,"lon":5.38916,"is_reserved":false,"is_disabled":false,"rental_uris":{"android":"levelo://app?vid=715a95d4-39a5-4118-b836-be31f2509fbb","ios":"levelo://app?vid=715a95d4-39a5-4118-b836-be31f2509fbb"},"vehicle_type_id":"4","last_reported":1680199693,"current_range_meters":800,"station_id":"ce4bhr92rcd13ifvqhrg","pricing_plan_id":"free"},{"bike_id":"be387a19-cb88-4ac4-acdc-ab3c4932fe51","system_id":"levelo_inurba_marseille","lat":43.33047,"lon":5.38917,"is_reserved":false,"is_disabled":false,"rental_uris":{"android":"levelo://app?vid=be387a19-cb88-4ac4-acdc-ab3c4932fe51","ios":"levelo://app?vid=be387a19-cb88-4ac4-acdc-ab3c4932fe51"},"vehicle_type_id":"4","last_reported":1680199693,"current_range_meters":0,"station_id":"ce4bhr92rcd13ifvqhrg","pricing_plan_id":"free"},{"bike_id":"c03cd901-93fd-46fb-a195-9e7f58111302","system_id":"levelo_inurba_marseille","lat":43.33046,"lon":5.38919,"is_reserved":false,"is_disabled":false,"rental_uris":{"android":"levelo://app?vid=c03cd901-93fd-46fb-a195-9e7f58111302","ios":"levelo://app?vid=c03cd901-93fd-46fb-a195-9e7f58111302"},"vehicle_type_id":"4","last_reported":1680199693,"current_range_meters":5600,"station_id":"ce4bhr92rcd13ifvqhrg","pricing_plan_id":"free"},{"bike_id":"a9225248-fb4d-4b99-91ef-b981d8f7f1bf","system_id":"levelo_inurba_marseille","lat":43.33045,"lon":5.38923,"is_reserved":false,"is_disabled":false,"rental_uris":{"android":"levelo://app?vid=a9225248-fb4d-4b99-91ef-b981d8f7f1bf","ios":"levelo://app?vid=a9225248-fb4d-4b99-91ef-b981d8f7f1bf"},"vehicle_type_id":"4","last_reported":1680199693,"current_range_meters":16400,"station_id":"ce4bhr92rcd13ifvqhrg","pricing_plan_id":"free"},{"bike_id":"e414d4e1-0e32-48b2-a861-6208ac0066e7","system_id":"levelo_inurba_marseille","lat":43.288935,"lon":5.361244,"is_reserved":false,"is_disabled":false,"rental_uris":{"android":"levelo://app?vid=e414d4e1-0e32-48b2-a861-6208ac0066e7","ios":"levelo://app?vid=e414d4e1-0e32-48b2-a861-6208ac0066e7"},"vehicle_type_id":"4","last_reported":1680199693,"current_range_meters":0,"station_id":"","pricing_plan_id":"free"},{"bike_id":"34500c09-7d87-420c-b28e-1d9263e4e8be","system_id":"levelo_inurba_marseille","lat":43.295169,"lon":5.390426,"is_reserved":false,"is_disabled":false,"rental_uris":{"android":"levelo://app?vid=34500c09-7d87-420c-b28e-1d9263e4e8be","ios":"levelo://app?vid=34500c09-7d87-420c-b28e-1d9263e4e8be"},"vehicle_type_id":"4","last_reported":1680199693,"current_range_meters":1200,"station_id":"ce4bh3p2rcd13ifvqdp0","pricing_plan_id":"free"},{"bike_id":"c0487758-47a3-401c-84b6-a071ccc0222f","system_id":"levelo_inurba_marseille","lat":43.2901,"lon":5.381269,"is_reserved":false,"is_disabled":false,"rental_uris":{"android":"levelo://app?vid=c0487758-47a3-401c-84b6-a071ccc0222f","ios":"levelo://app?vid=c0487758-47a3-401c-84b6-a071ccc0222f"},"vehicle_type_id":"4","last_reported":1680199693,"current_range_meters":2000,"station_id":"ce4bh4p2rcd13ifvqe1g","pricing_plan_id":"free"},{"bike_id":"d5c80345-9752-4c5b-a446-e48285e22a61","system_id":"levelo_inurba_marseille","lat":43.33753,"lon":5.37439,"is_reserved":false,"is_disabled":false,"rental_uris":{"android":"levelo://app?vid=d5c80345-9752-4c5b-a446-e48285e22a61","ios":"levelo://app?vid=d5c80345-9752-4c5b-a446-e48285e22a61"},"vehicle_type_id":"4","last_reported":1680199693,"current_range_meters":25200,"station_id":"","pricing_plan_id":"free"},{"bike_id":"9f28b6ec-42b3-4c3a-9200-3f7a9ef7705e","system_id":"levelo_inurba_marseille","lat":43.30642,"lon":5.401031,"is_reserved":false,"is_disabled":false,"rental_uris":{"android":"levelo://app?vid=9f28b6ec-42b3-4c3a-9200-3f7a9ef7705e","ios":"levelo://app?vid=9f28b6ec-42b3-4c3a-9200-3f7a9ef7705e"},"vehicle_type_id":"4","last_reported":1680199693,"current_range_meters":0,"station_id":"ce4bh112rcd13ifvqda0","pricing_plan_id":"free"},{"bike_id":"d0c853cb-ed2f-4c43-babb-a56c50fa6d60","system_id":"levelo_inurba_marseille","lat":43.30642,"lon":5.401031,"is_reserved":false,"is_disabled":false,"rental_uris":{"android":"levelo://app?vid=d0c853cb-ed2f-4c43-babb-a56c50fa6d60","ios":"levelo://app?vid=d0c853cb-ed2f-4c43-babb-a56c50fa6d60"},"vehicle_type_id":"4","last_reported":1680199693,"current_range_meters":800,"station_id":"ce4bh112rcd13ifvqda0","pricing_plan_id":"free"},{"bike_id":"7ea5c5d1-1599-49e2-821e-335cd8dda03b","system_id":"levelo_inurba_marseille","lat":43.33769,"lon":5.37449,"is_reserved":false,"is_disabled":false,"rental_uris":{"android":"levelo://app?vid=7ea5c5d1-1599-49e2-821e-335cd8dda03b","ios":"levelo://app?vid=7ea5c5d1-1599-49e2-821e-335cd8dda03b"},"vehicle_type_id":"4","last_reported":1680199693,"current_range_meters":0,"station_id":"","pricing_plan_id":"free"},{"bike_id":"d8ae13a1-ad70-4c3d-b4dc-138aa703e99f","system_id":"levelo_inurba_marseille","lat":43.286593,"lon":5.363346,"is_reserved":false,"is_disabled":false,"rental_uris":{"android":"levelo://app?vid=d8ae13a1-ad70-4c3d-b4dc-138aa703e99f","ios":"levelo://app?vid=d8ae13a1-ad70-4c3d-b4dc-138aa703e99f"},"vehicle_type_id":"4","last_reported":1680199693,"current_range_meters":8000,"station_id":"ce4bhah2rcd13ifvqej0","pricing_plan_id":"free"},{"bike_id":"85d20920-3ce5-4cf8-ad79-776f98bef38d","system_id":"levelo_inurba_marseille","lat":43.286593,"lon":5.363346,"is_reserved":false,"is_disabled":false,"rental_uris":{"android":"levelo://app?vid=85d20920-3ce5-4cf8-ad79-776f98bef38d","ios":"levelo://app?vid=85d20920-3ce5-4cf8-ad79-776f98bef38d"},"vehicle_type_id":"4","last_reported":1680199693,"current_range_meters":0,"station_id":"ce4bhah2rcd13ifvqej0","pricing_plan_id":"free"},{"bike_id":"9def4a41-d6f7-4843-a1c9-79df90b7932a","system_id":"levelo_inurba_marseille","lat":43.29028,"lon":5.38654,"is_reserved":false,"is_disabled":false,"rental_uris":{"android":"levelo://app?vid=9def4a41-d6f7-4843-a1c9-79df90b7932a","ios":"levelo://app?vid=9def4a41-d6f7-4843-a1c9-79df90b7932a"},"vehicle_type_id":"4","last_reported":1680199693,"current_range_meters":0,"station_id":"","pricing_plan_id":"free"},{"bike_id":"01379693-07a8-4ce6-b7d5-5d373022d966","system_id":"levelo_inurba_marseille","lat":43.286039,"lon":5.370679,"is_reserved":false,"is_disabled":false,"rental_uris":{"android":"levelo://app?vid=01379693-07a8-4ce6-b7d5-5d373022d966","ios":"levelo://app?vid=01379693-07a8-4ce6-b7d5-5d373022d966"},"vehicle_type_id":"4","last_reported":1680199693,"current_range_meters":18400,"station_id":"ce4bht12rcd13ifvqi60","pricing_plan_id":"free"},{"bike_id":"ca2b3d3d-5bc5-4c62-acea-1bf3bd3216fb","system_id":"levelo_inurba_marseille","lat":43.286039,"lon":5.370679,"is_reserved":false,"is_disabled":false,"rental_uris":{"android":"levelo://app?vid=ca2b3d3d-5bc5-4c62-acea-1bf3bd3216fb","ios":"levelo://app?vid=ca2b3d3d-5bc5-4c62-acea-1bf3bd3216fb"},"vehicle_type_id":"4","last_reported":1680199693,"current_range_meters":31200,"station_id":"ce4bht12rcd13ifvqi60","pricing_plan_id":"free"},{"bike_id":"9797c5eb-4981-4d63-9099-58cc54dc21d6","system_id":"levelo_inurba_marseille","lat":43.286039,"lon":5.370679,"is_reserved":false,"is_disabled":false,"rental_uris":{"android":"levelo://app?vid=9797c5eb-4981-4d63-9099-58cc54dc21d6","ios":"levelo://app?vid=9797c5eb-4981-4d63-9099-58cc54dc21d6"},"vehicle_type_id":"4","last_reported":1680199693,"current_range_meters":11600,"station_id":"ce4bht12rcd13ifvqi60","pricing_plan_id":"free"},{"bike_id":"fbde04d5-851f-43e1-98e8-752367f7644d","system_id":"levelo_inurba_marseille","lat":43.286039,"lon":5.370679,"is_reserved":false,"is_disabled":false,"rental_uris":{"android":"levelo://app?vid=fbde04d5-851f-43e1-98e8-752367f7644d","ios":"levelo://app?vid=fbde04d5-851f-43e1-98e8-752367f7644d"},"vehicle_type_id":"4","last_reported":1680199693,"current_range_meters":30800,"station_id":"ce4bht12rcd13ifvqi60","pricing_plan_id":"free"},{"bike_id":"ab0f0a04-b761-4cf8-b39b-6c0c4d5bd15c","system_id":"levelo_inurba_marseille","lat":43.287184,"lon":5.37937,"is_reserved":false,"is_disabled":false,"rental_uris":{"android":"levelo://app?vid=ab0f0a04-b761-4cf8-b39b-6c0c4d5bd15c","ios":"levelo://app?vid=ab0f0a04-b761-4cf8-b39b-6c0c4d5bd15c"},"vehicle_type_id":"4","last_reported":1680199693,"current_range_meters":22000,"station_id":"ce4bh9p2rcd13ifvqec0","pricing_plan_id":"free"},{"bike_id":"bda00d38-e381-4a75-9f39-9ee232c52f62","system_id":"levelo_inurba_marseille","lat":43.316517,"lon":5.404375,"is_reserved":false,"is_disabled":false,"rental_uris":{"android":"levelo://app?vid=bda00d38-e381-4a75-9f39-9ee232c52f62","ios":"levelo://app?vid=bda00d38-e381-4a75-9f39-9ee232c52f62"},"vehicle_type_id":"4","last_reported":1680199693,"current_range_meters":2800,"station_id":"ce4bh012rcd13ifvqd00","pricing_plan_id":"free"},{"bike_id":"0ffc2e45-2417-47b1-90c6-57e02a158ba2","system_id":"levelo_inurba_marseille","lat":43.295713,"lon":5.399639,"is_reserved":false,"is_disabled":false,"rental_uris":{"android":"levelo://app?vid=0ffc2e45-2417-47b1-90c6-57e02a158ba2","ios":"levelo://app?vid=0ffc2e45-2417-47b1-90c6-57e02a158ba2"},"vehicle_type_id":"4","last_reported":1680199693,"current_range_meters":28800,"station_id":"ce4bh312rcd13ifvqdj0","pricing_plan_id":"free"},{"bike_id":"6ee84f5b-d7c5-415b-8427-6bdd34986370","system_id":"levelo_inurba_marseille","lat":43.295713,"lon":5.399639,"is_reserved":false,"is_disabled":false,"rental_uris":{"android":"levelo://app?vid=6ee84f5b-d7c5-415b-8427-6bdd34986370","ios":"levelo://app?vid=6ee84f5b-d7c5-415b-8427-6bdd34986370"},"vehicle_type_id":"4","last_reported":1680199693,"current_range_meters":0,"station_id":"ce4bh312rcd13ifvqdj0","pricing_plan_id":"free"},{"bike_id":"8325592a-a53a-434d-9069-d99e4f94b0d3","system_id":"levelo_inurba_marseille","lat":43.286595,"lon":5.386795,"is_reserved":false,"is_disabled":false,"rental_uris":{"android":"levelo://app?vid=8325592a-a53a-434d-9069-d99e4f94b0d3","ios":"levelo://app?vid=8325592a-a53a-434d-9069-d99e4f94b0d3"},"vehicle_type_id":"4","last_reported":1680199693,"current_range_meters":13200,"station_id":"ce4bh492rcd13ifvqdug","pricing_plan_id":"free"},{"bike_id":"c0e8bcfc-2017-4a1f-b6ec-5c5be158d15a","system_id":"levelo_inurba_marseille","lat":43.29517,"lon":5.39985,"is_reserved":false,"is_disabled":false,"rental_uris":{"android":"levelo://app?vid=c0e8bcfc-2017-4a1f-b6ec-5c5be158d15a","ios":"levelo://app?vid=c0e8bcfc-2017-4a1f-b6ec-5c5be158d15a"},"vehicle_type_id":"4","last_reported":1680199693,"current_range_meters":26400,"station_id":"","pricing_plan_id":"free"},{"bike_id":"89d0e4af-1f83-459b-85e1-0650a07e4ab1","system_id":"levelo_inurba_marseille","lat":43.323464,"lon":5.406297,"is_reserved":false,"is_disabled":false,"rental_uris":{"android":"levelo://app?vid=89d0e4af-1f83-459b-85e1-0650a07e4ab1","ios":"levelo://app?vid=89d0e4af-1f83-459b-85e1-0650a07e4ab1"},"vehicle_type_id":"4","last_reported":1680199693,"current_range_meters":0,"station_id":"ce4bhq92rcd13ifvqhjg","pricing_plan_id":"free"},{"bike_id":"cee185de-2bbb-4f83-91ef-9a0afcbbefb5","system_id":"levelo_inurba_marseille","lat":43.323464,"lon":5.406297,"is_reserved":false,"is_disabled":false,"rental_uris":{"android":"levelo://app?vid=cee185de-2bbb-4f83-91ef-9a0afcbbefb5","ios":"levelo://app?vid=cee185de-2bbb-4f83-91ef-9a0afcbbefb5"},"vehicle_type_id":"4","last_reported":1680199693,"current_range_meters":0,"station_id":"ce4bhq92rcd13ifvqhjg","pricing_plan_id":"free"},{"bike_id":"b4005a42-a319-4cad-b79a-ac9b74e5b4eb","system_id":"levelo_inurba_marseille","lat":43.323464,"lon":5.406297,"is_reserved":false,"is_disabled":false,"rental_uris":{"android":"levelo://app?vid=b4005a42-a319-4cad-b79a-ac9b74e5b4eb","ios":"levelo://app?vid=b4005a42-a319-4cad-b79a-ac9b74e5b4eb"},"vehicle_type_id":"4","last_reported":1680199693,"current_range_meters":0,"station_id":"ce4bhq92rcd13ifvqhjg","pricing_plan_id":"free"},{"bike_id":"29bbe180-7e1a-4c25-b3d3-964d672ae140","system_id":"levelo_inurba_marseille","lat":43.284787,"lon":5.384116,"is_reserved":false,"is_disabled":false,"rental_uris":{"android":"levelo://app?vid=29bbe180-7e1a-4c25-b3d3-964d672ae140","ios":"levelo://app?vid=29bbe180-7e1a-4c25-b3d3-964d672ae140"},"vehicle_type_id":"4","last_reported":1680199693,"current_range_meters":800,"station_id":"ce4bh512rcd13ifvqe3g","pricing_plan_id":"free"},{"bike_id":"7e3f60db-185d-4245-86b8-786bcd763c06","system_id":"levelo_inurba_marseille","lat":43.284793,"lon":5.384119,"is_reserved":false,"is_disabled":false,"rental_uris":{"android":"levelo://app?vid=7e3f60db-185d-4245-86b8-786bcd763c06","ios":"levelo://app?vid=7e3f60db-185d-4245-86b8-786bcd763c06"},"vehicle_type_id":"4","last_reported":1680199693,"current_range_meters":7200,"station_id":"ce4bh512rcd13ifvqe3g","pricing_plan_id":"free"},{"bike_id":"a110dff1-9c65-41b2-9f1b-cba8a2a69d54","system_id":"levelo_inurba_marseille","lat":43.288501,"lon":5.393087,"is_reserved":false,"is_disabled":false,"rental_uris":{"android":"levelo://app?vid=a110dff1-9c65-41b2-9f1b-cba8a2a69d54","ios":"levelo://app?vid=a110dff1-9c65-41b2-9f1b-cba8a2a69d54"},"vehicle_type_id":"4","last_reported":1680199693,"current_range_meters":1200,"station_id":"ce4bh2p2rcd13ifvqdi0","pricing_plan_id":"free"},{"bike_id":"0c228ff2-1f2d-45c8-9f30-b231a017339b","system_id":"levelo_inurba_marseille","lat":43.28355,"lon":5.38113,"is_reserved":false,"is_disabled":false,"rental_uris":{"android":"levelo://app?vid=0c228ff2-1f2d-45c8-9f30-b231a017339b","ios":"levelo://app?vid=0c228ff2-1f2d-45c8-9f30-b231a017339b"},"vehicle_type_id":"4","last_reported":1680199693,"current_range_meters":21200,"station_id":"","pricing_plan_id":"free"},{"bike_id":"5732f31c-3c1f-44b0-8119-d7d88caf7e66","system_id":"levelo_inurba_marseille","lat":43.28035,"lon":5.36954,"is_reserved":false,"is_disabled":false,"rental_uris":{"android":"levelo://app?vid=5732f31c-3c1f-44b0-8119-d7d88caf7e66","ios":"levelo://app?vid=5732f31c-3c1f-44b0-8119-d7d88caf7e66"},"vehicle_type_id":"4","last_reported":1680199693,"current_range_meters":0,"station_id":"ce4bha12rcd13ifvqef0","pricing_plan_id":"free"},{"bike_id":"6ca06a1f-d11d-439c-a591-1ee2b628e52e","system_id":"levelo_inurba_marseille","lat":43.281044,"lon":5.378308,"is_reserved":false,"is_disabled":false,"rental_uris":{"android":"levelo://app?vid=6ca06a1f-d11d-439c-a591-1ee2b628e52e","ios":"levelo://app?vid=6ca06a1f-d11d-439c-a591-1ee2b628e52e"},"vehicle_type_id":"4","last_reported":1680199693,"current_range_meters":11200,"station_id":"ce4bha12rcd13ifvqee0","pricing_plan_id":"free"},{"bike_id":"c10b3652-bec5-4f64-baee-15a014e17b98","system_id":"levelo_inurba_marseille","lat":43.30425,"lon":5.41284,"is_reserved":false,"is_disabled":false,"rental_uris":{"android":"levelo://app?vid=c10b3652-bec5-4f64-baee-15a014e17b98","ios":"levelo://app?vid=c10b3652-bec5-4f64-baee-15a014e17b98"},"vehicle_type_id":"4","last_reported":1680199693,"current_range_meters":800,"station_id":"ce4bhop2rcd13ifvqh8g","pricing_plan_id":"free"},{"bike_id":"367e9ef3-240a-45af-bb40-5b01dd445f67","system_id":"levelo_inurba_marseille","lat":43.287154,"lon":5.399979,"is_reserved":false,"is_disabled":false,"rental_uris":{"android":"levelo://app?vid=367e9ef3-240a-45af-bb40-5b01dd445f67","ios":"levelo://app?vid=367e9ef3-240a-45af-bb40-5b01dd445f67"},"vehicle_type_id":"4","last_reported":1680199693,"current_range_meters":0,"station_id":"ce4bho92rcd13ifvqh3g","pricing_plan_id":"free"},{"bike_id":"41e3a427-3c3d-4d4d-93ae-d44bf0a0a359","system_id":"levelo_inurba_marseille","lat":43.287154,"lon":5.399979,"is_reserved":false,"is_disabled":false,"rental_uris":{"android":"levelo://app?vid=41e3a427-3c3d-4d4d-93ae-d44bf0a0a359","ios":"levelo://app?vid=41e3a427-3c3d-4d4d-93ae-d44bf0a0a359"},"vehicle_type_id":"4","last_reported":1680199693,"current_range_meters":10000,"station_id":"ce4bho92rcd13ifvqh3g","pricing_plan_id":"free"},{"bike_id":"a4bd05fc-f13a-4fec-80a2-3526624426da","system_id":"levelo_inurba_marseille","lat":43.320045,"lon":5.415048,"is_reserved":false,"is_disabled":false,"rental_uris":{"android":"levelo://app?vid=a4bd05fc-f13a-4fec-80a2-3526624426da","ios":"levelo://app?vid=a4bd05fc-f13a-4fec-80a2-3526624426da"},"vehicle_type_id":"4","last_reported":1680199693,"current_range_meters":5200,"station_id":"ce4bhq92rcd13ifvqhkg","pricing_plan_id":"free"},{"bike_id":"82b073cb-88c7-43cd-8be1-5287d1b07b58","system_id":"levelo_inurba_marseille","lat":43.320045,"lon":5.415048,"is_reserved":false,"is_disabled":false,"rental_uris":{"android":"levelo://app?vid=82b073cb-88c7-43cd-8be1-5287d1b07b58","ios":"levelo://app?vid=82b073cb-88c7-43cd-8be1-5287d1b07b58"},"vehicle_type_id":"4","last_reported":1680199693,"current_range_meters":9600,"station_id":"ce4bhq92rcd13ifvqhkg","pricing_plan_id":"free"},{"bike_id":"f4795af4-b420-4a20-874e-afceb87d06cd","system_id":"levelo_inurba_marseille","lat":43.292571,"lon":5.409107,"is_reserved":false,"is_disabled":false,"rental_uris":{"android":"levelo://app?vid=f4795af4-b420-4a20-874e-afceb87d06cd","ios":"levelo://app?vid=f4795af4-b420-4a20-874e-afceb87d06cd"},"vehicle_type_id":"4","last_reported":1680199693,"current_range_meters":8000,"station_id":"ce4bh192rcd13ifvqdc0","pricing_plan_id":"free"},{"bike_id":"3323df48-f3bf-4eed-bf59-6cbee04e602f","system_id":"levelo_inurba_marseille","lat":43.32543,"lon":5.41422,"is_reserved":false,"is_disabled":false,"rental_uris":{"android":"levelo://app?vid=3323df48-f3bf-4eed-bf59-6cbee04e602f","ios":"levelo://app?vid=3323df48-f3bf-4eed-bf59-6cbee04e602f"},"vehicle_type_id":"4","last_reported":1680199693,"current_range_meters":3600,"station_id":"ce4bhq12rcd13ifvqhhg","pricing_plan_id":"free"},{"bike_id":"3d496d81-d56d-4ed6-a926-a44aea08af26","system_id":"levelo_inurba_marseille","lat":43.27618,"lon":5.361009,"is_reserved":false,"is_disabled":false,"rental_uris":{"android":"levelo://app?vid=3d496d81-d56d-4ed6-a926-a44aea08af26","ios":"levelo://app?vid=3d496d81-d56d-4ed6-a926-a44aea08af26"},"vehicle_type_id":"4","last_reported":1680199693,"current_range_meters":0,"station_id":"ce4bgj92rcd13ifvqbe0","pricing_plan_id":"free"},{"bike_id":"97dedd0b-6911-43ac-bdd0-c87f1cae4812","system_id":"levelo_inurba_marseille","lat":43.33612,"lon":5.410321,"is_reserved":false,"is_disabled":false,"rental_uris":{"android":"levelo://app?vid=97dedd0b-6911-43ac-bdd0-c87f1cae4812","ios":"levelo://app?vid=97dedd0b-6911-43ac-bdd0-c87f1cae4812"},"vehicle_type_id":"4","last_reported":1680199693,"current_range_meters":3600,"station_id":"ce4bhqh2rcd13ifvqhmg","pricing_plan_id":"free"},{"bike_id":"3989dceb-b09f-482b-a667-59f98183d038","system_id":"levelo_inurba_marseille","lat":43.336134,"lon":5.410341,"is_reserved":false,"is_disabled":false,"rental_uris":{"android":"levelo://app?vid=3989dceb-b09f-482b-a667-59f98183d038","ios":"levelo://app?vid=3989dceb-b09f-482b-a667-59f98183d038"},"vehicle_type_id":"4","last_reported":1680199693,"current_range_meters":2000,"station_id":"ce4bhqh2rcd13ifvqhmg","pricing_plan_id":"free"},{"bike_id":"0a933b83-e240-4d27-821c-4cc7974e0f10","system_id":"levelo_inurba_marseille","lat":43.274103,"lon":5.394016,"is_reserved":false,"is_disabled":false,"rental_uris":{"android":"levelo://app?vid=0a933b83-e240-4d27-821c-4cc7974e0f10","ios":"levelo://app?vid=0a933b83-e240-4d27-821c-4cc7974e0f10"},"vehicle_type_id":"4","last_reported":1680199693,"current_range_meters":8000,"station_id":"ce4bhdp2rcd13ifvqf20","pricing_plan_id":"free"},{"bike_id":"41bc78d7-b793-4722-99a6-98a269e822d5","system_id":"levelo_inurba_marseille","lat":43.295523,"lon":5.422926,"is_reserved":false,"is_disabled":false,"rental_uris":{"android":"levelo://app?vid=41bc78d7-b793-4722-99a6-98a269e822d5","ios":"levelo://app?vid=41bc78d7-b793-4722-99a6-98a269e822d5"},"vehicle_type_id":"4","last_reported":1680199693,"current_range_meters":2400,"station_id":"ce4bhph2rcd13ifvqhdg","pricing_plan_id":"free"},{"bike_id":"19abed80-9831-497d-bf4c-caf78fab5591","system_id":"levelo_inurba_marseille","lat":43.278128,"lon":5.407195,"is_reserved":false,"is_disabled":false,"rental_uris":{"android":"levelo://app?vid=19abed80-9831-497d-bf4c-caf78fab5591","ios":"levelo://app?vid=19abed80-9831-497d-bf4c-caf78fab5591"},"vehicle_type_id":"4","last_reported":1680199693,"current_range_meters":0,"station_id":"ce4bhnh2rcd13ifvqgtg","pricing_plan_id":"free"},{"bike_id":"f13b5a65-5cfb-49ac-b723-19acc957459f","system_id":"levelo_inurba_marseille","lat":43.27808,"lon":5.40707,"is_reserved":false,"is_disabled":false,"rental_uris":{"android":"levelo://app?vid=f13b5a65-5cfb-49ac-b723-19acc957459f","ios":"levelo://app?vid=f13b5a65-5cfb-49ac-b723-19acc957459f"},"vehicle_type_id":"4","last_reported":1680199693,"current_range_meters":3200,"station_id":"ce4bhnh2rcd13ifvqgtg","pricing_plan_id":"free"},{"bike_id":"48d3e434-999f-4b7c-a1a8-08e18270eac8","system_id":"levelo_inurba_marseille","lat":43.32563,"lon":5.42705,"is_reserved":false,"is_disabled":false,"rental_uris":{"android":"levelo://app?vid=48d3e434-999f-4b7c-a1a8-08e18270eac8","ios":"levelo://app?vid=48d3e434-999f-4b7c-a1a8-08e18270eac8"},"vehicle_type_id":"4","last_reported":1680199693,"current_range_meters":19600,"station_id":"","pricing_plan_id":"free"},{"bike_id":"5f46f155-21a0-4935-9531-18fcb55a061a","system_id":"levelo_inurba_marseille","lat":43.265714,"lon":5.372891,"is_reserved":false,"is_disabled":false,"rental_uris":{"android":"levelo://app?vid=5f46f155-21a0-4935-9531-18fcb55a061a","ios":"levelo://app?vid=5f46f155-21a0-4935-9531-18fcb55a061a"},"vehicle_type_id":"4","last_reported":1680199693,"current_range_meters":0,"station_id":"ce4bhg12rcd13ifvqf70","pricing_plan_id":"free"},{"bike_id":"f6f8548f-3021-41d2-ae05-424ec9d15c0f","system_id":"levelo_inurba_marseille","lat":43.27996,"lon":5.416624,"is_reserved":false,"is_disabled":false,"rental_uris":{"android":"levelo://app?vid=f6f8548f-3021-41d2-ae05-424ec9d15c0f","ios":"levelo://app?vid=f6f8548f-3021-41d2-ae05-424ec9d15c0f"},"vehicle_type_id":"4","last_reported":1680199693,"current_range_meters":14400,"station_id":"ce4bho12rcd13ifvqh1g","pricing_plan_id":"free"},{"bike_id":"460c9879-7220-4ef9-9741-08b8e45d914a","system_id":"levelo_inurba_marseille","lat":43.27996,"lon":5.416624,"is_reserved":false,"is_disabled":false,"rental_uris":{"android":"levelo://app?vid=460c9879-7220-4ef9-9741-08b8e45d914a","ios":"levelo://app?vid=460c9879-7220-4ef9-9741-08b8e45d914a"},"vehicle_type_id":"4","last_reported":1680199693,"current_range_meters":22000,"station_id":"ce4bho12rcd13ifvqh1g","pricing_plan_id":"free"},{"bike_id":"a25fff53-b06a-495d-933d-cd7c0e2146b2","system_id":"levelo_inurba_marseille","lat":43.265569,"lon":5.390047,"is_reserved":false,"is_disabled":false,"rental_uris":{"android":"levelo://app?vid=a25fff53-b06a-495d-933d-cd7c0e2146b2","ios":"levelo://app?vid=a25fff53-b06a-495d-933d-cd7c0e2146b2"},"vehicle_type_id":"4","last_reported":1680199693,"current_range_meters":6000,"station_id":"ce4bhe12rcd13ifvqf30","pricing_plan_id":"free"},{"bike_id":"3f48d300-3a5a-4762-9c3c-e5bfe6052062","system_id":"levelo_inurba_marseille","lat":43.28278,"lon":5.42296,"is_reserved":false,"is_disabled":false,"rental_uris":{"android":"levelo://app?vid=3f48d300-3a5a-4762-9c3c-e5bfe6052062","ios":"levelo://app?vid=3f48d300-3a5a-4762-9c3c-e5bfe6052062"},"vehicle_type_id":"4","last_reported":1680199693,"current_range_meters":0,"station_id":"","pricing_plan_id":"free"},{"bike_id":"c8ea8206-901a-488c-ac4b-8b1e01485d14","system_id":"levelo_inurba_marseille","lat":43.331864,"lon":5.431794,"is_reserved":false,"is_disabled":false,"rental_uris":{"android":"levelo://app?vid=c8ea8206-901a-488c-ac4b-8b1e01485d14","ios":"levelo://app?vid=c8ea8206-901a-488c-ac4b-8b1e01485d14"},"vehicle_type_id":"4","last_reported":1680199693,"current_range_meters":0,"station_id":"","pricing_plan_id":"free"},{"bike_id":"fdafc353-e0c6-4c25-838f-204181e2a802","system_id":"levelo_inurba_marseille","lat":43.317104,"lon":5.436818,"is_reserved":false,"is_disabled":false,"rental_uris":{"android":"levelo://app?vid=fdafc353-e0c6-4c25-838f-204181e2a802","ios":"levelo://app?vid=fdafc353-e0c6-4c25-838f-204181e2a802"},"vehicle_type_id":"4","last_reported":1680199693,"current_range_meters":0,"station_id":"ce4bhp92rcd13ifvqhcg","pricing_plan_id":"free"},{"bike_id":"26296061-d92d-4894-97d0-def7f27b936f","system_id":"levelo_inurba_marseille","lat":43.267959,"lon":5.402687,"is_reserved":false,"is_disabled":false,"rental_uris":{"android":"levelo://app?vid=26296061-d92d-4894-97d0-def7f27b936f","ios":"levelo://app?vid=26296061-d92d-4894-97d0-def7f27b936f"},"vehicle_type_id":"4","last_reported":1680199693,"current_range_meters":22800,"station_id":"ce501612rcd8frsf0b60","pricing_plan_id":"free"},{"bike_id":"63652c41-153d-4bb2-a0c5-c5cb489f3380","system_id":"levelo_inurba_marseille","lat":43.298768,"lon":5.43643,"is_reserved":false,"is_disabled":false,"rental_uris":{"android":"levelo://app?vid=63652c41-153d-4bb2-a0c5-c5cb489f3380","ios":"levelo://app?vid=63652c41-153d-4bb2-a0c5-c5cb489f3380"},"vehicle_type_id":"4","last_reported":1680199693,"current_range_meters":23600,"station_id":"ce4bhpp2rcd13ifvqhfg","pricing_plan_id":"free"},{"bike_id":"ff0eafe1-b8f4-46c1-b022-2e0e71b433cf","system_id":"levelo_inurba_marseille","lat":43.260909,"lon":5.397591,"is_reserved":false,"is_disabled":false,"rental_uris":{"android":"levelo://app?vid=ff0eafe1-b8f4-46c1-b022-2e0e71b433cf","ios":"levelo://app?vid=ff0eafe1-b8f4-46c1-b022-2e0e71b433cf"},"vehicle_type_id":"4","last_reported":1680199693,"current_range_meters":31200,"station_id":"ce4bhi12rcd13ifvqfq0","pricing_plan_id":"free"},{"bike_id":"2538402b-0bd2-4399-9a00-d4bd16f75aa5","system_id":"levelo_inurba_marseille","lat":43.260909,"lon":5.397591,"is_reserved":false,"is_disabled":false,"rental_uris":{"android":"levelo://app?vid=2538402b-0bd2-4399-9a00-d4bd16f75aa5","ios":"levelo://app?vid=2538402b-0bd2-4399-9a00-d4bd16f75aa5"},"vehicle_type_id":"4","last_reported":1680199693,"current_range_meters":31200,"station_id":"ce4bhi12rcd13ifvqfq0","pricing_plan_id":"free"},{"bike_id":"3d62598f-059f-4178-bc72-3068799a9156","system_id":"levelo_inurba_marseille","lat":43.255756,"lon":5.382303,"is_reserved":false,"is_disabled":false,"rental_uris":{"android":"levelo://app?vid=3d62598f-059f-4178-bc72-3068799a9156","ios":"levelo://app?vid=3d62598f-059f-4178-bc72-3068799a9156"},"vehicle_type_id":"4","last_reported":1680199693,"current_range_meters":30800,"station_id":"ce4bhih2rcd13ifvqfs0","pricing_plan_id":"free"},{"bike_id":"71241858-0662-40aa-a906-e6cec28d6a4f","system_id":"levelo_inurba_marseille","lat":43.25579,"lon":5.38239,"is_reserved":false,"is_disabled":false,"rental_uris":{"android":"levelo://app?vid=71241858-0662-40aa-a906-e6cec28d6a4f","ios":"levelo://app?vid=71241858-0662-40aa-a906-e6cec28d6a4f"},"vehicle_type_id":"4","last_reported":1680199693,"current_range_meters":0,"station_id":"ce4bhih2rcd13ifvqfs0","pricing_plan_id":"free"},{"bike_id":"6d047652-0f97-4d06-82d6-9fe2cfdf1afa","system_id":"levelo_inurba_marseille","lat":43.254947,"lon":5.376454,"is_reserved":false,"is_disabled":false,"rental_uris":{"android":"levelo://app?vid=6d047652-0f97-4d06-82d6-9fe2cfdf1afa","ios":"levelo://app?vid=6d047652-0f97-4d06-82d6-9fe2cfdf1afa"},"vehicle_type_id":"4","last_reported":1680199693,"current_range_meters":0,"station_id":"ce4bhh12rcd13ifvqff0","pricing_plan_id":"free"},{"bike_id":"f27f16d6-43a9-4dab-abb4-abef47da0a42","system_id":"levelo_inurba_marseille","lat":43.270721,"lon":5.422764,"is_reserved":false,"is_disabled":false,"rental_uris":{"android":"levelo://app?vid=f27f16d6-43a9-4dab-abb4-abef47da0a42","ios":"levelo://app?vid=f27f16d6-43a9-4dab-abb4-abef47da0a42"},"vehicle_type_id":"4","last_reported":1680199693,"current_range_meters":4000,"station_id":"ce4bhk92rcd13ifvqgb0","pricing_plan_id":"free"},{"bike_id":"b4865f4b-cbf9-47be-a277-ba734b9ff88b","system_id":"levelo_inurba_marseille","lat":43.270721,"lon":5.422764,"is_reserved":false,"is_disabled":false,"rental_uris":{"android":"levelo://app?vid=b4865f4b-cbf9-47be-a277-ba734b9ff88b","ios":"levelo://app?vid=b4865f4b-cbf9-47be-a277-ba734b9ff88b"},"vehicle_type_id":"4","last_reported":1680199693,"current_range_meters":0,"station_id":"ce4bhk92rcd13ifvqgb0","pricing_plan_id":"free"},{"bike_id":"7a00ccbc-5f07-4b17-b600-56deef47ac60","system_id":"levelo_inurba_marseille","lat":43.258658,"lon":5.398935,"is_reserved":false,"is_disabled":false,"rental_uris":{"android":"levelo://app?vid=7a00ccbc-5f07-4b17-b600-56deef47ac60","ios":"levelo://app?vid=7a00ccbc-5f07-4b17-b600-56deef47ac60"},"vehicle_type_id":"4","last_reported":1680199693,"current_range_meters":31200,"station_id":"ce4bhl92rcd13ifvqghg","pricing_plan_id":"free"},{"bike_id":"44035411-7655-41fd-ab48-4c4eb82aaa25","system_id":"levelo_inurba_marseille","lat":43.258658,"lon":5.398935,"is_reserved":false,"is_disabled":false,"rental_uris":{"android":"levelo://app?vid=44035411-7655-41fd-ab48-4c4eb82aaa25","ios":"levelo://app?vid=44035411-7655-41fd-ab48-4c4eb82aaa25"},"vehicle_type_id":"4","last_reported":1680199693,"current_range_meters":29600,"station_id":"ce4bhl92rcd13ifvqghg","pricing_plan_id":"free"},{"bike_id":"23d7c214-033e-4d31-a97c-fc2329a0d530","system_id":"levelo_inurba_marseille","lat":43.258,"lon":5.39937,"is_reserved":false,"is_disabled":false,"rental_uris":{"android":"levelo://app?vid=23d7c214-033e-4d31-a97c-fc2329a0d530","ios":"levelo://app?vid=23d7c214-033e-4d31-a97c-fc2329a0d530"},"vehicle_type_id":"4","last_reported":1680199693,"current_range_meters":10800,"station_id":"","pricing_plan_id":"free"},{"bike_id":"4701f1c0-3fac-4984-baaf-bb13d9d44fec","system_id":"levelo_inurba_marseille","lat":43.250966,"lon":5.395186,"is_reserved":false,"is_disabled":false,"rental_uris":{"android":"levelo://app?vid=4701f1c0-3fac-4984-baaf-bb13d9d44fec","ios":"levelo://app?vid=4701f1c0-3fac-4984-baaf-bb13d9d44fec"},"vehicle_type_id":"4","last_reported":1680199693,"current_range_meters":27600,"station_id":"ce4bhm12rcd13ifvqgkg","pricing_plan_id":"free"},{"bike_id":"c4f5aa25-9d61-4421-9218-49cab131209c","system_id":"levelo_inurba_marseille","lat":43.25074,"lon":5.39514,"is_reserved":false,"is_disabled":false,"rental_uris":{"android":"levelo://app?vid=c4f5aa25-9d61-4421-9218-49cab131209c","ios":"levelo://app?vid=c4f5aa25-9d61-4421-9218-49cab131209c"},"vehicle_type_id":"4","last_reported":1680199693,"current_range_meters":16000,"station_id":"ce4bhm12rcd13ifvqgkg","pricing_plan_id":"free"},{"bike_id":"3ae99af2-87e3-49d8-a542-9a6fee683251","system_id":"levelo_inurba_marseille","lat":43.24693,"lon":5.382096,"is_reserved":false,"is_disabled":false,"rental_uris":{"android":"levelo://app?vid=3ae99af2-87e3-49d8-a542-9a6fee683251","ios":"levelo://app?vid=3ae99af2-87e3-49d8-a542-9a6fee683251"},"vehicle_type_id":"4","last_reported":1680199693,"current_range_meters":0,"station_id":"ce4bhih2rcd13ifvqfr0","pricing_plan_id":"free"},{"bike_id":"08a3ce3b-b476-4c76-81d8-82423eb20a9d","system_id":"levelo_inurba_marseille","lat":43.24693,"lon":5.382096,"is_reserved":false,"is_disabled":false,"rental_uris":{"android":"levelo://app?vid=08a3ce3b-b476-4c76-81d8-82423eb20a9d","ios":"levelo://app?vid=08a3ce3b-b476-4c76-81d8-82423eb20a9d"},"vehicle_type_id":"4","last_reported":1680199693,"current_range_meters":23200,"station_id":"ce4bhih2rcd13ifvqfr0","pricing_plan_id":"free"},{"bike_id":"ef5c284a-dbbb-4e09-b3c0-5af13ad2ded6","system_id":"levelo_inurba_marseille","lat":43.25102,"lon":5.403214,"is_reserved":false,"is_disabled":false,"rental_uris":{"android":"levelo://app?vid=ef5c284a-dbbb-4e09-b3c0-5af13ad2ded6","ios":"levelo://app?vid=ef5c284a-dbbb-4e09-b3c0-5af13ad2ded6"},"vehicle_type_id":"4","last_reported":1680199693,"current_range_meters":8000,"station_id":"ce4bhlh2rcd13ifvqgig","pricing_plan_id":"free"},{"bike_id":"faac33aa-506e-4f5b-8264-e940744bf201","system_id":"levelo_inurba_marseille","lat":43.251148,"lon":5.403227,"is_reserved":false,"is_disabled":false,"rental_uris":{"android":"levelo://app?vid=faac33aa-506e-4f5b-8264-e940744bf201","ios":"levelo://app?vid=faac33aa-506e-4f5b-8264-e940744bf201"},"vehicle_type_id":"4","last_reported":1680199693,"current_range_meters":14400,"station_id":"ce4bhlh2rcd13ifvqgig","pricing_plan_id":"free"},{"bike_id":"62c146af-a09c-4e6e-868b-f5d847a03064","system_id":"levelo_inurba_marseille","lat":43.25102,"lon":5.403214,"is_reserved":false,"is_disabled":false,"rental_uris":{"android":"levelo://app?vid=62c146af-a09c-4e6e-868b-f5d847a03064","ios":"levelo://app?vid=62c146af-a09c-4e6e-868b-f5d847a03064"},"vehicle_type_id":"4","last_reported":1680199693,"current_range_meters":31600,"station_id":"ce4bhlh2rcd13ifvqgig","pricing_plan_id":"free"},{"bike_id":"cd7d66c1-3cd2-4ee8-a665-beb69fee065c","system_id":"levelo_inurba_marseille","lat":43.246467,"lon":5.388984,"is_reserved":false,"is_disabled":false,"rental_uris":{"android":"levelo://app?vid=cd7d66c1-3cd2-4ee8-a665-beb69fee065c","ios":"levelo://app?vid=cd7d66c1-3cd2-4ee8-a665-beb69fee065c"},"vehicle_type_id":"4","last_reported":1680199693,"current_range_meters":24400,"station_id":"ce4bhg12rcd13ifvqf60","pricing_plan_id":"free"},{"bike_id":"1497e66b-7323-4c33-a88c-295a380384d3","system_id":"levelo_inurba_marseille","lat":43.246461,"lon":5.389014,"is_reserved":false,"is_disabled":false,"rental_uris":{"android":"levelo://app?vid=1497e66b-7323-4c33-a88c-295a380384d3","ios":"levelo://app?vid=1497e66b-7323-4c33-a88c-295a380384d3"},"vehicle_type_id":"4","last_reported":1680199693,"current_range_meters":2400,"station_id":"ce4bhg12rcd13ifvqf60","pricing_plan_id":"free"},{"bike_id":"b1318353-ea13-43fd-b554-c5cd8262229c","system_id":"levelo_inurba_marseille","lat":43.243884,"lon":5.370736,"is_reserved":false,"is_disabled":false,"rental_uris":{"android":"levelo://app?vid=b1318353-ea13-43fd-b554-c5cd8262229c","ios":"levelo://app?vid=b1318353-ea13-43fd-b554-c5cd8262229c"},"vehicle_type_id":"4","last_reported":1680199693,"current_range_meters":21600,"station_id":"ce4bhhh2rcd13ifvqfk0","pricing_plan_id":"free"},{"bike_id":"efe6e80a-dc25-4525-8da5-9a6e423f535b","system_id":"levelo_inurba_marseille","lat":43.240623,"lon":5.377642,"is_reserved":false,"is_disabled":false,"rental_uris":{"android":"levelo://app?vid=efe6e80a-dc25-4525-8da5-9a6e423f535b","ios":"levelo://app?vid=efe6e80a-dc25-4525-8da5-9a6e423f535b"},"vehicle_type_id":"4","last_reported":1680199693,"current_range_meters":7600,"station_id":"ce4bhnp2rcd13ifvqgvg","pricing_plan_id":"free"},{"bike_id":"e9fd2c00-248f-4160-a791-d5f2927aa1a4","system_id":"levelo_inurba_marseille","lat":43.240623,"lon":5.377642,"is_reserved":false,"is_disabled":false,"rental_uris":{"android":"levelo://app?vid=e9fd2c00-248f-4160-a791-d5f2927aa1a4","ios":"levelo://app?vid=e9fd2c00-248f-4160-a791-d5f2927aa1a4"},"vehicle_type_id":"4","last_reported":1680199693,"current_range_meters":800,"station_id":"ce4bhnp2rcd13ifvqgvg","pricing_plan_id":"free"},{"bike_id":"550f582b-494c-48d1-8eca-cb155a37f67c","system_id":"levelo_inurba_marseille","lat":43.240623,"lon":5.377642,"is_reserved":false,"is_disabled":false,"rental_uris":{"android":"levelo://app?vid=550f582b-494c-48d1-8eca-cb155a37f67c","ios":"levelo://app?vid=550f582b-494c-48d1-8eca-cb155a37f67c"},"vehicle_type_id":"4","last_reported":1680199693,"current_range_meters":8000,"station_id":"ce4bhnp2rcd13ifvqgvg","pricing_plan_id":"free"},{"bike_id":"a7ed803d-11e6-4853-b959-c018fc675501","system_id":"levelo_inurba_marseille","lat":43.239588,"lon":5.366238,"is_reserved":false,"is_disabled":false,"rental_uris":{"android":"levelo://app?vid=a7ed803d-11e6-4853-b959-c018fc675501","ios":"levelo://app?vid=a7ed803d-11e6-4853-b959-c018fc675501"},"vehicle_type_id":"4","last_reported":1680199693,"current_range_meters":2000,"station_id":"ce4bhi12rcd13ifvqfp0","pricing_plan_id":"free"},{"bike_id":"2cce724a-b86f-4823-95d2-89f666c4d59f","system_id":"levelo_inurba_marseille","lat":43.239588,"lon":5.366238,"is_reserved":false,"is_disabled":false,"rental_uris":{"android":"levelo://app?vid=2cce724a-b86f-4823-95d2-89f666c4d59f","ios":"levelo://app?vid=2cce724a-b86f-4823-95d2-89f666c4d59f"},"vehicle_type_id":"4","last_reported":1680199693,"current_range_meters":23600,"station_id":"ce4bhi12rcd13ifvqfp0","pricing_plan_id":"free"},{"bike_id":"aaeda10d-6058-456d-aaef-e9782220fe84","system_id":"levelo_inurba_marseille","lat":43.239588,"lon":5.366238,"is_reserved":false,"is_disabled":false,"rental_uris":{"android":"levelo://app?vid=aaeda10d-6058-456d-aaef-e9782220fe84","ios":"levelo://app?vid=aaeda10d-6058-456d-aaef-e9782220fe84"},"vehicle_type_id":"4","last_reported":1680199693,"current_range_meters":0,"station_id":"ce4bhi12rcd13ifvqfp0","pricing_plan_id":"free"},{"bike_id":"0c24c4ce-20e1-41e4-b637-f753c25f0c0c","system_id":"levelo_inurba_marseille","lat":43.239588,"lon":5.366238,"is_reserved":false,"is_disabled":false,"rental_uris":{"android":"levelo://app?vid=0c24c4ce-20e1-41e4-b637-f753c25f0c0c","ios":"levelo://app?vid=0c24c4ce-20e1-41e4-b637-f753c25f0c0c"},"vehicle_type_id":"4","last_reported":1680199693,"current_range_meters":6000,"station_id":"ce4bhi12rcd13ifvqfp0","pricing_plan_id":"free"},{"bike_id":"2553e504-d446-41c6-b318-5052bc8255c8","system_id":"levelo_inurba_marseille","lat":43.285,"lon":5.45986,"is_reserved":false,"is_disabled":false,"rental_uris":{"android":"levelo://app?vid=2553e504-d446-41c6-b318-5052bc8255c8","ios":"levelo://app?vid=2553e504-d446-41c6-b318-5052bc8255c8"},"vehicle_type_id":"4","last_reported":1680199693,"current_range_meters":19600,"station_id":"","pricing_plan_id":"free"},{"bike_id":"cbe633fd-959f-41b1-b446-01799316d3ee","system_id":"levelo_inurba_marseille","lat":43.241782,"lon":5.397264,"is_reserved":false,"is_disabled":false,"rental_uris":{"android":"levelo://app?vid=cbe633fd-959f-41b1-b446-01799316d3ee","ios":"levelo://app?vid=cbe633fd-959f-41b1-b446-01799316d3ee"},"vehicle_type_id":"4","last_reported":1680199693,"current_range_meters":31200,"station_id":"ce4bhn12rcd13ifvqgpg","pricing_plan_id":"free"},{"bike_id":"c00bcb7e-9cb3-4370-9d1f-0ca705767621","system_id":"levelo_inurba_marseille","lat":43.241782,"lon":5.397264,"is_reserved":false,"is_disabled":false,"rental_uris":{"android":"levelo://app?vid=c00bcb7e-9cb3-4370-9d1f-0ca705767621","ios":"levelo://app?vid=c00bcb7e-9cb3-4370-9d1f-0ca705767621"},"vehicle_type_id":"4","last_reported":1680199693,"current_range_meters":800,"station_id":"ce4bhn12rcd13ifvqgpg","pricing_plan_id":"free"}]}}