{"last_updated":1738688872,"ttl":60,"version":"2.2","data":{"bikes":[{"bike_id":"a6accd57-54cf-4d44-87f9-766d1013e2f7","system_id":"levelo_inurba_marseille","lat":43.26051,"lon":5.37561,"is_reserved":false,"is_disabled":false,"rental_uris":{"android":"levelo://app?vid=a6accd57-54cf-4d44-87f9-766d1013e2f7","ios":"levelo://app?vid=a6accd57-54cf-4d44-87f9-766d1013e2f7"},"vehicle_type_id":"4","last_reported":1738688872,"current_range_meters":36400,"station_id":"ce4bhgh2rcd13ifvqfa0","pricing_plan_id":"cebpf4jnsgd1na2vs0mg"},{"bike_id":"84598151-c453-4c49-a4d4-90560262791b","system_id":"levelo_inurba_marseille","lat":43.25826,"lon":5.39439,"is_reserved":false,"is_disabled":false,"rental_uris":{"android":"levelo://app?vid=84598151-c453-4c49-a4d4-90560262791b","ios":"levelo://app?vid=84598151-c453-4c49-a4d4-90560262791b"},"vehicle_type_id":"4","last_reported":1738688872,"current_range_meters":22400,"station_id":"ce4bhip2rcd13ifvqft0","pricing_plan_id":"cebpf4jnsgd1na2vs0mg"},{"bike_id":"1ae6562d-660e-4805-b9fa-ffde6ca908d4","system_id":"levelo_inurba_marseille","lat":43.28699,"lon":5.37409,"is_reserved":false,"is_disabled":false,"rental_uris":{"android":"levelo://app?vid=1ae6562d-660e-4805-b9fa-ffde6ca908d4","ios":"levelo://app?vid=1ae6562d-660e-4805-b9fa-ffde6ca908d4"},"vehicle_type_id":"4","last_reported":1738688872,"current_range_meters":39200,"station_id":"ce4bh3p2rcd13ifvqdq0","pricing_plan_id":"cebpf4jnsgd1na2vs0mg"},{"bike_id":"fac3fed1-5272-4e42-8d19-dc185db43a07","system_id":"levelo_inurba_marseille","lat":43.27369,"lon":5.36254,"is_reserved":false,"is_disabled":false,"rental_uris":{"android":"levelo://app?vid=fac3fed1-5272-4e42-8d19-dc185db43a07","ios":"levelo://app?vid=fac3fed1-5272-4e42-8d19-dc185db43a07"},"vehicle_type_id":"4","last_reported":1738688872,"current_range_meters":32400,"station_id":"ce4bhbh2rcd13ifvqeo0","pricing_plan_id":"cebpf4jnsgd1na2vs0mg"},{"bike_id":"f18a6606-13b4-4033-9b81-977358c095e8","system_id":"levelo_inurba_marseille","lat":43.28416,"lon":5.34989,"is_reserved":false,"is_disabled":false,"rental_uris":{"android":"levelo://app?vid=f18a6606-13b4-4033-9b81-977358c095e8","ios":"levelo://app?vid=f18a6606-13b4-4033-9b81-977358c095e8"},"vehicle_type_id":"4","last_reported":1738688872,"current_range_meters":38800,"station_id":"ce4bhbh2rcd13ifvqepg","pricing_plan_id":"cebpf4jnsgd1na2vs0mg"},{"bike_id":"53a9d8da-5f7e-48a8-b489-8866ab88b092","system_id":"levelo_inurba_marseille","lat":43.28266,"lon":5.35066,"is_reserved":false,"is_disabled":false,"rental_uris":{"android":"levelo://app?vid=53a9d8da-5f7e-48a8-b489-8866ab88b092","ios":"levelo://app?vid=53a9d8da-5f7e-48a8-b489-8866ab88b092"},"vehicle_type_id":"4","last_reported":1738688872,"current_range_meters":38800,"station_id":"ce4bhbp2rcd13ifvqerg","pricing_plan_id":"cebpf4jnsgd1na2vs0mg"},{"bike_id":"c3d081d5-4d92-46ae-b635-182bf30c7a9e","system_id":"levelo_inurba_marseille","lat":43.305313,"lon":5.365471,"is_reserved":false,"is_disabled":false,"rental_uris":{"android":"levelo://app?vid=c3d081d5-4d92-46ae-b635-182bf30c7a9e","ios":"levelo://app?vid=c3d081d5-4d92-46ae-b635-182bf30c7a9e"},"vehicle_type_id":"4","last_reported":1738688872,"current_range_meters":27200,"station_id":"ce4bgs12rcd13ifvqcag","pricing_plan_id":"cebpf4jnsgd1na2vs0mg"},{"bike_id":"25a20d38-4cea-403a-b262-67163f84c80b","system_id":"levelo_inurba_marseille","lat":43.28274,"lon":5.35058,"is_reserved":false,"is_disabled":false,"rental_uris":{"android":"levelo://app?vid=25a20d38-4cea-403a-b262-67163f84c80b","ios":"levelo://app?vid=25a20d38-4cea-403a-b262-67163f84c80b"},"vehicle_type_id":"4","last_reported":1738688872,"current_range_meters":9600,"station_id":"ce4bhbp2rcd13ifvqerg","pricing_plan_id":"cebpf4jnsgd1na2vs0mg"},{"bike_id":"583c3fe7-92be-46dc-8c89-368fd147bd7e","system_id":"levelo_inurba_marseille","lat":43.30638,"lon":5.36751,"is_reserved":false,"is_disabled":false,"rental_uris":{"android":"levelo://app?vid=583c3fe7-92be-46dc-8c89-368fd147bd7e","ios":"levelo://app?vid=583c3fe7-92be-46dc-8c89-368fd147bd7e"},"vehicle_type_id":"4","last_reported":1738688872,"current_range_meters":38400,"station_id":"","pricing_plan_id":"cebpf4jnsgd1na2vs0mg"},{"bike_id":"5193da2b-d2c1-4f6d-ba8f-47c3bc0dc66b","system_id":"levelo_inurba_marseille","lat":43.30132,"lon":5.38788,"is_reserved":false,"is_disabled":false,"rental_uris":{"android":"levelo://app?vid=5193da2b-d2c1-4f6d-ba8f-47c3bc0dc66b","ios":"levelo://app?vid=5193da2b-d2c1-4f6d-ba8f-47c3bc0dc66b"},"vehicle_type_id":"4","last_reported":1738688872,"current_range_meters":19200,"station_id":"ce4bghh2rcd13ifvqb60","pricing_plan_id":"cebpf4jnsgd1na2vs0mg"},{"bike_id":"651907b4-5cdb-4f7e-960b-f20689ad978e","system_id":"levelo_inurba_marseille","lat":43.28365,"lon":5.38637,"is_reserved":false,"is_disabled":false,"rental_uris":{"android":"levelo://app?vid=651907b4-5cdb-4f7e-960b-f20689ad978e","ios":"levelo://app?vid=651907b4-5cdb-4f7e-960b-f20689ad978e"},"vehicle_type_id":"4","last_reported":1738688872,"current_range_meters":16800,"station_id":"ce4bh492rcd13ifvqdvg","pricing_plan_id":"cebpf4jnsgd1na2vs0mg"},{"bike_id":"b4288bdc-e476-4c8c-946d-02f603986442","system_id":"levelo_inurba_marseille","lat":43.28281,"lon":5.35089,"is_reserved":false,"is_disabled":false,"rental_uris":{"android":"levelo://app?vid=b4288bdc-e476-4c8c-946d-02f603986442","ios":"levelo://app?vid=b4288bdc-e476-4c8c-946d-02f603986442"},"vehicle_type_id":"4","last_reported":1738688872,"current_range_meters":17200,"station_id":"ce4bhbp2rcd13ifvqerg","pricing_plan_id":"cebpf4jnsgd1na2vs0mg"},{"bike_id":"a7eaf7b2-6c40-46bc-8260-81d8b4422738","system_id":"levelo_inurba_marseille","lat":43.28666,"lon":5.3635,"is_reserved":false,"is_disabled":false,"rental_uris":{"android":"levelo://app?vid=a7eaf7b2-6c40-46bc-8260-81d8b4422738","ios":"levelo://app?vid=a7eaf7b2-6c40-46bc-8260-81d8b4422738"},"vehicle_type_id":"4","last_reported":1738688872,"current_range_meters":30400,"station_id":"ce4bhah2rcd13ifvqej0","pricing_plan_id":"cebpf4jnsgd1na2vs0mg"},{"bike_id":"f56185a9-012f-40f6-b178-338a8bf6ac85","system_id":"levelo_inurba_marseille","lat":43.30938,"lon":5.40151,"is_reserved":false,"is_disabled":false,"rental_uris":{"android":"levelo://app?vid=f56185a9-012f-40f6-b178-338a8bf6ac85","ios":"levelo://app?vid=f56185a9-012f-40f6-b178-338a8bf6ac85"},"vehicle_type_id":"4","last_reported":1738688872,"current_range_meters":37600,"station_id":"ce4bgvp2rcd13ifvqct0","pricing_plan_id":"cebpf4jnsgd1na2vs0mg"},{"bike_id":"dafd10ed-96a4-4fae-a2bc-6ff46c93b8d6","system_id":"levelo_inurba_marseille","lat":43.26214,"lon":5.37443,"is_reserved":false,"is_disabled":false,"rental_uris":{"android":"levelo://app?vid=dafd10ed-96a4-4fae-a2bc-6ff46c93b8d6","ios":"levelo://app?vid=dafd10ed-96a4-4fae-a2bc-6ff46c93b8d6"},"vehicle_type_id":"4","last_reported":1738688872,"current_range_meters":38800,"station_id":"ce4bhgp2rcd13ifvqfc0","pricing_plan_id":"cebpf4jnsgd1na2vs0mg"},{"bike_id":"f88e9836-7d29-4bff-b116-30872ae8c64b","system_id":"levelo_inurba_marseille","lat":43.27979,"lon":5.41689,"is_reserved":false,"is_disabled":false,"rental_uris":{"android":"levelo://app?vid=f88e9836-7d29-4bff-b116-30872ae8c64b","ios":"levelo://app?vid=f88e9836-7d29-4bff-b116-30872ae8c64b"},"vehicle_type_id":"4","last_reported":1738688872,"current_range_meters":38800,"station_id":"ce4bho12rcd13ifvqh1g","pricing_plan_id":"cebpf4jnsgd1na2vs0mg"},{"bike_id":"585548c3-dfea-4775-b261-9cda396a75ed","system_id":"levelo_inurba_marseille","lat":43.30921,"lon":5.40155,"is_reserved":false,"is_disabled":true,"rental_uris":{"android":"levelo://app?vid=585548c3-dfea-4775-b261-9cda396a75ed","ios":"levelo://app?vid=585548c3-dfea-4775-b261-9cda396a75ed"},"vehicle_type_id":"4","last_reported":1738688872,"current_range_meters":38400,"station_id":"ce4bgvp2rcd13ifvqct0","pricing_plan_id":"cebpf4jnsgd1na2vs0mg"},{"bike_id":"7eaacd34-10f9-4246-8aa1-4a22e07a7c06","system_id":"levelo_inurba_marseille","lat":43.31669,"lon":5.37425,"is_reserved":false,"is_disabled":false,"rental_uris":{"android":"levelo://app?vid=7eaacd34-10f9-4246-8aa1-4a22e07a7c06","ios":"levelo://app?vid=7eaacd34-10f9-4246-8aa1-4a22e07a7c06"},"vehicle_type_id":"4","last_reported":1738688872,"current_range_meters":28800,"station_id":"","pricing_plan_id":"cebpf4jnsgd1na2vs0mg"},{"bike_id":"585f51fa-34d6-448a-8cc2-fd5376dae3cb","system_id":"levelo_inurba_marseille","lat":43.31761,"lon":5.39018,"is_reserved":false,"is_disabled":false,"rental_uris":{"android":"levelo://app?vid=585f51fa-34d6-448a-8cc2-fd5376dae3cb","ios":"levelo://app?vid=585f51fa-34d6-448a-8cc2-fd5376dae3cb"},"vehicle_type_id":"4","last_reported":1738688872,"current_range_meters":19200,"station_id":"ce4bhqp2rcd13ifvqhng","pricing_plan_id":"cebpf4jnsgd1na2vs0mg"},{"bike_id":"08e16184-4249-4b16-b41c-7c2fbc3d0cdb","system_id":"levelo_inurba_marseille","lat":43.255545,"lon":5.376056,"is_reserved":false,"is_disabled":false,"rental_uris":{"android":"levelo://app?vid=08e16184-4249-4b16-b41c-7c2fbc3d0cdb","ios":"levelo://app?vid=08e16184-4249-4b16-b41c-7c2fbc3d0cdb"},"vehicle_type_id":"4","last_reported":1738688872,"current_range_meters":36400,"station_id":"ce4bhh12rcd13ifvqff0","pricing_plan_id":"cebpf4jnsgd1na2vs0mg"},{"bike_id":"820e8ef9-125b-498e-aafa-fafccb5e57f1","system_id":"levelo_inurba_marseille","lat":43.30534,"lon":5.36708,"is_reserved":false,"is_disabled":false,"rental_uris":{"android":"levelo://app?vid=820e8ef9-125b-498e-aafa-fafccb5e57f1","ios":"levelo://app?vid=820e8ef9-125b-498e-aafa-fafccb5e57f1"},"vehicle_type_id":"4","last_reported":1738688872,"current_range_meters":23200,"station_id":"ce4bgrp2rcd13ifvqc9g","pricing_plan_id":"cebpf4jnsgd1na2vs0mg"},{"bike_id":"c2027482-b7f5-44be-acab-5dc6172d6300","system_id":"levelo_inurba_marseille","lat":43.29291,"lon":5.37456,"is_reserved":false,"is_disabled":true,"rental_uris":{"android":"levelo://app?vid=c2027482-b7f5-44be-acab-5dc6172d6300","ios":"levelo://app?vid=c2027482-b7f5-44be-acab-5dc6172d6300"},"vehicle_type_id":"4","last_reported":1738688872,"current_range_meters":1200,"station_id":"ce4bgi12rcd13ifvqb70","pricing_plan_id":"cebpf4jnsgd1na2vs0mg"},{"bike_id":"c92d27b3-011a-4b9b-85d3-c7a68cdf0054","system_id":"levelo_inurba_marseille","lat":43.324777,"lon":5.365669,"is_reserved":false,"is_disabled":true,"rental_uris":{"android":"levelo://app?vid=c92d27b3-011a-4b9b-85d3-c7a68cdf0054","ios":"levelo://app?vid=c92d27b3-011a-4b9b-85d3-c7a68cdf0054"},"vehicle_type_id":"4","last_reported":1738688872,"current_range_meters":16400,"station_id":"","pricing_plan_id":"cebpf4jnsgd1na2vs0mg"},{"bike_id":"a31da492-d404-42a4-a173-3e8c75aeef5d","system_id":"levelo_inurba_marseille","lat":43.2439,"lon":5.37064,"is_reserved":false,"is_disabled":false,"rental_uris":{"android":"levelo://app?vid=a31da492-d404-42a4-a173-3e8c75aeef5d","ios":"levelo://app?vid=a31da492-d404-42a4-a173-3e8c75aeef5d"},"vehicle_type_id":"4","last_reported":1738688872,"current_range_meters":33600,"station_id":"ce4bhhh2rcd13ifvqfk0","pricing_plan_id":"cebpf4jnsgd1na2vs0mg"},{"bike_id":"1382757c-78b1-4d7d-b620-800591f95f65","system_id":"levelo_inurba_marseille","lat":43.29533,"lon":5.38555,"is_reserved":false,"is_disabled":false,"rental_uris":{"android":"levelo://app?vid=1382757c-78b1-4d7d-b620-800591f95f65","ios":"levelo://app?vid=1382757c-78b1-4d7d-b620-800591f95f65"},"vehicle_type_id":"4","last_reported":1738688872,"current_range_meters":25600,"station_id":"ce4bgih2rcd13ifvqba0","pricing_plan_id":"cebpf4jnsgd1na2vs0mg"},{"bike_id":"a1a7079b-68b5-45ca-9af8-b6bc9f7cd559","system_id":"levelo_inurba_marseille","lat":43.22932,"lon":5.35395,"is_reserved":false,"is_disabled":false,"rental_uris":{"android":"levelo://app?vid=a1a7079b-68b5-45ca-9af8-b6bc9f7cd559","ios":"levelo://app?vid=a1a7079b-68b5-45ca-9af8-b6bc9f7cd559"},"vehicle_type_id":"4","last_reported":1738688872,"current_range_meters":38800,"station_id":"cpo3532slgdg3j2ikp40","pricing_plan_id":"cebpf4jnsgd1na2vs0mg"},{"bike_id":"434b618f-54de-4fea-a4f7-8069e6ab644a","system_id":"levelo_inurba_marseille","lat":43.27564,"lon":5.38434,"is_reserved":false,"is_disabled":false,"rental_uris":{"android":"levelo://app?vid=434b618f-54de-4fea-a4f7-8069e6ab644a","ios":"levelo://app?vid=434b618f-54de-4fea-a4f7-8069e6ab644a"},"vehicle_type_id":"4","last_reported":1738688872,"current_range_meters":32400,"station_id":"ce4bhh92rcd13ifvqfi0","pricing_plan_id":"cebpf4jnsgd1na2vs0mg"},{"bike_id":"b33c305b-93f2-4704-99fc-c1fc7dc94c00","system_id":"levelo_inurba_marseille","lat":43.31176,"lon":5.3872,"is_reserved":false,"is_disabled":true,"rental_uris":{"android":"levelo://app?vid=b33c305b-93f2-4704-99fc-c1fc7dc94c00","ios":"levelo://app?vid=b33c305b-93f2-4704-99fc-c1fc7dc94c00"},"vehicle_type_id":"4","last_reported":1738688872,"current_range_meters":1600,"station_id":"ce4bgv12rcd13ifvqcp0","pricing_plan_id":"cebpf4jnsgd1na2vs0mg"},{"bike_id":"b7406dda-3082-4224-bdff-a31932a4a7c1","system_id":"levelo_inurba_marseille","lat":43.28099,"lon":5.39615,"is_reserved":false,"is_disabled":false,"rental_uris":{"android":"levelo://app?vid=b7406dda-3082-4224-bdff-a31932a4a7c1","ios":"levelo://app?vid=b7406dda-3082-4224-bdff-a31932a4a7c1"},"vehicle_type_id":"4","last_reported":1738688872,"current_range_meters":30000,"station_id":"ce4bho12rcd13ifvqh2g","pricing_plan_id":"cebpf4jnsgd1na2vs0mg"},{"bike_id":"b2a19fe6-c9df-433d-8fa4-95bea12eff65","system_id":"levelo_inurba_marseille","lat":43.24534,"lon":5.39515,"is_reserved":false,"is_disabled":false,"rental_uris":{"android":"levelo://app?vid=b2a19fe6-c9df-433d-8fa4-95bea12eff65","ios":"levelo://app?vid=b2a19fe6-c9df-433d-8fa4-95bea12eff65"},"vehicle_type_id":"4","last_reported":1738688872,"current_range_meters":32000,"station_id":"ce4bhlp2rcd13ifvqgjg","pricing_plan_id":"cebpf4jnsgd1na2vs0mg"},{"bike_id":"04428629-13e9-42bc-8f9d-524ec0a38824","system_id":"levelo_inurba_marseille","lat":43.28367,"lon":5.38637,"is_reserved":false,"is_disabled":false,"rental_uris":{"android":"levelo://app?vid=04428629-13e9-42bc-8f9d-524ec0a38824","ios":"levelo://app?vid=04428629-13e9-42bc-8f9d-524ec0a38824"},"vehicle_type_id":"4","last_reported":1738688872,"current_range_meters":22800,"station_id":"ce4bh492rcd13ifvqdvg","pricing_plan_id":"cebpf4jnsgd1na2vs0mg"},{"bike_id":"fff747a3-bd82-458d-baaa-d1987fbbf2c0","system_id":"levelo_inurba_marseille","lat":43.24531,"lon":5.39534,"is_reserved":false,"is_disabled":true,"rental_uris":{"android":"levelo://app?vid=fff747a3-bd82-458d-baaa-d1987fbbf2c0","ios":"levelo://app?vid=fff747a3-bd82-458d-baaa-d1987fbbf2c0"},"vehicle_type_id":"4","last_reported":1738688872,"current_range_meters":1200,"station_id":"ce4bhlp2rcd13ifvqgjg","pricing_plan_id":"cebpf4jnsgd1na2vs0mg"},{"bike_id":"38d9c123-c80e-4d99-abd9-1554da4e609f","system_id":"levelo_inurba_marseille","lat":43.24657,"lon":5.38885,"is_reserved":false,"is_disabled":false,"rental_uris":{"android":"levelo://app?vid=38d9c123-c80e-4d99-abd9-1554da4e609f","ios":"levelo://app?vid=38d9c123-c80e-4d99-abd9-1554da4e609f"},"vehicle_type_id":"4","last_reported":1738688872,"current_range_meters":29600,"station_id":"ce4bhg12rcd13ifvqf60","pricing_plan_id":"cebpf4jnsgd1na2vs0mg"},{"bike_id":"0d30f1f6-cb03-41c8-9ed3-2fe3b5a2ebb5","system_id":"levelo_inurba_marseille","lat":43.29868,"lon":5.38908,"is_reserved":false,"is_disabled":false,"rental_uris":{"android":"levelo://app?vid=0d30f1f6-cb03-41c8-9ed3-2fe3b5a2ebb5","ios":"levelo://app?vid=0d30f1f6-cb03-41c8-9ed3-2fe3b5a2ebb5"},"vehicle_type_id":"4","last_reported":1738688872,"current_range_meters":9600,"station_id":"ce4bh392rcd13ifvqdl0","pricing_plan_id":"cebpf4jnsgd1na2vs0mg"},{"bike_id":"28b46026-4ece-4a29-b1ca-75b6116a354b","system_id":"levelo_inurba_marseille","lat":43.31065,"lon":5.38337,"is_reserved":false,"is_disabled":false,"rental_uris":{"android":"levelo://app?vid=28b46026-4ece-4a29-b1ca-75b6116a354b","ios":"levelo://app?vid=28b46026-4ece-4a29-b1ca-75b6116a354b"},"vehicle_type_id":"4","last_reported":1738688872,"current_range_meters":5600,"station_id":"ce4bgv92rcd13ifvqcr0","pricing_plan_id":"cebpf4jnsgd1na2vs0mg"},{"bike_id":"8a051d78-5a8c-45fe-8aa7-25ad521f06ab","system_id":"levelo_inurba_marseille","lat":43.2987,"lon":5.39726,"is_reserved":false,"is_disabled":false,"rental_uris":{"android":"levelo://app?vid=8a051d78-5a8c-45fe-8aa7-25ad521f06ab","ios":"levelo://app?vid=8a051d78-5a8c-45fe-8aa7-25ad521f06ab"},"vehicle_type_id":"4","last_reported":1738688872,"current_range_meters":27200,"station_id":"ce4bh0h2rcd13ifvqd50","pricing_plan_id":"cebpf4jnsgd1na2vs0mg"},{"bike_id":"4e36999c-d4eb-4f7f-9aea-e1cbd25233da","system_id":"levelo_inurba_marseille","lat":43.27571,"lon":5.38423,"is_reserved":false,"is_disabled":false,"rental_uris":{"android":"levelo://app?vid=4e36999c-d4eb-4f7f-9aea-e1cbd25233da","ios":"levelo://app?vid=4e36999c-d4eb-4f7f-9aea-e1cbd25233da"},"vehicle_type_id":"4","last_reported":1738688872,"current_range_meters":12000,"station_id":"ce4bhh92rcd13ifvqfi0","pricing_plan_id":"cebpf4jnsgd1na2vs0mg"},{"bike_id":"c4b261ad-c472-4cc0-befa-a682b8968c61","system_id":"levelo_inurba_marseille","lat":43.29198,"lon":5.35811,"is_reserved":false,"is_disabled":false,"rental_uris":{"android":"levelo://app?vid=c4b261ad-c472-4cc0-befa-a682b8968c61","ios":"levelo://app?vid=c4b261ad-c472-4cc0-befa-a682b8968c61"},"vehicle_type_id":"4","last_reported":1738688872,"current_range_meters":16800,"station_id":"ce4bhb12rcd13ifvqel0","pricing_plan_id":"cebpf4jnsgd1na2vs0mg"},{"bike_id":"a0a98dcf-af7c-4b76-95ad-a37f74b4cb56","system_id":"levelo_inurba_marseille","lat":43.290499,"lon":5.359269,"is_reserved":false,"is_disabled":false,"rental_uris":{"android":"levelo://app?vid=a0a98dcf-af7c-4b76-95ad-a37f74b4cb56","ios":"levelo://app?vid=a0a98dcf-af7c-4b76-95ad-a37f74b4cb56"},"vehicle_type_id":"4","last_reported":1738688872,"current_range_meters":21600,"station_id":"ce4bha92rcd13ifvqeg0","pricing_plan_id":"cebpf4jnsgd1na2vs0mg"},{"bike_id":"f0f3ce47-cd26-47a2-9f5b-f65240d2510b","system_id":"levelo_inurba_marseille","lat":43.29265,"lon":5.38439,"is_reserved":false,"is_disabled":false,"rental_uris":{"android":"levelo://app?vid=f0f3ce47-cd26-47a2-9f5b-f65240d2510b","ios":"levelo://app?vid=f0f3ce47-cd26-47a2-9f5b-f65240d2510b"},"vehicle_type_id":"4","last_reported":1738688872,"current_range_meters":27600,"station_id":"ce4bh692rcd13ifvqea0","pricing_plan_id":"cebpf4jnsgd1na2vs0mg"},{"bike_id":"0f7906dd-c54a-4015-9338-869d6d6cd458","system_id":"levelo_inurba_marseille","lat":43.30445,"lon":5.3892,"is_reserved":false,"is_disabled":false,"rental_uris":{"android":"levelo://app?vid=0f7906dd-c54a-4015-9338-869d6d6cd458","ios":"levelo://app?vid=0f7906dd-c54a-4015-9338-869d6d6cd458"},"vehicle_type_id":"4","last_reported":1738688872,"current_range_meters":35600,"station_id":"ce4bgk12rcd13ifvqbi0","pricing_plan_id":"cebpf4jnsgd1na2vs0mg"},{"bike_id":"fcec2196-c533-4670-933c-9ee1e51f8179","system_id":"levelo_inurba_marseille","lat":43.25492,"lon":5.3765,"is_reserved":false,"is_disabled":false,"rental_uris":{"android":"levelo://app?vid=fcec2196-c533-4670-933c-9ee1e51f8179","ios":"levelo://app?vid=fcec2196-c533-4670-933c-9ee1e51f8179"},"vehicle_type_id":"4","last_reported":1738688872,"current_range_meters":28400,"station_id":"ce4bhh12rcd13ifvqff0","pricing_plan_id":"cebpf4jnsgd1na2vs0mg"},{"bike_id":"161cfab1-3585-4f49-9175-5e4591bd3bd6","system_id":"levelo_inurba_marseille","lat":43.26499,"lon":5.39561,"is_reserved":false,"is_disabled":false,"rental_uris":{"android":"levelo://app?vid=161cfab1-3585-4f49-9175-5e4591bd3bd6","ios":"levelo://app?vid=161cfab1-3585-4f49-9175-5e4591bd3bd6"},"vehicle_type_id":"4","last_reported":1738688872,"current_range_meters":38400,"station_id":"ce4bhi12rcd13ifvqfq0","pricing_plan_id":"cebpf4jnsgd1na2vs0mg"},{"bike_id":"1e0cc31a-5fd0-4209-bcd3-29f934eadab8","system_id":"levelo_inurba_marseille","lat":43.23199,"lon":5.3556,"is_reserved":false,"is_disabled":false,"rental_uris":{"android":"levelo://app?vid=1e0cc31a-5fd0-4209-bcd3-29f934eadab8","ios":"levelo://app?vid=1e0cc31a-5fd0-4209-bcd3-29f934eadab8"},"vehicle_type_id":"4","last_reported":1738688872,"current_range_meters":24400,"station_id":"ce4bhu92rcd13ifvqi70","pricing_plan_id":"cebpf4jnsgd1na2vs0mg"},{"bike_id":"d0f83c8b-7d8b-4405-b29d-b6f7f57a005e","system_id":"levelo_inurba_marseille","lat":43.33013,"lon":5.39045,"is_reserved":false,"is_disabled":false,"rental_uris":{"android":"levelo://app?vid=d0f83c8b-7d8b-4405-b29d-b6f7f57a005e","ios":"levelo://app?vid=d0f83c8b-7d8b-4405-b29d-b6f7f57a005e"},"vehicle_type_id":"4","last_reported":1738688872,"current_range_meters":11200,"station_id":"ce4bhr92rcd13ifvqhrg","pricing_plan_id":"cebpf4jnsgd1na2vs0mg"},{"bike_id":"30d68ac6-7ba6-4749-8154-bf914e372a6a","system_id":"levelo_inurba_marseille","lat":43.32364,"lon":5.3889,"is_reserved":false,"is_disabled":false,"rental_uris":{"android":"levelo://app?vid=30d68ac6-7ba6-4749-8154-bf914e372a6a","ios":"levelo://app?vid=30d68ac6-7ba6-4749-8154-bf914e372a6a"},"vehicle_type_id":"4","last_reported":1738688872,"current_range_meters":36800,"station_id":"ce4bhqp2rcd13ifvqhog","pricing_plan_id":"cebpf4jnsgd1na2vs0mg"},{"bike_id":"3d8cfb91-987e-4ac9-9961-fd9ce1a72a3e","system_id":"levelo_inurba_marseille","lat":43.30084,"lon":5.39068,"is_reserved":false,"is_disabled":false,"rental_uris":{"android":"levelo://app?vid=3d8cfb91-987e-4ac9-9961-fd9ce1a72a3e","ios":"levelo://app?vid=3d8cfb91-987e-4ac9-9961-fd9ce1a72a3e"},"vehicle_type_id":"4","last_reported":1738688872,"current_range_meters":17200,"station_id":"ce4bh192rcd13ifvqdb0","pricing_plan_id":"cebpf4jnsgd1na2vs0mg"},{"bike_id":"e348c08f-b955-48cf-b99a-0705dac956e6","system_id":"levelo_inurba_marseille","lat":43.29422,"lon":5.38627,"is_reserved":false,"is_disabled":false,"rental_uris":{"android":"levelo://app?vid=e348c08f-b955-48cf-b99a-0705dac956e6","ios":"levelo://app?vid=e348c08f-b955-48cf-b99a-0705dac956e6"},"vehicle_type_id":"4","last_reported":1738688872,"current_range_meters":25600,"station_id":"ce4bh2h2rcd13ifvqdh0","pricing_plan_id":"cebpf4jnsgd1na2vs0mg"},{"bike_id":"e33c097b-83d0-40ec-9fbf-364e5b0a9ef8","system_id":"levelo_inurba_marseille","lat":43.23224,"lon":5.35569,"is_reserved":false,"is_disabled":false,"rental_uris":{"android":"levelo://app?vid=e33c097b-83d0-40ec-9fbf-364e5b0a9ef8","ios":"levelo://app?vid=e33c097b-83d0-40ec-9fbf-364e5b0a9ef8"},"vehicle_type_id":"4","last_reported":1738688872,"current_range_meters":39200,"station_id":"ce4bhu92rcd13ifvqi70","pricing_plan_id":"cebpf4jnsgd1na2vs0mg"},{"bike_id":"b14194eb-76ff-4386-b1ae-b7fd26dfea73","system_id":"levelo_inurba_marseille","lat":43.28677,"lon":5.38653,"is_reserved":false,"is_disabled":false,"rental_uris":{"android":"levelo://app?vid=b14194eb-76ff-4386-b1ae-b7fd26dfea73","ios":"levelo://app?vid=b14194eb-76ff-4386-b1ae-b7fd26dfea73"},"vehicle_type_id":"4","last_reported":1738688872,"current_range_meters":24800,"station_id":"ce4bh492rcd13ifvqdug","pricing_plan_id":"cebpf4jnsgd1na2vs0mg"},{"bike_id":"f75e93ed-6cd6-4244-8718-b592b9686380","system_id":"levelo_inurba_marseille","lat":43.29527,"lon":5.38542,"is_reserved":false,"is_disabled":false,"rental_uris":{"android":"levelo://app?vid=f75e93ed-6cd6-4244-8718-b592b9686380","ios":"levelo://app?vid=f75e93ed-6cd6-4244-8718-b592b9686380"},"vehicle_type_id":"4","last_reported":1738688872,"current_range_meters":24800,"station_id":"ce4bgih2rcd13ifvqba0","pricing_plan_id":"cebpf4jnsgd1na2vs0mg"},{"bike_id":"6e33ca30-cf0b-4cfb-b5ba-848bf08963e5","system_id":"levelo_inurba_marseille","lat":43.28945,"lon":5.36637,"is_reserved":false,"is_disabled":false,"rental_uris":{"android":"levelo://app?vid=6e33ca30-cf0b-4cfb-b5ba-848bf08963e5","ios":"levelo://app?vid=6e33ca30-cf0b-4cfb-b5ba-848bf08963e5"},"vehicle_type_id":"4","last_reported":1738688872,"current_range_meters":32000,"station_id":"ce4bhap2rcd13ifvqek0","pricing_plan_id":"cebpf4jnsgd1na2vs0mg"},{"bike_id":"8cbc1446-3687-4dba-b808-3d4cbc6de8e4","system_id":"levelo_inurba_marseille","lat":43.26783,"lon":5.39412,"is_reserved":false,"is_disabled":false,"rental_uris":{"android":"levelo://app?vid=8cbc1446-3687-4dba-b808-3d4cbc6de8e4","ios":"levelo://app?vid=8cbc1446-3687-4dba-b808-3d4cbc6de8e4"},"vehicle_type_id":"4","last_reported":1738688872,"current_range_meters":10800,"station_id":"ce4bhh12rcd13ifvqfg0","pricing_plan_id":"cebpf4jnsgd1na2vs0mg"},{"bike_id":"0e775c38-7145-4e54-8c6f-1ded1dd2ad0f","system_id":"levelo_inurba_marseille","lat":43.24561,"lon":5.39531,"is_reserved":false,"is_disabled":false,"rental_uris":{"android":"levelo://app?vid=0e775c38-7145-4e54-8c6f-1ded1dd2ad0f","ios":"levelo://app?vid=0e775c38-7145-4e54-8c6f-1ded1dd2ad0f"},"vehicle_type_id":"4","last_reported":1738688872,"current_range_meters":38800,"station_id":"ce4bhlp2rcd13ifvqgjg","pricing_plan_id":"cebpf4jnsgd1na2vs0mg"},{"bike_id":"087030d9-e5e2-496a-a083-b7c401a9076d","system_id":"levelo_inurba_marseille","lat":43.26209,"lon":5.37446,"is_reserved":false,"is_disabled":false,"rental_uris":{"android":"levelo://app?vid=087030d9-e5e2-496a-a083-b7c401a9076d","ios":"levelo://app?vid=087030d9-e5e2-496a-a083-b7c401a9076d"},"vehicle_type_id":"4","last_reported":1738688872,"current_range_meters":38400,"station_id":"ce4bhgp2rcd13ifvqfc0","pricing_plan_id":"cebpf4jnsgd1na2vs0mg"},{"bike_id":"ac8d14c9-3e4f-4987-a1a8-1715d0bd72e0","system_id":"levelo_inurba_marseille","lat":43.27988,"lon":5.38768,"is_reserved":false,"is_disabled":false,"rental_uris":{"android":"levelo://app?vid=ac8d14c9-3e4f-4987-a1a8-1715d0bd72e0","ios":"levelo://app?vid=ac8d14c9-3e4f-4987-a1a8-1715d0bd72e0"},"vehicle_type_id":"4","last_reported":1738688872,"current_range_meters":30400,"station_id":"ce4bhh92rcd13ifvqfi0","pricing_plan_id":"cebpf4jnsgd1na2vs0mg"},{"bike_id":"e4cd9af1-a470-4601-8560-e2f67bbb6b05","system_id":"levelo_inurba_marseille","lat":43.29905,"lon":5.38135,"is_reserved":false,"is_disabled":false,"rental_uris":{"android":"levelo://app?vid=e4cd9af1-a470-4601-8560-e2f67bbb6b05","ios":"levelo://app?vid=e4cd9af1-a470-4601-8560-e2f67bbb6b05"},"vehicle_type_id":"4","last_reported":1738688872,"current_range_meters":6400,"station_id":"ce4bgj12rcd13ifvqbc0","pricing_plan_id":"cebpf4jnsgd1na2vs0mg"},{"bike_id":"cfaccc2c-fa47-4dcb-b3c8-437a75571890","system_id":"levelo_inurba_marseille","lat":43.2942,"lon":5.38626,"is_reserved":false,"is_disabled":false,"rental_uris":{"android":"levelo://app?vid=cfaccc2c-fa47-4dcb-b3c8-437a75571890","ios":"levelo://app?vid=cfaccc2c-fa47-4dcb-b3c8-437a75571890"},"vehicle_type_id":"4","last_reported":1738688872,"current_range_meters":25200,"station_id":"ce4bh2h2rcd13ifvqdh0","pricing_plan_id":"cebpf4jnsgd1na2vs0mg"},{"bike_id":"4f850f12-f532-4c2a-bd22-c983d8e24f79","system_id":"levelo_inurba_marseille","lat":43.24167,"lon":5.36395,"is_reserved":false,"is_disabled":false,"rental_uris":{"android":"levelo://app?vid=4f850f12-f532-4c2a-bd22-c983d8e24f79","ios":"levelo://app?vid=4f850f12-f532-4c2a-bd22-c983d8e24f79"},"vehicle_type_id":"4","last_reported":1738688872,"current_range_meters":32000,"station_id":"cpo36qri1sfpv3e86is0","pricing_plan_id":"cebpf4jnsgd1na2vs0mg"},{"bike_id":"d66f66f4-d296-4c99-9fd4-3aa0faa733eb","system_id":"levelo_inurba_marseille","lat":43.2827,"lon":5.35069,"is_reserved":false,"is_disabled":false,"rental_uris":{"android":"levelo://app?vid=d66f66f4-d296-4c99-9fd4-3aa0faa733eb","ios":"levelo://app?vid=d66f66f4-d296-4c99-9fd4-3aa0faa733eb"},"vehicle_type_id":"4","last_reported":1738688872,"current_range_meters":22800,"station_id":"ce4bhbp2rcd13ifvqerg","pricing_plan_id":"cebpf4jnsgd1na2vs0mg"},{"bike_id":"4b51056f-c9bf-4d1d-a8ae-f2274992a55e","system_id":"levelo_inurba_marseille","lat":43.23186,"lon":5.39997,"is_reserved":false,"is_disabled":false,"rental_uris":{"android":"levelo://app?vid=4b51056f-c9bf-4d1d-a8ae-f2274992a55e","ios":"levelo://app?vid=4b51056f-c9bf-4d1d-a8ae-f2274992a55e"},"vehicle_type_id":"4","last_reported":1738688872,"current_range_meters":17200,"station_id":"ce4bhn12rcd13ifvqgqg","pricing_plan_id":"cebpf4jnsgd1na2vs0mg"},{"bike_id":"2a33566f-1cb4-4459-b989-68bede95ac63","system_id":"levelo_inurba_marseille","lat":43.2909,"lon":5.38175,"is_reserved":false,"is_disabled":false,"rental_uris":{"android":"levelo://app?vid=2a33566f-1cb4-4459-b989-68bede95ac63","ios":"levelo://app?vid=2a33566f-1cb4-4459-b989-68bede95ac63"},"vehicle_type_id":"4","last_reported":1738688872,"current_range_meters":32000,"station_id":"ce4bh512rcd13ifvqe2g","pricing_plan_id":"cebpf4jnsgd1na2vs0mg"},{"bike_id":"d85b1647-32e9-46ba-bb58-f06a55d22ca5","system_id":"levelo_inurba_marseille","lat":43.29024,"lon":5.38639,"is_reserved":false,"is_disabled":false,"rental_uris":{"android":"levelo://app?vid=d85b1647-32e9-46ba-bb58-f06a55d22ca5","ios":"levelo://app?vid=d85b1647-32e9-46ba-bb58-f06a55d22ca5"},"vehicle_type_id":"4","last_reported":1738688872,"current_range_meters":11200,"station_id":"ce4bh4p2rcd13ifvqe0g","pricing_plan_id":"cebpf4jnsgd1na2vs0mg"},{"bike_id":"5e95bd88-f162-448b-aabf-4aafdf9239ce","system_id":"levelo_inurba_marseille","lat":43.30948,"lon":5.40158,"is_reserved":false,"is_disabled":false,"rental_uris":{"android":"levelo://app?vid=5e95bd88-f162-448b-aabf-4aafdf9239ce","ios":"levelo://app?vid=5e95bd88-f162-448b-aabf-4aafdf9239ce"},"vehicle_type_id":"4","last_reported":1738688872,"current_range_meters":27600,"station_id":"ce4bgvp2rcd13ifvqct0","pricing_plan_id":"cebpf4jnsgd1na2vs0mg"},{"bike_id":"8d00d4ad-be33-4b99-aab0-e59f4c6808e3","system_id":"levelo_inurba_marseille","lat":43.27948,"lon":5.41054,"is_reserved":false,"is_disabled":false,"rental_uris":{"android":"levelo://app?vid=8d00d4ad-be33-4b99-aab0-e59f4c6808e3","ios":"levelo://app?vid=8d00d4ad-be33-4b99-aab0-e59f4c6808e3"},"vehicle_type_id":"4","last_reported":1738688872,"current_range_meters":30000,"station_id":"ce4bhnp2rcd13ifvqh0g","pricing_plan_id":"cebpf4jnsgd1na2vs0mg"},{"bike_id":"278902b4-7b50-4f46-8ac1-6d0f29cc8638","system_id":"levelo_inurba_marseille","lat":43.24392,"lon":5.37062,"is_reserved":false,"is_disabled":false,"rental_uris":{"android":"levelo://app?vid=278902b4-7b50-4f46-8ac1-6d0f29cc8638","ios":"levelo://app?vid=278902b4-7b50-4f46-8ac1-6d0f29cc8638"},"vehicle_type_id":"4","last_reported":1738688872,"current_range_meters":38000,"station_id":"ce4bhhh2rcd13ifvqfk0","pricing_plan_id":"cebpf4jnsgd1na2vs0mg"},{"bike_id":"d6b0cf54-fa2e-4bc8-963e-74d7f8faf1fe","system_id":"levelo_inurba_marseille","lat":43.24665,"lon":5.38155,"is_reserved":false,"is_disabled":false,"rental_uris":{"android":"levelo://app?vid=d6b0cf54-fa2e-4bc8-963e-74d7f8faf1fe","ios":"levelo://app?vid=d6b0cf54-fa2e-4bc8-963e-74d7f8faf1fe"},"vehicle_type_id":"4","last_reported":1738688872,"current_range_meters":6000,"station_id":"ce4bhih2rcd13ifvqfr0","pricing_plan_id":"cebpf4jnsgd1na2vs0mg"},{"bike_id":"c498ce6e-31b6-4b5a-bf27-88958aca9621","system_id":"levelo_inurba_marseille","lat":43.29532,"lon":5.38553,"is_reserved":false,"is_disabled":true,"rental_uris":{"android":"levelo://app?vid=c498ce6e-31b6-4b5a-bf27-88958aca9621","ios":"levelo://app?vid=c498ce6e-31b6-4b5a-bf27-88958aca9621"},"vehicle_type_id":"4","last_reported":1738688872,"current_range_meters":0,"station_id":"ce4bgih2rcd13ifvqba0","pricing_plan_id":"cebpf4jnsgd1na2vs0mg"},{"bike_id":"8b3eac35-06cf-4eb0-b96f-ceebf5dc2592","system_id":"levelo_inurba_marseille","lat":43.25497,"lon":5.3765,"is_reserved":false,"is_disabled":false,"rental_uris":{"android":"levelo://app?vid=8b3eac35-06cf-4eb0-b96f-ceebf5dc2592","ios":"levelo://app?vid=8b3eac35-06cf-4eb0-b96f-ceebf5dc2592"},"vehicle_type_id":"4","last_reported":1738688872,"current_range_meters":22000,"station_id":"ce4bhh12rcd13ifvqff0","pricing_plan_id":"cebpf4jnsgd1na2vs0mg"},{"bike_id":"3ab0ceb6-cd89-477f-8038-1be761eb4bda","system_id":"levelo_inurba_marseille","lat":43.29504,"lon":5.37432,"is_reserved":false,"is_disabled":true,"rental_uris":{"android":"levelo://app?vid=3ab0ceb6-cd89-477f-8038-1be761eb4bda","ios":"levelo://app?vid=3ab0ceb6-cd89-477f-8038-1be761eb4bda"},"vehicle_type_id":"4","last_reported":1738688872,"current_range_meters":0,"station_id":"","pricing_plan_id":"cebpf4jnsgd1na2vs0mg"},{"bike_id":"0e595152-8b23-4ab9-977f-1c93ea3e9c77","system_id":"levelo_inurba_marseille","lat":43.28439,"lon":5.39207,"is_reserved":false,"is_disabled":false,"rental_uris":{"android":"levelo://app?vid=0e595152-8b23-4ab9-977f-1c93ea3e9c77","ios":"levelo://app?vid=0e595152-8b23-4ab9-977f-1c93ea3e9c77"},"vehicle_type_id":"4","last_reported":1738688872,"current_range_meters":30800,"station_id":"ce4bhoh2rcd13ifvqh5g","pricing_plan_id":"cebpf4jnsgd1na2vs0mg"},{"bike_id":"c85a26e1-f53e-4ec1-b1ea-8b32d23f1f4d","system_id":"levelo_inurba_marseille","lat":43.23061,"lon":5.35492,"is_reserved":false,"is_disabled":false,"rental_uris":{"android":"levelo://app?vid=c85a26e1-f53e-4ec1-b1ea-8b32d23f1f4d","ios":"levelo://app?vid=c85a26e1-f53e-4ec1-b1ea-8b32d23f1f4d"},"vehicle_type_id":"4","last_reported":1738688872,"current_range_meters":25600,"station_id":"cpo3342slgdg3j2ifvpg","pricing_plan_id":"cebpf4jnsgd1na2vs0mg"},{"bike_id":"bd648969-8de0-4439-b9af-0dc24244060d","system_id":"levelo_inurba_marseille","lat":43.27905,"lon":5.38006,"is_reserved":false,"is_disabled":false,"rental_uris":{"android":"levelo://app?vid=bd648969-8de0-4439-b9af-0dc24244060d","ios":"levelo://app?vid=bd648969-8de0-4439-b9af-0dc24244060d"},"vehicle_type_id":"4","last_reported":1738688872,"current_range_meters":27200,"station_id":"ce4bhf92rcd13ifvqf50","pricing_plan_id":"cebpf4jnsgd1na2vs0mg"},{"bike_id":"caacd4d7-cbe5-4528-bd6a-271ae30bc4c2","system_id":"levelo_inurba_marseille","lat":43.28619,"lon":5.35107,"is_reserved":false,"is_disabled":false,"rental_uris":{"android":"levelo://app?vid=caacd4d7-cbe5-4528-bd6a-271ae30bc4c2","ios":"levelo://app?vid=caacd4d7-cbe5-4528-bd6a-271ae30bc4c2"},"vehicle_type_id":"4","last_reported":1738688872,"current_range_meters":32800,"station_id":"ce4bhch2rcd13ifvqeug","pricing_plan_id":"cebpf4jnsgd1na2vs0mg"},{"bike_id":"e3fa5aaf-a54f-49f1-9073-60a9cb58ace8","system_id":"levelo_inurba_marseille","lat":43.268387,"lon":5.406197,"is_reserved":false,"is_disabled":false,"rental_uris":{"android":"levelo://app?vid=e3fa5aaf-a54f-49f1-9073-60a9cb58ace8","ios":"levelo://app?vid=e3fa5aaf-a54f-49f1-9073-60a9cb58ace8"},"vehicle_type_id":"4","last_reported":1738688872,"current_range_meters":19200,"station_id":"","pricing_plan_id":"cebpf4jnsgd1na2vs0mg"},{"bike_id":"2e1df716-a967-4c13-9053-3479503d145b","system_id":"levelo_inurba_marseille","lat":43.31757,"lon":5.39014,"is_reserved":false,"is_disabled":false,"rental_uris":{"android":"levelo://app?vid=2e1df716-a967-4c13-9053-3479503d145b","ios":"levelo://app?vid=2e1df716-a967-4c13-9053-3479503d145b"},"vehicle_type_id":"4","last_reported":1738688872,"current_range_meters":12000,"station_id":"ce4bhqp2rcd13ifvqhng","pricing_plan_id":"cebpf4jnsgd1na2vs0mg"},{"bike_id":"182298ac-ccac-4138-abf9-4deb3f8f0700","system_id":"levelo_inurba_marseille","lat":43.29525,"lon":5.39055,"is_reserved":false,"is_disabled":false,"rental_uris":{"android":"levelo://app?vid=182298ac-ccac-4138-abf9-4deb3f8f0700","ios":"levelo://app?vid=182298ac-ccac-4138-abf9-4deb3f8f0700"},"vehicle_type_id":"4","last_reported":1738688872,"current_range_meters":34000,"station_id":"ce4bh3p2rcd13ifvqdp0","pricing_plan_id":"cebpf4jnsgd1na2vs0mg"},{"bike_id":"2a256f0b-8a27-4e48-8df8-5d58995715dc","system_id":"levelo_inurba_marseille","lat":43.29528,"lon":5.39042,"is_reserved":false,"is_disabled":false,"rental_uris":{"android":"levelo://app?vid=2a256f0b-8a27-4e48-8df8-5d58995715dc","ios":"levelo://app?vid=2a256f0b-8a27-4e48-8df8-5d58995715dc"},"vehicle_type_id":"4","last_reported":1738688872,"current_range_meters":37600,"station_id":"ce4bh3p2rcd13ifvqdp0","pricing_plan_id":"cebpf4jnsgd1na2vs0mg"},{"bike_id":"e689ed0f-d150-4ed2-a1ba-c58331afbd60","system_id":"levelo_inurba_marseille","lat":43.27672,"lon":5.38877,"is_reserved":false,"is_disabled":false,"rental_uris":{"android":"levelo://app?vid=e689ed0f-d150-4ed2-a1ba-c58331afbd60","ios":"levelo://app?vid=e689ed0f-d150-4ed2-a1ba-c58331afbd60"},"vehicle_type_id":"4","last_reported":1738688872,"current_range_meters":39200,"station_id":"ce4bhi12rcd13ifvqfo0","pricing_plan_id":"cebpf4jnsgd1na2vs0mg"},{"bike_id":"adce3605-a15c-4e61-a5ce-de064812d197","system_id":"levelo_inurba_marseille","lat":43.27811,"lon":5.4072,"is_reserved":false,"is_disabled":false,"rental_uris":{"android":"levelo://app?vid=adce3605-a15c-4e61-a5ce-de064812d197","ios":"levelo://app?vid=adce3605-a15c-4e61-a5ce-de064812d197"},"vehicle_type_id":"4","last_reported":1738688872,"current_range_meters":19200,"station_id":"ce4bhnh2rcd13ifvqgtg","pricing_plan_id":"cebpf4jnsgd1na2vs0mg"},{"bike_id":"3356b867-8857-44a4-9882-de148bdf9b77","system_id":"levelo_inurba_marseille","lat":43.29928,"lon":5.37487,"is_reserved":false,"is_disabled":false,"rental_uris":{"android":"levelo://app?vid=3356b867-8857-44a4-9882-de148bdf9b77","ios":"levelo://app?vid=3356b867-8857-44a4-9882-de148bdf9b77"},"vehicle_type_id":"4","last_reported":1738688872,"current_range_meters":17200,"station_id":"ce4bgjh2rcd13ifvqbg0","pricing_plan_id":"cebpf4jnsgd1na2vs0mg"},{"bike_id":"1ef98b06-35f8-42b6-b7b3-42b7ff981866","system_id":"levelo_inurba_marseille","lat":43.33019,"lon":5.39025,"is_reserved":false,"is_disabled":false,"rental_uris":{"android":"levelo://app?vid=1ef98b06-35f8-42b6-b7b3-42b7ff981866","ios":"levelo://app?vid=1ef98b06-35f8-42b6-b7b3-42b7ff981866"},"vehicle_type_id":"4","last_reported":1738688872,"current_range_meters":3600,"station_id":"ce4bhr92rcd13ifvqhrg","pricing_plan_id":"cebpf4jnsgd1na2vs0mg"},{"bike_id":"59677438-f2fe-43aa-9ead-2b3e6b434260","system_id":"levelo_inurba_marseille","lat":43.29372,"lon":5.40118,"is_reserved":false,"is_disabled":false,"rental_uris":{"android":"levelo://app?vid=59677438-f2fe-43aa-9ead-2b3e6b434260","ios":"levelo://app?vid=59677438-f2fe-43aa-9ead-2b3e6b434260"},"vehicle_type_id":"4","last_reported":1738688872,"current_range_meters":19600,"station_id":"","pricing_plan_id":"cebpf4jnsgd1na2vs0mg"},{"bike_id":"28bb841b-94b3-4842-8d56-4fd8bc4ce1ed","system_id":"levelo_inurba_marseille","lat":43.24543,"lon":5.39526,"is_reserved":false,"is_disabled":false,"rental_uris":{"android":"levelo://app?vid=28bb841b-94b3-4842-8d56-4fd8bc4ce1ed","ios":"levelo://app?vid=28bb841b-94b3-4842-8d56-4fd8bc4ce1ed"},"vehicle_type_id":"4","last_reported":1738688872,"current_range_meters":10800,"station_id":"ce4bhlp2rcd13ifvqgjg","pricing_plan_id":"cebpf4jnsgd1na2vs0mg"},{"bike_id":"3d00fb59-c606-49ec-b11c-0d8ad9bda7a3","system_id":"levelo_inurba_marseille","lat":43.27613,"lon":5.36125,"is_reserved":false,"is_disabled":false,"rental_uris":{"android":"levelo://app?vid=3d00fb59-c606-49ec-b11c-0d8ad9bda7a3","ios":"levelo://app?vid=3d00fb59-c606-49ec-b11c-0d8ad9bda7a3"},"vehicle_type_id":"4","last_reported":1738688872,"current_range_meters":14400,"station_id":"ce4bgj92rcd13ifvqbe0","pricing_plan_id":"cebpf4jnsgd1na2vs0mg"},{"bike_id":"1247e56b-ab9c-48cc-8c8f-a48a5e66a3bb","system_id":"levelo_inurba_marseille","lat":43.28275,"lon":5.3507,"is_reserved":false,"is_disabled":false,"rental_uris":{"android":"levelo://app?vid=1247e56b-ab9c-48cc-8c8f-a48a5e66a3bb","ios":"levelo://app?vid=1247e56b-ab9c-48cc-8c8f-a48a5e66a3bb"},"vehicle_type_id":"4","last_reported":1738688872,"current_range_meters":27200,"station_id":"ce4bhbp2rcd13ifvqerg","pricing_plan_id":"cebpf4jnsgd1na2vs0mg"},{"bike_id":"763bed45-2e14-41ee-bfd9-664984f368e8","system_id":"levelo_inurba_marseille","lat":43.25488,"lon":5.37649,"is_reserved":false,"is_disabled":false,"rental_uris":{"android":"levelo://app?vid=763bed45-2e14-41ee-bfd9-664984f368e8","ios":"levelo://app?vid=763bed45-2e14-41ee-bfd9-664984f368e8"},"vehicle_type_id":"4","last_reported":1738688872,"current_range_meters":39200,"station_id":"ce4bhh12rcd13ifvqff0","pricing_plan_id":"cebpf4jnsgd1na2vs0mg"},{"bike_id":"44a2947d-0092-4c34-b9fc-8dfa35aec521","system_id":"levelo_inurba_marseille","lat":43.29568,"lon":5.39969,"is_reserved":false,"is_disabled":false,"rental_uris":{"android":"levelo://app?vid=44a2947d-0092-4c34-b9fc-8dfa35aec521","ios":"levelo://app?vid=44a2947d-0092-4c34-b9fc-8dfa35aec521"},"vehicle_type_id":"4","last_reported":1738688872,"current_range_meters":25200,"station_id":"ce4bh312rcd13ifvqdj0","pricing_plan_id":"cebpf4jnsgd1na2vs0mg"},{"bike_id":"859de0ab-142e-47ed-87e7-162f03f693f6","system_id":"levelo_inurba_marseille","lat":43.29785,"lon":5.38094,"is_reserved":false,"is_disabled":false,"rental_uris":{"android":"levelo://app?vid=859de0ab-142e-47ed-87e7-162f03f693f6","ios":"levelo://app?vid=859de0ab-142e-47ed-87e7-162f03f693f6"},"vehicle_type_id":"4","last_reported":1738688872,"current_range_meters":38400,"station_id":"ce4bgip2rcd13ifvqbb0","pricing_plan_id":"cebpf4jnsgd1na2vs0mg"},{"bike_id":"4dd4d20b-ede5-47d0-948d-cc2515eca781","system_id":"levelo_inurba_marseille","lat":43.31764,"lon":5.39019,"is_reserved":false,"is_disabled":true,"rental_uris":{"android":"levelo://app?vid=4dd4d20b-ede5-47d0-948d-cc2515eca781","ios":"levelo://app?vid=4dd4d20b-ede5-47d0-948d-cc2515eca781"},"vehicle_type_id":"4","last_reported":1738688872,"current_range_meters":32400,"station_id":"ce4bhqp2rcd13ifvqhng","pricing_plan_id":"cebpf4jnsgd1na2vs0mg"},{"bike_id":"aacbfc6b-bd24-4951-a999-16b074dc2bb4","system_id":"levelo_inurba_marseille","lat":43.28447,"lon":5.39193,"is_reserved":false,"is_disabled":false,"rental_uris":{"android":"levelo://app?vid=aacbfc6b-bd24-4951-a999-16b074dc2bb4","ios":"levelo://app?vid=aacbfc6b-bd24-4951-a999-16b074dc2bb4"},"vehicle_type_id":"4","last_reported":1738688872,"current_range_meters":28400,"station_id":"ce4bhoh2rcd13ifvqh5g","pricing_plan_id":"cebpf4jnsgd1na2vs0mg"},{"bike_id":"5a0f533b-6796-45be-b395-ee0170457779","system_id":"levelo_inurba_marseille","lat":43.26559,"lon":5.37285,"is_reserved":false,"is_disabled":false,"rental_uris":{"android":"levelo://app?vid=5a0f533b-6796-45be-b395-ee0170457779","ios":"levelo://app?vid=5a0f533b-6796-45be-b395-ee0170457779"},"vehicle_type_id":"4","last_reported":1738688872,"current_range_meters":28000,"station_id":"ce4bhg12rcd13ifvqf70","pricing_plan_id":"cebpf4jnsgd1na2vs0mg"},{"bike_id":"274d2013-a981-461e-b8f8-6e49724a9e2c","system_id":"levelo_inurba_marseille","lat":43.31075,"lon":5.38367,"is_reserved":false,"is_disabled":false,"rental_uris":{"android":"levelo://app?vid=274d2013-a981-461e-b8f8-6e49724a9e2c","ios":"levelo://app?vid=274d2013-a981-461e-b8f8-6e49724a9e2c"},"vehicle_type_id":"4","last_reported":1738688872,"current_range_meters":36000,"station_id":"ce4bgv92rcd13ifvqcr0","pricing_plan_id":"cebpf4jnsgd1na2vs0mg"},{"bike_id":"88f6ec14-1047-428a-bfc8-ed7564b679d3","system_id":"levelo_inurba_marseille","lat":43.244,"lon":5.37069,"is_reserved":false,"is_disabled":false,"rental_uris":{"android":"levelo://app?vid=88f6ec14-1047-428a-bfc8-ed7564b679d3","ios":"levelo://app?vid=88f6ec14-1047-428a-bfc8-ed7564b679d3"},"vehicle_type_id":"4","last_reported":1738688872,"current_range_meters":38800,"station_id":"ce4bhhh2rcd13ifvqfk0","pricing_plan_id":"cebpf4jnsgd1na2vs0mg"},{"bike_id":"941a420b-bcd5-4f63-a1ba-5c15116a6c1e","system_id":"levelo_inurba_marseille","lat":43.29228,"lon":5.36053,"is_reserved":false,"is_disabled":false,"rental_uris":{"android":"levelo://app?vid=941a420b-bcd5-4f63-a1ba-5c15116a6c1e","ios":"levelo://app?vid=941a420b-bcd5-4f63-a1ba-5c15116a6c1e"},"vehicle_type_id":"4","last_reported":1738688872,"current_range_meters":37600,"station_id":"ce4bhbh2rcd13ifvqeqg","pricing_plan_id":"cebpf4jnsgd1na2vs0mg"},{"bike_id":"3eb089a4-83c3-4e94-92de-84f6b7286420","system_id":"levelo_inurba_marseille","lat":43.28153,"lon":5.42641,"is_reserved":false,"is_disabled":false,"rental_uris":{"android":"levelo://app?vid=3eb089a4-83c3-4e94-92de-84f6b7286420","ios":"levelo://app?vid=3eb089a4-83c3-4e94-92de-84f6b7286420"},"vehicle_type_id":"4","last_reported":1738688872,"current_range_meters":14400,"station_id":"ce4bhnh2rcd13ifvqgug","pricing_plan_id":"cebpf4jnsgd1na2vs0mg"},{"bike_id":"bf317ff9-fd3f-4038-81aa-8051299a75eb","system_id":"levelo_inurba_marseille","lat":43.31277,"lon":5.40168,"is_reserved":false,"is_disabled":false,"rental_uris":{"android":"levelo://app?vid=bf317ff9-fd3f-4038-81aa-8051299a75eb","ios":"levelo://app?vid=bf317ff9-fd3f-4038-81aa-8051299a75eb"},"vehicle_type_id":"4","last_reported":1738688872,"current_range_meters":12000,"station_id":"ce4bh092rcd13ifvqd30","pricing_plan_id":"cebpf4jnsgd1na2vs0mg"},{"bike_id":"ac10ecdc-782c-467c-8065-29ce4e1b1aab","system_id":"levelo_inurba_marseille","lat":43.32659,"lon":5.41005,"is_reserved":false,"is_disabled":true,"rental_uris":{"android":"levelo://app?vid=ac10ecdc-782c-467c-8065-29ce4e1b1aab","ios":"levelo://app?vid=ac10ecdc-782c-467c-8065-29ce4e1b1aab"},"vehicle_type_id":"4","last_reported":1738688872,"current_range_meters":2000,"station_id":"ce4bhpp2rcd13ifvqhgg","pricing_plan_id":"cebpf4jnsgd1na2vs0mg"},{"bike_id":"352d595e-1fe6-4582-beb8-01e7d677d0ed","system_id":"levelo_inurba_marseille","lat":43.23951,"lon":5.36645,"is_reserved":false,"is_disabled":false,"rental_uris":{"android":"levelo://app?vid=352d595e-1fe6-4582-beb8-01e7d677d0ed","ios":"levelo://app?vid=352d595e-1fe6-4582-beb8-01e7d677d0ed"},"vehicle_type_id":"4","last_reported":1738688872,"current_range_meters":38800,"station_id":"ce4bhi12rcd13ifvqfp0","pricing_plan_id":"cebpf4jnsgd1na2vs0mg"},{"bike_id":"c19b3c74-f079-41ca-a5e6-f86d20b3a1ed","system_id":"levelo_inurba_marseille","lat":43.2842,"lon":5.34998,"is_reserved":false,"is_disabled":false,"rental_uris":{"android":"levelo://app?vid=c19b3c74-f079-41ca-a5e6-f86d20b3a1ed","ios":"levelo://app?vid=c19b3c74-f079-41ca-a5e6-f86d20b3a1ed"},"vehicle_type_id":"4","last_reported":1738688872,"current_range_meters":19600,"station_id":"ce4bhbh2rcd13ifvqepg","pricing_plan_id":"cebpf4jnsgd1na2vs0mg"},{"bike_id":"3894dca2-273b-40ed-8be2-d6f8dae96388","system_id":"levelo_inurba_marseille","lat":43.286203,"lon":5.351007,"is_reserved":false,"is_disabled":false,"rental_uris":{"android":"levelo://app?vid=3894dca2-273b-40ed-8be2-d6f8dae96388","ios":"levelo://app?vid=3894dca2-273b-40ed-8be2-d6f8dae96388"},"vehicle_type_id":"4","last_reported":1738688872,"current_range_meters":38800,"station_id":"ce4bhch2rcd13ifvqeug","pricing_plan_id":"cebpf4jnsgd1na2vs0mg"},{"bike_id":"03215b30-aa65-4b10-b451-ed50967ec88e","system_id":"levelo_inurba_marseille","lat":43.34435,"lon":5.35953,"is_reserved":false,"is_disabled":true,"rental_uris":{"android":"levelo://app?vid=03215b30-aa65-4b10-b451-ed50967ec88e","ios":"levelo://app?vid=03215b30-aa65-4b10-b451-ed50967ec88e"},"vehicle_type_id":"4","last_reported":1738688872,"current_range_meters":0,"station_id":"","pricing_plan_id":"cebpf4jnsgd1na2vs0mg"},{"bike_id":"dd200e16-7b4d-4a18-9c42-acf29e2264c0","system_id":"levelo_inurba_marseille","lat":43.29531,"lon":5.38546,"is_reserved":false,"is_disabled":false,"rental_uris":{"android":"levelo://app?vid=dd200e16-7b4d-4a18-9c42-acf29e2264c0","ios":"levelo://app?vid=dd200e16-7b4d-4a18-9c42-acf29e2264c0"},"vehicle_type_id":"4","last_reported":1738688872,"current_range_meters":9600,"station_id":"ce4bgih2rcd13ifvqba0","pricing_plan_id":"cebpf4jnsgd1na2vs0mg"},{"bike_id":"931c3b97-cce1-4ebe-a291-6c50a6f2810e","system_id":"levelo_inurba_marseille","lat":43.31856,"lon":5.37489,"is_reserved":false,"is_disabled":false,"rental_uris":{"android":"levelo://app?vid=931c3b97-cce1-4ebe-a291-6c50a6f2810e","ios":"levelo://app?vid=931c3b97-cce1-4ebe-a291-6c50a6f2810e"},"vehicle_type_id":"4","last_reported":1738688872,"current_range_meters":7200,"station_id":"","pricing_plan_id":"cebpf4jnsgd1na2vs0mg"},{"bike_id":"8bd3b007-fa85-46dd-b955-99498a698588","system_id":"levelo_inurba_marseille","lat":43.29098,"lon":5.38126,"is_reserved":false,"is_disabled":false,"rental_uris":{"android":"levelo://app?vid=8bd3b007-fa85-46dd-b955-99498a698588","ios":"levelo://app?vid=8bd3b007-fa85-46dd-b955-99498a698588"},"vehicle_type_id":"4","last_reported":1738688872,"current_range_meters":38000,"station_id":"ce4bh512rcd13ifvqe2g","pricing_plan_id":"cebpf4jnsgd1na2vs0mg"},{"bike_id":"d1d51ec2-e1ab-4b92-9a4b-f935b04ef436","system_id":"levelo_inurba_marseille","lat":43.25009,"lon":5.38912,"is_reserved":false,"is_disabled":false,"rental_uris":{"android":"levelo://app?vid=d1d51ec2-e1ab-4b92-9a4b-f935b04ef436","ios":"levelo://app?vid=d1d51ec2-e1ab-4b92-9a4b-f935b04ef436"},"vehicle_type_id":"4","last_reported":1738688872,"current_range_meters":24000,"station_id":"ce4bhgp2rcd13ifvqfd0","pricing_plan_id":"cebpf4jnsgd1na2vs0mg"},{"bike_id":"102b9f2d-4c9c-4720-8aef-3f4ab487e1a0","system_id":"levelo_inurba_marseille","lat":43.32357,"lon":5.38887,"is_reserved":false,"is_disabled":false,"rental_uris":{"android":"levelo://app?vid=102b9f2d-4c9c-4720-8aef-3f4ab487e1a0","ios":"levelo://app?vid=102b9f2d-4c9c-4720-8aef-3f4ab487e1a0"},"vehicle_type_id":"4","last_reported":1738688872,"current_range_meters":10800,"station_id":"ce4bhqp2rcd13ifvqhog","pricing_plan_id":"cebpf4jnsgd1na2vs0mg"},{"bike_id":"7a2080c9-d44a-471c-9acd-526428e8e5dc","system_id":"levelo_inurba_marseille","lat":43.229339,"lon":5.353839,"is_reserved":false,"is_disabled":false,"rental_uris":{"android":"levelo://app?vid=7a2080c9-d44a-471c-9acd-526428e8e5dc","ios":"levelo://app?vid=7a2080c9-d44a-471c-9acd-526428e8e5dc"},"vehicle_type_id":"4","last_reported":1738688872,"current_range_meters":38800,"station_id":"cpo3532slgdg3j2ikp40","pricing_plan_id":"cebpf4jnsgd1na2vs0mg"},{"bike_id":"5fe3bd19-1809-41b1-8583-21a965098ee4","system_id":"levelo_inurba_marseille","lat":43.29204,"lon":5.35807,"is_reserved":false,"is_disabled":false,"rental_uris":{"android":"levelo://app?vid=5fe3bd19-1809-41b1-8583-21a965098ee4","ios":"levelo://app?vid=5fe3bd19-1809-41b1-8583-21a965098ee4"},"vehicle_type_id":"4","last_reported":1738688872,"current_range_meters":38800,"station_id":"ce4bhb12rcd13ifvqel0","pricing_plan_id":"cebpf4jnsgd1na2vs0mg"},{"bike_id":"e47d6154-40ae-4b84-878f-8df818838b46","system_id":"levelo_inurba_marseille","lat":43.29221,"lon":5.36059,"is_reserved":false,"is_disabled":false,"rental_uris":{"android":"levelo://app?vid=e47d6154-40ae-4b84-878f-8df818838b46","ios":"levelo://app?vid=e47d6154-40ae-4b84-878f-8df818838b46"},"vehicle_type_id":"4","last_reported":1738688872,"current_range_meters":36800,"station_id":"ce4bhbh2rcd13ifvqeqg","pricing_plan_id":"cebpf4jnsgd1na2vs0mg"},{"bike_id":"f307dfc9-492f-427c-886b-0aebd0c4a217","system_id":"levelo_inurba_marseille","lat":43.24165,"lon":5.36415,"is_reserved":false,"is_disabled":false,"rental_uris":{"android":"levelo://app?vid=f307dfc9-492f-427c-886b-0aebd0c4a217","ios":"levelo://app?vid=f307dfc9-492f-427c-886b-0aebd0c4a217"},"vehicle_type_id":"4","last_reported":1738688872,"current_range_meters":12400,"station_id":"cpo36qri1sfpv3e86is0","pricing_plan_id":"cebpf4jnsgd1na2vs0mg"},{"bike_id":"1bdf073d-c097-4150-87c6-187750a9dea9","system_id":"levelo_inurba_marseille","lat":43.26215,"lon":5.37438,"is_reserved":false,"is_disabled":false,"rental_uris":{"android":"levelo://app?vid=1bdf073d-c097-4150-87c6-187750a9dea9","ios":"levelo://app?vid=1bdf073d-c097-4150-87c6-187750a9dea9"},"vehicle_type_id":"4","last_reported":1738688872,"current_range_meters":38000,"station_id":"ce4bhgp2rcd13ifvqfc0","pricing_plan_id":"cebpf4jnsgd1na2vs0mg"},{"bike_id":"f5924ddc-11f0-4c1b-a18d-8fd69c38b4e1","system_id":"levelo_inurba_marseille","lat":43.30807,"lon":5.3816,"is_reserved":false,"is_disabled":false,"rental_uris":{"android":"levelo://app?vid=f5924ddc-11f0-4c1b-a18d-8fd69c38b4e1","ios":"levelo://app?vid=f5924ddc-11f0-4c1b-a18d-8fd69c38b4e1"},"vehicle_type_id":"4","last_reported":1738688872,"current_range_meters":36000,"station_id":"ce4bgt12rcd13ifvqce0","pricing_plan_id":"cebpf4jnsgd1na2vs0mg"},{"bike_id":"bdfe44b3-5707-4491-b9b6-9ad33f0f555f","system_id":"levelo_inurba_marseille","lat":43.25121,"lon":5.40318,"is_reserved":false,"is_disabled":false,"rental_uris":{"android":"levelo://app?vid=bdfe44b3-5707-4491-b9b6-9ad33f0f555f","ios":"levelo://app?vid=bdfe44b3-5707-4491-b9b6-9ad33f0f555f"},"vehicle_type_id":"4","last_reported":1738688872,"current_range_meters":17200,"station_id":"ce4bhlh2rcd13ifvqgig","pricing_plan_id":"cebpf4jnsgd1na2vs0mg"},{"bike_id":"6dfe34ee-89dc-4687-a40b-bb003e3c18c6","system_id":"levelo_inurba_marseille","lat":43.281,"lon":5.37839,"is_reserved":false,"is_disabled":true,"rental_uris":{"android":"levelo://app?vid=6dfe34ee-89dc-4687-a40b-bb003e3c18c6","ios":"levelo://app?vid=6dfe34ee-89dc-4687-a40b-bb003e3c18c6"},"vehicle_type_id":"4","last_reported":1738688872,"current_range_meters":38400,"station_id":"ce4bha12rcd13ifvqee0","pricing_plan_id":"cebpf4jnsgd1na2vs0mg"},{"bike_id":"0bb638d0-2838-47fa-8a2d-f175e9aec41a","system_id":"levelo_inurba_marseille","lat":43.23963,"lon":5.3664,"is_reserved":false,"is_disabled":false,"rental_uris":{"android":"levelo://app?vid=0bb638d0-2838-47fa-8a2d-f175e9aec41a","ios":"levelo://app?vid=0bb638d0-2838-47fa-8a2d-f175e9aec41a"},"vehicle_type_id":"4","last_reported":1738688872,"current_range_meters":13600,"station_id":"ce4bhi12rcd13ifvqfp0","pricing_plan_id":"cebpf4jnsgd1na2vs0mg"},{"bike_id":"cc47967c-30f2-4982-9c08-18da969525cb","system_id":"levelo_inurba_marseille","lat":43.29733,"lon":5.37697,"is_reserved":false,"is_disabled":false,"rental_uris":{"android":"levelo://app?vid=cc47967c-30f2-4982-9c08-18da969525cb","ios":"levelo://app?vid=cc47967c-30f2-4982-9c08-18da969525cb"},"vehicle_type_id":"4","last_reported":1738688872,"current_range_meters":38800,"station_id":"ce4bgkh2rcd13ifvqbl0","pricing_plan_id":"cebpf4jnsgd1na2vs0mg"},{"bike_id":"a08434a8-807e-4a9c-b72d-7ef5c33c2945","system_id":"levelo_inurba_marseille","lat":43.291077,"lon":5.38204,"is_reserved":false,"is_disabled":false,"rental_uris":{"android":"levelo://app?vid=a08434a8-807e-4a9c-b72d-7ef5c33c2945","ios":"levelo://app?vid=a08434a8-807e-4a9c-b72d-7ef5c33c2945"},"vehicle_type_id":"4","last_reported":1738688872,"current_range_meters":8800,"station_id":"","pricing_plan_id":"cebpf4jnsgd1na2vs0mg"},{"bike_id":"6d60913d-cc26-4ecc-b494-5bb2f9b2ea83","system_id":"levelo_inurba_marseille","lat":43.29889,"lon":5.4369,"is_reserved":false,"is_disabled":false,"rental_uris":{"android":"levelo://app?vid=6d60913d-cc26-4ecc-b494-5bb2f9b2ea83","ios":"levelo://app?vid=6d60913d-cc26-4ecc-b494-5bb2f9b2ea83"},"vehicle_type_id":"4","last_reported":1738688872,"current_range_meters":38800,"station_id":"ce4bhpp2rcd13ifvqhfg","pricing_plan_id":"cebpf4jnsgd1na2vs0mg"},{"bike_id":"2fed9ba3-3909-423b-8e60-69abd9978d73","system_id":"levelo_inurba_marseille","lat":43.26812,"lon":5.40251,"is_reserved":false,"is_disabled":false,"rental_uris":{"android":"levelo://app?vid=2fed9ba3-3909-423b-8e60-69abd9978d73","ios":"levelo://app?vid=2fed9ba3-3909-423b-8e60-69abd9978d73"},"vehicle_type_id":"4","last_reported":1738688872,"current_range_meters":38800,"station_id":"ce501612rcd8frsf0b60","pricing_plan_id":"cebpf4jnsgd1na2vs0mg"},{"bike_id":"7d5a4724-5684-460d-941f-32e024b5a6bf","system_id":"levelo_inurba_marseille","lat":43.30093,"lon":5.39068,"is_reserved":false,"is_disabled":false,"rental_uris":{"android":"levelo://app?vid=7d5a4724-5684-460d-941f-32e024b5a6bf","ios":"levelo://app?vid=7d5a4724-5684-460d-941f-32e024b5a6bf"},"vehicle_type_id":"4","last_reported":1738688872,"current_range_meters":10000,"station_id":"ce4bh192rcd13ifvqdb0","pricing_plan_id":"cebpf4jnsgd1na2vs0mg"},{"bike_id":"fb1830e2-f6fc-4fde-afda-8615e8ed9c4a","system_id":"levelo_inurba_marseille","lat":43.26191,"lon":5.37465,"is_reserved":false,"is_disabled":false,"rental_uris":{"android":"levelo://app?vid=fb1830e2-f6fc-4fde-afda-8615e8ed9c4a","ios":"levelo://app?vid=fb1830e2-f6fc-4fde-afda-8615e8ed9c4a"},"vehicle_type_id":"4","last_reported":1738688872,"current_range_meters":8400,"station_id":"ce4bhgp2rcd13ifvqfc0","pricing_plan_id":"cebpf4jnsgd1na2vs0mg"},{"bike_id":"4b66423c-d12f-413f-8f11-d888fc73ce31","system_id":"levelo_inurba_marseille","lat":43.27561,"lon":5.3843,"is_reserved":false,"is_disabled":false,"rental_uris":{"android":"levelo://app?vid=4b66423c-d12f-413f-8f11-d888fc73ce31","ios":"levelo://app?vid=4b66423c-d12f-413f-8f11-d888fc73ce31"},"vehicle_type_id":"4","last_reported":1738688872,"current_range_meters":14400,"station_id":"ce4bhh92rcd13ifvqfi0","pricing_plan_id":"cebpf4jnsgd1na2vs0mg"},{"bike_id":"c91ee111-6ab8-4553-91cd-84d993e7ff3a","system_id":"levelo_inurba_marseille","lat":43.26554,"lon":5.3729,"is_reserved":false,"is_disabled":false,"rental_uris":{"android":"levelo://app?vid=c91ee111-6ab8-4553-91cd-84d993e7ff3a","ios":"levelo://app?vid=c91ee111-6ab8-4553-91cd-84d993e7ff3a"},"vehicle_type_id":"4","last_reported":1738688872,"current_range_meters":30000,"station_id":"ce4bhg12rcd13ifvqf70","pricing_plan_id":"cebpf4jnsgd1na2vs0mg"},{"bike_id":"6e7c1ac2-e791-43c7-8c36-9db37854d07d","system_id":"levelo_inurba_marseille","lat":43.28617,"lon":5.35109,"is_reserved":false,"is_disabled":true,"rental_uris":{"android":"levelo://app?vid=6e7c1ac2-e791-43c7-8c36-9db37854d07d","ios":"levelo://app?vid=6e7c1ac2-e791-43c7-8c36-9db37854d07d"},"vehicle_type_id":"4","last_reported":1738688872,"current_range_meters":25200,"station_id":"ce4bhch2rcd13ifvqeug","pricing_plan_id":"cebpf4jnsgd1na2vs0mg"},{"bike_id":"2b52254f-933d-4903-ac07-21eb27a1e798","system_id":"levelo_inurba_marseille","lat":43.27346,"lon":5.40746,"is_reserved":false,"is_disabled":false,"rental_uris":{"android":"levelo://app?vid=2b52254f-933d-4903-ac07-21eb27a1e798","ios":"levelo://app?vid=2b52254f-933d-4903-ac07-21eb27a1e798"},"vehicle_type_id":"4","last_reported":1738688872,"current_range_meters":4800,"station_id":"","pricing_plan_id":"cebpf4jnsgd1na2vs0mg"},{"bike_id":"f3ecf09e-1100-4fb7-8665-2e98d84633ae","system_id":"levelo_inurba_marseille","lat":43.27372,"lon":5.36259,"is_reserved":false,"is_disabled":true,"rental_uris":{"android":"levelo://app?vid=f3ecf09e-1100-4fb7-8665-2e98d84633ae","ios":"levelo://app?vid=f3ecf09e-1100-4fb7-8665-2e98d84633ae"},"vehicle_type_id":"4","last_reported":1738688872,"current_range_meters":0,"station_id":"ce4bhbh2rcd13ifvqeo0","pricing_plan_id":"cebpf4jnsgd1na2vs0mg"},{"bike_id":"1418b524-1535-4478-a5d6-289886b7efa0","system_id":"levelo_inurba_marseille","lat":43.28153,"lon":5.42638,"is_reserved":false,"is_disabled":false,"rental_uris":{"android":"levelo://app?vid=1418b524-1535-4478-a5d6-289886b7efa0","ios":"levelo://app?vid=1418b524-1535-4478-a5d6-289886b7efa0"},"vehicle_type_id":"4","last_reported":1738688872,"current_range_meters":36400,"station_id":"ce4bhnh2rcd13ifvqgug","pricing_plan_id":"cebpf4jnsgd1na2vs0mg"},{"bike_id":"0b16480a-c4e9-4cd3-9267-5fdcd948d334","system_id":"levelo_inurba_marseille","lat":43.27813,"lon":5.40718,"is_reserved":false,"is_disabled":false,"rental_uris":{"android":"levelo://app?vid=0b16480a-c4e9-4cd3-9267-5fdcd948d334","ios":"levelo://app?vid=0b16480a-c4e9-4cd3-9267-5fdcd948d334"},"vehicle_type_id":"4","last_reported":1738688872,"current_range_meters":25200,"station_id":"ce4bhnh2rcd13ifvqgtg","pricing_plan_id":"cebpf4jnsgd1na2vs0mg"},{"bike_id":"9b71e329-f58f-4038-b3a1-ec2921912ecf","system_id":"levelo_inurba_marseille","lat":43.28744,"lon":5.36102,"is_reserved":false,"is_disabled":false,"rental_uris":{"android":"levelo://app?vid=9b71e329-f58f-4038-b3a1-ec2921912ecf","ios":"levelo://app?vid=9b71e329-f58f-4038-b3a1-ec2921912ecf"},"vehicle_type_id":"4","last_reported":1738688872,"current_range_meters":22800,"station_id":"cki0cbj6b192h4jlfktg","pricing_plan_id":"cebpf4jnsgd1na2vs0mg"},{"bike_id":"d7e70dc9-0697-4281-99ee-ba5da2e99695","system_id":"levelo_inurba_marseille","lat":43.28959,"lon":5.36409,"is_reserved":false,"is_disabled":false,"rental_uris":{"android":"levelo://app?vid=d7e70dc9-0697-4281-99ee-ba5da2e99695","ios":"levelo://app?vid=d7e70dc9-0697-4281-99ee-ba5da2e99695"},"vehicle_type_id":"4","last_reported":1738688872,"current_range_meters":38000,"station_id":"ce4bhc92rcd13ifvqetg","pricing_plan_id":"cebpf4jnsgd1na2vs0mg"},{"bike_id":"b507151e-35ad-49f9-bfc2-cdece6bb715a","system_id":"levelo_inurba_marseille","lat":43.31714,"lon":5.37746,"is_reserved":false,"is_disabled":false,"rental_uris":{"android":"levelo://app?vid=b507151e-35ad-49f9-bfc2-cdece6bb715a","ios":"levelo://app?vid=b507151e-35ad-49f9-bfc2-cdece6bb715a"},"vehicle_type_id":"4","last_reported":1738688872,"current_range_meters":35600,"station_id":"ce4bgth2rcd13ifvqch0","pricing_plan_id":"cebpf4jnsgd1na2vs0mg"},{"bike_id":"914ec534-1a47-40d1-bcdf-2eb1ad8d20c4","system_id":"levelo_inurba_marseille","lat":43.28274,"lon":5.35076,"is_reserved":false,"is_disabled":false,"rental_uris":{"android":"levelo://app?vid=914ec534-1a47-40d1-bcdf-2eb1ad8d20c4","ios":"levelo://app?vid=914ec534-1a47-40d1-bcdf-2eb1ad8d20c4"},"vehicle_type_id":"4","last_reported":1738688872,"current_range_meters":10800,"station_id":"ce4bhbp2rcd13ifvqerg","pricing_plan_id":"cebpf4jnsgd1na2vs0mg"},{"bike_id":"3eb1d084-93e0-45b5-b1c1-038c25ba6c77","system_id":"levelo_inurba_marseille","lat":43.30438,"lon":5.38894,"is_reserved":false,"is_disabled":false,"rental_uris":{"android":"levelo://app?vid=3eb1d084-93e0-45b5-b1c1-038c25ba6c77","ios":"levelo://app?vid=3eb1d084-93e0-45b5-b1c1-038c25ba6c77"},"vehicle_type_id":"4","last_reported":1738688872,"current_range_meters":25600,"station_id":"ce4bgk12rcd13ifvqbi0","pricing_plan_id":"cebpf4jnsgd1na2vs0mg"},{"bike_id":"26d397a9-61ee-400d-a6b0-dc8b026ea3e4","system_id":"levelo_inurba_marseille","lat":43.29627,"lon":5.37159,"is_reserved":false,"is_disabled":false,"rental_uris":{"android":"levelo://app?vid=26d397a9-61ee-400d-a6b0-dc8b026ea3e4","ios":"levelo://app?vid=26d397a9-61ee-400d-a6b0-dc8b026ea3e4"},"vehicle_type_id":"4","last_reported":1738688872,"current_range_meters":34800,"station_id":"ce4bgnh2rcd13ifvqc0g","pricing_plan_id":"cebpf4jnsgd1na2vs0mg"},{"bike_id":"d017a21b-7b58-4514-bf06-3b19fe96541c","system_id":"levelo_inurba_marseille","lat":43.28262,"lon":5.35075,"is_reserved":false,"is_disabled":false,"rental_uris":{"android":"levelo://app?vid=d017a21b-7b58-4514-bf06-3b19fe96541c","ios":"levelo://app?vid=d017a21b-7b58-4514-bf06-3b19fe96541c"},"vehicle_type_id":"4","last_reported":1738688872,"current_range_meters":38400,"station_id":"ce4bhbp2rcd13ifvqerg","pricing_plan_id":"cebpf4jnsgd1na2vs0mg"},{"bike_id":"b9eb891b-290b-4049-8b5f-7f70219bdb9f","system_id":"levelo_inurba_marseille","lat":43.29547,"lon":5.39409,"is_reserved":false,"is_disabled":false,"rental_uris":{"android":"levelo://app?vid=b9eb891b-290b-4049-8b5f-7f70219bdb9f","ios":"levelo://app?vid=b9eb891b-290b-4049-8b5f-7f70219bdb9f"},"vehicle_type_id":"4","last_reported":1738688872,"current_range_meters":8400,"station_id":"ce4bh292rcd13ifvqdf0","pricing_plan_id":"cebpf4jnsgd1na2vs0mg"},{"bike_id":"a9ee38d0-21e8-4d99-8e3f-cc643e32473e","system_id":"levelo_inurba_marseille","lat":43.2782,"lon":5.4073,"is_reserved":false,"is_disabled":false,"rental_uris":{"android":"levelo://app?vid=a9ee38d0-21e8-4d99-8e3f-cc643e32473e","ios":"levelo://app?vid=a9ee38d0-21e8-4d99-8e3f-cc643e32473e"},"vehicle_type_id":"4","last_reported":1738688872,"current_range_meters":38800,"station_id":"ce4bhnh2rcd13ifvqgtg","pricing_plan_id":"cebpf4jnsgd1na2vs0mg"},{"bike_id":"b66f0845-62d2-4d08-bbcf-a06568ad3ffb","system_id":"levelo_inurba_marseille","lat":43.308,"lon":5.38157,"is_reserved":false,"is_disabled":false,"rental_uris":{"android":"levelo://app?vid=b66f0845-62d2-4d08-bbcf-a06568ad3ffb","ios":"levelo://app?vid=b66f0845-62d2-4d08-bbcf-a06568ad3ffb"},"vehicle_type_id":"4","last_reported":1738688872,"current_range_meters":24000,"station_id":"ce4bgt12rcd13ifvqce0","pricing_plan_id":"cebpf4jnsgd1na2vs0mg"},{"bike_id":"630dd466-e4dd-4ada-8a39-01e92abf0818","system_id":"levelo_inurba_marseille","lat":43.26206,"lon":5.37445,"is_reserved":false,"is_disabled":false,"rental_uris":{"android":"levelo://app?vid=630dd466-e4dd-4ada-8a39-01e92abf0818","ios":"levelo://app?vid=630dd466-e4dd-4ada-8a39-01e92abf0818"},"vehicle_type_id":"4","last_reported":1738688872,"current_range_meters":33200,"station_id":"ce4bhgp2rcd13ifvqfc0","pricing_plan_id":"cebpf4jnsgd1na2vs0mg"},{"bike_id":"d1b0d402-3f67-443d-bc8b-e16d49c222f0","system_id":"levelo_inurba_marseille","lat":43.30147,"lon":5.37406,"is_reserved":false,"is_disabled":false,"rental_uris":{"android":"levelo://app?vid=d1b0d402-3f67-443d-bc8b-e16d49c222f0","ios":"levelo://app?vid=d1b0d402-3f67-443d-bc8b-e16d49c222f0"},"vehicle_type_id":"4","last_reported":1738688872,"current_range_meters":32400,"station_id":"ce4bgs92rcd13ifvqcc0","pricing_plan_id":"cebpf4jnsgd1na2vs0mg"},{"bike_id":"3034d64e-f78e-468c-b4d6-2520a053438f","system_id":"levelo_inurba_marseille","lat":43.23186,"lon":5.39994,"is_reserved":false,"is_disabled":false,"rental_uris":{"android":"levelo://app?vid=3034d64e-f78e-468c-b4d6-2520a053438f","ios":"levelo://app?vid=3034d64e-f78e-468c-b4d6-2520a053438f"},"vehicle_type_id":"4","last_reported":1738688872,"current_range_meters":38800,"station_id":"ce4bhn12rcd13ifvqgqg","pricing_plan_id":"cebpf4jnsgd1na2vs0mg"},{"bike_id":"1a7d6575-2339-4deb-a249-6c50f57ca939","system_id":"levelo_inurba_marseille","lat":43.25579,"lon":5.38242,"is_reserved":false,"is_disabled":false,"rental_uris":{"android":"levelo://app?vid=1a7d6575-2339-4deb-a249-6c50f57ca939","ios":"levelo://app?vid=1a7d6575-2339-4deb-a249-6c50f57ca939"},"vehicle_type_id":"4","last_reported":1738688872,"current_range_meters":38000,"station_id":"ce4bhih2rcd13ifvqfs0","pricing_plan_id":"cebpf4jnsgd1na2vs0mg"},{"bike_id":"c73bf226-cdd4-459b-a5aa-29e372acca99","system_id":"levelo_inurba_marseille","lat":43.299164,"lon":5.363415,"is_reserved":false,"is_disabled":false,"rental_uris":{"android":"levelo://app?vid=c73bf226-cdd4-459b-a5aa-29e372acca99","ios":"levelo://app?vid=c73bf226-cdd4-459b-a5aa-29e372acca99"},"vehicle_type_id":"4","last_reported":1738688872,"current_range_meters":8400,"station_id":"ce4bgpp2rcd13ifvqc3g","pricing_plan_id":"cebpf4jnsgd1na2vs0mg"},{"bike_id":"ece28073-0346-4998-b79a-de1867b73dec","system_id":"levelo_inurba_marseille","lat":43.29222,"lon":5.36093,"is_reserved":false,"is_disabled":false,"rental_uris":{"android":"levelo://app?vid=ece28073-0346-4998-b79a-de1867b73dec","ios":"levelo://app?vid=ece28073-0346-4998-b79a-de1867b73dec"},"vehicle_type_id":"4","last_reported":1738688872,"current_range_meters":8800,"station_id":"ce4bhbh2rcd13ifvqeqg","pricing_plan_id":"cebpf4jnsgd1na2vs0mg"},{"bike_id":"28a9f8d7-c7a9-434c-8556-1b709b9a2385","system_id":"levelo_inurba_marseille","lat":43.29012,"lon":5.38631,"is_reserved":false,"is_disabled":false,"rental_uris":{"android":"levelo://app?vid=28a9f8d7-c7a9-434c-8556-1b709b9a2385","ios":"levelo://app?vid=28a9f8d7-c7a9-434c-8556-1b709b9a2385"},"vehicle_type_id":"4","last_reported":1738688872,"current_range_meters":3600,"station_id":"ce4bh4p2rcd13ifvqe0g","pricing_plan_id":"cebpf4jnsgd1na2vs0mg"},{"bike_id":"7b47be9c-7cd5-47ce-a6eb-0576d0eae34a","system_id":"levelo_inurba_marseille","lat":43.29097,"lon":5.38138,"is_reserved":false,"is_disabled":false,"rental_uris":{"android":"levelo://app?vid=7b47be9c-7cd5-47ce-a6eb-0576d0eae34a","ios":"levelo://app?vid=7b47be9c-7cd5-47ce-a6eb-0576d0eae34a"},"vehicle_type_id":"4","last_reported":1738688872,"current_range_meters":10000,"station_id":"ce4bh512rcd13ifvqe2g","pricing_plan_id":"cebpf4jnsgd1na2vs0mg"},{"bike_id":"b09ebd01-c975-4878-ac0b-8fd11b1739f7","system_id":"levelo_inurba_marseille","lat":43.28159,"lon":5.4264,"is_reserved":false,"is_disabled":false,"rental_uris":{"android":"levelo://app?vid=b09ebd01-c975-4878-ac0b-8fd11b1739f7","ios":"levelo://app?vid=b09ebd01-c975-4878-ac0b-8fd11b1739f7"},"vehicle_type_id":"4","last_reported":1738688872,"current_range_meters":16000,"station_id":"ce4bhnh2rcd13ifvqgug","pricing_plan_id":"cebpf4jnsgd1na2vs0mg"},{"bike_id":"e214cb68-bd90-4283-80e9-951f93a1751c","system_id":"levelo_inurba_marseille","lat":43.32358,"lon":5.40617,"is_reserved":false,"is_disabled":false,"rental_uris":{"android":"levelo://app?vid=e214cb68-bd90-4283-80e9-951f93a1751c","ios":"levelo://app?vid=e214cb68-bd90-4283-80e9-951f93a1751c"},"vehicle_type_id":"4","last_reported":1738688872,"current_range_meters":39200,"station_id":"ce4bhq92rcd13ifvqhjg","pricing_plan_id":"cebpf4jnsgd1na2vs0mg"},{"bike_id":"3e7cd5ce-717c-4728-a973-6e6a663d2007","system_id":"levelo_inurba_marseille","lat":43.29052,"lon":5.35918,"is_reserved":false,"is_disabled":false,"rental_uris":{"android":"levelo://app?vid=3e7cd5ce-717c-4728-a973-6e6a663d2007","ios":"levelo://app?vid=3e7cd5ce-717c-4728-a973-6e6a663d2007"},"vehicle_type_id":"4","last_reported":1738688872,"current_range_meters":38400,"station_id":"ce4bha92rcd13ifvqeg0","pricing_plan_id":"cebpf4jnsgd1na2vs0mg"},{"bike_id":"a7dc0848-081a-4438-bce6-7e161a91f066","system_id":"levelo_inurba_marseille","lat":43.28155,"lon":5.42633,"is_reserved":false,"is_disabled":false,"rental_uris":{"android":"levelo://app?vid=a7dc0848-081a-4438-bce6-7e161a91f066","ios":"levelo://app?vid=a7dc0848-081a-4438-bce6-7e161a91f066"},"vehicle_type_id":"4","last_reported":1738688872,"current_range_meters":34000,"station_id":"ce4bhnh2rcd13ifvqgug","pricing_plan_id":"cebpf4jnsgd1na2vs0mg"},{"bike_id":"537d148d-4101-4c2e-81be-eedbb9188f59","system_id":"levelo_inurba_marseille","lat":43.26179,"lon":5.37461,"is_reserved":false,"is_disabled":false,"rental_uris":{"android":"levelo://app?vid=537d148d-4101-4c2e-81be-eedbb9188f59","ios":"levelo://app?vid=537d148d-4101-4c2e-81be-eedbb9188f59"},"vehicle_type_id":"4","last_reported":1738688872,"current_range_meters":32400,"station_id":"ce4bhgp2rcd13ifvqfc0","pricing_plan_id":"cebpf4jnsgd1na2vs0mg"},{"bike_id":"efb4e0c5-012a-40d5-b751-7a0e28f587ae","system_id":"levelo_inurba_marseille","lat":43.28277,"lon":5.35084,"is_reserved":false,"is_disabled":false,"rental_uris":{"android":"levelo://app?vid=efb4e0c5-012a-40d5-b751-7a0e28f587ae","ios":"levelo://app?vid=efb4e0c5-012a-40d5-b751-7a0e28f587ae"},"vehicle_type_id":"4","last_reported":1738688872,"current_range_meters":38000,"station_id":"ce4bhbp2rcd13ifvqerg","pricing_plan_id":"cebpf4jnsgd1na2vs0mg"},{"bike_id":"2055a81d-8e5e-4bf5-b5e1-2fc40f396b7c","system_id":"levelo_inurba_marseille","lat":43.30542,"lon":5.38424,"is_reserved":false,"is_disabled":true,"rental_uris":{"android":"levelo://app?vid=2055a81d-8e5e-4bf5-b5e1-2fc40f396b7c","ios":"levelo://app?vid=2055a81d-8e5e-4bf5-b5e1-2fc40f396b7c"},"vehicle_type_id":"4","last_reported":1738688872,"current_range_meters":32000,"station_id":"ce4bgg92rcd13ifvqb30","pricing_plan_id":"cebpf4jnsgd1na2vs0mg"},{"bike_id":"60459898-4795-4acb-95dc-4e319e0a4d38","system_id":"levelo_inurba_marseille","lat":43.24652,"lon":5.38902,"is_reserved":false,"is_disabled":false,"rental_uris":{"android":"levelo://app?vid=60459898-4795-4acb-95dc-4e319e0a4d38","ios":"levelo://app?vid=60459898-4795-4acb-95dc-4e319e0a4d38"},"vehicle_type_id":"4","last_reported":1738688872,"current_range_meters":36400,"station_id":"ce4bhg12rcd13ifvqf60","pricing_plan_id":"cebpf4jnsgd1na2vs0mg"},{"bike_id":"eeefcb47-f49e-4c59-9e4d-b32c482f6cd5","system_id":"levelo_inurba_marseille","lat":43.29783,"lon":5.37101,"is_reserved":false,"is_disabled":false,"rental_uris":{"android":"levelo://app?vid=eeefcb47-f49e-4c59-9e4d-b32c482f6cd5","ios":"levelo://app?vid=eeefcb47-f49e-4c59-9e4d-b32c482f6cd5"},"vehicle_type_id":"4","last_reported":1738688872,"current_range_meters":34800,"station_id":"ce4bgop2rcd13ifvqc1g","pricing_plan_id":"cebpf4jnsgd1na2vs0mg"},{"bike_id":"16112818-6421-41ec-a1db-2c6d44d83c8d","system_id":"levelo_inurba_marseille","lat":43.31055,"lon":5.38329,"is_reserved":false,"is_disabled":true,"rental_uris":{"android":"levelo://app?vid=16112818-6421-41ec-a1db-2c6d44d83c8d","ios":"levelo://app?vid=16112818-6421-41ec-a1db-2c6d44d83c8d"},"vehicle_type_id":"4","last_reported":1738688872,"current_range_meters":0,"station_id":"ce4bgv92rcd13ifvqcr0","pricing_plan_id":"cebpf4jnsgd1na2vs0mg"},{"bike_id":"bb846df9-2969-480a-aed6-edbcf9c326fb","system_id":"levelo_inurba_marseille","lat":43.24819,"lon":5.3747,"is_reserved":false,"is_disabled":false,"rental_uris":{"android":"levelo://app?vid=bb846df9-2969-480a-aed6-edbcf9c326fb","ios":"levelo://app?vid=bb846df9-2969-480a-aed6-edbcf9c326fb"},"vehicle_type_id":"4","last_reported":1738688872,"current_range_meters":24400,"station_id":"ce4bhgh2rcd13ifvqfb0","pricing_plan_id":"cebpf4jnsgd1na2vs0mg"},{"bike_id":"f7b06ef1-8fe2-49dc-97bf-948e009e701e","system_id":"levelo_inurba_marseille","lat":43.29257,"lon":5.38438,"is_reserved":false,"is_disabled":false,"rental_uris":{"android":"levelo://app?vid=f7b06ef1-8fe2-49dc-97bf-948e009e701e","ios":"levelo://app?vid=f7b06ef1-8fe2-49dc-97bf-948e009e701e"},"vehicle_type_id":"4","last_reported":1738688872,"current_range_meters":38800,"station_id":"ce4bh692rcd13ifvqea0","pricing_plan_id":"cebpf4jnsgd1na2vs0mg"},{"bike_id":"cd07e062-2af1-406e-bcb9-5f1ec4730937","system_id":"levelo_inurba_marseille","lat":43.23073,"lon":5.355,"is_reserved":false,"is_disabled":false,"rental_uris":{"android":"levelo://app?vid=cd07e062-2af1-406e-bcb9-5f1ec4730937","ios":"levelo://app?vid=cd07e062-2af1-406e-bcb9-5f1ec4730937"},"vehicle_type_id":"4","last_reported":1738688872,"current_range_meters":8400,"station_id":"cpo3342slgdg3j2ifvpg","pricing_plan_id":"cebpf4jnsgd1na2vs0mg"},{"bike_id":"c3644d12-8427-4602-9945-9ef42c46feca","system_id":"levelo_inurba_marseille","lat":43.24158,"lon":5.36438,"is_reserved":false,"is_disabled":false,"rental_uris":{"android":"levelo://app?vid=c3644d12-8427-4602-9945-9ef42c46feca","ios":"levelo://app?vid=c3644d12-8427-4602-9945-9ef42c46feca"},"vehicle_type_id":"4","last_reported":1738688872,"current_range_meters":12400,"station_id":"cpo36qri1sfpv3e86is0","pricing_plan_id":"cebpf4jnsgd1na2vs0mg"},{"bike_id":"c63fc382-f0a8-4f5d-988c-41b6516dbf79","system_id":"levelo_inurba_marseille","lat":43.28615,"lon":5.35093,"is_reserved":false,"is_disabled":false,"rental_uris":{"android":"levelo://app?vid=c63fc382-f0a8-4f5d-988c-41b6516dbf79","ios":"levelo://app?vid=c63fc382-f0a8-4f5d-988c-41b6516dbf79"},"vehicle_type_id":"4","last_reported":1738688872,"current_range_meters":16000,"station_id":"ce4bhch2rcd13ifvqeug","pricing_plan_id":"cebpf4jnsgd1na2vs0mg"},{"bike_id":"db72a0a3-0500-4ad9-a511-c670316b7e3a","system_id":"levelo_inurba_marseille","lat":43.30304,"lon":5.36871,"is_reserved":false,"is_disabled":false,"rental_uris":{"android":"levelo://app?vid=db72a0a3-0500-4ad9-a511-c670316b7e3a","ios":"levelo://app?vid=db72a0a3-0500-4ad9-a511-c670316b7e3a"},"vehicle_type_id":"4","last_reported":1738688872,"current_range_meters":23200,"station_id":"ce4bgqh2rcd13ifvqc5g","pricing_plan_id":"cebpf4jnsgd1na2vs0mg"},{"bike_id":"516f2549-79cf-4297-a0ad-3d3f06a71f80","system_id":"levelo_inurba_marseille","lat":43.31718,"lon":5.424,"is_reserved":false,"is_disabled":true,"rental_uris":{"android":"levelo://app?vid=516f2549-79cf-4297-a0ad-3d3f06a71f80","ios":"levelo://app?vid=516f2549-79cf-4297-a0ad-3d3f06a71f80"},"vehicle_type_id":"4","last_reported":1738688872,"current_range_meters":1600,"station_id":"ce4bhp92rcd13ifvqhbg","pricing_plan_id":"cebpf4jnsgd1na2vs0mg"},{"bike_id":"dd82dc50-caf8-4e4f-b11a-194dbd80d7b2","system_id":"levelo_inurba_marseille","lat":43.257156,"lon":5.411163,"is_reserved":false,"is_disabled":false,"rental_uris":{"android":"levelo://app?vid=dd82dc50-caf8-4e4f-b11a-194dbd80d7b2","ios":"levelo://app?vid=dd82dc50-caf8-4e4f-b11a-194dbd80d7b2"},"vehicle_type_id":"4","last_reported":1738688872,"current_range_meters":4000,"station_id":"ce4bhkp2rcd13ifvqgd0","pricing_plan_id":"cebpf4jnsgd1na2vs0mg"},{"bike_id":"1b93d9c9-0f2a-4585-b339-2698784a9629","system_id":"levelo_inurba_marseille","lat":43.29526,"lon":5.39058,"is_reserved":false,"is_disabled":false,"rental_uris":{"android":"levelo://app?vid=1b93d9c9-0f2a-4585-b339-2698784a9629","ios":"levelo://app?vid=1b93d9c9-0f2a-4585-b339-2698784a9629"},"vehicle_type_id":"4","last_reported":1738688872,"current_range_meters":39200,"station_id":"ce4bh3p2rcd13ifvqdp0","pricing_plan_id":"cebpf4jnsgd1na2vs0mg"},{"bike_id":"97da255b-a49f-484c-bb9b-6b78658735f7","system_id":"levelo_inurba_marseille","lat":43.29827,"lon":5.3625,"is_reserved":false,"is_disabled":false,"rental_uris":{"android":"levelo://app?vid=97da255b-a49f-484c-bb9b-6b78658735f7","ios":"levelo://app?vid=97da255b-a49f-484c-bb9b-6b78658735f7"},"vehicle_type_id":"4","last_reported":1738688872,"current_range_meters":25600,"station_id":"ce4bgpp2rcd13ifvqc3g","pricing_plan_id":"cebpf4jnsgd1na2vs0mg"},{"bike_id":"0583ef0d-bc00-438f-a5c6-4d0d32f322c9","system_id":"levelo_inurba_marseille","lat":43.29699,"lon":5.36585,"is_reserved":false,"is_disabled":false,"rental_uris":{"android":"levelo://app?vid=0583ef0d-bc00-438f-a5c6-4d0d32f322c9","ios":"levelo://app?vid=0583ef0d-bc00-438f-a5c6-4d0d32f322c9"},"vehicle_type_id":"4","last_reported":1738688872,"current_range_meters":9200,"station_id":"ce4bgn12rcd13ifvqbt0","pricing_plan_id":"cebpf4jnsgd1na2vs0mg"},{"bike_id":"7534cf98-37c3-4aad-b916-c154fbbf4770","system_id":"levelo_inurba_marseille","lat":43.32045,"lon":5.41546,"is_reserved":false,"is_disabled":false,"rental_uris":{"android":"levelo://app?vid=7534cf98-37c3-4aad-b916-c154fbbf4770","ios":"levelo://app?vid=7534cf98-37c3-4aad-b916-c154fbbf4770"},"vehicle_type_id":"4","last_reported":1738688872,"current_range_meters":24400,"station_id":"ce4bhq92rcd13ifvqhkg","pricing_plan_id":"cebpf4jnsgd1na2vs0mg"},{"bike_id":"45a7daa2-2a2e-4454-90c3-1009aaecc5bd","system_id":"levelo_inurba_marseille","lat":43.23196,"lon":5.35551,"is_reserved":false,"is_disabled":false,"rental_uris":{"android":"levelo://app?vid=45a7daa2-2a2e-4454-90c3-1009aaecc5bd","ios":"levelo://app?vid=45a7daa2-2a2e-4454-90c3-1009aaecc5bd"},"vehicle_type_id":"4","last_reported":1738688872,"current_range_meters":8400,"station_id":"ce4bhu92rcd13ifvqi70","pricing_plan_id":"cebpf4jnsgd1na2vs0mg"},{"bike_id":"3022d964-2ce8-480e-a7b4-4db2285b929c","system_id":"levelo_inurba_marseille","lat":43.279965,"lon":5.416673,"is_reserved":false,"is_disabled":false,"rental_uris":{"android":"levelo://app?vid=3022d964-2ce8-480e-a7b4-4db2285b929c","ios":"levelo://app?vid=3022d964-2ce8-480e-a7b4-4db2285b929c"},"vehicle_type_id":"4","last_reported":1738688872,"current_range_meters":22400,"station_id":"ce4bho12rcd13ifvqh1g","pricing_plan_id":"cebpf4jnsgd1na2vs0mg"},{"bike_id":"5d629729-d10a-4f37-accf-27385a61c5c0","system_id":"levelo_inurba_marseille","lat":43.29287,"lon":5.40138,"is_reserved":false,"is_disabled":false,"rental_uris":{"android":"levelo://app?vid=5d629729-d10a-4f37-accf-27385a61c5c0","ios":"levelo://app?vid=5d629729-d10a-4f37-accf-27385a61c5c0"},"vehicle_type_id":"4","last_reported":1738688872,"current_range_meters":38800,"station_id":"ce4bh312rcd13ifvqdk0","pricing_plan_id":"cebpf4jnsgd1na2vs0mg"},{"bike_id":"b4c4a2b5-8113-41e0-816a-5141dbc28c6d","system_id":"levelo_inurba_marseille","lat":43.28076,"lon":5.39667,"is_reserved":false,"is_disabled":false,"rental_uris":{"android":"levelo://app?vid=b4c4a2b5-8113-41e0-816a-5141dbc28c6d","ios":"levelo://app?vid=b4c4a2b5-8113-41e0-816a-5141dbc28c6d"},"vehicle_type_id":"4","last_reported":1738688872,"current_range_meters":18000,"station_id":"ce4bho12rcd13ifvqh2g","pricing_plan_id":"cebpf4jnsgd1na2vs0mg"},{"bike_id":"11a184a8-0cc5-4592-894d-03cae46273c7","system_id":"levelo_inurba_marseille","lat":43.30795,"lon":5.37651,"is_reserved":false,"is_disabled":false,"rental_uris":{"android":"levelo://app?vid=11a184a8-0cc5-4592-894d-03cae46273c7","ios":"levelo://app?vid=11a184a8-0cc5-4592-894d-03cae46273c7"},"vehicle_type_id":"4","last_reported":1738688872,"current_range_meters":12800,"station_id":"ce4bgv92rcd13ifvqcq0","pricing_plan_id":"cebpf4jnsgd1na2vs0mg"},{"bike_id":"3b1d5f28-8e2f-4cd2-84ee-32e60c8bc1d4","system_id":"levelo_inurba_marseille","lat":43.27971,"lon":5.387337,"is_reserved":false,"is_disabled":true,"rental_uris":{"android":"levelo://app?vid=3b1d5f28-8e2f-4cd2-84ee-32e60c8bc1d4","ios":"levelo://app?vid=3b1d5f28-8e2f-4cd2-84ee-32e60c8bc1d4"},"vehicle_type_id":"4","last_reported":1738688872,"current_range_meters":3200,"station_id":"ce4bhg12rcd13ifvqf80","pricing_plan_id":"cebpf4jnsgd1na2vs0mg"},{"bike_id":"35798297-b936-47d1-8a98-bfdb50e14c75","system_id":"levelo_inurba_marseille","lat":43.32074,"lon":5.43303,"is_reserved":false,"is_disabled":true,"rental_uris":{"android":"levelo://app?vid=35798297-b936-47d1-8a98-bfdb50e14c75","ios":"levelo://app?vid=35798297-b936-47d1-8a98-bfdb50e14c75"},"vehicle_type_id":"4","last_reported":1738688872,"current_range_meters":36800,"station_id":"","pricing_plan_id":"cebpf4jnsgd1na2vs0mg"},{"bike_id":"ea5d774f-7eab-4828-a560-1535ca043c02","system_id":"levelo_inurba_marseille","lat":43.28417,"lon":5.34984,"is_reserved":false,"is_disabled":false,"rental_uris":{"android":"levelo://app?vid=ea5d774f-7eab-4828-a560-1535ca043c02","ios":"levelo://app?vid=ea5d774f-7eab-4828-a560-1535ca043c02"},"vehicle_type_id":"4","last_reported":1738688872,"current_range_meters":38800,"station_id":"ce4bhbh2rcd13ifvqepg","pricing_plan_id":"cebpf4jnsgd1na2vs0mg"},{"bike_id":"e6dc612f-7f56-4634-8aac-2cfefb7b3910","system_id":"levelo_inurba_marseille","lat":43.28278,"lon":5.35065,"is_reserved":false,"is_disabled":true,"rental_uris":{"android":"levelo://app?vid=e6dc612f-7f56-4634-8aac-2cfefb7b3910","ios":"levelo://app?vid=e6dc612f-7f56-4634-8aac-2cfefb7b3910"},"vehicle_type_id":"4","last_reported":1738688872,"current_range_meters":30800,"station_id":"ce4bhbp2rcd13ifvqerg","pricing_plan_id":"cebpf4jnsgd1na2vs0mg"},{"bike_id":"7f2c9a5b-2c82-4a5b-a71a-610f24f208ce","system_id":"levelo_inurba_marseille","lat":43.27619,"lon":5.36117,"is_reserved":false,"is_disabled":false,"rental_uris":{"android":"levelo://app?vid=7f2c9a5b-2c82-4a5b-a71a-610f24f208ce","ios":"levelo://app?vid=7f2c9a5b-2c82-4a5b-a71a-610f24f208ce"},"vehicle_type_id":"4","last_reported":1738688872,"current_range_meters":12000,"station_id":"ce4bgj92rcd13ifvqbe0","pricing_plan_id":"cebpf4jnsgd1na2vs0mg"},{"bike_id":"48a3f017-a474-490e-a7e8-15c5850cbbb4","system_id":"levelo_inurba_marseille","lat":43.28364,"lon":5.38649,"is_reserved":false,"is_disabled":true,"rental_uris":{"android":"levelo://app?vid=48a3f017-a474-490e-a7e8-15c5850cbbb4","ios":"levelo://app?vid=48a3f017-a474-490e-a7e8-15c5850cbbb4"},"vehicle_type_id":"4","last_reported":1738688872,"current_range_meters":800,"station_id":"ce4bh492rcd13ifvqdvg","pricing_plan_id":"cebpf4jnsgd1na2vs0mg"},{"bike_id":"297a4a02-2730-48f7-b051-15a6abe2b802","system_id":"levelo_inurba_marseille","lat":43.3127,"lon":5.40138,"is_reserved":false,"is_disabled":false,"rental_uris":{"android":"levelo://app?vid=297a4a02-2730-48f7-b051-15a6abe2b802","ios":"levelo://app?vid=297a4a02-2730-48f7-b051-15a6abe2b802"},"vehicle_type_id":"4","last_reported":1738688872,"current_range_meters":8400,"station_id":"ce4bh092rcd13ifvqd30","pricing_plan_id":"cebpf4jnsgd1na2vs0mg"},{"bike_id":"637c3436-3246-4528-a804-501c70d08596","system_id":"levelo_inurba_marseille","lat":43.29551,"lon":5.3907,"is_reserved":false,"is_disabled":false,"rental_uris":{"android":"levelo://app?vid=637c3436-3246-4528-a804-501c70d08596","ios":"levelo://app?vid=637c3436-3246-4528-a804-501c70d08596"},"vehicle_type_id":"4","last_reported":1738688872,"current_range_meters":25200,"station_id":"ce4bh3p2rcd13ifvqdp0","pricing_plan_id":"cebpf4jnsgd1na2vs0mg"},{"bike_id":"a060df4d-dd7a-4959-a05b-3ac45900b919","system_id":"levelo_inurba_marseille","lat":43.26931,"lon":5.38918,"is_reserved":false,"is_disabled":false,"rental_uris":{"android":"levelo://app?vid=a060df4d-dd7a-4959-a05b-3ac45900b919","ios":"levelo://app?vid=a060df4d-dd7a-4959-a05b-3ac45900b919"},"vehicle_type_id":"4","last_reported":1738688872,"current_range_meters":37600,"station_id":"ce4bhhh2rcd13ifvqfl0","pricing_plan_id":"cebpf4jnsgd1na2vs0mg"},{"bike_id":"7f9ac4d9-3b61-4c63-b44c-7f16d7cffeac","system_id":"levelo_inurba_marseille","lat":43.29422,"lon":5.38625,"is_reserved":false,"is_disabled":false,"rental_uris":{"android":"levelo://app?vid=7f9ac4d9-3b61-4c63-b44c-7f16d7cffeac","ios":"levelo://app?vid=7f9ac4d9-3b61-4c63-b44c-7f16d7cffeac"},"vehicle_type_id":"4","last_reported":1738688872,"current_range_meters":34800,"station_id":"ce4bh2h2rcd13ifvqdh0","pricing_plan_id":"cebpf4jnsgd1na2vs0mg"},{"bike_id":"6bb18b6b-35db-4080-8375-2a2e83c6fc4b","system_id":"levelo_inurba_marseille","lat":43.2315,"lon":5.43709,"is_reserved":false,"is_disabled":true,"rental_uris":{"android":"levelo://app?vid=6bb18b6b-35db-4080-8375-2a2e83c6fc4b","ios":"levelo://app?vid=6bb18b6b-35db-4080-8375-2a2e83c6fc4b"},"vehicle_type_id":"4","last_reported":1738688872,"current_range_meters":38800,"station_id":"ce4bhmp2rcd13ifvqgog","pricing_plan_id":"cebpf4jnsgd1na2vs0mg"},{"bike_id":"c0a3a442-67a0-40bd-8014-408a01235cc1","system_id":"levelo_inurba_marseille","lat":43.29518,"lon":5.39406,"is_reserved":false,"is_disabled":false,"rental_uris":{"android":"levelo://app?vid=c0a3a442-67a0-40bd-8014-408a01235cc1","ios":"levelo://app?vid=c0a3a442-67a0-40bd-8014-408a01235cc1"},"vehicle_type_id":"4","last_reported":1738688872,"current_range_meters":25200,"station_id":"ce4bh292rcd13ifvqdf0","pricing_plan_id":"cebpf4jnsgd1na2vs0mg"},{"bike_id":"4c938425-c231-42e7-aed2-476a37f6fa3f","system_id":"levelo_inurba_marseille","lat":43.29043,"lon":5.39954,"is_reserved":false,"is_disabled":true,"rental_uris":{"android":"levelo://app?vid=4c938425-c231-42e7-aed2-476a37f6fa3f","ios":"levelo://app?vid=4c938425-c231-42e7-aed2-476a37f6fa3f"},"vehicle_type_id":"4","last_reported":1738688872,"current_range_meters":38400,"station_id":"ce4bh392rcd13ifvqdm0","pricing_plan_id":"cebpf4jnsgd1na2vs0mg"},{"bike_id":"787b7837-f258-4886-bbf5-841ee39c0166","system_id":"levelo_inurba_marseille","lat":43.28277,"lon":5.35082,"is_reserved":false,"is_disabled":true,"rental_uris":{"android":"levelo://app?vid=787b7837-f258-4886-bbf5-841ee39c0166","ios":"levelo://app?vid=787b7837-f258-4886-bbf5-841ee39c0166"},"vehicle_type_id":"4","last_reported":1738688872,"current_range_meters":36800,"station_id":"ce4bhbp2rcd13ifvqerg","pricing_plan_id":"cebpf4jnsgd1na2vs0mg"},{"bike_id":"80e75620-5f74-463f-9d30-8ead26168b84","system_id":"levelo_inurba_marseille","lat":43.29529,"lon":5.39044,"is_reserved":false,"is_disabled":false,"rental_uris":{"android":"levelo://app?vid=80e75620-5f74-463f-9d30-8ead26168b84","ios":"levelo://app?vid=80e75620-5f74-463f-9d30-8ead26168b84"},"vehicle_type_id":"4","last_reported":1738688872,"current_range_meters":8000,"station_id":"ce4bh3p2rcd13ifvqdp0","pricing_plan_id":"cebpf4jnsgd1na2vs0mg"},{"bike_id":"957097c6-d888-40de-a2a0-724e5edc2ecf","system_id":"levelo_inurba_marseille","lat":43.29362,"lon":5.37832,"is_reserved":false,"is_disabled":false,"rental_uris":{"android":"levelo://app?vid=957097c6-d888-40de-a2a0-724e5edc2ecf","ios":"levelo://app?vid=957097c6-d888-40de-a2a0-724e5edc2ecf"},"vehicle_type_id":"4","last_reported":1738688872,"current_range_meters":37600,"station_id":"ce4bgjh2rcd13ifvqbf0","pricing_plan_id":"cebpf4jnsgd1na2vs0mg"},{"bike_id":"ff4553e1-929b-4595-b2f0-994b6249225f","system_id":"levelo_inurba_marseille","lat":43.32364,"lon":5.38877,"is_reserved":false,"is_disabled":false,"rental_uris":{"android":"levelo://app?vid=ff4553e1-929b-4595-b2f0-994b6249225f","ios":"levelo://app?vid=ff4553e1-929b-4595-b2f0-994b6249225f"},"vehicle_type_id":"4","last_reported":1738688872,"current_range_meters":28000,"station_id":"ce4bhqp2rcd13ifvqhog","pricing_plan_id":"cebpf4jnsgd1na2vs0mg"},{"bike_id":"44a30f83-4304-4f9f-be85-a99271585cc5","system_id":"levelo_inurba_marseille","lat":43.24166,"lon":5.36394,"is_reserved":false,"is_disabled":false,"rental_uris":{"android":"levelo://app?vid=44a30f83-4304-4f9f-be85-a99271585cc5","ios":"levelo://app?vid=44a30f83-4304-4f9f-be85-a99271585cc5"},"vehicle_type_id":"4","last_reported":1738688872,"current_range_meters":18800,"station_id":"cpo36qri1sfpv3e86is0","pricing_plan_id":"cebpf4jnsgd1na2vs0mg"},{"bike_id":"eac8e106-76e0-4f1b-81af-4eaefecd2501","system_id":"levelo_inurba_marseille","lat":43.2501,"lon":5.38921,"is_reserved":false,"is_disabled":false,"rental_uris":{"android":"levelo://app?vid=eac8e106-76e0-4f1b-81af-4eaefecd2501","ios":"levelo://app?vid=eac8e106-76e0-4f1b-81af-4eaefecd2501"},"vehicle_type_id":"4","last_reported":1738688872,"current_range_meters":15200,"station_id":"ce4bhgp2rcd13ifvqfd0","pricing_plan_id":"cebpf4jnsgd1na2vs0mg"},{"bike_id":"9ec8bead-ccd8-4622-921c-2ccb91bc2a9e","system_id":"levelo_inurba_marseille","lat":43.28576,"lon":5.39516,"is_reserved":false,"is_disabled":false,"rental_uris":{"android":"levelo://app?vid=9ec8bead-ccd8-4622-921c-2ccb91bc2a9e","ios":"levelo://app?vid=9ec8bead-ccd8-4622-921c-2ccb91bc2a9e"},"vehicle_type_id":"4","last_reported":1738688872,"current_range_meters":30800,"station_id":"ce4bh292rcd13ifvqdg0","pricing_plan_id":"cebpf4jnsgd1na2vs0mg"},{"bike_id":"0256ff3c-1df4-4ca0-9ab5-dd91799ec05e","system_id":"levelo_inurba_marseille","lat":43.28848,"lon":5.35829,"is_reserved":false,"is_disabled":false,"rental_uris":{"android":"levelo://app?vid=0256ff3c-1df4-4ca0-9ab5-dd91799ec05e","ios":"levelo://app?vid=0256ff3c-1df4-4ca0-9ab5-dd91799ec05e"},"vehicle_type_id":"4","last_reported":1738688872,"current_range_meters":37600,"station_id":"ce4bhb12rcd13ifvqem0","pricing_plan_id":"cebpf4jnsgd1na2vs0mg"},{"bike_id":"50cd51dd-c5c1-437c-b02f-37401e3214f5","system_id":"levelo_inurba_marseille","lat":43.25583,"lon":5.38235,"is_reserved":false,"is_disabled":false,"rental_uris":{"android":"levelo://app?vid=50cd51dd-c5c1-437c-b02f-37401e3214f5","ios":"levelo://app?vid=50cd51dd-c5c1-437c-b02f-37401e3214f5"},"vehicle_type_id":"4","last_reported":1738688872,"current_range_meters":10800,"station_id":"ce4bhih2rcd13ifvqfs0","pricing_plan_id":"cebpf4jnsgd1na2vs0mg"},{"bike_id":"61ceb31b-03f6-4213-9b34-0374ee45b479","system_id":"levelo_inurba_marseille","lat":43.32115,"lon":5.36795,"is_reserved":false,"is_disabled":false,"rental_uris":{"android":"levelo://app?vid=61ceb31b-03f6-4213-9b34-0374ee45b479","ios":"levelo://app?vid=61ceb31b-03f6-4213-9b34-0374ee45b479"},"vehicle_type_id":"4","last_reported":1738688872,"current_range_meters":24400,"station_id":"ce4bhrh2rcd13ifvqhug","pricing_plan_id":"cebpf4jnsgd1na2vs0mg"},{"bike_id":"c8076923-5547-432b-8bca-28a64a480251","system_id":"levelo_inurba_marseille","lat":43.28695,"lon":5.37442,"is_reserved":false,"is_disabled":false,"rental_uris":{"android":"levelo://app?vid=c8076923-5547-432b-8bca-28a64a480251","ios":"levelo://app?vid=c8076923-5547-432b-8bca-28a64a480251"},"vehicle_type_id":"4","last_reported":1738688872,"current_range_meters":28800,"station_id":"","pricing_plan_id":"cebpf4jnsgd1na2vs0mg"},{"bike_id":"3dcce43e-d1fa-4eaf-9d68-0048db4b9d25","system_id":"levelo_inurba_marseille","lat":43.30795,"lon":5.38167,"is_reserved":false,"is_disabled":false,"rental_uris":{"android":"levelo://app?vid=3dcce43e-d1fa-4eaf-9d68-0048db4b9d25","ios":"levelo://app?vid=3dcce43e-d1fa-4eaf-9d68-0048db4b9d25"},"vehicle_type_id":"4","last_reported":1738688872,"current_range_meters":6000,"station_id":"ce4bgt12rcd13ifvqce0","pricing_plan_id":"cebpf4jnsgd1na2vs0mg"},{"bike_id":"c37fe78d-492f-4d03-8975-c1450aaed20d","system_id":"levelo_inurba_marseille","lat":43.27818,"lon":5.40724,"is_reserved":false,"is_disabled":false,"rental_uris":{"android":"levelo://app?vid=c37fe78d-492f-4d03-8975-c1450aaed20d","ios":"levelo://app?vid=c37fe78d-492f-4d03-8975-c1450aaed20d"},"vehicle_type_id":"4","last_reported":1738688872,"current_range_meters":21600,"station_id":"ce4bhnh2rcd13ifvqgtg","pricing_plan_id":"cebpf4jnsgd1na2vs0mg"},{"bike_id":"267048d3-41a9-47e1-a8db-3d84f8cb2f7c","system_id":"levelo_inurba_marseille","lat":43.29539,"lon":5.39055,"is_reserved":false,"is_disabled":false,"rental_uris":{"android":"levelo://app?vid=267048d3-41a9-47e1-a8db-3d84f8cb2f7c","ios":"levelo://app?vid=267048d3-41a9-47e1-a8db-3d84f8cb2f7c"},"vehicle_type_id":"4","last_reported":1738688872,"current_range_meters":39200,"station_id":"ce4bh3p2rcd13ifvqdp0","pricing_plan_id":"cebpf4jnsgd1na2vs0mg"},{"bike_id":"c322498b-971c-4774-a775-9df1558e42d2","system_id":"levelo_inurba_marseille","lat":43.29384,"lon":5.37854,"is_reserved":false,"is_disabled":true,"rental_uris":{"android":"levelo://app?vid=c322498b-971c-4774-a775-9df1558e42d2","ios":"levelo://app?vid=c322498b-971c-4774-a775-9df1558e42d2"},"vehicle_type_id":"4","last_reported":1738688872,"current_range_meters":30000,"station_id":"ce4bgjh2rcd13ifvqbf0","pricing_plan_id":"cebpf4jnsgd1na2vs0mg"},{"bike_id":"3a7b5418-d141-447a-9abb-8ff0d3049f25","system_id":"levelo_inurba_marseille","lat":43.26934,"lon":5.38928,"is_reserved":false,"is_disabled":false,"rental_uris":{"android":"levelo://app?vid=3a7b5418-d141-447a-9abb-8ff0d3049f25","ios":"levelo://app?vid=3a7b5418-d141-447a-9abb-8ff0d3049f25"},"vehicle_type_id":"4","last_reported":1738688872,"current_range_meters":7200,"station_id":"ce4bhhh2rcd13ifvqfl0","pricing_plan_id":"cebpf4jnsgd1na2vs0mg"},{"bike_id":"c3467c4c-14f1-4656-b39d-880954e34ae6","system_id":"levelo_inurba_marseille","lat":43.31684,"lon":5.40474,"is_reserved":false,"is_disabled":false,"rental_uris":{"android":"levelo://app?vid=c3467c4c-14f1-4656-b39d-880954e34ae6","ios":"levelo://app?vid=c3467c4c-14f1-4656-b39d-880954e34ae6"},"vehicle_type_id":"4","last_reported":1738688872,"current_range_meters":34000,"station_id":"ce4bh012rcd13ifvqd00","pricing_plan_id":"cebpf4jnsgd1na2vs0mg"},{"bike_id":"962e86d5-31c5-4a4c-887b-2199948fce15","system_id":"levelo_inurba_marseille","lat":43.31283,"lon":5.40173,"is_reserved":false,"is_disabled":false,"rental_uris":{"android":"levelo://app?vid=962e86d5-31c5-4a4c-887b-2199948fce15","ios":"levelo://app?vid=962e86d5-31c5-4a4c-887b-2199948fce15"},"vehicle_type_id":"4","last_reported":1738688872,"current_range_meters":30000,"station_id":"ce4bh092rcd13ifvqd30","pricing_plan_id":"cebpf4jnsgd1na2vs0mg"},{"bike_id":"e5f34f7c-c503-40c2-aeb7-a92c676b8443","system_id":"levelo_inurba_marseille","lat":43.287235,"lon":5.399868,"is_reserved":false,"is_disabled":true,"rental_uris":{"android":"levelo://app?vid=e5f34f7c-c503-40c2-aeb7-a92c676b8443","ios":"levelo://app?vid=e5f34f7c-c503-40c2-aeb7-a92c676b8443"},"vehicle_type_id":"4","last_reported":1738688872,"current_range_meters":0,"station_id":"ce4bho92rcd13ifvqh3g","pricing_plan_id":"cebpf4jnsgd1na2vs0mg"},{"bike_id":"982759eb-b654-4e86-8e5f-84ccdf0fd4f4","system_id":"levelo_inurba_marseille","lat":43.30779,"lon":5.37646,"is_reserved":false,"is_disabled":false,"rental_uris":{"android":"levelo://app?vid=982759eb-b654-4e86-8e5f-84ccdf0fd4f4","ios":"levelo://app?vid=982759eb-b654-4e86-8e5f-84ccdf0fd4f4"},"vehicle_type_id":"4","last_reported":1738688872,"current_range_meters":38800,"station_id":"ce4bgv92rcd13ifvqcq0","pricing_plan_id":"cebpf4jnsgd1na2vs0mg"},{"bike_id":"8928fcc5-af90-4fb6-a51d-5d376ede0d24","system_id":"levelo_inurba_marseille","lat":43.26228,"lon":5.40458,"is_reserved":false,"is_disabled":false,"rental_uris":{"android":"levelo://app?vid=8928fcc5-af90-4fb6-a51d-5d376ede0d24","ios":"levelo://app?vid=8928fcc5-af90-4fb6-a51d-5d376ede0d24"},"vehicle_type_id":"4","last_reported":1738688872,"current_range_meters":6400,"station_id":"ce4bhmh2rcd13ifvqgmg","pricing_plan_id":"cebpf4jnsgd1na2vs0mg"},{"bike_id":"1166ea9d-6efe-45bd-a0f3-5f31b2644033","system_id":"levelo_inurba_marseille","lat":43.29622,"lon":5.37716,"is_reserved":false,"is_disabled":false,"rental_uris":{"android":"levelo://app?vid=1166ea9d-6efe-45bd-a0f3-5f31b2644033","ios":"levelo://app?vid=1166ea9d-6efe-45bd-a0f3-5f31b2644033"},"vehicle_type_id":"4","last_reported":1738688872,"current_range_meters":37600,"station_id":"ce4bgi92rcd13ifvqb90","pricing_plan_id":"cebpf4jnsgd1na2vs0mg"},{"bike_id":"f22ab9c4-4472-465c-9846-9bcae534d3af","system_id":"levelo_inurba_marseille","lat":43.32366,"lon":5.36768,"is_reserved":false,"is_disabled":false,"rental_uris":{"android":"levelo://app?vid=f22ab9c4-4472-465c-9846-9bcae534d3af","ios":"levelo://app?vid=f22ab9c4-4472-465c-9846-9bcae534d3af"},"vehicle_type_id":"4","last_reported":1738688872,"current_range_meters":29600,"station_id":"ce4bhsh2rcd13ifvqi2g","pricing_plan_id":"cebpf4jnsgd1na2vs0mg"},{"bike_id":"7b39ed00-86df-4303-bda1-bfc0fee1e7e2","system_id":"levelo_inurba_marseille","lat":43.32459,"lon":5.45542,"is_reserved":false,"is_disabled":false,"rental_uris":{"android":"levelo://app?vid=7b39ed00-86df-4303-bda1-bfc0fee1e7e2","ios":"levelo://app?vid=7b39ed00-86df-4303-bda1-bfc0fee1e7e2"},"vehicle_type_id":"4","last_reported":1738688872,"current_range_meters":24400,"station_id":"","pricing_plan_id":"cebpf4jnsgd1na2vs0mg"},{"bike_id":"9736f717-5d6f-4dd2-a7f1-bb087b3e9e13","system_id":"levelo_inurba_marseille","lat":43.28153,"lon":5.42636,"is_reserved":false,"is_disabled":false,"rental_uris":{"android":"levelo://app?vid=9736f717-5d6f-4dd2-a7f1-bb087b3e9e13","ios":"levelo://app?vid=9736f717-5d6f-4dd2-a7f1-bb087b3e9e13"},"vehicle_type_id":"4","last_reported":1738688872,"current_range_meters":8000,"station_id":"ce4bhnh2rcd13ifvqgug","pricing_plan_id":"cebpf4jnsgd1na2vs0mg"},{"bike_id":"1204b539-144f-4ee7-97e1-36f525469573","system_id":"levelo_inurba_marseille","lat":43.2954,"lon":5.3906,"is_reserved":false,"is_disabled":false,"rental_uris":{"android":"levelo://app?vid=1204b539-144f-4ee7-97e1-36f525469573","ios":"levelo://app?vid=1204b539-144f-4ee7-97e1-36f525469573"},"vehicle_type_id":"4","last_reported":1738688872,"current_range_meters":14800,"station_id":"ce4bh3p2rcd13ifvqdp0","pricing_plan_id":"cebpf4jnsgd1na2vs0mg"},{"bike_id":"31534464-a915-4d39-b204-d521bb2268b2","system_id":"levelo_inurba_marseille","lat":43.26686,"lon":5.38274,"is_reserved":false,"is_disabled":true,"rental_uris":{"android":"levelo://app?vid=31534464-a915-4d39-b204-d521bb2268b2","ios":"levelo://app?vid=31534464-a915-4d39-b204-d521bb2268b2"},"vehicle_type_id":"4","last_reported":1738688872,"current_range_meters":1600,"station_id":"ce4bhg92rcd13ifvqf90","pricing_plan_id":"cebpf4jnsgd1na2vs0mg"},{"bike_id":"c7efea0b-41ab-47c4-93f0-43a53000a63b","system_id":"levelo_inurba_marseille","lat":43.23078,"lon":5.35482,"is_reserved":false,"is_disabled":false,"rental_uris":{"android":"levelo://app?vid=c7efea0b-41ab-47c4-93f0-43a53000a63b","ios":"levelo://app?vid=c7efea0b-41ab-47c4-93f0-43a53000a63b"},"vehicle_type_id":"4","last_reported":1738688872,"current_range_meters":35200,"station_id":"cpo3342slgdg3j2ifvpg","pricing_plan_id":"cebpf4jnsgd1na2vs0mg"},{"bike_id":"7e6ba570-7d56-4652-989b-4e30b8b88ee8","system_id":"levelo_inurba_marseille","lat":43.28734,"lon":5.36085,"is_reserved":false,"is_disabled":false,"rental_uris":{"android":"levelo://app?vid=7e6ba570-7d56-4652-989b-4e30b8b88ee8","ios":"levelo://app?vid=7e6ba570-7d56-4652-989b-4e30b8b88ee8"},"vehicle_type_id":"4","last_reported":1738688872,"current_range_meters":22000,"station_id":"cki0cbj6b192h4jlfktg","pricing_plan_id":"cebpf4jnsgd1na2vs0mg"},{"bike_id":"41254b99-f2ef-453d-94f1-9653594f763d","system_id":"levelo_inurba_marseille","lat":43.29033,"lon":5.38649,"is_reserved":false,"is_disabled":false,"rental_uris":{"android":"levelo://app?vid=41254b99-f2ef-453d-94f1-9653594f763d","ios":"levelo://app?vid=41254b99-f2ef-453d-94f1-9653594f763d"},"vehicle_type_id":"4","last_reported":1738688872,"current_range_meters":5600,"station_id":"ce4bh4p2rcd13ifvqe0g","pricing_plan_id":"cebpf4jnsgd1na2vs0mg"},{"bike_id":"e967e1de-a299-4600-bc61-e46ab8b2c61b","system_id":"levelo_inurba_marseille","lat":43.28419,"lon":5.34975,"is_reserved":false,"is_disabled":false,"rental_uris":{"android":"levelo://app?vid=e967e1de-a299-4600-bc61-e46ab8b2c61b","ios":"levelo://app?vid=e967e1de-a299-4600-bc61-e46ab8b2c61b"},"vehicle_type_id":"4","last_reported":1738688872,"current_range_meters":38800,"station_id":"ce4bhbh2rcd13ifvqepg","pricing_plan_id":"cebpf4jnsgd1na2vs0mg"},{"bike_id":"f22e9fd7-470f-499f-8ea8-b13821bd3b0a","system_id":"levelo_inurba_marseille","lat":43.27979,"lon":5.41648,"is_reserved":false,"is_disabled":false,"rental_uris":{"android":"levelo://app?vid=f22e9fd7-470f-499f-8ea8-b13821bd3b0a","ios":"levelo://app?vid=f22e9fd7-470f-499f-8ea8-b13821bd3b0a"},"vehicle_type_id":"4","last_reported":1738688872,"current_range_meters":12800,"station_id":"ce4bho12rcd13ifvqh1g","pricing_plan_id":"cebpf4jnsgd1na2vs0mg"},