{"last_updated":1744909696,"ttl":60,"version":"2.2","data":{"bikes":[{"bike_id":"7ea9bafb-a047-47fd-adf0-7b7ae3d90a19","system_id":"levelo_inurba_marseille","lat":43.27909,"lon":5.39576,"is_reserved":false,"is_disabled":false,"rental_uris":{"android":"levelo://app?vid=7ea9bafb-a047-47fd-adf0-7b7ae3d90a19","ios":"levelo://app?vid=7ea9bafb-a047-47fd-adf0-7b7ae3d90a19"},"vehicle_type_id":"4","last_reported":1744909696,"current_range_meters":2800,"station_id":"ce4bhf92rcd13ifvqf40","pricing_plan_id":"cebpf4jnsgd1na2vs0mg"},{"bike_id":"889988eb-016b-4bb9-aed5-d67f82e18ca2","system_id":"levelo_inurba_marseille","lat":43.306468,"lon":5.400925,"is_reserved":false,"is_disabled":false,"rental_uris":{"android":"levelo://app?vid=889988eb-016b-4bb9-aed5-d67f82e18ca2","ios":"levelo://app?vid=889988eb-016b-4bb9-aed5-d67f82e18ca2"},"vehicle_type_id":"4","last_reported":1744909696,"current_range_meters":3200,"station_id":"ce4bh2h2rcd13ifvqdh0","pricing_plan_id":"cebpf4jnsgd1na2vs0mg"},{"bike_id":"6fe48612-5c45-4e40-9a33-6cdd4517212a","system_id":"levelo_inurba_marseille","lat":43.31716,"lon":5.42399,"is_reserved":false,"is_disabled":false,"rental_uris":{"android":"levelo://app?vid=6fe48612-5c45-4e40-9a33-6cdd4517212a","ios":"levelo://app?vid=6fe48612-5c45-4e40-9a33-6cdd4517212a"},"vehicle_type_id":"4","last_reported":1744909696,"current_range_meters":2800,"station_id":"ce4bhp92rcd13ifvqhbg","pricing_plan_id":"cebpf4jnsgd1na2vs0mg"},{"bike_id":"2acf80a9-f251-4586-a2b5-547f15df217f","system_id":"levelo_inurba_marseille","lat":43.28668,"lon":5.38659,"is_reserved":false,"is_disabled":false,"rental_uris":{"android":"levelo://app?vid=2acf80a9-f251-4586-a2b5-547f15df217f","ios":"levelo://app?vid=2acf80a9-f251-4586-a2b5-547f15df217f"},"vehicle_type_id":"4","last_reported":1744909696,"current_range_meters":1600,"station_id":"ce4bh492rcd13ifvqdug","pricing_plan_id":"cebpf4jnsgd1na2vs0mg"},{"bike_id":"8f0c20dc-b3ad-402e-a1dc-c7b0c7538515","system_id":"levelo_inurba_marseille","lat":43.29311,"lon":5.37461,"is_reserved":false,"is_disabled":false,"rental_uris":{"android":"levelo://app?vid=8f0c20dc-b3ad-402e-a1dc-c7b0c7538515","ios":"levelo://app?vid=8f0c20dc-b3ad-402e-a1dc-c7b0c7538515"},"vehicle_type_id":"4","last_reported":1744909696,"current_range_meters":4000,"station_id":"ce4bgi12rcd13ifvqb70","pricing_plan_id":"cebpf4jnsgd1na2vs0mg"},{"bike_id":"2a9ce498-6cba-4673-9cf7-b4b81bfb7720","system_id":"levelo_inurba_marseille","lat":43.27824,"lon":5.39212,"is_reserved":false,"is_disabled":false,"rental_uris":{"android":"levelo://app?vid=2a9ce498-6cba-4673-9cf7-b4b81bfb7720","ios":"levelo://app?vid=2a9ce498-6cba-4673-9cf7-b4b81bfb7720"},"vehicle_type_id":"4","last_reported":1744909696,"current_range_meters":4000,"station_id":"ce4bhjp2rcd13ifvqga0","pricing_plan_id":"cebpf4jnsgd1na2vs0mg"},{"bike_id":"63ca12ba-658e-44bf-b720-32206e98c254","system_id":"levelo_inurba_marseille","lat":43.26565,"lon":5.39012,"is_reserved":false,"is_disabled":false,"rental_uris":{"android":"levelo://app?vid=63ca12ba-658e-44bf-b720-32206e98c254","ios":"levelo://app?vid=63ca12ba-658e-44bf-b720-32206e98c254"},"vehicle_type_id":"4","last_reported":1744909696,"current_range_meters":4400,"station_id":"ce4bhe12rcd13ifvqf30","pricing_plan_id":"cebpf4jnsgd1na2vs0mg"},{"bike_id":"455daed3-7faf-4bed-809c-07be050c0bb9","system_id":"levelo_inurba_marseille","lat":43.30791,"lon":5.3817,"is_reserved":false,"is_disabled":false,"rental_uris":{"android":"levelo://app?vid=455daed3-7faf-4bed-809c-07be050c0bb9","ios":"levelo://app?vid=455daed3-7faf-4bed-809c-07be050c0bb9"},"vehicle_type_id":"4","last_reported":1744909696,"current_range_meters":4800,"station_id":"ce4bgt12rcd13ifvqce0","pricing_plan_id":"cebpf4jnsgd1na2vs0mg"},{"bike_id":"698b52f3-1856-4431-9c88-12c4cba77d72","system_id":"levelo_inurba_marseille","lat":43.24385,"lon":5.37064,"is_reserved":false,"is_disabled":false,"rental_uris":{"android":"levelo://app?vid=698b52f3-1856-4431-9c88-12c4cba77d72","ios":"levelo://app?vid=698b52f3-1856-4431-9c88-12c4cba77d72"},"vehicle_type_id":"4","last_reported":1744909696,"current_range_meters":4800,"station_id":"ce4bhhh2rcd13ifvqfk0","pricing_plan_id":"cebpf4jnsgd1na2vs0mg"},{"bike_id":"def3b888-9d82-488e-807c-fbf4106b70cb","system_id":"levelo_inurba_marseille","lat":43.29269,"lon":5.38443,"is_reserved":false,"is_disabled":false,"rental_uris":{"android":"levelo://app?vid=def3b888-9d82-488e-807c-fbf4106b70cb","ios":"levelo://app?vid=def3b888-9d82-488e-807c-fbf4106b70cb"},"vehicle_type_id":"4","last_reported":1744909696,"current_range_meters":5600,"station_id":"ce4bh692rcd13ifvqea0","pricing_plan_id":"cebpf4jnsgd1na2vs0mg"},{"bike_id":"97fbc437-3d5b-4623-82c7-11ee86944e47","system_id":"levelo_inurba_marseille","lat":43.2657,"lon":5.39013,"is_reserved":false,"is_disabled":false,"rental_uris":{"android":"levelo://app?vid=97fbc437-3d5b-4623-82c7-11ee86944e47","ios":"levelo://app?vid=97fbc437-3d5b-4623-82c7-11ee86944e47"},"vehicle_type_id":"4","last_reported":1744909696,"current_range_meters":5600,"station_id":"ce4bhe12rcd13ifvqf30","pricing_plan_id":"cebpf4jnsgd1na2vs0mg"},{"bike_id":"19272306-f618-46ff-ac54-2bacfa65078d","system_id":"levelo_inurba_marseille","lat":43.27897,"lon":5.38013,"is_reserved":false,"is_disabled":false,"rental_uris":{"android":"levelo://app?vid=19272306-f618-46ff-ac54-2bacfa65078d","ios":"levelo://app?vid=19272306-f618-46ff-ac54-2bacfa65078d"},"vehicle_type_id":"4","last_reported":1744909696,"current_range_meters":5600,"station_id":"ce4bhf92rcd13ifvqf50","pricing_plan_id":"cebpf4jnsgd1na2vs0mg"},{"bike_id":"f9b33886-9d96-4713-99f2-7b2f37cdf788","system_id":"levelo_inurba_marseille","lat":43.287,"lon":5.39986,"is_reserved":false,"is_disabled":false,"rental_uris":{"android":"levelo://app?vid=f9b33886-9d96-4713-99f2-7b2f37cdf788","ios":"levelo://app?vid=f9b33886-9d96-4713-99f2-7b2f37cdf788"},"vehicle_type_id":"4","last_reported":1744909696,"current_range_meters":5600,"station_id":"ce4bho92rcd13ifvqh3g","pricing_plan_id":"cebpf4jnsgd1na2vs0mg"},{"bike_id":"0c6f591c-efce-4a60-86a8-e95a9c5064fd","system_id":"levelo_inurba_marseille","lat":43.29197,"lon":5.39334,"is_reserved":false,"is_disabled":false,"rental_uris":{"android":"levelo://app?vid=0c6f591c-efce-4a60-86a8-e95a9c5064fd","ios":"levelo://app?vid=0c6f591c-efce-4a60-86a8-e95a9c5064fd"},"vehicle_type_id":"4","last_reported":1744909696,"current_range_meters":6000,"station_id":"ce4bh192rcd13ifvqdd0","pricing_plan_id":"cebpf4jnsgd1na2vs0mg"},{"bike_id":"dc1f4b14-c02b-401e-96b9-a488f561292c","system_id":"levelo_inurba_marseille","lat":43.29534,"lon":5.37503,"is_reserved":false,"is_disabled":false,"rental_uris":{"android":"levelo://app?vid=dc1f4b14-c02b-401e-96b9-a488f561292c","ios":"levelo://app?vid=dc1f4b14-c02b-401e-96b9-a488f561292c"},"vehicle_type_id":"4","last_reported":1744909696,"current_range_meters":6400,"station_id":"ce4bgkp2rcd13ifvqbmg","pricing_plan_id":"cebpf4jnsgd1na2vs0mg"},{"bike_id":"5c37c543-52ea-4ca0-b815-01718a2d50c7","system_id":"levelo_inurba_marseille","lat":43.27913,"lon":5.3958,"is_reserved":false,"is_disabled":true,"rental_uris":{"android":"levelo://app?vid=5c37c543-52ea-4ca0-b815-01718a2d50c7","ios":"levelo://app?vid=5c37c543-52ea-4ca0-b815-01718a2d50c7"},"vehicle_type_id":"4","last_reported":1744909696,"current_range_meters":6400,"station_id":"ce4bhf92rcd13ifvqf40","pricing_plan_id":"cebpf4jnsgd1na2vs0mg"},{"bike_id":"b0dbd109-dd07-40d7-86e1-bf3b86717302","system_id":"levelo_inurba_marseille","lat":43.279988,"lon":5.400226,"is_reserved":false,"is_disabled":false,"rental_uris":{"android":"levelo://app?vid=b0dbd109-dd07-40d7-86e1-bf3b86717302","ios":"levelo://app?vid=b0dbd109-dd07-40d7-86e1-bf3b86717302"},"vehicle_type_id":"4","last_reported":1744909696,"current_range_meters":6400,"station_id":"ce4bho92rcd13ifvqh4g","pricing_plan_id":"cebpf4jnsgd1na2vs0mg"},{"bike_id":"8974cf4f-79f5-48fb-bc8e-a4fd42556547","system_id":"levelo_inurba_marseille","lat":43.28612,"lon":5.35102,"is_reserved":false,"is_disabled":false,"rental_uris":{"android":"levelo://app?vid=8974cf4f-79f5-48fb-bc8e-a4fd42556547","ios":"levelo://app?vid=8974cf4f-79f5-48fb-bc8e-a4fd42556547"},"vehicle_type_id":"4","last_reported":1744909696,"current_range_meters":6400,"station_id":"ce4bhch2rcd13ifvqeug","pricing_plan_id":"cebpf4jnsgd1na2vs0mg"},{"bike_id":"d8073c6f-5299-469d-bf81-c56b2c08a257","system_id":"levelo_inurba_marseille","lat":43.28424,"lon":5.34992,"is_reserved":false,"is_disabled":false,"rental_uris":{"android":"levelo://app?vid=d8073c6f-5299-469d-bf81-c56b2c08a257","ios":"levelo://app?vid=d8073c6f-5299-469d-bf81-c56b2c08a257"},"vehicle_type_id":"4","last_reported":1744909696,"current_range_meters":6400,"station_id":"ce4bhbh2rcd13ifvqepg","pricing_plan_id":"cebpf4jnsgd1na2vs0mg"},{"bike_id":"91b0dab0-0518-49eb-8290-d184265d7445","system_id":"levelo_inurba_marseille","lat":43.23964,"lon":5.36629,"is_reserved":false,"is_disabled":false,"rental_uris":{"android":"levelo://app?vid=91b0dab0-0518-49eb-8290-d184265d7445","ios":"levelo://app?vid=91b0dab0-0518-49eb-8290-d184265d7445"},"vehicle_type_id":"4","last_reported":1744909696,"current_range_meters":6800,"station_id":"ce4bhi12rcd13ifvqfp0","pricing_plan_id":"cebpf4jnsgd1na2vs0mg"},{"bike_id":"b77b53aa-d73c-46e7-ab6f-7e3e42c72a8c","system_id":"levelo_inurba_marseille","lat":43.31328,"lon":5.39697,"is_reserved":false,"is_disabled":false,"rental_uris":{"android":"levelo://app?vid=b77b53aa-d73c-46e7-ab6f-7e3e42c72a8c","ios":"levelo://app?vid=b77b53aa-d73c-46e7-ab6f-7e3e42c72a8c"},"vehicle_type_id":"4","last_reported":1744909696,"current_range_meters":7200,"station_id":"ce4bgvp2rcd13ifvqcu0","pricing_plan_id":"cebpf4jnsgd1na2vs0mg"},{"bike_id":"994695a9-98fd-4da6-9191-c96330e6cffb","system_id":"levelo_inurba_marseille","lat":43.21766,"lon":5.34609,"is_reserved":false,"is_disabled":false,"rental_uris":{"android":"levelo://app?vid=994695a9-98fd-4da6-9191-c96330e6cffb","ios":"levelo://app?vid=994695a9-98fd-4da6-9191-c96330e6cffb"},"vehicle_type_id":"4","last_reported":1744909696,"current_range_meters":7200,"station_id":"st_cvj6r9ubvosntc0bgbag","pricing_plan_id":"cebpf4jnsgd1na2vs0mg"},{"bike_id":"409a79ab-dcd7-4c74-9be6-a03c63711a18","system_id":"levelo_inurba_marseille","lat":43.28145,"lon":5.42665,"is_reserved":false,"is_disabled":false,"rental_uris":{"android":"levelo://app?vid=409a79ab-dcd7-4c74-9be6-a03c63711a18","ios":"levelo://app?vid=409a79ab-dcd7-4c74-9be6-a03c63711a18"},"vehicle_type_id":"4","last_reported":1744909696,"current_range_meters":7200,"station_id":"ce4bhnh2rcd13ifvqgug","pricing_plan_id":"cebpf4jnsgd1na2vs0mg"},{"bike_id":"9a2ee5df-18da-4d3e-99a9-3fd0800e3010","system_id":"levelo_inurba_marseille","lat":43.2811,"lon":5.37843,"is_reserved":false,"is_disabled":false,"rental_uris":{"android":"levelo://app?vid=9a2ee5df-18da-4d3e-99a9-3fd0800e3010","ios":"levelo://app?vid=9a2ee5df-18da-4d3e-99a9-3fd0800e3010"},"vehicle_type_id":"4","last_reported":1744909696,"current_range_meters":8000,"station_id":"ce4bha12rcd13ifvqee0","pricing_plan_id":"cebpf4jnsgd1na2vs0mg"},{"bike_id":"7e9f8509-1afb-4133-ab43-f6ee30ae2cf4","system_id":"levelo_inurba_marseille","lat":43.30445,"lon":5.38892,"is_reserved":false,"is_disabled":false,"rental_uris":{"android":"levelo://app?vid=7e9f8509-1afb-4133-ab43-f6ee30ae2cf4","ios":"levelo://app?vid=7e9f8509-1afb-4133-ab43-f6ee30ae2cf4"},"vehicle_type_id":"4","last_reported":1744909696,"current_range_meters":8000,"station_id":"ce4bgk12rcd13ifvqbi0","pricing_plan_id":"cebpf4jnsgd1na2vs0mg"},{"bike_id":"de0a9db6-850e-46eb-a001-c3e117ffd11c","system_id":"levelo_inurba_marseille","lat":43.28426,"lon":5.34999,"is_reserved":false,"is_disabled":false,"rental_uris":{"android":"levelo://app?vid=de0a9db6-850e-46eb-a001-c3e117ffd11c","ios":"levelo://app?vid=de0a9db6-850e-46eb-a001-c3e117ffd11c"},"vehicle_type_id":"4","last_reported":1744909696,"current_range_meters":8000,"station_id":"ce4bhbh2rcd13ifvqepg","pricing_plan_id":"cebpf4jnsgd1na2vs0mg"},{"bike_id":"c417f2a6-eebe-44b3-9320-32bc1c0a4db4","system_id":"levelo_inurba_marseille","lat":43.25498,"lon":5.37652,"is_reserved":false,"is_disabled":false,"rental_uris":{"android":"levelo://app?vid=c417f2a6-eebe-44b3-9320-32bc1c0a4db4","ios":"levelo://app?vid=c417f2a6-eebe-44b3-9320-32bc1c0a4db4"},"vehicle_type_id":"4","last_reported":1744909696,"current_range_meters":8400,"station_id":"ce4bhh12rcd13ifvqff0","pricing_plan_id":"cebpf4jnsgd1na2vs0mg"},{"bike_id":"15d529aa-c11d-41fa-a432-44026be02537","system_id":"levelo_inurba_marseille","lat":43.28451,"lon":5.3921,"is_reserved":false,"is_disabled":false,"rental_uris":{"android":"levelo://app?vid=15d529aa-c11d-41fa-a432-44026be02537","ios":"levelo://app?vid=15d529aa-c11d-41fa-a432-44026be02537"},"vehicle_type_id":"4","last_reported":1744909696,"current_range_meters":8400,"station_id":"ce4bhoh2rcd13ifvqh5g","pricing_plan_id":"cebpf4jnsgd1na2vs0mg"},{"bike_id":"efadfa49-d43b-4c2f-8bd2-98b84359778d","system_id":"levelo_inurba_marseille","lat":43.30546,"lon":5.36546,"is_reserved":false,"is_disabled":false,"rental_uris":{"android":"levelo://app?vid=efadfa49-d43b-4c2f-8bd2-98b84359778d","ios":"levelo://app?vid=efadfa49-d43b-4c2f-8bd2-98b84359778d"},"vehicle_type_id":"4","last_reported":1744909696,"current_range_meters":8400,"station_id":"ce4bgs12rcd13ifvqcag","pricing_plan_id":"cebpf4jnsgd1na2vs0mg"},{"bike_id":"2c85d733-8bec-4ab8-b842-10773d937359","system_id":"levelo_inurba_marseille","lat":43.27986,"lon":5.41662,"is_reserved":false,"is_disabled":false,"rental_uris":{"android":"levelo://app?vid=2c85d733-8bec-4ab8-b842-10773d937359","ios":"levelo://app?vid=2c85d733-8bec-4ab8-b842-10773d937359"},"vehicle_type_id":"4","last_reported":1744909696,"current_range_meters":8400,"station_id":"ce4bho12rcd13ifvqh1g","pricing_plan_id":"cebpf4jnsgd1na2vs0mg"},{"bike_id":"b5669888-d086-498b-815f-f9b595f7ff6e","system_id":"levelo_inurba_marseille","lat":43.28985,"lon":5.37832,"is_reserved":false,"is_disabled":false,"rental_uris":{"android":"levelo://app?vid=b5669888-d086-498b-815f-f9b595f7ff6e","ios":"levelo://app?vid=b5669888-d086-498b-815f-f9b595f7ff6e"},"vehicle_type_id":"4","last_reported":1744909696,"current_range_meters":8400,"station_id":"ce4bh9p2rcd13ifvqed0","pricing_plan_id":"cebpf4jnsgd1na2vs0mg"},{"bike_id":"5f541b20-589e-4f9c-a5dd-30bb97d4241f","system_id":"levelo_inurba_marseille","lat":43.292576,"lon":5.384358,"is_reserved":false,"is_disabled":false,"rental_uris":{"android":"levelo://app?vid=5f541b20-589e-4f9c-a5dd-30bb97d4241f","ios":"levelo://app?vid=5f541b20-589e-4f9c-a5dd-30bb97d4241f"},"vehicle_type_id":"4","last_reported":1744909696,"current_range_meters":8400,"station_id":"ce4bh692rcd13ifvqea0","pricing_plan_id":"cebpf4jnsgd1na2vs0mg"},{"bike_id":"1bdba7a7-a82e-4252-906c-80db6beb180e","system_id":"levelo_inurba_marseille","lat":43.33774,"lon":5.37473,"is_reserved":false,"is_disabled":false,"rental_uris":{"android":"levelo://app?vid=1bdba7a7-a82e-4252-906c-80db6beb180e","ios":"levelo://app?vid=1bdba7a7-a82e-4252-906c-80db6beb180e"},"vehicle_type_id":"4","last_reported":1744909696,"current_range_meters":8800,"station_id":"","pricing_plan_id":"cebpf4jnsgd1na2vs0mg"},{"bike_id":"ec5a7b9e-7f73-4a97-aa06-9cf18e754df0","system_id":"levelo_inurba_marseille","lat":43.29279,"lon":5.36849,"is_reserved":false,"is_disabled":false,"rental_uris":{"android":"levelo://app?vid=ec5a7b9e-7f73-4a97-aa06-9cf18e754df0","ios":"levelo://app?vid=ec5a7b9e-7f73-4a97-aa06-9cf18e754df0"},"vehicle_type_id":"4","last_reported":1744909696,"current_range_meters":8800,"station_id":"ce4bhbp2rcd13ifvqesg","pricing_plan_id":"cebpf4jnsgd1na2vs0mg"},{"bike_id":"ce90eeb4-f81d-4b80-9b35-94fd4698915f","system_id":"levelo_inurba_marseille","lat":43.28408,"lon":5.34962,"is_reserved":false,"is_disabled":false,"rental_uris":{"android":"levelo://app?vid=ce90eeb4-f81d-4b80-9b35-94fd4698915f","ios":"levelo://app?vid=ce90eeb4-f81d-4b80-9b35-94fd4698915f"},"vehicle_type_id":"4","last_reported":1744909696,"current_range_meters":8800,"station_id":"ce4bhbh2rcd13ifvqepg","pricing_plan_id":"cebpf4jnsgd1na2vs0mg"},{"bike_id":"27e7ecd0-21d9-4948-9486-c22c7b5253de","system_id":"levelo_inurba_marseille","lat":43.28936,"lon":5.38387,"is_reserved":false,"is_disabled":false,"rental_uris":{"android":"levelo://app?vid=27e7ecd0-21d9-4948-9486-c22c7b5253de","ios":"levelo://app?vid=27e7ecd0-21d9-4948-9486-c22c7b5253de"},"vehicle_type_id":"4","last_reported":1744909696,"current_range_meters":8800,"station_id":"ce4bh612rcd13ifvqe6g","pricing_plan_id":"cebpf4jnsgd1na2vs0mg"},{"bike_id":"6a52c25e-e42a-4237-a980-f6f82f2e061e","system_id":"levelo_inurba_marseille","lat":43.21199,"lon":5.35066,"is_reserved":false,"is_disabled":false,"rental_uris":{"android":"levelo://app?vid=6a52c25e-e42a-4237-a980-f6f82f2e061e","ios":"levelo://app?vid=6a52c25e-e42a-4237-a980-f6f82f2e061e"},"vehicle_type_id":"4","last_reported":1744909696,"current_range_meters":9200,"station_id":"st_cvj6sg6p6f1abm77japg","pricing_plan_id":"cebpf4jnsgd1na2vs0mg"},{"bike_id":"62f83f64-b9d9-4460-8f24-f9398e700ecd","system_id":"levelo_inurba_marseille","lat":43.32653,"lon":5.40994,"is_reserved":false,"is_disabled":false,"rental_uris":{"android":"levelo://app?vid=62f83f64-b9d9-4460-8f24-f9398e700ecd","ios":"levelo://app?vid=62f83f64-b9d9-4460-8f24-f9398e700ecd"},"vehicle_type_id":"4","last_reported":1744909696,"current_range_meters":9200,"station_id":"ce4bhpp2rcd13ifvqhgg","pricing_plan_id":"cebpf4jnsgd1na2vs0mg"},{"bike_id":"543220e5-d083-4fb9-9514-f1c70a0449cf","system_id":"levelo_inurba_marseille","lat":43.295197,"lon":5.393991,"is_reserved":false,"is_disabled":false,"rental_uris":{"android":"levelo://app?vid=543220e5-d083-4fb9-9514-f1c70a0449cf","ios":"levelo://app?vid=543220e5-d083-4fb9-9514-f1c70a0449cf"},"vehicle_type_id":"4","last_reported":1744909696,"current_range_meters":9200,"station_id":"ce4bh292rcd13ifvqdf0","pricing_plan_id":"cebpf4jnsgd1na2vs0mg"},{"bike_id":"8ee7ae49-7b6d-4b48-9fb1-547fbea007bb","system_id":"levelo_inurba_marseille","lat":43.27912,"lon":5.39588,"is_reserved":false,"is_disabled":false,"rental_uris":{"android":"levelo://app?vid=8ee7ae49-7b6d-4b48-9fb1-547fbea007bb","ios":"levelo://app?vid=8ee7ae49-7b6d-4b48-9fb1-547fbea007bb"},"vehicle_type_id":"4","last_reported":1744909696,"current_range_meters":9200,"station_id":"ce4bhf92rcd13ifvqf40","pricing_plan_id":"cebpf4jnsgd1na2vs0mg"},{"bike_id":"3c530f42-ca1c-4aa7-94e3-2c5f18f63637","system_id":"levelo_inurba_marseille","lat":43.29417,"lon":5.38625,"is_reserved":false,"is_disabled":false,"rental_uris":{"android":"levelo://app?vid=3c530f42-ca1c-4aa7-94e3-2c5f18f63637","ios":"levelo://app?vid=3c530f42-ca1c-4aa7-94e3-2c5f18f63637"},"vehicle_type_id":"4","last_reported":1744909696,"current_range_meters":9600,"station_id":"ce4bh2h2rcd13ifvqdh0","pricing_plan_id":"cebpf4jnsgd1na2vs0mg"},{"bike_id":"2df22311-bac1-4b8f-abff-11893969de63","system_id":"levelo_inurba_marseille","lat":43.31098,"lon":5.37807,"is_reserved":false,"is_disabled":false,"rental_uris":{"android":"levelo://app?vid=2df22311-bac1-4b8f-abff-11893969de63","ios":"levelo://app?vid=2df22311-bac1-4b8f-abff-11893969de63"},"vehicle_type_id":"4","last_reported":1744909696,"current_range_meters":9600,"station_id":"ce4bgt92rcd13ifvqcg0","pricing_plan_id":"cebpf4jnsgd1na2vs0mg"},{"bike_id":"8ee49884-4076-402b-bdc6-b1b75f8b478d","system_id":"levelo_inurba_marseille","lat":43.27912,"lon":5.39592,"is_reserved":false,"is_disabled":false,"rental_uris":{"android":"levelo://app?vid=8ee49884-4076-402b-bdc6-b1b75f8b478d","ios":"levelo://app?vid=8ee49884-4076-402b-bdc6-b1b75f8b478d"},"vehicle_type_id":"4","last_reported":1744909696,"current_range_meters":9600,"station_id":"ce4bhf92rcd13ifvqf40","pricing_plan_id":"cebpf4jnsgd1na2vs0mg"},{"bike_id":"0a0b0a73-2b27-49fb-801a-3111dcebfbac","system_id":"levelo_inurba_marseille","lat":43.27592,"lon":5.42506,"is_reserved":false,"is_disabled":false,"rental_uris":{"android":"levelo://app?vid=0a0b0a73-2b27-49fb-801a-3111dcebfbac","ios":"levelo://app?vid=0a0b0a73-2b27-49fb-801a-3111dcebfbac"},"vehicle_type_id":"4","last_reported":1744909696,"current_range_meters":9600,"station_id":"","pricing_plan_id":"cebpf4jnsgd1na2vs0mg"},{"bike_id":"064b175a-56bd-4b45-8b2e-5d22e4cce068","system_id":"levelo_inurba_marseille","lat":43.26214,"lon":5.37434,"is_reserved":false,"is_disabled":false,"rental_uris":{"android":"levelo://app?vid=064b175a-56bd-4b45-8b2e-5d22e4cce068","ios":"levelo://app?vid=064b175a-56bd-4b45-8b2e-5d22e4cce068"},"vehicle_type_id":"4","last_reported":1744909696,"current_range_meters":9600,"station_id":"ce4bhgp2rcd13ifvqfc0","pricing_plan_id":"cebpf4jnsgd1na2vs0mg"},{"bike_id":"6a42fdd6-075d-4748-811a-29f5845c8920","system_id":"levelo_inurba_marseille","lat":43.21746,"lon":5.34629,"is_reserved":false,"is_disabled":false,"rental_uris":{"android":"levelo://app?vid=6a42fdd6-075d-4748-811a-29f5845c8920","ios":"levelo://app?vid=6a42fdd6-075d-4748-811a-29f5845c8920"},"vehicle_type_id":"4","last_reported":1744909696,"current_range_meters":10000,"station_id":"st_cvj6r9ubvosntc0bgbag","pricing_plan_id":"cebpf4jnsgd1na2vs0mg"},{"bike_id":"0e5dca6f-4a9f-4690-b009-041f8251bd8e","system_id":"levelo_inurba_marseille","lat":43.28705,"lon":5.37932,"is_reserved":false,"is_disabled":false,"rental_uris":{"android":"levelo://app?vid=0e5dca6f-4a9f-4690-b009-041f8251bd8e","ios":"levelo://app?vid=0e5dca6f-4a9f-4690-b009-041f8251bd8e"},"vehicle_type_id":"4","last_reported":1744909696,"current_range_meters":10000,"station_id":"ce4bh9p2rcd13ifvqec0","pricing_plan_id":"cebpf4jnsgd1na2vs0mg"},{"bike_id":"7b96111b-7974-4fe6-9610-4556870a2e07","system_id":"levelo_inurba_marseille","lat":43.24383,"lon":5.37061,"is_reserved":false,"is_disabled":false,"rental_uris":{"android":"levelo://app?vid=7b96111b-7974-4fe6-9610-4556870a2e07","ios":"levelo://app?vid=7b96111b-7974-4fe6-9610-4556870a2e07"},"vehicle_type_id":"4","last_reported":1744909696,"current_range_meters":10000,"station_id":"ce4bhhh2rcd13ifvqfk0","pricing_plan_id":"cebpf4jnsgd1na2vs0mg"},{"bike_id":"778f7afb-3ddc-4314-b8f6-b7ba1dbb2b41","system_id":"levelo_inurba_marseille","lat":43.28352,"lon":5.38105,"is_reserved":false,"is_disabled":false,"rental_uris":{"android":"levelo://app?vid=778f7afb-3ddc-4314-b8f6-b7ba1dbb2b41","ios":"levelo://app?vid=778f7afb-3ddc-4314-b8f6-b7ba1dbb2b41"},"vehicle_type_id":"4","last_reported":1744909696,"current_range_meters":10000,"station_id":"ce4bh412rcd13ifvqdr0","pricing_plan_id":"cebpf4jnsgd1na2vs0mg"},{"bike_id":"6652b3f4-fcf5-43bf-aeb8-5cca365447d3","system_id":"levelo_inurba_marseille","lat":43.23963,"lon":5.36635,"is_reserved":false,"is_disabled":false,"rental_uris":{"android":"levelo://app?vid=6652b3f4-fcf5-43bf-aeb8-5cca365447d3","ios":"levelo://app?vid=6652b3f4-fcf5-43bf-aeb8-5cca365447d3"},"vehicle_type_id":"4","last_reported":1744909696,"current_range_meters":10000,"station_id":"ce4bhi12rcd13ifvqfp0","pricing_plan_id":"cebpf4jnsgd1na2vs0mg"},{"bike_id":"1028c9f4-1e97-42f9-a548-348f2036ecbe","system_id":"levelo_inurba_marseille","lat":43.31686,"lon":5.4047,"is_reserved":false,"is_disabled":false,"rental_uris":{"android":"levelo://app?vid=1028c9f4-1e97-42f9-a548-348f2036ecbe","ios":"levelo://app?vid=1028c9f4-1e97-42f9-a548-348f2036ecbe"},"vehicle_type_id":"4","last_reported":1744909696,"current_range_meters":10800,"station_id":"ce4bh012rcd13ifvqd00","pricing_plan_id":"cebpf4jnsgd1na2vs0mg"},{"bike_id":"eafc7c7c-20ca-4dfa-a0c7-dd6b8c1cd780","system_id":"levelo_inurba_marseille","lat":43.3171,"lon":5.37741,"is_reserved":false,"is_disabled":false,"rental_uris":{"android":"levelo://app?vid=eafc7c7c-20ca-4dfa-a0c7-dd6b8c1cd780","ios":"levelo://app?vid=eafc7c7c-20ca-4dfa-a0c7-dd6b8c1cd780"},"vehicle_type_id":"4","last_reported":1744909696,"current_range_meters":10800,"station_id":"ce4bgth2rcd13ifvqch0","pricing_plan_id":"cebpf4jnsgd1na2vs0mg"},{"bike_id":"0174b4f2-141b-4b77-a390-267f11c4cec2","system_id":"levelo_inurba_marseille","lat":43.28694,"lon":5.37384,"is_reserved":false,"is_disabled":false,"rental_uris":{"android":"levelo://app?vid=0174b4f2-141b-4b77-a390-267f11c4cec2","ios":"levelo://app?vid=0174b4f2-141b-4b77-a390-267f11c4cec2"},"vehicle_type_id":"4","last_reported":1744909696,"current_range_meters":10800,"station_id":"ce4bh3p2rcd13ifvqdq0","pricing_plan_id":"cebpf4jnsgd1na2vs0mg"},{"bike_id":"fd48b57a-e9eb-405b-b049-ce75c69b46c9","system_id":"levelo_inurba_marseille","lat":43.29009,"lon":5.35605,"is_reserved":false,"is_disabled":false,"rental_uris":{"android":"levelo://app?vid=fd48b57a-e9eb-405b-b049-ce75c69b46c9","ios":"levelo://app?vid=fd48b57a-e9eb-405b-b049-ce75c69b46c9"},"vehicle_type_id":"4","last_reported":1744909696,"current_range_meters":10800,"station_id":"ce4bhb92rcd13ifvqen0","pricing_plan_id":"cebpf4jnsgd1na2vs0mg"},{"bike_id":"54005812-3370-4944-aac3-a4577b3f2744","system_id":"levelo_inurba_marseille","lat":43.217443,"lon":5.34605,"is_reserved":false,"is_disabled":false,"rental_uris":{"android":"levelo://app?vid=54005812-3370-4944-aac3-a4577b3f2744","ios":"levelo://app?vid=54005812-3370-4944-aac3-a4577b3f2744"},"vehicle_type_id":"4","last_reported":1744909696,"current_range_meters":10800,"station_id":"st_cvj6r9ubvosntc0bgbag","pricing_plan_id":"cebpf4jnsgd1na2vs0mg"},{"bike_id":"c891c811-4387-4717-a98d-b5fc21399698","system_id":"levelo_inurba_marseille","lat":43.292536,"lon":5.384371,"is_reserved":false,"is_disabled":false,"rental_uris":{"android":"levelo://app?vid=c891c811-4387-4717-a98d-b5fc21399698","ios":"levelo://app?vid=c891c811-4387-4717-a98d-b5fc21399698"},"vehicle_type_id":"4","last_reported":1744909696,"current_range_meters":11200,"station_id":"ce4bhi12rcd13ifvqfp0","pricing_plan_id":"cebpf4jnsgd1na2vs0mg"},{"bike_id":"6182d45b-191a-4249-88bd-5fad61239bca","system_id":"levelo_inurba_marseille","lat":43.21762,"lon":5.34603,"is_reserved":false,"is_disabled":false,"rental_uris":{"android":"levelo://app?vid=6182d45b-191a-4249-88bd-5fad61239bca","ios":"levelo://app?vid=6182d45b-191a-4249-88bd-5fad61239bca"},"vehicle_type_id":"4","last_reported":1744909696,"current_range_meters":11200,"station_id":"st_cvj6r9ubvosntc0bgbag","pricing_plan_id":"cebpf4jnsgd1na2vs0mg"},{"bike_id":"7e049aca-b90c-4040-8e8e-bc5c88c044db","system_id":"levelo_inurba_marseille","lat":43.29212,"lon":5.39339,"is_reserved":false,"is_disabled":false,"rental_uris":{"android":"levelo://app?vid=7e049aca-b90c-4040-8e8e-bc5c88c044db","ios":"levelo://app?vid=7e049aca-b90c-4040-8e8e-bc5c88c044db"},"vehicle_type_id":"4","last_reported":1744909696,"current_range_meters":11200,"station_id":"ce4bh192rcd13ifvqdd0","pricing_plan_id":"cebpf4jnsgd1na2vs0mg"},{"bike_id":"ff935f1c-246d-4e07-a399-40ad7e059de5","system_id":"levelo_inurba_marseille","lat":43.25511,"lon":5.37664,"is_reserved":false,"is_disabled":true,"rental_uris":{"android":"levelo://app?vid=ff935f1c-246d-4e07-a399-40ad7e059de5","ios":"levelo://app?vid=ff935f1c-246d-4e07-a399-40ad7e059de5"},"vehicle_type_id":"4","last_reported":1744909696,"current_range_meters":11600,"station_id":"ce4bhh12rcd13ifvqff0","pricing_plan_id":"cebpf4jnsgd1na2vs0mg"},{"bike_id":"9ae4de2b-65d6-4c8d-9fd9-eb2927f36e22","system_id":"levelo_inurba_marseille","lat":43.23341,"lon":5.36464,"is_reserved":false,"is_disabled":false,"rental_uris":{"android":"levelo://app?vid=9ae4de2b-65d6-4c8d-9fd9-eb2927f36e22","ios":"levelo://app?vid=9ae4de2b-65d6-4c8d-9fd9-eb2927f36e22"},"vehicle_type_id":"4","last_reported":1744909696,"current_range_meters":11600,"station_id":"","pricing_plan_id":"cebpf4jnsgd1na2vs0mg"},{"bike_id":"f5059fbc-dfae-4edb-8037-f4d318c7097f","system_id":"levelo_inurba_marseille","lat":43.296497,"lon":5.377738,"is_reserved":false,"is_disabled":false,"rental_uris":{"android":"levelo://app?vid=f5059fbc-dfae-4edb-8037-f4d318c7097f","ios":"levelo://app?vid=f5059fbc-dfae-4edb-8037-f4d318c7097f"},"vehicle_type_id":"4","last_reported":1744909696,"current_range_meters":11600,"station_id":"ce4bgr92rcd13ifvqc7g","pricing_plan_id":"cebpf4jnsgd1na2vs0mg"},{"bike_id":"ce2b387d-1e0b-4987-8320-12b94bb0828d","system_id":"levelo_inurba_marseille","lat":43.27938,"lon":5.4105,"is_reserved":false,"is_disabled":false,"rental_uris":{"android":"levelo://app?vid=ce2b387d-1e0b-4987-8320-12b94bb0828d","ios":"levelo://app?vid=ce2b387d-1e0b-4987-8320-12b94bb0828d"},"vehicle_type_id":"4","last_reported":1744909696,"current_range_meters":12000,"station_id":"ce4bhnp2rcd13ifvqh0g","pricing_plan_id":"cebpf4jnsgd1na2vs0mg"},{"bike_id":"2e3d1586-39b9-4f2e-a808-4f2fbc6116b5","system_id":"levelo_inurba_marseille","lat":43.28406,"lon":5.3751,"is_reserved":false,"is_disabled":false,"rental_uris":{"android":"levelo://app?vid=2e3d1586-39b9-4f2e-a808-4f2fbc6116b5","ios":"levelo://app?vid=2e3d1586-39b9-4f2e-a808-4f2fbc6116b5"},"vehicle_type_id":"4","last_reported":1744909696,"current_range_meters":12000,"station_id":"ce4bh412rcd13ifvqds0","pricing_plan_id":"cebpf4jnsgd1na2vs0mg"},{"bike_id":"cbf29fce-b821-4cbd-8ecd-022dab6930e8","system_id":"levelo_inurba_marseille","lat":43.28405,"lon":5.37534,"is_reserved":false,"is_disabled":false,"rental_uris":{"android":"levelo://app?vid=cbf29fce-b821-4cbd-8ecd-022dab6930e8","ios":"levelo://app?vid=cbf29fce-b821-4cbd-8ecd-022dab6930e8"},"vehicle_type_id":"4","last_reported":1744909696,"current_range_meters":12000,"station_id":"ce4bh412rcd13ifvqds0","pricing_plan_id":"cebpf4jnsgd1na2vs0mg"},{"bike_id":"15377006-3615-4dbe-a453-226e5c1fd0bb","system_id":"levelo_inurba_marseille","lat":43.29969,"lon":5.38486,"is_reserved":false,"is_disabled":true,"rental_uris":{"android":"levelo://app?vid=15377006-3615-4dbe-a453-226e5c1fd0bb","ios":"levelo://app?vid=15377006-3615-4dbe-a453-226e5c1fd0bb"},"vehicle_type_id":"4","last_reported":1744909696,"current_range_meters":12400,"station_id":"ce4bgj92rcd13ifvqbd0","pricing_plan_id":"cebpf4jnsgd1na2vs0mg"},{"bike_id":"732200d2-71d7-4916-abc4-3a4aed5ed402","system_id":"levelo_inurba_marseille","lat":43.2972,"lon":5.36612,"is_reserved":false,"is_disabled":false,"rental_uris":{"android":"levelo://app?vid=732200d2-71d7-4916-abc4-3a4aed5ed402","ios":"levelo://app?vid=732200d2-71d7-4916-abc4-3a4aed5ed402"},"vehicle_type_id":"4","last_reported":1744909696,"current_range_meters":12000,"station_id":"ce4bgn12rcd13ifvqbt0","pricing_plan_id":"cebpf4jnsgd1na2vs0mg"},{"bike_id":"76b20bbf-8914-4a94-8874-37067e89a32c","system_id":"levelo_inurba_marseille","lat":43.28618,"lon":5.35107,"is_reserved":false,"is_disabled":false,"rental_uris":{"android":"levelo://app?vid=76b20bbf-8914-4a94-8874-37067e89a32c","ios":"levelo://app?vid=76b20bbf-8914-4a94-8874-37067e89a32c"},"vehicle_type_id":"4","last_reported":1744909696,"current_range_meters":12400,"station_id":"ce4bhch2rcd13ifvqeug","pricing_plan_id":"cebpf4jnsgd1na2vs0mg"},{"bike_id":"1f4520e3-87e9-4526-b289-4f9d45f13aa7","system_id":"levelo_inurba_marseille","lat":43.28606,"lon":5.37063,"is_reserved":false,"is_disabled":false,"rental_uris":{"android":"levelo://app?vid=1f4520e3-87e9-4526-b289-4f9d45f13aa7","ios":"levelo://app?vid=1f4520e3-87e9-4526-b289-4f9d45f13aa7"},"vehicle_type_id":"4","last_reported":1744909696,"current_range_meters":12400,"station_id":"ce4bht12rcd13ifvqi60","pricing_plan_id":"cebpf4jnsgd1na2vs0mg"},{"bike_id":"04657881-18eb-45ab-8fbd-9926a7c863cf","system_id":"levelo_inurba_marseille","lat":43.2859,"lon":5.35133,"is_reserved":false,"is_disabled":false,"rental_uris":{"android":"levelo://app?vid=04657881-18eb-45ab-8fbd-9926a7c863cf","ios":"levelo://app?vid=04657881-18eb-45ab-8fbd-9926a7c863cf"},"vehicle_type_id":"4","last_reported":1744909696,"current_range_meters":12400,"station_id":"ce4bhch2rcd13ifvqeug","pricing_plan_id":"cebpf4jnsgd1na2vs0mg"},{"bike_id":"ec8c9ac7-1e95-4171-97f3-226ce1e3c951","system_id":"levelo_inurba_marseille","lat":43.3209,"lon":5.36794,"is_reserved":false,"is_disabled":false,"rental_uris":{"android":"levelo://app?vid=ec8c9ac7-1e95-4171-97f3-226ce1e3c951","ios":"levelo://app?vid=ec8c9ac7-1e95-4171-97f3-226ce1e3c951"},"vehicle_type_id":"4","last_reported":1744909696,"current_range_meters":12800,"station_id":"ce4bhrh2rcd13ifvqhug","pricing_plan_id":"cebpf4jnsgd1na2vs0mg"},{"bike_id":"3acd30f3-98c6-4269-aaf5-85f75a45b6be","system_id":"levelo_inurba_marseille","lat":43.28923,"lon":5.36383,"is_reserved":false,"is_disabled":false,"rental_uris":{"android":"levelo://app?vid=3acd30f3-98c6-4269-aaf5-85f75a45b6be","ios":"levelo://app?vid=3acd30f3-98c6-4269-aaf5-85f75a45b6be"},"vehicle_type_id":"4","last_reported":1744909696,"current_range_meters":13600,"station_id":"ce4bhc92rcd13ifvqetg","pricing_plan_id":"cebpf4jnsgd1na2vs0mg"},{"bike_id":"c4577e20-ee8e-40cc-9402-3c0064ec33a7","system_id":"levelo_inurba_marseille","lat":43.26937,"lon":5.402583,"is_reserved":false,"is_disabled":false,"rental_uris":{"android":"levelo://app?vid=c4577e20-ee8e-40cc-9402-3c0064ec33a7","ios":"levelo://app?vid=c4577e20-ee8e-40cc-9402-3c0064ec33a7"},"vehicle_type_id":"4","last_reported":1744909696,"current_range_meters":13600,"station_id":"cjm6bp8fraef2m0cb0m0","pricing_plan_id":"cebpf4jnsgd1na2vs0mg"},{"bike_id":"3060d113-c83d-4482-9dc3-bdcfb09f5f33","system_id":"levelo_inurba_marseille","lat":43.30605,"lon":5.37221,"is_reserved":false,"is_disabled":false,"rental_uris":{"android":"levelo://app?vid=3060d113-c83d-4482-9dc3-bdcfb09f5f33","ios":"levelo://app?vid=3060d113-c83d-4482-9dc3-bdcfb09f5f33"},"vehicle_type_id":"4","last_reported":1744909696,"current_range_meters":13600,"station_id":"ce4bgqh2rcd13ifvqc4g","pricing_plan_id":"cebpf4jnsgd1na2vs0mg"},{"bike_id":"477fceb9-509f-4002-87ec-f40c09b0c7bd","system_id":"levelo_inurba_marseille","lat":43.28944,"lon":5.36644,"is_reserved":false,"is_disabled":false,"rental_uris":{"android":"levelo://app?vid=477fceb9-509f-4002-87ec-f40c09b0c7bd","ios":"levelo://app?vid=477fceb9-509f-4002-87ec-f40c09b0c7bd"},"vehicle_type_id":"4","last_reported":1744909696,"current_range_meters":13600,"station_id":"ce4bhap2rcd13ifvqek0","pricing_plan_id":"cebpf4jnsgd1na2vs0mg"},{"bike_id":"173d39b4-7a97-4693-9385-db8bda0fe199","system_id":"levelo_inurba_marseille","lat":43.21763,"lon":5.34598,"is_reserved":false,"is_disabled":false,"rental_uris":{"android":"levelo://app?vid=173d39b4-7a97-4693-9385-db8bda0fe199","ios":"levelo://app?vid=173d39b4-7a97-4693-9385-db8bda0fe199"},"vehicle_type_id":"4","last_reported":1744909696,"current_range_meters":13600,"station_id":"st_cvj6r9ubvosntc0bgbag","pricing_plan_id":"cebpf4jnsgd1na2vs0mg"},{"bike_id":"4a17a27b-4979-4133-9ae1-996785f8fee4","system_id":"levelo_inurba_marseille","lat":43.23081,"lon":5.35463,"is_reserved":false,"is_disabled":false,"rental_uris":{"android":"levelo://app?vid=4a17a27b-4979-4133-9ae1-996785f8fee4","ios":"levelo://app?vid=4a17a27b-4979-4133-9ae1-996785f8fee4"},"vehicle_type_id":"4","last_reported":1744909696,"current_range_meters":13600,"station_id":"cpo3342slgdg3j2ifvpg","pricing_plan_id":"cebpf4jnsgd1na2vs0mg"},{"bike_id":"98da1440-ddaf-41c4-ae43-8bc3e685a3bb","system_id":"levelo_inurba_marseille","lat":43.2842,"lon":5.34983,"is_reserved":false,"is_disabled":false,"rental_uris":{"android":"levelo://app?vid=98da1440-ddaf-41c4-ae43-8bc3e685a3bb","ios":"levelo://app?vid=98da1440-ddaf-41c4-ae43-8bc3e685a3bb"},"vehicle_type_id":"4","last_reported":1744909696,"current_range_meters":14000,"station_id":"ce4bhbh2rcd13ifvqepg","pricing_plan_id":"cebpf4jnsgd1na2vs0mg"},{"bike_id":"3cb0a7d9-435a-4197-81b1-633d4a5ae1a5","system_id":"levelo_inurba_marseille","lat":43.30147,"lon":5.39871,"is_reserved":false,"is_disabled":false,"rental_uris":{"android":"levelo://app?vid=3cb0a7d9-435a-4197-81b1-633d4a5ae1a5","ios":"levelo://app?vid=3cb0a7d9-435a-4197-81b1-633d4a5ae1a5"},"vehicle_type_id":"4","last_reported":1744909696,"current_range_meters":14000,"station_id":"ce4bh0h2rcd13ifvqd40","pricing_plan_id":"cebpf4jnsgd1na2vs0mg"},{"bike_id":"64a47f4a-f4e2-4e1b-949e-3e6cf7bc5e72","system_id":"levelo_inurba_marseille","lat":43.2719,"lon":5.41,"is_reserved":false,"is_disabled":true,"rental_uris":{"android":"levelo://app?vid=64a47f4a-f4e2-4e1b-949e-3e6cf7bc5e72","ios":"levelo://app?vid=64a47f4a-f4e2-4e1b-949e-3e6cf7bc5e72"},"vehicle_type_id":"4","last_reported":1744909696,"current_range_meters":14000,"station_id":"ce4bhl12rcd13ifvqgf0","pricing_plan_id":"cebpf4jnsgd1na2vs0mg"},{"bike_id":"ae0e1566-e631-4bc5-9aed-0ebca70f0554","system_id":"levelo_inurba_marseille","lat":43.286171,"lon":5.3511,"is_reserved":false,"is_disabled":false,"rental_uris":{"android":"levelo://app?vid=ae0e1566-e631-4bc5-9aed-0ebca70f0554","ios":"levelo://app?vid=ae0e1566-e631-4bc5-9aed-0ebca70f0554"},"vehicle_type_id":"4","last_reported":1744909696,"current_range_meters":14000,"station_id":"ce4bhch2rcd13ifvqeug","pricing_plan_id":"cebpf4jnsgd1na2vs0mg"},{"bike_id":"64dced70-ab64-4fae-9c31-9891646a53f8","system_id":"levelo_inurba_marseille","lat":43.29266,"lon":5.409,"is_reserved":false,"is_disabled":false,"rental_uris":{"android":"levelo://app?vid=64dced70-ab64-4fae-9c31-9891646a53f8","ios":"levelo://app?vid=64dced70-ab64-4fae-9c31-9891646a53f8"},"vehicle_type_id":"4","last_reported":1744909696,"current_range_meters":13600,"station_id":"ce4bh192rcd13ifvqdc0","pricing_plan_id":"cebpf4jnsgd1na2vs0mg"},{"bike_id":"b7ddc30b-ee0f-4500-8e2e-17ec8691cbd6","system_id":"levelo_inurba_marseille","lat":43.23181,"lon":5.39987,"is_reserved":false,"is_disabled":false,"rental_uris":{"android":"levelo://app?vid=b7ddc30b-ee0f-4500-8e2e-17ec8691cbd6","ios":"levelo://app?vid=b7ddc30b-ee0f-4500-8e2e-17ec8691cbd6"},"vehicle_type_id":"4","last_reported":1744909696,"current_range_meters":14400,"station_id":"ce4bhn12rcd13ifvqgqg","pricing_plan_id":"cebpf4jnsgd1na2vs0mg"},{"bike_id":"41fb0398-f2fe-4abb-ae37-a38f47615ea9","system_id":"levelo_inurba_marseille","lat":43.32361,"lon":5.36768,"is_reserved":false,"is_disabled":false,"rental_uris":{"android":"levelo://app?vid=41fb0398-f2fe-4abb-ae37-a38f47615ea9","ios":"levelo://app?vid=41fb0398-f2fe-4abb-ae37-a38f47615ea9"},"vehicle_type_id":"4","last_reported":1744909696,"current_range_meters":14400,"station_id":"ce4bhsh2rcd13ifvqi2g","pricing_plan_id":"cebpf4jnsgd1na2vs0mg"},{"bike_id":"c367ee54-2c7a-4465-af8d-2fcf61e6c0f0","system_id":"levelo_inurba_marseille","lat":43.251084,"lon":5.403146,"is_reserved":false,"is_disabled":false,"rental_uris":{"android":"levelo://app?vid=c367ee54-2c7a-4465-af8d-2fcf61e6c0f0","ios":"levelo://app?vid=c367ee54-2c7a-4465-af8d-2fcf61e6c0f0"},"vehicle_type_id":"4","last_reported":1744909696,"current_range_meters":14000,"station_id":"ce4bhh12rcd13ifvqff0","pricing_plan_id":"cebpf4jnsgd1na2vs0mg"},{"bike_id":"a62dc8a6-2e87-4637-a9a6-3b87e6975248","system_id":"levelo_inurba_marseille","lat":43.27058,"lon":5.40256,"is_reserved":false,"is_disabled":false,"rental_uris":{"android":"levelo://app?vid=a62dc8a6-2e87-4637-a9a6-3b87e6975248","ios":"levelo://app?vid=a62dc8a6-2e87-4637-a9a6-3b87e6975248"},"vehicle_type_id":"4","last_reported":1744909696,"current_range_meters":14400,"station_id":"ce4bhk92rcd13ifvqgc0","pricing_plan_id":"cebpf4jnsgd1na2vs0mg"},{"bike_id":"20eb7f25-2ccd-42c8-8343-ee9f48eb0ef3","system_id":"levelo_inurba_marseille","lat":43.2649,"lon":5.39541,"is_reserved":false,"is_disabled":false,"rental_uris":{"android":"levelo://app?vid=20eb7f25-2ccd-42c8-8343-ee9f48eb0ef3","ios":"levelo://app?vid=20eb7f25-2ccd-42c8-8343-ee9f48eb0ef3"},"vehicle_type_id":"4","last_reported":1744909696,"current_range_meters":14400,"station_id":"ce4bhi12rcd13ifvqfq0","pricing_plan_id":"cebpf4jnsgd1na2vs0mg"},{"bike_id":"e14c265e-eca3-4791-a3e7-f534121ae166","system_id":"levelo_inurba_marseille","lat":43.22947,"lon":5.35389,"is_reserved":false,"is_disabled":false,"rental_uris":{"android":"levelo://app?vid=e14c265e-eca3-4791-a3e7-f534121ae166","ios":"levelo://app?vid=e14c265e-eca3-4791-a3e7-f534121ae166"},"vehicle_type_id":"4","last_reported":1744909696,"current_range_meters":14800,"station_id":"cpo3532slgdg3j2ikp40","pricing_plan_id":"cebpf4jnsgd1na2vs0mg"},{"bike_id":"2da19230-f53a-427c-9cf4-a00e50b76f57","system_id":"levelo_inurba_marseille","lat":43.24088,"lon":5.37734,"is_reserved":false,"is_disabled":false,"rental_uris":{"android":"levelo://app?vid=2da19230-f53a-427c-9cf4-a00e50b76f57","ios":"levelo://app?vid=2da19230-f53a-427c-9cf4-a00e50b76f57"},"vehicle_type_id":"4","last_reported":1744909696,"current_range_meters":14800,"station_id":"ce4bhnp2rcd13ifvqgvg","pricing_plan_id":"cebpf4jnsgd1na2vs0mg"},{"bike_id":"f690738c-7184-40d0-8e24-653d6c176a31","system_id":"levelo_inurba_marseille","lat":43.29552,"lon":5.42281,"is_reserved":false,"is_disabled":false,"rental_uris":{"android":"levelo://app?vid=f690738c-7184-40d0-8e24-653d6c176a31","ios":"levelo://app?vid=f690738c-7184-40d0-8e24-653d6c176a31"},"vehicle_type_id":"4","last_reported":1744909696,"current_range_meters":14800,"station_id":"ce4bhph2rcd13ifvqhdg","pricing_plan_id":"cebpf4jnsgd1na2vs0mg"},{"bike_id":"386b66dd-54dd-4f23-9399-5feab1b083fa","system_id":"levelo_inurba_marseille","lat":43.29664,"lon":5.37783,"is_reserved":false,"is_disabled":false,"rental_uris":{"android":"levelo://app?vid=386b66dd-54dd-4f23-9399-5feab1b083fa","ios":"levelo://app?vid=386b66dd-54dd-4f23-9399-5feab1b083fa"},"vehicle_type_id":"4","last_reported":1744909696,"current_range_meters":14800,"station_id":"","pricing_plan_id":"cebpf4jnsgd1na2vs0mg"},{"bike_id":"6b6a52bd-6eb4-4c56-aa83-6e419adb434e","system_id":"levelo_inurba_marseille","lat":43.28625,"lon":5.35086,"is_reserved":false,"is_disabled":false,"rental_uris":{"android":"levelo://app?vid=6b6a52bd-6eb4-4c56-aa83-6e419adb434e","ios":"levelo://app?vid=6b6a52bd-6eb4-4c56-aa83-6e419adb434e"},"vehicle_type_id":"4","last_reported":1744909696,"current_range_meters":15200,"station_id":"ce4bhch2rcd13ifvqeug","pricing_plan_id":"cebpf4jnsgd1na2vs0mg"},{"bike_id":"559306d4-8b23-4192-b8d5-28a38ab3887f","system_id":"levelo_inurba_marseille","lat":43.2992,"lon":5.36497,"is_reserved":false,"is_disabled":false,"rental_uris":{"android":"levelo://app?vid=559306d4-8b23-4192-b8d5-28a38ab3887f","ios":"levelo://app?vid=559306d4-8b23-4192-b8d5-28a38ab3887f"},"vehicle_type_id":"4","last_reported":1744909696,"current_range_meters":15200,"station_id":"ce4bgm92rcd13ifvqbr0","pricing_plan_id":"cebpf4jnsgd1na2vs0mg"},{"bike_id":"de07f061-fea0-412d-8750-24f4054e4094","system_id":"levelo_inurba_marseille","lat":43.29154,"lon":5.37164,"is_reserved":false,"is_disabled":false,"rental_uris":{"android":"levelo://app?vid=de07f061-fea0-412d-8750-24f4054e4094","ios":"levelo://app?vid=de07f061-fea0-412d-8750-24f4054e4094"},"vehicle_type_id":"4","last_reported":1744909696,"current_range_meters":15200,"station_id":"ce4bha92rcd13ifvqeh0","pricing_plan_id":"cebpf4jnsgd1na2vs0mg"},{"bike_id":"2bd696b5-9882-4e84-b096-c2bae8932cf4","system_id":"levelo_inurba_marseille","lat":43.29025,"lon":5.38645,"is_reserved":false,"is_disabled":false,"rental_uris":{"android":"levelo://app?vid=2bd696b5-9882-4e84-b096-c2bae8932cf4","ios":"levelo://app?vid=2bd696b5-9882-4e84-b096-c2bae8932cf4"},"vehicle_type_id":"4","last_reported":1744909696,"current_range_meters":16000,"station_id":"ce4bh4p2rcd13ifvqe0g","pricing_plan_id":"cebpf4jnsgd1na2vs0mg"},{"bike_id":"6468fff4-56a5-44d7-b8c7-7b7149828702","system_id":"levelo_inurba_marseille","lat":43.257457,"lon":5.399684,"is_reserved":false,"is_disabled":false,"rental_uris":{"android":"levelo://app?vid=6468fff4-56a5-44d7-b8c7-7b7149828702","ios":"levelo://app?vid=6468fff4-56a5-44d7-b8c7-7b7149828702"},"vehicle_type_id":"4","last_reported":1744909696,"current_range_meters":16000,"station_id":"","pricing_plan_id":"cebpf4jnsgd1na2vs0mg"},{"bike_id":"efb84f9c-3aa1-43e2-97ac-cb40e0853479","system_id":"levelo_inurba_marseille","lat":43.25122,"lon":5.40328,"is_reserved":false,"is_disabled":false,"rental_uris":{"android":"levelo://app?vid=efb84f9c-3aa1-43e2-97ac-cb40e0853479","ios":"levelo://app?vid=efb84f9c-3aa1-43e2-97ac-cb40e0853479"},"vehicle_type_id":"4","last_reported":1744909696,"current_range_meters":16000,"station_id":"ce4bhlh2rcd13ifvqgig","pricing_plan_id":"cebpf4jnsgd1na2vs0mg"},{"bike_id":"2bacea3f-0614-416e-9520-b63b25e8e44c","system_id":"levelo_inurba_marseille","lat":43.29413,"lon":5.38631,"is_reserved":false,"is_disabled":false,"rental_uris":{"android":"levelo://app?vid=2bacea3f-0614-416e-9520-b63b25e8e44c","ios":"levelo://app?vid=2bacea3f-0614-416e-9520-b63b25e8e44c"},"vehicle_type_id":"4","last_reported":1744909696,"current_range_meters":16000,"station_id":"ce4bh2h2rcd13ifvqdh0","pricing_plan_id":"cebpf4jnsgd1na2vs0mg"},{"bike_id":"e8ef03ec-94c2-4894-82ab-b33906d66d0f","system_id":"levelo_inurba_marseille","lat":43.25576,"lon":5.38232,"is_reserved":false,"is_disabled":false,"rental_uris":{"android":"levelo://app?vid=e8ef03ec-94c2-4894-82ab-b33906d66d0f","ios":"levelo://app?vid=e8ef03ec-94c2-4894-82ab-b33906d66d0f"},"vehicle_type_id":"4","last_reported":1744909696,"current_range_meters":16000,"station_id":"ce4bhih2rcd13ifvqfs0","pricing_plan_id":"cebpf4jnsgd1na2vs0mg"},{"bike_id":"f7c27922-6b89-47b5-8c41-fac0424fa314","system_id":"levelo_inurba_marseille","lat":43.26947,"lon":5.4025,"is_reserved":false,"is_disabled":false,"rental_uris":{"android":"levelo://app?vid=f7c27922-6b89-47b5-8c41-fac0424fa314","ios":"levelo://app?vid=f7c27922-6b89-47b5-8c41-fac0424fa314"},"vehicle_type_id":"4","last_reported":1744909696,"current_range_meters":16400,"station_id":"cjm6bp8fraef2m0cb0m0","pricing_plan_id":"cebpf4jnsgd1na2vs0mg"},{"bike_id":"17197c8d-2430-4cc8-b4fc-7f4db5c171be","system_id":"levelo_inurba_marseille","lat":43.29511,"lon":5.39397,"is_reserved":false,"is_disabled":false,"rental_uris":{"android":"levelo://app?vid=17197c8d-2430-4cc8-b4fc-7f4db5c171be","ios":"levelo://app?vid=17197c8d-2430-4cc8-b4fc-7f4db5c171be"},"vehicle_type_id":"4","last_reported":1744909696,"current_range_meters":16400,"station_id":"ce4bh292rcd13ifvqdf0","pricing_plan_id":"cebpf4jnsgd1na2vs0mg"},{"bike_id":"2daa1a4a-afb7-470b-9fac-d2f8da0290d5","system_id":"levelo_inurba_marseille","lat":43.25578,"lon":5.3826,"is_reserved":false,"is_disabled":false,"rental_uris":{"android":"levelo://app?vid=2daa1a4a-afb7-470b-9fac-d2f8da0290d5","ios":"levelo://app?vid=2daa1a4a-afb7-470b-9fac-d2f8da0290d5"},"vehicle_type_id":"4","last_reported":1744909696,"current_range_meters":16400,"station_id":"ce4bhih2rcd13ifvqfs0","pricing_plan_id":"cebpf4jnsgd1na2vs0mg"},{"bike_id":"be053a3c-2707-46ee-a47b-5d994cfecffe","system_id":"levelo_inurba_marseille","lat":43.30553,"lon":5.38437,"is_reserved":false,"is_disabled":false,"rental_uris":{"android":"levelo://app?vid=be053a3c-2707-46ee-a47b-5d994cfecffe","ios":"levelo://app?vid=be053a3c-2707-46ee-a47b-5d994cfecffe"},"vehicle_type_id":"4","last_reported":1744909696,"current_range_meters":16400,"station_id":"ce4bgg92rcd13ifvqb30","pricing_plan_id":"cebpf4jnsgd1na2vs0mg"},{"bike_id":"7bf1588b-a80e-47b5-b9b4-1ef1d38c06ec","system_id":"levelo_inurba_marseille","lat":43.2894,"lon":5.36372,"is_reserved":false,"is_disabled":false,"rental_uris":{"android":"levelo://app?vid=7bf1588b-a80e-47b5-b9b4-1ef1d38c06ec","ios":"levelo://app?vid=7bf1588b-a80e-47b5-b9b4-1ef1d38c06ec"},"vehicle_type_id":"4","last_reported":1744909696,"current_range_meters":16400,"station_id":"ce4bhc92rcd13ifvqetg","pricing_plan_id":"cebpf4jnsgd1na2vs0mg"},{"bike_id":"c41facca-8ed6-4772-99bb-68f11d75fa62","system_id":"levelo_inurba_marseille","lat":43.28396,"lon":5.37518,"is_reserved":false,"is_disabled":false,"rental_uris":{"android":"levelo://app?vid=c41facca-8ed6-4772-99bb-68f11d75fa62","ios":"levelo://app?vid=c41facca-8ed6-4772-99bb-68f11d75fa62"},"vehicle_type_id":"4","last_reported":1744909696,"current_range_meters":16800,"station_id":"ce4bh412rcd13ifvqds0","pricing_plan_id":"cebpf4jnsgd1na2vs0mg"},{"bike_id":"007ee9c7-c769-4de9-a218-517ff098b9cd","system_id":"levelo_inurba_marseille","lat":43.314505,"lon":5.373787,"is_reserved":false,"is_disabled":false,"rental_uris":{"android":"levelo://app?vid=007ee9c7-c769-4de9-a218-517ff098b9cd","ios":"levelo://app?vid=007ee9c7-c769-4de9-a218-517ff098b9cd"},"vehicle_type_id":"4","last_reported":1744909696,"current_range_meters":16800,"station_id":"","pricing_plan_id":"cebpf4jnsgd1na2vs0mg"},{"bike_id":"88a589cb-7e6a-4c2c-aba2-f8667b2c7927","system_id":"levelo_inurba_marseille","lat":43.29879,"lon":5.3977,"is_reserved":false,"is_disabled":false,"rental_uris":{"android":"levelo://app?vid=88a589cb-7e6a-4c2c-aba2-f8667b2c7927","ios":"levelo://app?vid=88a589cb-7e6a-4c2c-aba2-f8667b2c7927"},"vehicle_type_id":"4","last_reported":1744909696,"current_range_meters":16800,"station_id":"ce4bh0h2rcd13ifvqd50","pricing_plan_id":"cebpf4jnsgd1na2vs0mg"},{"bike_id":"0f2cf3c3-58eb-4410-9c0f-9587cec70ae0","system_id":"levelo_inurba_marseille","lat":43.28035,"lon":5.36952,"is_reserved":false,"is_disabled":false,"rental_uris":{"android":"levelo://app?vid=0f2cf3c3-58eb-4410-9c0f-9587cec70ae0","ios":"levelo://app?vid=0f2cf3c3-58eb-4410-9c0f-9587cec70ae0"},"vehicle_type_id":"4","last_reported":1744909696,"current_range_meters":16800,"station_id":"ce4bha12rcd13ifvqef0","pricing_plan_id":"cebpf4jnsgd1na2vs0mg"},{"bike_id":"1ce2e4b6-92ac-4019-987f-f7e2d80b4e6b","system_id":"levelo_inurba_marseille","lat":43.27496,"lon":5.4245,"is_reserved":false,"is_disabled":false,"rental_uris":{"android":"levelo://app?vid=1ce2e4b6-92ac-4019-987f-f7e2d80b4e6b","ios":"levelo://app?vid=1ce2e4b6-92ac-4019-987f-f7e2d80b4e6b"},"vehicle_type_id":"4","last_reported":1744909696,"current_range_meters":16800,"station_id":"ce4bhn92rcd13ifvqgrg","pricing_plan_id":"cebpf4jnsgd1na2vs0mg"},{"bike_id":"bdf7f50f-e441-45b1-90b3-b8907d260881","system_id":"levelo_inurba_marseille","lat":43.24547,"lon":5.3952,"is_reserved":false,"is_disabled":false,"rental_uris":{"android":"levelo://app?vid=bdf7f50f-e441-45b1-90b3-b8907d260881","ios":"levelo://app?vid=bdf7f50f-e441-45b1-90b3-b8907d260881"},"vehicle_type_id":"4","last_reported":1744909696,"current_range_meters":16800,"station_id":"ce4bhlp2rcd13ifvqgjg","pricing_plan_id":"cebpf4jnsgd1na2vs0mg"},{"bike_id":"a0ddb0a5-f7f0-4281-aa27-9e82747cc573","system_id":"levelo_inurba_marseille","lat":43.33754,"lon":5.37491,"is_reserved":false,"is_disabled":false,"rental_uris":{"android":"levelo://app?vid=a0ddb0a5-f7f0-4281-aa27-9e82747cc573","ios":"levelo://app?vid=a0ddb0a5-f7f0-4281-aa27-9e82747cc573"},"vehicle_type_id":"4","last_reported":1744909696,"current_range_meters":16800,"station_id":"","pricing_plan_id":"cebpf4jnsgd1na2vs0mg"},{"bike_id":"818145d8-6d5a-4f2a-a524-7c978f8d4760","system_id":"levelo_inurba_marseille","lat":43.29877,"lon":5.39748,"is_reserved":false,"is_disabled":false,"rental_uris":{"android":"levelo://app?vid=818145d8-6d5a-4f2a-a524-7c978f8d4760","ios":"levelo://app?vid=818145d8-6d5a-4f2a-a524-7c978f8d4760"},"vehicle_type_id":"4","last_reported":1744909696,"current_range_meters":17200,"station_id":"ce4bh0h2rcd13ifvqd50","pricing_plan_id":"cebpf4jnsgd1na2vs0mg"},{"bike_id":"bbb1c662-cc65-4c72-8489-de78d2f0f12f","system_id":"levelo_inurba_marseille","lat":43.23086,"lon":5.35486,"is_reserved":false,"is_disabled":false,"rental_uris":{"android":"levelo://app?vid=bbb1c662-cc65-4c72-8489-de78d2f0f12f","ios":"levelo://app?vid=bbb1c662-cc65-4c72-8489-de78d2f0f12f"},"vehicle_type_id":"4","last_reported":1744909696,"current_range_meters":17200,"station_id":"cpo3342slgdg3j2ifvpg","pricing_plan_id":"cebpf4jnsgd1na2vs0mg"},{"bike_id":"bd492354-2d79-4427-82ee-84e4a12dea30","system_id":"levelo_inurba_marseille","lat":43.21193,"lon":5.350698,"is_reserved":false,"is_disabled":false,"rental_uris":{"android":"levelo://app?vid=bd492354-2d79-4427-82ee-84e4a12dea30","ios":"levelo://app?vid=bd492354-2d79-4427-82ee-84e4a12dea30"},"vehicle_type_id":"4","last_reported":1744909696,"current_range_meters":17200,"station_id":"st_cvj6sg6p6f1abm77japg","pricing_plan_id":"cebpf4jnsgd1na2vs0mg"},{"bike_id":"a05c2e91-f38d-45ab-bcd1-803e7adfd36e","system_id":"levelo_inurba_marseille","lat":43.28615,"lon":5.35108,"is_reserved":false,"is_disabled":false,"rental_uris":{"android":"levelo://app?vid=a05c2e91-f38d-45ab-bcd1-803e7adfd36e","ios":"levelo://app?vid=a05c2e91-f38d-45ab-bcd1-803e7adfd36e"},"vehicle_type_id":"4","last_reported":1744909696,"current_range_meters":17200,"station_id":"ce4bhch2rcd13ifvqeug","pricing_plan_id":"cebpf4jnsgd1na2vs0mg"},{"bike_id":"6aa8fe24-1984-4fd4-8042-e676b015e8e1","system_id":"levelo_inurba_marseille","lat":43.31284,"lon":5.39089,"is_reserved":false,"is_disabled":false,"rental_uris":{"android":"levelo://app?vid=6aa8fe24-1984-4fd4-8042-e676b015e8e1","ios":"levelo://app?vid=6aa8fe24-1984-4fd4-8042-e676b015e8e1"},"vehicle_type_id":"4","last_reported":1744909696,"current_range_meters":17200,"station_id":"ce4bgup2rcd13ifvqco0","pricing_plan_id":"cebpf4jnsgd1na2vs0mg"},{"bike_id":"7ed91d22-3d5b-4254-83bf-64eb2a7d5481","system_id":"levelo_inurba_marseille","lat":43.22512,"lon":5.34785,"is_reserved":false,"is_disabled":false,"rental_uris":{"android":"levelo://app?vid=7ed91d22-3d5b-4254-83bf-64eb2a7d5481","ios":"levelo://app?vid=7ed91d22-3d5b-4254-83bf-64eb2a7d5481"},"vehicle_type_id":"4","last_reported":1744909696,"current_range_meters":17200,"station_id":"","pricing_plan_id":"cebpf4jnsgd1na2vs0mg"},{"bike_id":"38c7616c-2042-4908-9e9d-4cb78343580d","system_id":"levelo_inurba_marseille","lat":43.289548,"lon":5.378368,"is_reserved":false,"is_disabled":false,"rental_uris":{"android":"levelo://app?vid=38c7616c-2042-4908-9e9d-4cb78343580d","ios":"levelo://app?vid=38c7616c-2042-4908-9e9d-4cb78343580d"},"vehicle_type_id":"4","last_reported":1744909696,"current_range_meters":16800,"station_id":"ce4bhh92rcd13ifvqfj0","pricing_plan_id":"cebpf4jnsgd1na2vs0mg"},{"bike_id":"3bc36086-1c08-44b5-82e2-993c4a7fabae","system_id":"levelo_inurba_marseille","lat":43.2988,"lon":5.39762,"is_reserved":false,"is_disabled":false,"rental_uris":{"android":"levelo://app?vid=3bc36086-1c08-44b5-82e2-993c4a7fabae","ios":"levelo://app?vid=3bc36086-1c08-44b5-82e2-993c4a7fabae"},"vehicle_type_id":"4","last_reported":1744909696,"current_range_meters":17200,"station_id":"ce4bh0h2rcd13ifvqd50","pricing_plan_id":"cebpf4jnsgd1na2vs0mg"},{"bike_id":"0ced172e-d267-48f8-823b-595463e3fa07","system_id":"levelo_inurba_marseille","lat":43.29425,"lon":5.386,"is_reserved":false,"is_disabled":false,"rental_uris":{"android":"levelo://app?vid=0ced172e-d267-48f8-823b-595463e3fa07","ios":"levelo://app?vid=0ced172e-d267-48f8-823b-595463e3fa07"},"vehicle_type_id":"4","last_reported":1744909696,"current_range_meters":17200,"station_id":"ce4bh2h2rcd13ifvqdh0","pricing_plan_id":"cebpf4jnsgd1na2vs0mg"},{"bike_id":"ddb81e49-3ca3-408e-bb7e-97e32c56d0f7","system_id":"levelo_inurba_marseille","lat":43.27923,"lon":5.38019,"is_reserved":false,"is_disabled":false,"rental_uris":{"android":"levelo://app?vid=ddb81e49-3ca3-408e-bb7e-97e32c56d0f7","ios":"levelo://app?vid=ddb81e49-3ca3-408e-bb7e-97e32c56d0f7"},"vehicle_type_id":"4","last_reported":1744909696,"current_range_meters":17200,"station_id":"ce4bhf92rcd13ifvqf50","pricing_plan_id":"cebpf4jnsgd1na2vs0mg"},{"bike_id":"b231314a-bb0f-47d8-b59f-f7b88f920c63","system_id":"levelo_inurba_marseille","lat":43.29961,"lon":5.36553,"is_reserved":false,"is_disabled":false,"rental_uris":{"android":"levelo://app?vid=b231314a-bb0f-47d8-b59f-f7b88f920c63","ios":"levelo://app?vid=b231314a-bb0f-47d8-b59f-f7b88f920c63"},"vehicle_type_id":"4","last_reported":1744909696,"current_range_meters":17200,"station_id":"ce4bgm92rcd13ifvqbr0","pricing_plan_id":"cebpf4jnsgd1na2vs0mg"},{"bike_id":"72ba87b2-a91b-4e10-bb36-752eba6ccd32","system_id":"levelo_inurba_marseille","lat":43.3054,"lon":5.38437,"is_reserved":false,"is_disabled":false,"rental_uris":{"android":"levelo://app?vid=72ba87b2-a91b-4e10-bb36-752eba6ccd32","ios":"levelo://app?vid=72ba87b2-a91b-4e10-bb36-752eba6ccd32"},"vehicle_type_id":"4","last_reported":1744909696,"current_range_meters":16800,"station_id":"ce4bgg92rcd13ifvqb30","pricing_plan_id":"cebpf4jnsgd1na2vs0mg"},{"bike_id":"135f0758-d03d-42f1-a2d6-49e93dc7a634","system_id":"levelo_inurba_marseille","lat":43.29849,"lon":5.36266,"is_reserved":false,"is_disabled":false,"rental_uris":{"android":"levelo://app?vid=135f0758-d03d-42f1-a2d6-49e93dc7a634","ios":"levelo://app?vid=135f0758-d03d-42f1-a2d6-49e93dc7a634"},"vehicle_type_id":"4","last_reported":1744909696,"current_range_meters":17200,"station_id":"ce4bgpp2rcd13ifvqc3g","pricing_plan_id":"cebpf4jnsgd1na2vs0mg"},{"bike_id":"e3b9c86b-9e49-41d1-83da-e803d37c2cf4","system_id":"levelo_inurba_marseille","lat":43.30131,"lon":5.38783,"is_reserved":false,"is_disabled":true,"rental_uris":{"android":"levelo://app?vid=e3b9c86b-9e49-41d1-83da-e803d37c2cf4","ios":"levelo://app?vid=e3b9c86b-9e49-41d1-83da-e803d37c2cf4"},"vehicle_type_id":"4","last_reported":1744909696,"current_range_meters":17600,"station_id":"ce4bghh2rcd13ifvqb60","pricing_plan_id":"cebpf4jnsgd1na2vs0mg"},{"bike_id":"4cdeb94d-6b8c-4d5b-a59f-49def5ff14db","system_id":"levelo_inurba_marseille","lat":43.27488,"lon":5.42483,"is_reserved":false,"is_disabled":false,"rental_uris":{"android":"levelo://app?vid=4cdeb94d-6b8c-4d5b-a59f-49def5ff14db","ios":"levelo://app?vid=4cdeb94d-6b8c-4d5b-a59f-49def5ff14db"},"vehicle_type_id":"4","last_reported":1744909696,"current_range_meters":17600,"station_id":"ce4bhn92rcd13ifvqgrg","pricing_plan_id":"cebpf4jnsgd1na2vs0mg"},{"bike_id":"85ac49b9-718c-4937-ab2a-8e998e69b6ca","system_id":"levelo_inurba_marseille","lat":43.24386,"lon":5.37061,"is_reserved":false,"is_disabled":false,"rental_uris":{"android":"levelo://app?vid=85ac49b9-718c-4937-ab2a-8e998e69b6ca","ios":"levelo://app?vid=85ac49b9-718c-4937-ab2a-8e998e69b6ca"},"vehicle_type_id":"4","last_reported":1744909696,"current_range_meters":17600,"station_id":"ce4bhhh2rcd13ifvqfk0","pricing_plan_id":"cebpf4jnsgd1na2vs0mg"},{"bike_id":"c8f2452e-9a6d-49a1-aaa3-1f0bf454a0e6","system_id":"levelo_inurba_marseille","lat":43.299493,"lon":5.385259,"is_reserved":false,"is_disabled":false,"rental_uris":{"android":"levelo://app?vid=c8f2452e-9a6d-49a1-aaa3-1f0bf454a0e6","ios":"levelo://app?vid=c8f2452e-9a6d-49a1-aaa3-1f0bf454a0e6"},"vehicle_type_id":"4","last_reported":1744909696,"current_range_meters":17600,"station_id":"ce4bgj92rcd13ifvqbd0","pricing_plan_id":"cebpf4jnsgd1na2vs0mg"},{"bike_id":"5bdc7201-5a9e-4c6f-adb3-ac2aa03dc20b","system_id":"levelo_inurba_marseille","lat":43.28415,"lon":5.34977,"is_reserved":false,"is_disabled":false,"rental_uris":{"android":"levelo://app?vid=5bdc7201-5a9e-4c6f-adb3-ac2aa03dc20b","ios":"levelo://app?vid=5bdc7201-5a9e-4c6f-adb3-ac2aa03dc20b"},"vehicle_type_id":"4","last_reported":1744909696,"current_range_meters":17600,"station_id":"ce4bhbh2rcd13ifvqepg","pricing_plan_id":"cebpf4jnsgd1na2vs0mg"},{"bike_id":"076355f1-ba05-4b14-94f8-7678f1392346","system_id":"levelo_inurba_marseille","lat":43.28418,"lon":5.34988,"is_reserved":false,"is_disabled":false,"rental_uris":{"android":"levelo://app?vid=076355f1-ba05-4b14-94f8-7678f1392346","ios":"levelo://app?vid=076355f1-ba05-4b14-94f8-7678f1392346"},"vehicle_type_id":"4","last_reported":1744909696,"current_range_meters":17600,"station_id":"ce4bhbh2rcd13ifvqepg","pricing_plan_id":"cebpf4jnsgd1na2vs0mg"},{"bike_id":"b76bc1f3-ab83-4a26-8526-9e24e5222057","system_id":"levelo_inurba_marseille","lat":43.299964,"lon":5.388628,"is_reserved":false,"is_disabled":false,"rental_uris":{"android":"levelo://app?vid=b76bc1f3-ab83-4a26-8526-9e24e5222057","ios":"levelo://app?vid=b76bc1f3-ab83-4a26-8526-9e24e5222057"},"vehicle_type_id":"4","last_reported":1744909696,"current_range_meters":18000,"station_id":"ce4bh0p2rcd13ifvqd80","pricing_plan_id":"cebpf4jnsgd1na2vs0mg"},{"bike_id":"566bd714-3608-4373-8f38-fccb28c27f59","system_id":"levelo_inurba_marseille","lat":43.29398,"lon":5.38629,"is_reserved":false,"is_disabled":false,"rental_uris":{"android":"levelo://app?vid=566bd714-3608-4373-8f38-fccb28c27f59","ios":"levelo://app?vid=566bd714-3608-4373-8f38-fccb28c27f59"},"vehicle_type_id":"4","last_reported":1744909696,"current_range_meters":18000,"station_id":"ce4bh2h2rcd13ifvqdh0","pricing_plan_id":"cebpf4jnsgd1na2vs0mg"},{"bike_id":"5dee6127-e1cb-4c94-bc40-da523118085f","system_id":"levelo_inurba_marseille","lat":43.30436,"lon":5.38884,"is_reserved":false,"is_disabled":false,"rental_uris":{"android":"levelo://app?vid=5dee6127-e1cb-4c94-bc40-da523118085f","ios":"levelo://app?vid=5dee6127-e1cb-4c94-bc40-da523118085f"},"vehicle_type_id":"4","last_reported":1744909696,"current_range_meters":18000,"station_id":"ce4bgk12rcd13ifvqbi0","pricing_plan_id":"cebpf4jnsgd1na2vs0mg"},{"bike_id":"6024435e-ca82-4792-affe-5fd21baa106a","system_id":"levelo_inurba_marseille","lat":43.29007,"lon":5.35616,"is_reserved":false,"is_disabled":false,"rental_uris":{"android":"levelo://app?vid=6024435e-ca82-4792-affe-5fd21baa106a","ios":"levelo://app?vid=6024435e-ca82-4792-affe-5fd21baa106a"},"vehicle_type_id":"4","last_reported":1744909696,"current_range_meters":18000,"station_id":"ce4bhb92rcd13ifvqen0","pricing_plan_id":"cebpf4jnsgd1na2vs0mg"},{"bike_id":"3910a374-2199-4e97-a483-65b2cd02ef4b","system_id":"levelo_inurba_marseille","lat":43.29258,"lon":5.38434,"is_reserved":false,"is_disabled":false,"rental_uris":{"android":"levelo://app?vid=3910a374-2199-4e97-a483-65b2cd02ef4b","ios":"levelo://app?vid=3910a374-2199-4e97-a483-65b2cd02ef4b"},"vehicle_type_id":"4","last_reported":1744909696,"current_range_meters":18000,"station_id":"ce4bh692rcd13ifvqea0","pricing_plan_id":"cebpf4jnsgd1na2vs0mg"},{"bike_id":"8568055b-820e-4057-bbe4-56043e0c465d","system_id":"levelo_inurba_marseille","lat":43.32392,"lon":5.40658,"is_reserved":false,"is_disabled":false,"rental_uris":{"android":"levelo://app?vid=8568055b-820e-4057-bbe4-56043e0c465d","ios":"levelo://app?vid=8568055b-820e-4057-bbe4-56043e0c465d"},"vehicle_type_id":"4","last_reported":1744909696,"current_range_meters":18000,"station_id":"","pricing_plan_id":"cebpf4jnsgd1na2vs0mg"},{"bike_id":"6a9876cc-e610-4328-8f4c-cedc350f34e3","system_id":"levelo_inurba_marseille","lat":43.334029,"lon":5.410365,"is_reserved":false,"is_disabled":false,"rental_uris":{"android":"levelo://app?vid=6a9876cc-e610-4328-8f4c-cedc350f34e3","ios":"levelo://app?vid=6a9876cc-e610-4328-8f4c-cedc350f34e3"},"vehicle_type_id":"4","last_reported":1744909696,"current_range_meters":18000,"station_id":"ce4bhq92rcd13ifvqhkg","pricing_plan_id":"cebpf4jnsgd1na2vs0mg"},{"bike_id":"51f32d2c-1879-464c-acba-93c57bc66ab6","system_id":"levelo_inurba_marseille","lat":43.29035,"lon":5.35937,"is_reserved":false,"is_disabled":true,"rental_uris":{"android":"levelo://app?vid=51f32d2c-1879-464c-acba-93c57bc66ab6","ios":"levelo://app?vid=51f32d2c-1879-464c-acba-93c57bc66ab6"},"vehicle_type_id":"4","last_reported":1744909696,"current_range_meters":18000,"station_id":"ce4bha92rcd13ifvqeg0","pricing_plan_id":"cebpf4jnsgd1na2vs0mg"},{"bike_id":"5efb2955-63b0-438f-9173-bede5b1810d8","system_id":"levelo_inurba_marseille","lat":43.293057,"lon":5.374469,"is_reserved":false,"is_disabled":false,"rental_uris":{"android":"levelo://app?vid=5efb2955-63b0-438f-9173-bede5b1810d8","ios":"levelo://app?vid=5efb2955-63b0-438f-9173-bede5b1810d8"},"vehicle_type_id":"4","last_reported":1744909696,"current_range_meters":18000,"station_id":"ce4bgi12rcd13ifvqb70","pricing_plan_id":"cebpf4jnsgd1na2vs0mg"},{"bike_id":"8b85f963-4970-443e-a753-262f8f1a3b5f","system_id":"levelo_inurba_marseille","lat":43.30129,"lon":5.38772,"is_reserved":false,"is_disabled":false,"rental_uris":{"android":"levelo://app?vid=8b85f963-4970-443e-a753-262f8f1a3b5f","ios":"levelo://app?vid=8b85f963-4970-443e-a753-262f8f1a3b5f"},"vehicle_type_id":"4","last_reported":1744909696,"current_range_meters":18000,"station_id":"ce4bghh2rcd13ifvqb60","pricing_plan_id":"cebpf4jnsgd1na2vs0mg"},{"bike_id":"ef6e9c6f-8f69-4fcf-9727-b556a001e5bc","system_id":"levelo_inurba_marseille","lat":43.29552,"lon":5.42292,"is_reserved":false,"is_disabled":false,"rental_uris":{"android":"levelo://app?vid=ef6e9c6f-8f69-4fcf-9727-b556a001e5bc","ios":"levelo://app?vid=ef6e9c6f-8f69-4fcf-9727-b556a001e5bc"},"vehicle_type_id":"4","last_reported":1744909696,"current_range_meters":18000,"station_id":"ce4bhph2rcd13ifvqhdg","pricing_plan_id":"cebpf4jnsgd1na2vs0mg"},{"bike_id":"7eb8853e-3665-40f5-8308-1299f0674652","system_id":"levelo_inurba_marseille","lat":43.30395,"lon":5.42472,"is_reserved":false,"is_disabled":false,"rental_uris":{"android":"levelo://app?vid=7eb8853e-3665-40f5-8308-1299f0674652","ios":"levelo://app?vid=7eb8853e-3665-40f5-8308-1299f0674652"},"vehicle_type_id":"4","last_reported":1744909696,"current_range_meters":18000,"station_id":"ce4bghh2rcd13ifvqb60","pricing_plan_id":"cebpf4jnsgd1na2vs0mg"},{"bike_id":"934a8fc0-98f8-4aaf-a145-d485dee937c7","system_id":"levelo_inurba_marseille","lat":43.32375,"lon":5.36765,"is_reserved":false,"is_disabled":false,"rental_uris":{"android":"levelo://app?vid=934a8fc0-98f8-4aaf-a145-d485dee937c7","ios":"levelo://app?vid=934a8fc0-98f8-4aaf-a145-d485dee937c7"},"vehicle_type_id":"4","last_reported":1744909696,"current_range_meters":18000,"station_id":"ce4bhsh2rcd13ifvqi2g","pricing_plan_id":"cebpf4jnsgd1na2vs0mg"},{"bike_id":"a77bdd15-388e-4dfa-ae84-9a1f1930181f","system_id":"levelo_inurba_marseille","lat":43.29266,"lon":5.37618,"is_reserved":false,"is_disabled":false,"rental_uris":{"android":"levelo://app?vid=a77bdd15-388e-4dfa-ae84-9a1f1930181f","ios":"levelo://app?vid=a77bdd15-388e-4dfa-ae84-9a1f1930181f"},"vehicle_type_id":"4","last_reported":1744909696,"current_range_meters":18000,"station_id":"ce4bgi12rcd13ifvqb80","pricing_plan_id":"cebpf4jnsgd1na2vs0mg"},{"bike_id":"68342d9f-f0b6-47e7-b690-b27078e67a77","system_id":"levelo_inurba_marseille","lat":43.241695,"lon":5.363942,"is_reserved":false,"is_disabled":false,"rental_uris":{"android":"levelo://app?vid=68342d9f-f0b6-47e7-b690-b27078e67a77","ios":"levelo://app?vid=68342d9f-f0b6-47e7-b690-b27078e67a77"},"vehicle_type_id":"4","last_reported":1744909696,"current_range_meters":18800,"station_id":"cpo36qri1sfpv3e86is0","pricing_plan_id":"cebpf4jnsgd1na2vs0mg"},{"bike_id":"f332932e-b174-483a-8274-751626cfe4bb","system_id":"levelo_inurba_marseille","lat":43.27992,"lon":5.4004,"is_reserved":false,"is_disabled":false,"rental_uris":{"android":"levelo://app?vid=f332932e-b174-483a-8274-751626cfe4bb","ios":"levelo://app?vid=f332932e-b174-483a-8274-751626cfe4bb"},"vehicle_type_id":"4","last_reported":1744909696,"current_range_meters":18800,"station_id":"ce4bho92rcd13ifvqh4g","pricing_plan_id":"cebpf4jnsgd1na2vs0mg"},{"bike_id":"84865ac8-29d9-49ce-a642-1f7ef8cf3f97","system_id":"levelo_inurba_marseille","lat":43.28939,"lon":5.36643,"is_reserved":false,"is_disabled":false,"rental_uris":{"android":"levelo://app?vid=84865ac8-29d9-49ce-a642-1f7ef8cf3f97","ios":"levelo://app?vid=84865ac8-29d9-49ce-a642-1f7ef8cf3f97"},"vehicle_type_id":"4","last_reported":1744909696,"current_range_meters":18800,"station_id":"ce4bhap2rcd13ifvqek0","pricing_plan_id":"cebpf4jnsgd1na2vs0mg"},{"bike_id":"789c3822-56ca-4769-bcd4-8845bdea2fda","system_id":"levelo_inurba_marseille","lat":43.24161,"lon":5.36398,"is_reserved":false,"is_disabled":false,"rental_uris":{"android":"levelo://app?vid=789c3822-56ca-4769-bcd4-8845bdea2fda","ios":"levelo://app?vid=789c3822-56ca-4769-bcd4-8845bdea2fda"},"vehicle_type_id":"4","last_reported":1744909696,"current_range_meters":18800,"station_id":"cpo36qri1sfpv3e86is0","pricing_plan_id":"cebpf4jnsgd1na2vs0mg"},{"bike_id":"791b2289-d015-45a4-b3a3-090c7aebd71b","system_id":"levelo_inurba_marseille","lat":43.29934,"lon":5.36535,"is_reserved":false,"is_disabled":false,"rental_uris":{"android":"levelo://app?vid=791b2289-d015-45a4-b3a3-090c7aebd71b","ios":"levelo://app?vid=791b2289-d015-45a4-b3a3-090c7aebd71b"},"vehicle_type_id":"4","last_reported":1744909696,"current_range_meters":18800,"station_id":"ce4bgm92rcd13ifvqbr0","pricing_plan_id":"cebpf4jnsgd1na2vs0mg"},{"bike_id":"81e4bd67-dc62-4e33-83b3-143bb89682a2","system_id":"levelo_inurba_marseille","lat":43.29425,"lon":5.38636,"is_reserved":false,"is_disabled":false,"rental_uris":{"android":"levelo://app?vid=81e4bd67-dc62-4e33-83b3-143bb89682a2","ios":"levelo://app?vid=81e4bd67-dc62-4e33-83b3-143bb89682a2"},"vehicle_type_id":"4","last_reported":1744909696,"current_range_meters":18800,"station_id":"ce4bh2h2rcd13ifvqdh0","pricing_plan_id":"cebpf4jnsgd1na2vs0mg"},{"bike_id":"33efbe4e-e642-4271-be29-4926b421ca5b","system_id":"levelo_inurba_marseille","lat":43.24165,"lon":5.364,"is_reserved":false,"is_disabled":false,"rental_uris":{"android":"levelo://app?vid=33efbe4e-e642-4271-be29-4926b421ca5b","ios":"levelo://app?vid=33efbe4e-e642-4271-be29-4926b421ca5b"},"vehicle_type_id":"4","last_reported":1744909696,"current_range_meters":18800,"station_id":"cpo36qri1sfpv3e86is0","pricing_plan_id":"cebpf4jnsgd1na2vs0mg"},{"bike_id":"2b60e54e-b209-41c0-8a21-ca8292ac6ecb","system_id":"levelo_inurba_marseille","lat":43.30311,"lon":5.40436,"is_reserved":false,"is_disabled":false,"rental_uris":{"android":"levelo://app?vid=2b60e54e-b209-41c0-8a21-ca8292ac6ecb","ios":"levelo://app?vid=2b60e54e-b209-41c0-8a21-ca8292ac6ecb"},"vehicle_type_id":"4","last_reported":1744909696,"current_range_meters":18800,"station_id":"ce4bh012rcd13ifvqd10","pricing_plan_id":"cebpf4jnsgd1na2vs0mg"},{"bike_id":"10ca9cc2-a33f-4a5b-81a6-ed3fbe807232","system_id":"levelo_inurba_marseille","lat":43.28935,"lon":5.36637,"is_reserved":false,"is_disabled":false,"rental_uris":{"android":"levelo://app?vid=10ca9cc2-a33f-4a5b-81a6-ed3fbe807232","ios":"levelo://app?vid=10ca9cc2-a33f-4a5b-81a6-ed3fbe807232"},"vehicle_type_id":"4","last_reported":1744909696,"current_range_meters":18800,"station_id":"ce4bhap2rcd13ifvqek0","pricing_plan_id":"cebpf4jnsgd1na2vs0mg"},{"bike_id":"f9d3fbe6-73e5-424e-af02-f446d5b07152","system_id":"levelo_inurba_marseille","lat":43.217537,"lon":5.346053,"is_reserved":false,"is_disabled":false,"rental_uris":{"android":"levelo://app?vid=f9d3fbe6-73e5-424e-af02-f446d5b07152","ios":"levelo://app?vid=f9d3fbe6-73e5-424e-af02-f446d5b07152"},"vehicle_type_id":"4","last_reported":1744909696,"current_range_meters":18800,"station_id":"st_cvj6r9ubvosntc0bgbag","pricing_plan_id":"cebpf4jnsgd1na2vs0mg"},{"bike_id":"3bb062bb-d805-47d1-aed4-c61156cabe7a","system_id":"levelo_inurba_marseille","lat":43.27917,"lon":5.39582,"is_reserved":false,"is_disabled":false,"rental_uris":{"android":"levelo://app?vid=3bb062bb-d805-47d1-aed4-c61156cabe7a","ios":"levelo://app?vid=3bb062bb-d805-47d1-aed4-c61156cabe7a"},"vehicle_type_id":"4","last_reported":1744909696,"current_range_meters":18800,"station_id":"ce4bhf92rcd13ifvqf40","pricing_plan_id":"cebpf4jnsgd1na2vs0mg"},{"bike_id":"3994d10c-561e-453e-a0b1-889c609abc61","system_id":"levelo_inurba_marseille","lat":43.29514,"lon":5.37506,"is_reserved":false,"is_disabled":false,"rental_uris":{"android":"levelo://app?vid=3994d10c-561e-453e-a0b1-889c609abc61","ios":"levelo://app?vid=3994d10c-561e-453e-a0b1-889c609abc61"},"vehicle_type_id":"4","last_reported":1744909696,"current_range_meters":18800,"station_id":"ce4bgkp2rcd13ifvqbmg","pricing_plan_id":"cebpf4jnsgd1na2vs0mg"},{"bike_id":"e31832f6-e4ad-4549-b71f-99ebf18d8293","system_id":"levelo_inurba_marseille","lat":43.21747,"lon":5.34603,"is_reserved":false,"is_disabled":false,"rental_uris":{"android":"levelo://app?vid=e31832f6-e4ad-4549-b71f-99ebf18d8293","ios":"levelo://app?vid=e31832f6-e4ad-4549-b71f-99ebf18d8293"},"vehicle_type_id":"4","last_reported":1744909696,"current_range_meters":19200,"station_id":"st_cvj6r9ubvosntc0bgbag","pricing_plan_id":"cebpf4jnsgd1na2vs0mg"},{"bike_id":"dfb23e54-fc90-4696-8939-c78bc0c7a1aa","system_id":"levelo_inurba_marseille","lat":43.31752,"lon":5.39023,"is_reserved":false,"is_disabled":false,"rental_uris":{"android":"levelo://app?vid=dfb23e54-fc90-4696-8939-c78bc0c7a1aa","ios":"levelo://app?vid=dfb23e54-fc90-4696-8939-c78bc0c7a1aa"},"vehicle_type_id":"4","last_reported":1744909696,"current_range_meters":18800,"station_id":"ce4bhqp2rcd13ifvqhng","pricing_plan_id":"cebpf4jnsgd1na2vs0mg"},{"bike_id":"baecf04b-7089-4e93-9766-36898fc68960","system_id":"levelo_inurba_marseille","lat":43.29848,"lon":5.362906,"is_reserved":false,"is_disabled":false,"rental_uris":{"android":"levelo://app?vid=baecf04b-7089-4e93-9766-36898fc68960","ios":"levelo://app?vid=baecf04b-7089-4e93-9766-36898fc68960"},"vehicle_type_id":"4","last_reported":1744909696,"current_range_meters":19200,"station_id":"ce4bgpp2rcd13ifvqc3g","pricing_plan_id":"cebpf4jnsgd1na2vs0mg"},{"bike_id":"a5fda14d-2a5a-4b6b-a753-03d769e93052","system_id":"levelo_inurba_marseille","lat":43.291718,"lon":5.371569,"is_reserved":false,"is_disabled":false,"rental_uris":{"android":"levelo://app?vid=a5fda14d-2a5a-4b6b-a753-03d769e93052","ios":"levelo://app?vid=a5fda14d-2a5a-4b6b-a753-03d769e93052"},"vehicle_type_id":"4","last_reported":1744909696,"current_range_meters":19200,"station_id":"ce4bha92rcd13ifvqeh0","pricing_plan_id":"cebpf4jnsgd1na2vs0mg"},{"bike_id":"4256f791-37d3-4a46-9888-a897241e9be4","system_id":"levelo_inurba_marseille","lat":43.27316,"lon":5.39076,"is_reserved":false,"is_disabled":false,"rental_uris":{"android":"levelo://app?vid=4256f791-37d3-4a46-9888-a897241e9be4","ios":"levelo://app?vid=4256f791-37d3-4a46-9888-a897241e9be4"},"vehicle_type_id":"4","last_reported":1744909696,"current_range_meters":19200,"station_id":"ce4bhgp2rcd13ifvqfe0","pricing_plan_id":"cebpf4jnsgd1na2vs0mg"},{"bike_id":"394ed3da-3040-4586-ab30-fa96aa4f2fbe","system_id":"levelo_inurba_marseille","lat":43.27174,"lon":5.40996,"is_reserved":false,"is_disabled":false,"rental_uris":{"android":"levelo://app?vid=394ed3da-3040-4586-ab30-fa96aa4f2fbe","ios":"levelo://app?vid=394ed3da-3040-4586-ab30-fa96aa4f2fbe"},"vehicle_type_id":"4","last_reported":1744909696,"current_range_meters":19200,"station_id":"ce4bhl12rcd13ifvqgf0","pricing_plan_id":"cebpf4jnsgd1na2vs0mg"},{"bike_id":"81786548-120b-4cce-a523-622f93f47a7d","system_id":"levelo_inurba_marseille","lat":43.2953,"lon":5.38556,"is_reserved":false,"is_disabled":false,"rental_uris":{"android":"levelo://app?vid=81786548-120b-4cce-a523-622f93f47a7d","ios":"levelo://app?vid=81786548-120b-4cce-a523-622f93f47a7d"},"vehicle_type_id":"4","last_reported":1744909696,"current_range_meters":19200,"station_id":"ce4bgih2rcd13ifvqba0","pricing_plan_id":"cebpf4jnsgd1na2vs0mg"},{"bike_id":"d0c391d8-8b9b-440c-b68b-1528bb943556","system_id":"levelo_inurba_marseille","lat":43.28417,"lon":5.34987,"is_reserved":false,"is_disabled":false,"rental_uris":{"android":"levelo://app?vid=d0c391d8-8b9b-440c-b68b-1528bb943556","ios":"levelo://app?vid=d0c391d8-8b9b-440c-b68b-1528bb943556"},"vehicle_type_id":"4","last_reported":1744909696,"current_range_meters":19600,"station_id":"ce4bhbh2rcd13ifvqepg","pricing_plan_id":"cebpf4jnsgd1na2vs0mg"},{"bike_id":"01bf76a2-ee1e-4d7a-b0ed-37c07dc02209","system_id":"levelo_inurba_marseille","lat":43.25577,"lon":5.38233,"is_reserved":false,"is_disabled":false,"rental_uris":{"android":"levelo://app?vid=01bf76a2-ee1e-4d7a-b0ed-37c07dc02209","ios":"levelo://app?vid=01bf76a2-ee1e-4d7a-b0ed-37c07dc02209"},"vehicle_type_id":"4","last_reported":1744909696,"current_range_meters":19600,"station_id":"ce4bhih2rcd13ifvqfs0","pricing_plan_id":"cebpf4jnsgd1na2vs0mg"},{"bike_id":"5602e25b-b6d1-4029-9b61-4770f34bc1ea","system_id":"levelo_inurba_marseille","lat":43.2407,"lon":5.37756,"is_reserved":false,"is_disabled":false,"rental_uris":{"android":"levelo://app?vid=5602e25b-b6d1-4029-9b61-4770f34bc1ea","ios":"levelo://app?vid=5602e25b-b6d1-4029-9b61-4770f34bc1ea"},"vehicle_type_id":"4","last_reported":1744909696,"current_range_meters":19600,"station_id":"ce4bhnp2rcd13ifvqgvg","pricing_plan_id":"cebpf4jnsgd1na2vs0mg"},{"bike_id":"d711ca94-c410-4b4d-9e11-85013c330a86","system_id":"levelo_inurba_marseille","lat":43.27824,"lon":5.39213,"is_reserved":false,"is_disabled":false,"rental_uris":{"android":"levelo://app?vid=d711ca94-c410-4b4d-9e11-85013c330a86","ios":"levelo://app?vid=d711ca94-c410-4b4d-9e11-85013c330a86"},"vehicle_type_id":"4","last_reported":1744909696,"current_range_meters":19600,"station_id":"ce4bhjp2rcd13ifvqga0","pricing_plan_id":"cebpf4jnsgd1na2vs0mg"},{"bike_id":"ecd9b5fe-4b17-4d30-a270-9ff21e0a9ad2","system_id":"levelo_inurba_marseille","lat":43.24187,"lon":5.36389,"is_reserved":false,"is_disabled":false,"rental_uris":{"android":"levelo://app?vid=ecd9b5fe-4b17-4d30-a270-9ff21e0a9ad2","ios":"levelo://app?vid=ecd9b5fe-4b17-4d30-a270-9ff21e0a9ad2"},"vehicle_type_id":"4","last_reported":1744909696,"current_range_meters":19600,"station_id":"cpo36qri1sfpv3e86is0","pricing_plan_id":"cebpf4jnsgd1na2vs0mg"},{"bike_id":"cc937bc8-27c1-44e9-a469-8b24e9cfd941","system_id":"levelo_inurba_marseille","lat":43.298537,"lon":5.362933,"is_reserved":false,"is_disabled":false,"rental_uris":{"android":"levelo://app?vid=cc937bc8-27c1-44e9-a469-8b24e9cfd941","ios":"levelo://app?vid=cc937bc8-27c1-44e9-a469-8b24e9cfd941"},"vehicle_type_id":"4","last_reported":1744909696,"current_range_meters":20000,"station_id":"ce4bgpp2rcd13ifvqc3g","pricing_plan_id":"cebpf4jnsgd1na2vs0mg"},{"bike_id":"001a140c-385d-413e-bbcc-e520e8211107","system_id":"levelo_inurba_marseille","lat":43.3171,"lon":5.43709,"is_reserved":false,"is_disabled":false,"rental_uris":{"android":"levelo://app?vid=001a140c-385d-413e-bbcc-e520e8211107","ios":"levelo://app?vid=001a140c-385d-413e-bbcc-e520e8211107"},"vehicle_type_id":"4","last_reported":1744909696,"current_range_meters":20000,"station_id":"ce4bhp92rcd13ifvqhcg","pricing_plan_id":"cebpf4jnsgd1na2vs0mg"},{"bike_id":"6f78b8d2-9392-4ae1-935e-3794c93f2704","system_id":"levelo_inurba_marseille","lat":43.28856,"lon":5.35846,"is_reserved":false,"is_disabled":false,"rental_uris":{"android":"levelo://app?vid=6f78b8d2-9392-4ae1-935e-3794c93f2704","ios":"levelo://app?vid=6f78b8d2-9392-4ae1-935e-3794c93f2704"},"vehicle_type_id":"4","last_reported":1744909696,"current_range_meters":20000,"station_id":"ce4bhb12rcd13ifvqem0","pricing_plan_id":"cebpf4jnsgd1na2vs0mg"},{"bike_id":"a645db38-1f9c-4907-a824-ba39429abb47","system_id":"levelo_inurba_marseille","lat":43.27316,"lon":5.39085,"is_reserved":false,"is_disabled":false,"rental_uris":{"android":"levelo://app?vid=a645db38-1f9c-4907-a824-ba39429abb47","ios":"levelo://app?vid=a645db38-1f9c-4907-a824-ba39429abb47"},"vehicle_type_id":"4","last_reported":1744909696,"current_range_meters":19600,"station_id":"ce4bhgp2rcd13ifvqfe0","pricing_plan_id":"cebpf4jnsgd1na2vs0mg"},{"bike_id":"8ecf4e01-d2fb-40fe-8ca8-cc87934d5b6e","system_id":"levelo_inurba_marseille","lat":43.25012,"lon":5.38934,"is_reserved":false,"is_disabled":false,"rental_uris":{"android":"levelo://app?vid=8ecf4e01-d2fb-40fe-8ca8-cc87934d5b6e","ios":"levelo://app?vid=8ecf4e01-d2fb-40fe-8ca8-cc87934d5b6e"},"vehicle_type_id":"4","last_reported":1744909696,"current_range_meters":20000,"station_id":"ce4bhgp2rcd13ifvqfd0","pricing_plan_id":"cebpf4jnsgd1na2vs0mg"},{"bike_id":"32736d80-87de-4a8c-bc01-8ebabbeeceb5","system_id":"levelo_inurba_marseille","lat":43.29553,"lon":5.42296,"is_reserved":false,"is_disabled":false,"rental_uris":{"android":"levelo://app?vid=32736d80-87de-4a8c-bc01-8ebabbeeceb5","ios":"levelo://app?vid=32736d80-87de-4a8c-bc01-8ebabbeeceb5"},"vehicle_type_id":"4","last_reported":1744909696,"current_range_meters":20400,"station_id":"ce4bhph2rcd13ifvqhdg","pricing_plan_id":"cebpf4jnsgd1na2vs0mg"},{"bike_id":"d67ccf86-d45f-41dc-95fc-9e54acbb7133","system_id":"levelo_inurba_marseille","lat":43.24661,"lon":5.381621,"is_reserved":false,"is_disabled":false,"rental_uris":{"android":"levelo://app?vid=d67ccf86-d45f-41dc-95fc-9e54acbb7133","ios":"levelo://app?vid=d67ccf86-d45f-41dc-95fc-9e54acbb7133"},"vehicle_type_id":"4","last_reported":1744909696,"current_range_meters":20400,"station_id":"ce4bhih2rcd13ifvqfr0","pricing_plan_id":"cebpf4jnsgd1na2vs0mg"},{"bike_id":"5db7c5ab-73d5-47e4-9713-3ef31de4325c","system_id":"levelo_inurba_marseille","lat":43.30809,"lon":5.37333,"is_reserved":false,"is_disabled":false,"rental_uris":{"android":"levelo://app?vid=5db7c5ab-73d5-47e4-9713-3ef31de4325c","ios":"levelo://app?vid=5db7c5ab-73d5-47e4-9713-3ef31de4325c"},"vehicle_type_id":"4","last_reported":1744909696,"current_range_meters":20400,"station_id":"","pricing_plan_id":"cebpf4jnsgd1na2vs0mg"},{"bike_id":"f1d513e7-93f2-472b-b840-4c42490aad95","system_id":"levelo_inurba_marseille","lat":43.24161,"lon":5.36405,"is_reserved":false,"is_disabled":false,"rental_uris":{"android":"levelo://app?vid=f1d513e7-93f2-472b-b840-4c42490aad95","ios":"levelo://app?vid=f1d513e7-93f2-472b-b840-4c42490aad95"},"vehicle_type_id":"4","last_reported":1744909696,"current_range_meters":20400,"station_id":"cpo36qri1sfpv3e86is0","pricing_plan_id":"cebpf4jnsgd1na2vs0mg"},{"bike_id":"961876eb-55f2-41a1-a0ed-7fa4bc5f6eb2","system_id":"levelo_inurba_marseille","lat":43.27088,"lon":5.42241,"is_reserved":false,"is_disabled":false,"rental_uris":{"android":"levelo://app?vid=961876eb-55f2-41a1-a0ed-7fa4bc5f6eb2","ios":"levelo://app?vid=961876eb-55f2-41a1-a0ed-7fa4bc5f6eb2"},"vehicle_type_id":"4","last_reported":1744909696,"current_range_meters":20400,"station_id":"ce4bhk92rcd13ifvqgb0","pricing_plan_id":"cebpf4jnsgd1na2vs0mg"},{"bike_id":"18fbca9a-af52-4e43-895b-8d461c3c5769","system_id":"levelo_inurba_marseille","lat":43.30096,"lon":5.39082,"is_reserved":false,"is_disabled":false,"rental_uris":{"android":"levelo://app?vid=18fbca9a-af52-4e43-895b-8d461c3c5769","ios":"levelo://app?vid=18fbca9a-af52-4e43-895b-8d461c3c5769"},"vehicle_type_id":"4","last_reported":1744909696,"current_range_meters":20400,"station_id":"ce4bh192rcd13ifvqdb0","pricing_plan_id":"cebpf4jnsgd1na2vs0mg"},{"bike_id":"e8c8c5fb-984f-430e-b7a4-314c5a105a8d","system_id":"levelo_inurba_marseille","lat":43.27945,"lon":5.41039,"is_reserved":false,"is_disabled":false,"rental_uris":{"android":"levelo://app?vid=e8c8c5fb-984f-430e-b7a4-314c5a105a8d","ios":"levelo://app?vid=e8c8c5fb-984f-430e-b7a4-314c5a105a8d"},"vehicle_type_id":"4","last_reported":1744909696,"current_range_meters":20800,"station_id":"ce4bhnp2rcd13ifvqh0g","pricing_plan_id":"cebpf4jnsgd1na2vs0mg"},{"bike_id":"5996a5b5-b520-498f-ac70-73d83c4a347e","system_id":"levelo_inurba_marseille","lat":43.30422,"lon":5.41291,"is_reserved":false,"is_disabled":false,"rental_uris":{"android":"levelo://app?vid=5996a5b5-b520-498f-ac70-73d83c4a347e","ios":"levelo://app?vid=5996a5b5-b520-498f-ac70-73d83c4a347e"},"vehicle_type_id":"4","last_reported":1744909696,"current_range_meters":20800,"station_id":"ce4bhop2rcd13ifvqh8g","pricing_plan_id":"cebpf4jnsgd1na2vs0mg"},{"bike_id":"f3020afc-5f8f-44d5-87ec-7757e77e0d7c","system_id":"levelo_inurba_marseille","lat":43.29261,"lon":5.38447,"is_reserved":false,"is_disabled":false,"rental_uris":{"android":"levelo://app?vid=f3020afc-5f8f-44d5-87ec-7757e77e0d7c","ios":"levelo://app?vid=f3020afc-5f8f-44d5-87ec-7757e77e0d7c"},"vehicle_type_id":"4","last_reported":1744909696,"current_range_meters":20800,"station_id":"ce4bh692rcd13ifvqea0","pricing_plan_id":"cebpf4jnsgd1na2vs0mg"},{"bike_id":"aaf05b40-a6e6-4e3e-bf64-00defa06efb0","system_id":"levelo_inurba_marseille","lat":43.28481,"lon":5.38427,"is_reserved":false,"is_disabled":false,"rental_uris":{"android":"levelo://app?vid=aaf05b40-a6e6-4e3e-bf64-00defa06efb0","ios":"levelo://app?vid=aaf05b40-a6e6-4e3e-bf64-00defa06efb0"},"vehicle_type_id":"4","last_reported":1744909696,"current_range_meters":20800,"station_id":"ce4bh512rcd13ifvqe3g","pricing_plan_id":"cebpf4jnsgd1na2vs0mg"},{"bike_id":"9eb6738d-486c-4d0a-88f4-70b8d81983d1","system_id":"levelo_inurba_marseille","lat":43.217485,"lon":5.345973,"is_reserved":false,"is_disabled":false,"rental_uris":{"android":"levelo://app?vid=9eb6738d-486c-4d0a-88f4-70b8d81983d1","ios":"levelo://app?vid=9eb6738d-486c-4d0a-88f4-70b8d81983d1"},"vehicle_type_id":"4","last_reported":1744909696,"current_range_meters":20800,"station_id":"st_cvj6r9ubvosntc0bgbag","pricing_plan_id":"cebpf4jnsgd1na2vs0mg"},{"bike_id":"5e6be620-a3d0-49c3-9ff0-b85332cde817","system_id":"levelo_inurba_marseille","lat":43.231933,"lon":5.355659,"is_reserved":false,"is_disabled":false,"rental_uris":{"android":"levelo://app?vid=5e6be620-a3d0-49c3-9ff0-b85332cde817","ios":"levelo://app?vid=5e6be620-a3d0-49c3-9ff0-b85332cde817"},"vehicle_type_id":"4","last_reported":1744909696,"current_range_meters":20800,"station_id":"ce4bhu92rcd13ifvqi70","pricing_plan_id":"cebpf4jnsgd1na2vs0mg"},{"bike_id":"ba7e9e86-cd54-4146-815f-ad9b6ca6b138","system_id":"levelo_inurba_marseille","lat":43.29872,"lon":5.39723,"is_reserved":false,"is_disabled":false,"rental_uris":{"android":"levelo://app?vid=ba7e9e86-cd54-4146-815f-ad9b6ca6b138","ios":"levelo://app?vid=ba7e9e86-cd54-4146-815f-ad9b6ca6b138"},"vehicle_type_id":"4","last_reported":1744909696,"current_range_meters":20400,"station_id":"ce4bh0h2rcd13ifvqd50","pricing_plan_id":"cebpf4jnsgd1na2vs0mg"},{"bike_id":"80bac1fe-218c-4068-937c-4aa733df023f","system_id":"levelo_inurba_marseille","lat":43.28608,"lon":5.37086,"is_reserved":false,"is_disabled":false,"rental_uris":{"android":"levelo://app?vid=80bac1fe-218c-4068-937c-4aa733df023f","ios":"levelo://app?vid=80bac1fe-218c-4068-937c-4aa733df023f"},"vehicle_type_id":"4","last_reported":1744909696,"current_range_meters":20800,"station_id":"ce4bht12rcd13ifvqi60","pricing_plan_id":"cebpf4jnsgd1na2vs0mg"},{"bike_id":"9225d2b9-046f-4596-8e19-653c19ae5a67","system_id":"levelo_inurba_marseille","lat":43.23176,"lon":5.39992,"is_reserved":false,"is_disabled":false,"rental_uris":{"android":"levelo://app?vid=9225d2b9-046f-4596-8e19-653c19ae5a67","ios":"levelo://app?vid=9225d2b9-046f-4596-8e19-653c19ae5a67"},"vehicle_type_id":"4","last_reported":1744909696,"current_range_meters":21600,"station_id":"ce4bhn12rcd13ifvqgqg","pricing_plan_id":"cebpf4jnsgd1na2vs0mg"},{"bike_id":"680205ba-dd59-466e-9b44-30aa95795b05","system_id":"levelo_inurba_marseille","lat":43.23058,"lon":5.355,"is_reserved":false,"is_disabled":false,"rental_uris":{"android":"levelo://app?vid=680205ba-dd59-466e-9b44-30aa95795b05","ios":"levelo://app?vid=680205ba-dd59-466e-9b44-30aa95795b05"},"vehicle_type_id":"4","last_reported":1744909696,"current_range_meters":21600,"station_id":"cpo3342slgdg3j2ifvpg","pricing_plan_id":"cebpf4jnsgd1na2vs0mg"},{"bike_id":"7fde0ac0-19c6-48f7-b76c-afcb62148baa","system_id":"levelo_inurba_marseille","lat":43.28457,"lon":5.35883,"is_reserved":false,"is_disabled":false,"rental_uris":{"android":"levelo://app?vid=7fde0ac0-19c6-48f7-b76c-afcb62148baa","ios":"levelo://app?vid=7fde0ac0-19c6-48f7-b76c-afcb62148baa"},"vehicle_type_id":"4","last_reported":1744909696,"current_range_meters":21600,"station_id":"ce4bhah2rcd13ifvqei0","pricing_plan_id":"cebpf4jnsgd1na2vs0mg"},{"bike_id":"aea2afb6-112e-4c3a-968a-5eb5aa77e9be","system_id":"levelo_inurba_marseille","lat":43.21204,"lon":5.35093,"is_reserved":false,"is_disabled":false,"rental_uris":{"android":"levelo://app?vid=aea2afb6-112e-4c3a-968a-5eb5aa77e9be","ios":"levelo://app?vid=aea2afb6-112e-4c3a-968a-5eb5aa77e9be"},"vehicle_type_id":"4","last_reported":1744909696,"current_range_meters":21600,"station_id":"st_cvj6sg6p6f1abm77japg","pricing_plan_id":"cebpf4jnsgd1na2vs0mg"},{"bike_id":"6c0c7a59-a957-48e6-807c-0250371b275c","system_id":"levelo_inurba_marseille","lat":43.23189,"lon":5.39972,"is_reserved":false,"is_disabled":false,"rental_uris":{"android":"levelo://app?vid=6c0c7a59-a957-48e6-807c-0250371b275c","ios":"levelo://app?vid=6c0c7a59-a957-48e6-807c-0250371b275c"},"vehicle_type_id":"4","last_reported":1744909696,"current_range_meters":20800,"station_id":"ce4bhn12rcd13ifvqgqg","pricing_plan_id":"cebpf4jnsgd1na2vs0mg"},{"bike_id":"2334417d-1cb5-466a-a070-507149a5c3b6","system_id":"levelo_inurba_marseille","lat":43.29537,"lon":5.38548,"is_reserved":false,"is_disabled":false,"rental_uris":{"android":"levelo://app?vid=2334417d-1cb5-466a-a070-507149a5c3b6","ios":"levelo://app?vid=2334417d-1cb5-466a-a070-507149a5c3b6"},"vehicle_type_id":"4","last_reported":1744909696,"current_range_meters":21600,"station_id":"ce4bgih2rcd13ifvqba0","pricing_plan_id":"cebpf4jnsgd1na2vs0mg"},{"bike_id":"762f2240-e7d4-45fe-bafb-edf8e05e65a3","system_id":"levelo_inurba_marseille","lat":43.30797,"lon":5.38166,"is_reserved":false,"is_disabled":false,"rental_uris":{"android":"levelo://app?vid=762f2240-e7d4-45fe-bafb-edf8e05e65a3","ios":"levelo://app?vid=762f2240-e7d4-45fe-bafb-edf8e05e65a3"},"vehicle_type_id":"4","last_reported":1744909696,"current_range_meters":21600,"station_id":"ce4bgt12rcd13ifvqce0","pricing_plan_id":"cebpf4jnsgd1na2vs0mg"},{"bike_id":"db354d04-d247-4774-91bd-19ddd44747bf","system_id":"levelo_inurba_marseille","lat":43.28412,"lon":5.3498,"is_reserved":false,"is_disabled":false,"rental_uris":{"android":"levelo://app?vid=db354d04-d247-4774-91bd-19ddd44747bf","ios":"levelo://app?vid=db354d04-d247-4774-91bd-19ddd44747bf"},"vehicle_type_id":"4","last_reported":1744909696,"current_range_meters":21600,"station_id":"ce4bhbh2rcd13ifvqepg","pricing_plan_id":"cebpf4jnsgd1na2vs0mg"},{"bike_id":"ee9e0d57-c5b9-44c9-97bc-8f8b4941318d","system_id":"levelo_inurba_marseille","lat":43.2719,"lon":5.41002,"is_reserved":false,"is_disabled":false,"rental_uris":{"android":"levelo://app?vid=ee9e0d57-c5b9-44c9-97bc-8f8b4941318d","ios":"levelo://app?vid=ee9e0d57-c5b9-44c9-97bc-8f8b4941318d"},"vehicle_type_id":"4","last_reported":1744909696,"current_range_meters":21600,"station_id":"ce4bhl12rcd13ifvqgf0","pricing_plan_id":"cebpf4jnsgd1na2vs0mg"},{"bike_id":"55792e81-ac06-4faf-bb80-e474e4c8fe90","system_id":"levelo_inurba_marseille","lat":43.29186,"lon":5.35807,"is_reserved":false,"is_disabled":false,"rental_uris":{"android":"levelo://app?vid=55792e81-ac06-4faf-bb80-e474e4c8fe90","ios":"levelo://app?vid=55792e81-ac06-4faf-bb80-e474e4c8fe90"},"vehicle_type_id":"4","last_reported":1744909696,"current_range_meters":21600,"station_id":"ce4bhb12rcd13ifvqel0","pricing_plan_id":"cebpf4jnsgd1na2vs0mg"},{"bike_id":"91aa591a-3e56-4092-a295-ecb6aebe69eb","system_id":"levelo_inurba_marseille","lat":43.22503,"lon":5.34787,"is_reserved":false,"is_disabled":false,"rental_uris":{"android":"levelo://app?vid=91aa591a-3e56-4092-a295-ecb6aebe69eb","ios":"levelo://app?vid=91aa591a-3e56-4092-a295-ecb6aebe69eb"},"vehicle_type_id":"4","last_reported":1744909696,"current_range_meters":22000,"station_id":"st_cvj5dfep6f1abm77gieg","pricing_plan_id":"cebpf4jnsgd1na2vs0mg"},{"bike_id":"d0082010-29c0-4c9c-a4cd-67ac7845b26d","system_id":"levelo_inurba_marseille","lat":43.28438,"lon":5.39197,"is_reserved":false,"is_disabled":false,"rental_uris":{"android":"levelo://app?vid=d0082010-29c0-4c9c-a4cd-67ac7845b26d","ios":"levelo://app?vid=d0082010-29c0-4c9c-a4cd-67ac7845b26d"},"vehicle_type_id":"4","last_reported":1744909696,"current_range_meters":21600,"station_id":"ce4bhoh2rcd13ifvqh5g","pricing_plan_id":"cebpf4jnsgd1na2vs0mg"},{"bike_id":"ad646f93-08ca-44a1-87c8-667cdea57c1d","system_id":"levelo_inurba_marseille","lat":43.28618,"lon":5.3511,"is_reserved":false,"is_disabled":false,"rental_uris":{"android":"levelo://app?vid=ad646f93-08ca-44a1-87c8-667cdea57c1d","ios":"levelo://app?vid=ad646f93-08ca-44a1-87c8-667cdea57c1d"},"vehicle_type_id":"4","last_reported":1744909696,"current_range_meters":22000,"station_id":"ce4bhch2rcd13ifvqeug","pricing_plan_id":"cebpf4jnsgd1na2vs0mg"},{"bike_id":"d7e5c0a7-594a-4bdb-bef8-213f5628b93b","system_id":"levelo_inurba_marseille","lat":43.247093,"lon":5.373859,"is_reserved":false,"is_disabled":false,"rental_uris":{"android":"levelo://app?vid=d7e5c0a7-594a-4bdb-bef8-213f5628b93b","ios":"levelo://app?vid=d7e5c0a7-594a-4bdb-bef8-213f5628b93b"},"vehicle_type_id":"4","last_reported":1744909696,"current_range_meters":22000,"station_id":"ce4bhhh2rcd13ifvqfk0","pricing_plan_id":"cebpf4jnsgd1na2vs0mg"},{"bike_id":"974fbc05-2fb7-481d-b5f1-0231ac947d59","system_id":"levelo_inurba_marseille","lat":43.24803,"lon":5.37456,"is_reserved":false,"is_disabled":false,"rental_uris":{"android":"levelo://app?vid=974fbc05-2fb7-481d-b5f1-0231ac947d59","ios":"levelo://app?vid=974fbc05-2fb7-481d-b5f1-0231ac947d59"},"vehicle_type_id":"4","last_reported":1744909696,"current_range_meters":22000,"station_id":"ce4bhgh2rcd13ifvqfb0","pricing_plan_id":"cebpf4jnsgd1na2vs0mg"},{"bike_id":"d8d928ab-44eb-420a-aedd-99d9a5283e43","system_id":"levelo_inurba_marseille","lat":43.28411,"lon":5.3498,"is_reserved":false,"is_disabled":false,"rental_uris":{"android":"levelo://app?vid=d8d928ab-44eb-420a-aedd-99d9a5283e43","ios":"levelo://app?vid=d8d928ab-44eb-420a-aedd-99d9a5283e43"},"vehicle_type_id":"4","last_reported":1744909696,"current_range_meters":22000,"station_id":"ce4bhbh2rcd13ifvqepg","pricing_plan_id":"cebpf4jnsgd1na2vs0mg"},{"bike_id":"adf20b9e-0b6c-452a-946a-0985232da81f","system_id":"levelo_inurba_marseille","lat":43.28456,"lon":5.35892,"is_reserved":false,"is_disabled":false,"rental_uris":{"android":"levelo://app?vid=adf20b9e-0b6c-452a-946a-0985232da81f","ios":"levelo://app?vid=adf20b9e-0b6c-452a-946a-0985232da81f"},"vehicle_type_id":"4","last_reported":1744909696,"current_range_meters":21600,"station_id":"ce4bhah2rcd13ifvqei0","pricing_plan_id":"cebpf4jnsgd1na2vs0mg"},{"bike_id":"0e653050-b3bc-4745-b001-32be99ddf247","system_id":"levelo_inurba_marseille","lat":43.28464,"lon":5.35893,"is_reserved":false,"is_disabled":false,"rental_uris":{"android":"levelo://app?vid=0e653050-b3bc-4745-b001-32be99ddf247","ios":"levelo://app?vid=0e653050-b3bc-4745-b001-32be99ddf247"},"vehicle_type_id":"4","last_reported":1744909696,"current_range_meters":22400,"station_id":"ce4bhah2rcd13ifvqei0","pricing_plan_id":"cebpf4jnsgd1na2vs0mg"},{"bike_id":"d05b7cc4-f88b-4d02-ae6c-c344f22c0e5c","system_id":"levelo_inurba_marseille","lat":43.297678,"lon":5.365313,"is_reserved":false,"is_disabled":false,"rental_uris":{"android":"levelo://app?vid=d05b7cc4-f88b-4d02-ae6c-c344f22c0e5c","ios":"levelo://app?vid=d05b7cc4-f88b-4d02-ae6c-c344f22c0e5c"},"vehicle_type_id":"4","last_reported":1744909696,"current_range_meters":22400,"station_id":"","pricing_plan_id":"cebpf4jnsgd1na2vs0mg"},{"bike_id":"4240348d-e014-4cd7-a8c3-3fd03d147ce1","system_id":"levelo_inurba_marseille","lat":43.29418,"lon":5.38629,"is_reserved":false,"is_disabled":false,"rental_uris":{"android":"levelo://app?vid=4240348d-e014-4cd7-a8c3-3fd03d147ce1","ios":"levelo://app?vid=4240348d-e014-4cd7-a8c3-3fd03d147ce1"},"vehicle_type_id":"4","last_reported":1744909696,"current_range_meters":22400,"station_id":"ce4bh2h2rcd13ifvqdh0","pricing_plan_id":"cebpf4jnsgd1na2vs0mg"},{"bike_id":"f7aa9c71-a8bf-4e0f-a09a-b87dba5b97f4","system_id":"levelo_inurba_marseille","lat":43.279,"lon":5.38016,"is_reserved":false,"is_disabled":false,"rental_uris":{"android":"levelo://app?vid=f7aa9c71-a8bf-4e0f-a09a-b87dba5b97f4","ios":"levelo://app?vid=f7aa9c71-a8bf-4e0f-a09a-b87dba5b97f4"},"vehicle_type_id":"4","last_reported":1744909696,"current_range_meters":22400,"station_id":"ce4bhf92rcd13ifvqf50","pricing_plan_id":"cebpf4jnsgd1na2vs0mg"},{"bike_id":"81e0d648-085a-4c2c-aee4-8277ce6cb35c","system_id":"levelo_inurba_marseille","lat":43.29627,"lon":5.40598,"is_reserved":false,"is_disabled":false,"rental_uris":{"android":"levelo://app?vid=81e0d648-085a-4c2c-aee4-8277ce6cb35c","ios":"levelo://app?vid=81e0d648-085a-4c2c-aee4-8277ce6cb35c"},"vehicle_type_id":"4","last_reported":1744909696,"current_range_meters":22000,"station_id":"ce4bh0h2rcd13ifvqd60","pricing_plan_id":"cebpf4jnsgd1na2vs0mg"},{"bike_id":"599d4f27-a18a-439f-8561-cea3a827c0eb","system_id":"levelo_inurba_marseille","lat":43.30796,"lon":5.381525,"is_reserved":false,"is_disabled":false,"rental_uris":{"android":"levelo://app?vid=599d4f27-a18a-439f-8561-cea3a827c0eb","ios":"levelo://app?vid=599d4f27-a18a-439f-8561-cea3a827c0eb"},"vehicle_type_id":"4","last_reported":1744909696,"current_range_meters":22400,"station_id":"ce4bh092rcd13ifvqd30","pricing_plan_id":"cebpf4jnsgd1na2vs0mg"},{"bike_id":"35e3afb2-10b3-4a5b-938e-23fc983a11b3","system_id":"levelo_inurba_marseille","lat":43.30207,"lon":5.39473,"is_reserved":false,"is_disabled":false,"rental_uris":{"android":"levelo://app?vid=35e3afb2-10b3-4a5b-938e-23fc983a11b3","ios":"levelo://app?vid=35e3afb2-10b3-4a5b-938e-23fc983a11b3"},"vehicle_type_id":"4","last_reported":1744909696,"current_range_meters":22800,"station_id":"ce4bh0p2rcd13ifvqd70","pricing_plan_id":"cebpf4jnsgd1na2vs0mg"},{"bike_id":"7762e7b7-24fc-4ca6-8357-5a96aaeacc00","system_id":"levelo_inurba_marseille","lat":43.29865,"lon":5.39731,"is_reserved":false,"is_disabled":false,"rental_uris":{"android":"levelo://app?vid=7762e7b7-24fc-4ca6-8357-5a96aaeacc00","ios":"levelo://app?vid=7762e7b7-24fc-4ca6-8357-5a96aaeacc00"},"vehicle_type_id":"4","last_reported":1744909696,"current_range_meters":22800,"station_id":"ce4bh0h2rcd13ifvqd50","pricing_plan_id":"cebpf4jnsgd1na2vs0mg"},{"bike_id":"f1309fdf-1320-42b4-b2a4-3a28f229b33b","system_id":"levelo_inurba_marseille","lat":43.29257,"lon":5.38439,"is_reserved":false,"is_disabled":false,"rental_uris":{"android":"levelo://app?vid=f1309fdf-1320-42b4-b2a4-3a28f229b33b","ios":"levelo://app?vid=f1309fdf-1320-42b4-b2a4-3a28f229b33b"},"vehicle_type_id":"4","last_reported":1744909696,"current_range_meters":22800,"station_id":"ce4bh692rcd13ifvqea0","pricing_plan_id":"cebpf4jnsgd1na2vs0mg"},{"bike_id":"f0fbc9d9-4800-43b4-93ff-759949d30e58","system_id":"levelo_inurba_marseille","lat":43.26931,"lon":5.38944,"is_reserved":false,"is_disabled":false,"rental_uris":{"android":"levelo://app?vid=f0fbc9d9-4800-43b4-93ff-759949d30e58","ios":"levelo://app?vid=f0fbc9d9-4800-43b4-93ff-759949d30e58"},"vehicle_type_id":"4","last_reported":1744909696,"current_range_meters":22800,"station_id":"ce4bhhh2rcd13ifvqfl0","pricing_plan_id":"cebpf4jnsgd1na2vs0mg"},{"bike_id":"e90b5e7e-eed1-43b8-82ac-30d5b92eee08","system_id":"levelo_inurba_marseille","lat":43.31084,"lon":5.42428,"is_reserved":false,"is_disabled":false,"rental_uris":{"android":"levelo://app?vid=e90b5e7e-eed1-43b8-82ac-30d5b92eee08","ios":"levelo://app?vid=e90b5e7e-eed1-43b8-82ac-30d5b92eee08"},"vehicle_type_id":"4","last_reported":1744909696,"current_range_meters":22800,"station_id":"ce4bhp92rcd13ifvqhag","pricing_plan_id":"cebpf4jnsgd1na2vs0mg"},{"bike_id":"761fcdea-ab14-4485-92a7-6159fef8dc5a","system_id":"levelo_inurba_marseille","lat":43.33108,"lon":5.38194,"is_reserved":false,"is_disabled":false,"rental_uris":{"android":"levelo://app?vid=761fcdea-ab14-4485-92a7-6159fef8dc5a","ios":"levelo://app?vid=761fcdea-ab14-4485-92a7-6159fef8dc5a"},"vehicle_type_id":"4","last_reported":1744909696,"current_range_meters":22800,"station_id":"","pricing_plan_id":"cebpf4jnsgd1na2vs0mg"},{"bike_id":"24213b37-b766-4d9c-a174-f6bf34920497","system_id":"levelo_inurba_marseille","lat":43.28469,"lon":5.384178,"is_reserved":false,"is_disabled":false,"rental_uris":{"android":"levelo://app?vid=24213b37-b766-4d9c-a174-f6bf34920497","ios":"levelo://app?vid=24213b37-b766-4d9c-a174-f6bf34920497"},"vehicle_type_id":"4","last_reported":1744909696,"current_range_meters":22800,"station_id":"ce4bh512rcd13ifvqe3g","pricing_plan_id":"cebpf4jnsgd1na2vs0mg"},{"bike_id":"17de6571-3c1c-4621-995b-d445cb9c6f14","system_id":"levelo_inurba_marseille","lat":43.21192,"lon":5.3508,"is_reserved":false,"is_disabled":false,"rental_uris":{"android":"levelo://app?vid=17de6571-3c1c-4621-995b-d445cb9c6f14","ios":"levelo://app?vid=17de6571-3c1c-4621-995b-d445cb9c6f14"},"vehicle_type_id":"4","last_reported":1744909696,"current_range_meters":22800,"station_id":"st_cvj6sg6p6f1abm77japg","pricing_plan_id":"cebpf4jnsgd1na2vs0mg"},{"bike_id":"bf8126a7-dadd-44bb-86f9-e2172d6ff710","system_id":"levelo_inurba_marseille","lat":43.27827,"lon":5.39231,"is_reserved":false,"is_disabled":false,"rental_uris":{"android":"levelo://app?vid=bf8126a7-dadd-44bb-86f9-e2172d6ff710","ios":"levelo://app?vid=bf8126a7-dadd-44bb-86f9-e2172d6ff710"},"vehicle_type_id":"4","last_reported":1744909696,"current_range_meters":22800,"station_id":"ce4bhjp2rcd13ifvqga0","pricing_plan_id":"cebpf4jnsgd1na2vs0mg"},{"bike_id":"f7b839f8-bc55-40aa-94ca-1eee27f1b592","system_id":"levelo_inurba_marseille","lat":43.28626,"lon":5.35095,"is_reserved":false,"is_disabled":false,"rental_uris":{"android":"levelo://app?vid=f7b839f8-bc55-40aa-94ca-1eee27f1b592","ios":"levelo://app?vid=f7b839f8-bc55-40aa-94ca-1eee27f1b592"},"vehicle_type_id":"4","last_reported":1744909696,"current_range_meters":22800,"station_id":"ce4bhch2rcd13ifvqeug","pricing_plan_id":"cebpf4jnsgd1na2vs0mg"},