{"last_updated":1699560453,"ttl":30,"version":"2.2","data":{"bikes":[{"bike_id":"7aafee38-a2ed-4ad1-80fc-b311ce98515e","system_id":"levelo_inurba_marseille","lat":43.314811,"lon":5.373103,"is_reserved":false,"is_disabled":false,"rental_uris":{"android":"levelo://app?vid=7aafee38-a2ed-4ad1-80fc-b311ce98515e","ios":"levelo://app?vid=7aafee38-a2ed-4ad1-80fc-b311ce98515e"},"vehicle_type_id":"4","last_reported":1699560453,"current_range_meters":16400,"station_id":"ce4bgt12rcd13ifvqcd0","pricing_plan_id":"free"},{"bike_id":"2f222026-c000-4c84-9103-e6d44a0ff880","system_id":"levelo_inurba_marseille","lat":43.30886,"lon":5.371827,"is_reserved":false,"is_disabled":false,"rental_uris":{"android":"levelo://app?vid=2f222026-c000-4c84-9103-e6d44a0ff880","ios":"levelo://app?vid=2f222026-c000-4c84-9103-e6d44a0ff880"},"vehicle_type_id":"4","last_reported":1699560453,"current_range_meters":28000,"station_id":"ce4bguh2rcd13ifvqckg","pricing_plan_id":"free"},{"bike_id":"931a69d6-38d8-474c-93da-5169817383a3","system_id":"levelo_inurba_marseille","lat":43.30547,"lon":5.3653,"is_reserved":false,"is_disabled":false,"rental_uris":{"android":"levelo://app?vid=931a69d6-38d8-474c-93da-5169817383a3","ios":"levelo://app?vid=931a69d6-38d8-474c-93da-5169817383a3"},"vehicle_type_id":"4","last_reported":1699560453,"current_range_meters":0,"station_id":"ce4bgs12rcd13ifvqcag","pricing_plan_id":"free"},{"bike_id":"76b359af-c20b-45d0-a1df-78f4c9a6553a","system_id":"levelo_inurba_marseille","lat":43.305714,"lon":5.365633,"is_reserved":false,"is_disabled":false,"rental_uris":{"android":"levelo://app?vid=76b359af-c20b-45d0-a1df-78f4c9a6553a","ios":"levelo://app?vid=76b359af-c20b-45d0-a1df-78f4c9a6553a"},"vehicle_type_id":"4","last_reported":1699560453,"current_range_meters":26400,"station_id":"ce4bgs12rcd13ifvqcag","pricing_plan_id":"free"},{"bike_id":"dd7638b1-5a8a-465f-8883-a03434f7c3df","system_id":"levelo_inurba_marseille","lat":43.311283,"lon":5.377577,"is_reserved":false,"is_disabled":false,"rental_uris":{"android":"levelo://app?vid=dd7638b1-5a8a-465f-8883-a03434f7c3df","ios":"levelo://app?vid=dd7638b1-5a8a-465f-8883-a03434f7c3df"},"vehicle_type_id":"4","last_reported":1699560453,"current_range_meters":10800,"station_id":"ce4bgt92rcd13ifvqcg0","pricing_plan_id":"free"},{"bike_id":"6bad30b2-f870-4ab2-97ec-3a9766bdf28c","system_id":"levelo_inurba_marseille","lat":43.311131,"lon":5.377651,"is_reserved":false,"is_disabled":false,"rental_uris":{"android":"levelo://app?vid=6bad30b2-f870-4ab2-97ec-3a9766bdf28c","ios":"levelo://app?vid=6bad30b2-f870-4ab2-97ec-3a9766bdf28c"},"vehicle_type_id":"4","last_reported":1699560453,"current_range_meters":28000,"station_id":"ce4bgt92rcd13ifvqcg0","pricing_plan_id":"free"},{"bike_id":"69c14741-f40c-4ac8-9611-638a9e5b3a3d","system_id":"levelo_inurba_marseille","lat":43.31131,"lon":5.37765,"is_reserved":false,"is_disabled":false,"rental_uris":{"android":"levelo://app?vid=69c14741-f40c-4ac8-9611-638a9e5b3a3d","ios":"levelo://app?vid=69c14741-f40c-4ac8-9611-638a9e5b3a3d"},"vehicle_type_id":"4","last_reported":1699560453,"current_range_meters":4000,"station_id":"ce4bgt92rcd13ifvqcg0","pricing_plan_id":"free"},{"bike_id":"ab185017-0290-4c41-bace-5d5bb8a61f52","system_id":"levelo_inurba_marseille","lat":43.311131,"lon":5.377651,"is_reserved":false,"is_disabled":false,"rental_uris":{"android":"levelo://app?vid=ab185017-0290-4c41-bace-5d5bb8a61f52","ios":"levelo://app?vid=ab185017-0290-4c41-bace-5d5bb8a61f52"},"vehicle_type_id":"4","last_reported":1699560453,"current_range_meters":31200,"station_id":"ce4bgt92rcd13ifvqcg0","pricing_plan_id":"free"},{"bike_id":"87609399-9919-437b-ad67-af815862c48e","system_id":"levelo_inurba_marseille","lat":43.31121,"lon":5.37764,"is_reserved":false,"is_disabled":false,"rental_uris":{"android":"levelo://app?vid=87609399-9919-437b-ad67-af815862c48e","ios":"levelo://app?vid=87609399-9919-437b-ad67-af815862c48e"},"vehicle_type_id":"4","last_reported":1699560453,"current_range_meters":21600,"station_id":"ce4bgt92rcd13ifvqcg0","pricing_plan_id":"free"},{"bike_id":"058c996c-df93-4253-8799-63d1c7557990","system_id":"levelo_inurba_marseille","lat":43.311131,"lon":5.377651,"is_reserved":false,"is_disabled":false,"rental_uris":{"android":"levelo://app?vid=058c996c-df93-4253-8799-63d1c7557990","ios":"levelo://app?vid=058c996c-df93-4253-8799-63d1c7557990"},"vehicle_type_id":"4","last_reported":1699560453,"current_range_meters":24400,"station_id":"ce4bgt92rcd13ifvqcg0","pricing_plan_id":"free"},{"bike_id":"5e00ef1c-7e26-4576-9fc9-4c15a091a981","system_id":"levelo_inurba_marseille","lat":43.311131,"lon":5.377651,"is_reserved":false,"is_disabled":false,"rental_uris":{"android":"levelo://app?vid=5e00ef1c-7e26-4576-9fc9-4c15a091a981","ios":"levelo://app?vid=5e00ef1c-7e26-4576-9fc9-4c15a091a981"},"vehicle_type_id":"4","last_reported":1699560453,"current_range_meters":21200,"station_id":"ce4bgt92rcd13ifvqcg0","pricing_plan_id":"free"},{"bike_id":"96e2b45f-b47d-4ea0-83eb-764e4e97f7b7","system_id":"levelo_inurba_marseille","lat":43.3114,"lon":5.37791,"is_reserved":false,"is_disabled":false,"rental_uris":{"android":"levelo://app?vid=96e2b45f-b47d-4ea0-83eb-764e4e97f7b7","ios":"levelo://app?vid=96e2b45f-b47d-4ea0-83eb-764e4e97f7b7"},"vehicle_type_id":"4","last_reported":1699560453,"current_range_meters":4400,"station_id":"ce4bgt92rcd13ifvqcg0","pricing_plan_id":"free"},{"bike_id":"b1330c22-c43e-4898-8237-421af3fc60e6","system_id":"levelo_inurba_marseille","lat":43.30782,"lon":5.376508,"is_reserved":false,"is_disabled":false,"rental_uris":{"android":"levelo://app?vid=b1330c22-c43e-4898-8237-421af3fc60e6","ios":"levelo://app?vid=b1330c22-c43e-4898-8237-421af3fc60e6"},"vehicle_type_id":"4","last_reported":1699560453,"current_range_meters":0,"station_id":"ce4bgv92rcd13ifvqcq0","pricing_plan_id":"free"},{"bike_id":"57053367-5328-4d78-8951-737f56b37ed9","system_id":"levelo_inurba_marseille","lat":43.319924,"lon":5.373389,"is_reserved":false,"is_disabled":false,"rental_uris":{"android":"levelo://app?vid=57053367-5328-4d78-8951-737f56b37ed9","ios":"levelo://app?vid=57053367-5328-4d78-8951-737f56b37ed9"},"vehicle_type_id":"4","last_reported":1699560453,"current_range_meters":25200,"station_id":"","pricing_plan_id":"free"},{"bike_id":"5207d2f9-39b1-402d-867e-039ef632b585","system_id":"levelo_inurba_marseille","lat":43.303046,"lon":5.368981,"is_reserved":false,"is_disabled":false,"rental_uris":{"android":"levelo://app?vid=5207d2f9-39b1-402d-867e-039ef632b585","ios":"levelo://app?vid=5207d2f9-39b1-402d-867e-039ef632b585"},"vehicle_type_id":"4","last_reported":1699560453,"current_range_meters":12800,"station_id":"ce4bgqh2rcd13ifvqc5g","pricing_plan_id":"free"},{"bike_id":"1370534c-101d-43b6-86ea-8983afef3bc3","system_id":"levelo_inurba_marseille","lat":43.308012,"lon":5.381511,"is_reserved":false,"is_disabled":false,"rental_uris":{"android":"levelo://app?vid=1370534c-101d-43b6-86ea-8983afef3bc3","ios":"levelo://app?vid=1370534c-101d-43b6-86ea-8983afef3bc3"},"vehicle_type_id":"4","last_reported":1699560453,"current_range_meters":10000,"station_id":"ce4bgt12rcd13ifvqce0","pricing_plan_id":"free"},{"bike_id":"52e43f3d-cb2f-437b-8c87-91792bb0e7db","system_id":"levelo_inurba_marseille","lat":43.322428,"lon":5.375708,"is_reserved":false,"is_disabled":false,"rental_uris":{"android":"levelo://app?vid=52e43f3d-cb2f-437b-8c87-91792bb0e7db","ios":"levelo://app?vid=52e43f3d-cb2f-437b-8c87-91792bb0e7db"},"vehicle_type_id":"4","last_reported":1699560453,"current_range_meters":12400,"station_id":"","pricing_plan_id":"free"},{"bike_id":"d22b8ba1-50ce-4369-b409-59fce8a80eba","system_id":"levelo_inurba_marseille","lat":43.308012,"lon":5.381511,"is_reserved":false,"is_disabled":false,"rental_uris":{"android":"levelo://app?vid=d22b8ba1-50ce-4369-b409-59fce8a80eba","ios":"levelo://app?vid=d22b8ba1-50ce-4369-b409-59fce8a80eba"},"vehicle_type_id":"4","last_reported":1699560453,"current_range_meters":2000,"station_id":"ce4bgt12rcd13ifvqce0","pricing_plan_id":"free"},{"bike_id":"18c364a9-34bc-4a41-bd28-7a929fdf8508","system_id":"levelo_inurba_marseille","lat":43.308012,"lon":5.381511,"is_reserved":false,"is_disabled":false,"rental_uris":{"android":"levelo://app?vid=18c364a9-34bc-4a41-bd28-7a929fdf8508","ios":"levelo://app?vid=18c364a9-34bc-4a41-bd28-7a929fdf8508"},"vehicle_type_id":"4","last_reported":1699560453,"current_range_meters":400,"station_id":"ce4bgt12rcd13ifvqce0","pricing_plan_id":"free"},{"bike_id":"29ef7d5c-cf94-4bc3-b73f-ad375ce1d015","system_id":"levelo_inurba_marseille","lat":43.303586,"lon":5.377754,"is_reserved":false,"is_disabled":false,"rental_uris":{"android":"levelo://app?vid=29ef7d5c-cf94-4bc3-b73f-ad375ce1d015","ios":"levelo://app?vid=29ef7d5c-cf94-4bc3-b73f-ad375ce1d015"},"vehicle_type_id":"4","last_reported":1699560453,"current_range_meters":4400,"station_id":"","pricing_plan_id":"free"},{"bike_id":"33954103-f0f0-4f35-aa27-70771ab4a048","system_id":"levelo_inurba_marseille","lat":43.317557,"lon":5.390173,"is_reserved":false,"is_disabled":false,"rental_uris":{"android":"levelo://app?vid=33954103-f0f0-4f35-aa27-70771ab4a048","ios":"levelo://app?vid=33954103-f0f0-4f35-aa27-70771ab4a048"},"vehicle_type_id":"4","last_reported":1699560453,"current_range_meters":13200,"station_id":"ce4bhqp2rcd13ifvqhng","pricing_plan_id":"free"},{"bike_id":"69166d53-ec8e-4a0a-864c-7a29f7650dd8","system_id":"levelo_inurba_marseille","lat":43.32109,"lon":5.38001,"is_reserved":false,"is_disabled":false,"rental_uris":{"android":"levelo://app?vid=69166d53-ec8e-4a0a-864c-7a29f7650dd8","ios":"levelo://app?vid=69166d53-ec8e-4a0a-864c-7a29f7650dd8"},"vehicle_type_id":"4","last_reported":1699560453,"current_range_meters":27600,"station_id":"","pricing_plan_id":"free"},{"bike_id":"13d78257-2559-4a10-97b8-aaa7032179bc","system_id":"levelo_inurba_marseille","lat":43.319975,"lon":5.381519,"is_reserved":false,"is_disabled":false,"rental_uris":{"android":"levelo://app?vid=13d78257-2559-4a10-97b8-aaa7032179bc","ios":"levelo://app?vid=13d78257-2559-4a10-97b8-aaa7032179bc"},"vehicle_type_id":"4","last_reported":1699560453,"current_range_meters":10800,"station_id":"","pricing_plan_id":"free"},{"bike_id":"d98ef63b-3279-44c8-ac44-bc93896579ca","system_id":"levelo_inurba_marseille","lat":43.319935,"lon":5.381699,"is_reserved":false,"is_disabled":false,"rental_uris":{"android":"levelo://app?vid=d98ef63b-3279-44c8-ac44-bc93896579ca","ios":"levelo://app?vid=d98ef63b-3279-44c8-ac44-bc93896579ca"},"vehicle_type_id":"4","last_reported":1699560453,"current_range_meters":24400,"station_id":"ce4bhr12rcd13ifvqhpg","pricing_plan_id":"free"},{"bike_id":"f0e0fac1-61fc-4545-80df-e429e55c1818","system_id":"levelo_inurba_marseille","lat":43.32005,"lon":5.38151,"is_reserved":false,"is_disabled":false,"rental_uris":{"android":"levelo://app?vid=f0e0fac1-61fc-4545-80df-e429e55c1818","ios":"levelo://app?vid=f0e0fac1-61fc-4545-80df-e429e55c1818"},"vehicle_type_id":"4","last_reported":1699560453,"current_range_meters":1200,"station_id":"ce4bhr12rcd13ifvqhpg","pricing_plan_id":"free"},{"bike_id":"1482bc32-7a23-4109-885f-2d119a1e3cec","system_id":"levelo_inurba_marseille","lat":43.31998,"lon":5.3816,"is_reserved":false,"is_disabled":false,"rental_uris":{"android":"levelo://app?vid=1482bc32-7a23-4109-885f-2d119a1e3cec","ios":"levelo://app?vid=1482bc32-7a23-4109-885f-2d119a1e3cec"},"vehicle_type_id":"4","last_reported":1699560453,"current_range_meters":16400,"station_id":"ce4bhr12rcd13ifvqhpg","pricing_plan_id":"free"},{"bike_id":"defcaae0-157e-473b-a98e-5551c6052783","system_id":"levelo_inurba_marseille","lat":43.319935,"lon":5.381699,"is_reserved":false,"is_disabled":false,"rental_uris":{"android":"levelo://app?vid=defcaae0-157e-473b-a98e-5551c6052783","ios":"levelo://app?vid=defcaae0-157e-473b-a98e-5551c6052783"},"vehicle_type_id":"4","last_reported":1699560453,"current_range_meters":16000,"station_id":"ce4bhr12rcd13ifvqhpg","pricing_plan_id":"free"},{"bike_id":"a16934e5-80dd-4543-b3f7-4b7690f463ac","system_id":"levelo_inurba_marseille","lat":43.29943,"lon":5.36559,"is_reserved":false,"is_disabled":false,"rental_uris":{"android":"levelo://app?vid=a16934e5-80dd-4543-b3f7-4b7690f463ac","ios":"levelo://app?vid=a16934e5-80dd-4543-b3f7-4b7690f463ac"},"vehicle_type_id":"4","last_reported":1699560453,"current_range_meters":5200,"station_id":"ce4bgm92rcd13ifvqbr0","pricing_plan_id":"free"},{"bike_id":"1d1844e8-4e2e-4db4-af74-925aa2e58224","system_id":"levelo_inurba_marseille","lat":43.299724,"lon":5.371829,"is_reserved":false,"is_disabled":false,"rental_uris":{"android":"levelo://app?vid=1d1844e8-4e2e-4db4-af74-925aa2e58224","ios":"levelo://app?vid=1d1844e8-4e2e-4db4-af74-925aa2e58224"},"vehicle_type_id":"4","last_reported":1699560453,"current_range_meters":22800,"station_id":"ce4bgr92rcd13ifvqc7g","pricing_plan_id":"free"},{"bike_id":"2aa07dbd-abc3-43b6-a1fa-b3b25d3cf066","system_id":"levelo_inurba_marseille","lat":43.32148,"lon":5.38202,"is_reserved":false,"is_disabled":false,"rental_uris":{"android":"levelo://app?vid=2aa07dbd-abc3-43b6-a1fa-b3b25d3cf066","ios":"levelo://app?vid=2aa07dbd-abc3-43b6-a1fa-b3b25d3cf066"},"vehicle_type_id":"4","last_reported":1699560453,"current_range_meters":800,"station_id":"","pricing_plan_id":"free"},{"bike_id":"df9c443e-bc40-4386-b71e-b05baa745e26","system_id":"levelo_inurba_marseille","lat":43.29855,"lon":5.36284,"is_reserved":false,"is_disabled":false,"rental_uris":{"android":"levelo://app?vid=df9c443e-bc40-4386-b71e-b05baa745e26","ios":"levelo://app?vid=df9c443e-bc40-4386-b71e-b05baa745e26"},"vehicle_type_id":"4","last_reported":1699560453,"current_range_meters":10800,"station_id":"ce4bgpp2rcd13ifvqc3g","pricing_plan_id":"free"},{"bike_id":"a78379c6-69e0-44f5-96ab-6de19b9fdb59","system_id":"levelo_inurba_marseille","lat":43.305364,"lon":5.384119,"is_reserved":false,"is_disabled":false,"rental_uris":{"android":"levelo://app?vid=a78379c6-69e0-44f5-96ab-6de19b9fdb59","ios":"levelo://app?vid=a78379c6-69e0-44f5-96ab-6de19b9fdb59"},"vehicle_type_id":"4","last_reported":1699560453,"current_range_meters":19600,"station_id":"ce4bgg92rcd13ifvqb30","pricing_plan_id":"free"},{"bike_id":"389adebf-c11b-454f-ad4f-505270a0dd63","system_id":"levelo_inurba_marseille","lat":43.305364,"lon":5.384119,"is_reserved":false,"is_disabled":false,"rental_uris":{"android":"levelo://app?vid=389adebf-c11b-454f-ad4f-505270a0dd63","ios":"levelo://app?vid=389adebf-c11b-454f-ad4f-505270a0dd63"},"vehicle_type_id":"4","last_reported":1699560453,"current_range_meters":19200,"station_id":"ce4bgg92rcd13ifvqb30","pricing_plan_id":"free"},{"bike_id":"8119f993-2bc0-468c-961a-49ba2fc44c2f","system_id":"levelo_inurba_marseille","lat":43.305364,"lon":5.384119,"is_reserved":false,"is_disabled":false,"rental_uris":{"android":"levelo://app?vid=8119f993-2bc0-468c-961a-49ba2fc44c2f","ios":"levelo://app?vid=8119f993-2bc0-468c-961a-49ba2fc44c2f"},"vehicle_type_id":"4","last_reported":1699560453,"current_range_meters":21200,"station_id":"ce4bgg92rcd13ifvqb30","pricing_plan_id":"free"},{"bike_id":"f01a23ca-350c-40ee-80d4-aa0387354d0e","system_id":"levelo_inurba_marseille","lat":43.305364,"lon":5.384119,"is_reserved":false,"is_disabled":false,"rental_uris":{"android":"levelo://app?vid=f01a23ca-350c-40ee-80d4-aa0387354d0e","ios":"levelo://app?vid=f01a23ca-350c-40ee-80d4-aa0387354d0e"},"vehicle_type_id":"4","last_reported":1699560453,"current_range_meters":12800,"station_id":"ce4bgg92rcd13ifvqb30","pricing_plan_id":"free"},{"bike_id":"f3ed55bd-c462-417e-b882-d59267a7b870","system_id":"levelo_inurba_marseille","lat":43.299243,"lon":5.374807,"is_reserved":false,"is_disabled":false,"rental_uris":{"android":"levelo://app?vid=f3ed55bd-c462-417e-b882-d59267a7b870","ios":"levelo://app?vid=f3ed55bd-c462-417e-b882-d59267a7b870"},"vehicle_type_id":"4","last_reported":1699560453,"current_range_meters":0,"station_id":"ce4bgjh2rcd13ifvqbg0","pricing_plan_id":"free"},{"bike_id":"8950f55a-e75d-4fac-9a7c-f529bc0580a5","system_id":"levelo_inurba_marseille","lat":43.320464,"lon":5.384144,"is_reserved":false,"is_disabled":false,"rental_uris":{"android":"levelo://app?vid=8950f55a-e75d-4fac-9a7c-f529bc0580a5","ios":"levelo://app?vid=8950f55a-e75d-4fac-9a7c-f529bc0580a5"},"vehicle_type_id":"4","last_reported":1699560453,"current_range_meters":19600,"station_id":"","pricing_plan_id":"free"},{"bike_id":"caa0ac3c-8a27-4ebb-a13c-57a10cee2004","system_id":"levelo_inurba_marseille","lat":43.311722,"lon":5.387247,"is_reserved":false,"is_disabled":false,"rental_uris":{"android":"levelo://app?vid=caa0ac3c-8a27-4ebb-a13c-57a10cee2004","ios":"levelo://app?vid=caa0ac3c-8a27-4ebb-a13c-57a10cee2004"},"vehicle_type_id":"4","last_reported":1699560453,"current_range_meters":11600,"station_id":"ce4bgv12rcd13ifvqcp0","pricing_plan_id":"free"},{"bike_id":"a78cca97-2887-4be0-8124-79b350765fc4","system_id":"levelo_inurba_marseille","lat":43.297794,"lon":5.370888,"is_reserved":false,"is_disabled":false,"rental_uris":{"android":"levelo://app?vid=a78cca97-2887-4be0-8124-79b350765fc4","ios":"levelo://app?vid=a78cca97-2887-4be0-8124-79b350765fc4"},"vehicle_type_id":"4","last_reported":1699560453,"current_range_meters":0,"station_id":"ce4bgop2rcd13ifvqc1g","pricing_plan_id":"free"},{"bike_id":"0eb3cb53-0f2b-4825-86b8-6ad00f482ad1","system_id":"levelo_inurba_marseille","lat":43.297809,"lon":5.371056,"is_reserved":false,"is_disabled":false,"rental_uris":{"android":"levelo://app?vid=0eb3cb53-0f2b-4825-86b8-6ad00f482ad1","ios":"levelo://app?vid=0eb3cb53-0f2b-4825-86b8-6ad00f482ad1"},"vehicle_type_id":"4","last_reported":1699560453,"current_range_meters":3200,"station_id":"","pricing_plan_id":"free"},{"bike_id":"221a6428-9c2b-4945-9fb3-0bb926bfc05b","system_id":"levelo_inurba_marseille","lat":43.322872,"lon":5.382756,"is_reserved":false,"is_disabled":false,"rental_uris":{"android":"levelo://app?vid=221a6428-9c2b-4945-9fb3-0bb926bfc05b","ios":"levelo://app?vid=221a6428-9c2b-4945-9fb3-0bb926bfc05b"},"vehicle_type_id":"4","last_reported":1699560453,"current_range_meters":17600,"station_id":"ce4bhr12rcd13ifvqhqg","pricing_plan_id":"free"},{"bike_id":"91286602-dac0-4a76-8927-6c8664893e7b","system_id":"levelo_inurba_marseille","lat":43.322872,"lon":5.382756,"is_reserved":false,"is_disabled":false,"rental_uris":{"android":"levelo://app?vid=91286602-dac0-4a76-8927-6c8664893e7b","ios":"levelo://app?vid=91286602-dac0-4a76-8927-6c8664893e7b"},"vehicle_type_id":"4","last_reported":1699560453,"current_range_meters":8000,"station_id":"ce4bhr12rcd13ifvqhqg","pricing_plan_id":"free"},{"bike_id":"e4a895a8-c6d1-4804-993c-b111541ae28a","system_id":"levelo_inurba_marseille","lat":43.322872,"lon":5.382756,"is_reserved":false,"is_disabled":false,"rental_uris":{"android":"levelo://app?vid=e4a895a8-c6d1-4804-993c-b111541ae28a","ios":"levelo://app?vid=e4a895a8-c6d1-4804-993c-b111541ae28a"},"vehicle_type_id":"4","last_reported":1699560453,"current_range_meters":13600,"station_id":"ce4bhr12rcd13ifvqhqg","pricing_plan_id":"free"},{"bike_id":"adec3add-adaa-4c07-9d6b-d29fb6c4f19c","system_id":"levelo_inurba_marseille","lat":43.322872,"lon":5.382756,"is_reserved":false,"is_disabled":false,"rental_uris":{"android":"levelo://app?vid=adec3add-adaa-4c07-9d6b-d29fb6c4f19c","ios":"levelo://app?vid=adec3add-adaa-4c07-9d6b-d29fb6c4f19c"},"vehicle_type_id":"4","last_reported":1699560453,"current_range_meters":14000,"station_id":"ce4bhr12rcd13ifvqhqg","pricing_plan_id":"free"},{"bike_id":"6abc6ed3-7ee5-474c-b332-4aeb367ba6b7","system_id":"levelo_inurba_marseille","lat":43.322872,"lon":5.382756,"is_reserved":false,"is_disabled":false,"rental_uris":{"android":"levelo://app?vid=6abc6ed3-7ee5-474c-b332-4aeb367ba6b7","ios":"levelo://app?vid=6abc6ed3-7ee5-474c-b332-4aeb367ba6b7"},"vehicle_type_id":"4","last_reported":1699560453,"current_range_meters":26400,"station_id":"ce4bhr12rcd13ifvqhqg","pricing_plan_id":"free"},{"bike_id":"3107b7f8-ab0e-4ce9-87df-bf5ce8e59681","system_id":"levelo_inurba_marseille","lat":43.322865,"lon":5.382838,"is_reserved":false,"is_disabled":false,"rental_uris":{"android":"levelo://app?vid=3107b7f8-ab0e-4ce9-87df-bf5ce8e59681","ios":"levelo://app?vid=3107b7f8-ab0e-4ce9-87df-bf5ce8e59681"},"vehicle_type_id":"4","last_reported":1699560453,"current_range_meters":18400,"station_id":"ce4bhr12rcd13ifvqhqg","pricing_plan_id":"free"},{"bike_id":"bcb89bb9-8932-4adb-ba55-2d690f7f33ae","system_id":"levelo_inurba_marseille","lat":43.297163,"lon":5.365866,"is_reserved":false,"is_disabled":false,"rental_uris":{"android":"levelo://app?vid=bcb89bb9-8932-4adb-ba55-2d690f7f33ae","ios":"levelo://app?vid=bcb89bb9-8932-4adb-ba55-2d690f7f33ae"},"vehicle_type_id":"4","last_reported":1699560453,"current_range_meters":8000,"station_id":"ce4bgn12rcd13ifvqbt0","pricing_plan_id":"free"},{"bike_id":"f437c1fb-b5f1-44fe-aa69-52bd1cd9ade2","system_id":"levelo_inurba_marseille","lat":43.328371,"lon":5.366909,"is_reserved":false,"is_disabled":false,"rental_uris":{"android":"levelo://app?vid=f437c1fb-b5f1-44fe-aa69-52bd1cd9ade2","ios":"levelo://app?vid=f437c1fb-b5f1-44fe-aa69-52bd1cd9ade2"},"vehicle_type_id":"4","last_reported":1699560453,"current_range_meters":19200,"station_id":"ce4bhs92rcd13ifvqi0g","pricing_plan_id":"free"},{"bike_id":"547558d2-d8a3-47c3-8381-a4377ae77cfa","system_id":"levelo_inurba_marseille","lat":43.296,"lon":5.36802,"is_reserved":false,"is_disabled":false,"rental_uris":{"android":"levelo://app?vid=547558d2-d8a3-47c3-8381-a4377ae77cfa","ios":"levelo://app?vid=547558d2-d8a3-47c3-8381-a4377ae77cfa"},"vehicle_type_id":"4","last_reported":1699560453,"current_range_meters":27200,"station_id":"","pricing_plan_id":"free"},{"bike_id":"42345d17-c4b4-47e1-91d7-2e69f9824407","system_id":"levelo_inurba_marseille","lat":43.32215,"lon":5.38613,"is_reserved":false,"is_disabled":false,"rental_uris":{"android":"levelo://app?vid=42345d17-c4b4-47e1-91d7-2e69f9824407","ios":"levelo://app?vid=42345d17-c4b4-47e1-91d7-2e69f9824407"},"vehicle_type_id":"4","last_reported":1699560453,"current_range_meters":27200,"station_id":"","pricing_plan_id":"free"},{"bike_id":"484e30ed-4cc2-48a6-aa55-4fef0b33f5fa","system_id":"levelo_inurba_marseille","lat":43.29573,"lon":5.367355,"is_reserved":false,"is_disabled":false,"rental_uris":{"android":"levelo://app?vid=484e30ed-4cc2-48a6-aa55-4fef0b33f5fa","ios":"levelo://app?vid=484e30ed-4cc2-48a6-aa55-4fef0b33f5fa"},"vehicle_type_id":"4","last_reported":1699560453,"current_range_meters":400,"station_id":"ce4bgph2rcd13ifvqc2g","pricing_plan_id":"free"},{"bike_id":"7c5b2ce2-e80d-4552-ad49-1bc8cd5d92c3","system_id":"levelo_inurba_marseille","lat":43.31842,"lon":5.388763,"is_reserved":false,"is_disabled":false,"rental_uris":{"android":"levelo://app?vid=7c5b2ce2-e80d-4552-ad49-1bc8cd5d92c3","ios":"levelo://app?vid=7c5b2ce2-e80d-4552-ad49-1bc8cd5d92c3"},"vehicle_type_id":"4","last_reported":1699560453,"current_range_meters":12400,"station_id":"","pricing_plan_id":"free"},{"bike_id":"51e23f02-97c8-4444-ac54-44a20e95490f","system_id":"levelo_inurba_marseille","lat":43.296131,"lon":5.370791,"is_reserved":false,"is_disabled":false,"rental_uris":{"android":"levelo://app?vid=51e23f02-97c8-4444-ac54-44a20e95490f","ios":"levelo://app?vid=51e23f02-97c8-4444-ac54-44a20e95490f"},"vehicle_type_id":"4","last_reported":1699560453,"current_range_meters":21600,"station_id":"ce4bgnh2rcd13ifvqc0g","pricing_plan_id":"free"},{"bike_id":"b9798c4f-36b8-4177-9a98-9145e44e10cf","system_id":"levelo_inurba_marseille","lat":43.29573,"lon":5.367355,"is_reserved":false,"is_disabled":false,"rental_uris":{"android":"levelo://app?vid=b9798c4f-36b8-4177-9a98-9145e44e10cf","ios":"levelo://app?vid=b9798c4f-36b8-4177-9a98-9145e44e10cf"},"vehicle_type_id":"4","last_reported":1699560453,"current_range_meters":25200,"station_id":"ce4bgph2rcd13ifvqc2g","pricing_plan_id":"free"},{"bike_id":"b3aa5f5d-f274-4636-a212-10c48daaeddf","system_id":"levelo_inurba_marseille","lat":43.29573,"lon":5.367355,"is_reserved":false,"is_disabled":false,"rental_uris":{"android":"levelo://app?vid=b3aa5f5d-f274-4636-a212-10c48daaeddf","ios":"levelo://app?vid=b3aa5f5d-f274-4636-a212-10c48daaeddf"},"vehicle_type_id":"4","last_reported":1699560453,"current_range_meters":4400,"station_id":"ce4bgph2rcd13ifvqc2g","pricing_plan_id":"free"},{"bike_id":"560cec51-c263-4333-b1a4-6fa1fc2ca39a","system_id":"levelo_inurba_marseille","lat":43.29573,"lon":5.367355,"is_reserved":false,"is_disabled":false,"rental_uris":{"android":"levelo://app?vid=560cec51-c263-4333-b1a4-6fa1fc2ca39a","ios":"levelo://app?vid=560cec51-c263-4333-b1a4-6fa1fc2ca39a"},"vehicle_type_id":"4","last_reported":1699560453,"current_range_meters":23200,"station_id":"ce4bgph2rcd13ifvqc2g","pricing_plan_id":"free"},{"bike_id":"42187d26-eff1-4161-8206-c2b6cfdf09c0","system_id":"levelo_inurba_marseille","lat":43.29573,"lon":5.367355,"is_reserved":false,"is_disabled":false,"rental_uris":{"android":"levelo://app?vid=42187d26-eff1-4161-8206-c2b6cfdf09c0","ios":"levelo://app?vid=42187d26-eff1-4161-8206-c2b6cfdf09c0"},"vehicle_type_id":"4","last_reported":1699560453,"current_range_meters":25200,"station_id":"ce4bgph2rcd13ifvqc2g","pricing_plan_id":"free"},{"bike_id":"7dbdc45a-414e-45e9-81d3-400abb42af1c","system_id":"levelo_inurba_marseille","lat":43.299028,"lon":5.381509,"is_reserved":false,"is_disabled":false,"rental_uris":{"android":"levelo://app?vid=7dbdc45a-414e-45e9-81d3-400abb42af1c","ios":"levelo://app?vid=7dbdc45a-414e-45e9-81d3-400abb42af1c"},"vehicle_type_id":"4","last_reported":1699560453,"current_range_meters":6400,"station_id":"ce4bgj12rcd13ifvqbc0","pricing_plan_id":"free"},{"bike_id":"49525846-d7b6-4863-a777-f2b0550b0840","system_id":"levelo_inurba_marseille","lat":43.299028,"lon":5.381509,"is_reserved":false,"is_disabled":false,"rental_uris":{"android":"levelo://app?vid=49525846-d7b6-4863-a777-f2b0550b0840","ios":"levelo://app?vid=49525846-d7b6-4863-a777-f2b0550b0840"},"vehicle_type_id":"4","last_reported":1699560453,"current_range_meters":4000,"station_id":"ce4bgj12rcd13ifvqbc0","pricing_plan_id":"free"},{"bike_id":"0ca6eae8-5d64-46c6-8354-f987d4c334b0","system_id":"levelo_inurba_marseille","lat":43.317557,"lon":5.390173,"is_reserved":false,"is_disabled":false,"rental_uris":{"android":"levelo://app?vid=0ca6eae8-5d64-46c6-8354-f987d4c334b0","ios":"levelo://app?vid=0ca6eae8-5d64-46c6-8354-f987d4c334b0"},"vehicle_type_id":"4","last_reported":1699560453,"current_range_meters":1200,"station_id":"ce4bhqp2rcd13ifvqhng","pricing_plan_id":"free"},{"bike_id":"c4549532-cef7-4d8b-88a6-a74d9d519338","system_id":"levelo_inurba_marseille","lat":43.304278,"lon":5.388868,"is_reserved":false,"is_disabled":false,"rental_uris":{"android":"levelo://app?vid=c4549532-cef7-4d8b-88a6-a74d9d519338","ios":"levelo://app?vid=c4549532-cef7-4d8b-88a6-a74d9d519338"},"vehicle_type_id":"4","last_reported":1699560453,"current_range_meters":13600,"station_id":"ce4bgk12rcd13ifvqbi0","pricing_plan_id":"free"},{"bike_id":"668d718f-b27b-4e97-9d7b-698df36a5314","system_id":"levelo_inurba_marseille","lat":43.304274,"lon":5.388873,"is_reserved":false,"is_disabled":false,"rental_uris":{"android":"levelo://app?vid=668d718f-b27b-4e97-9d7b-698df36a5314","ios":"levelo://app?vid=668d718f-b27b-4e97-9d7b-698df36a5314"},"vehicle_type_id":"4","last_reported":1699560453,"current_range_meters":9600,"station_id":"ce4bgk12rcd13ifvqbi0","pricing_plan_id":"free"},{"bike_id":"703a93b4-7bf1-4cab-91fe-8c5cc2d67aab","system_id":"levelo_inurba_marseille","lat":43.295748,"lon":5.37522,"is_reserved":false,"is_disabled":false,"rental_uris":{"android":"levelo://app?vid=703a93b4-7bf1-4cab-91fe-8c5cc2d67aab","ios":"levelo://app?vid=703a93b4-7bf1-4cab-91fe-8c5cc2d67aab"},"vehicle_type_id":"4","last_reported":1699560453,"current_range_meters":10800,"station_id":"ce4bgh92rcd13ifvqb50","pricing_plan_id":"free"},{"bike_id":"673a8e84-8c3c-4d9e-9d58-7eba9ad798c3","system_id":"levelo_inurba_marseille","lat":43.296263,"lon":5.377094,"is_reserved":false,"is_disabled":false,"rental_uris":{"android":"levelo://app?vid=673a8e84-8c3c-4d9e-9d58-7eba9ad798c3","ios":"levelo://app?vid=673a8e84-8c3c-4d9e-9d58-7eba9ad798c3"},"vehicle_type_id":"4","last_reported":1699560453,"current_range_meters":10000,"station_id":"ce4bgi92rcd13ifvqb90","pricing_plan_id":"free"},{"bike_id":"e21cf580-8a83-4932-a7e3-5e29a5d6ecd8","system_id":"levelo_inurba_marseille","lat":43.29613,"lon":5.37718,"is_reserved":false,"is_disabled":false,"rental_uris":{"android":"levelo://app?vid=e21cf580-8a83-4932-a7e3-5e29a5d6ecd8","ios":"levelo://app?vid=e21cf580-8a83-4932-a7e3-5e29a5d6ecd8"},"vehicle_type_id":"4","last_reported":1699560453,"current_range_meters":0,"station_id":"ce4bgi92rcd13ifvqb90","pricing_plan_id":"free"},{"bike_id":"fecbdbba-f11f-4586-b2eb-90e0a8917392","system_id":"levelo_inurba_marseille","lat":43.295279,"lon":5.375048,"is_reserved":false,"is_disabled":false,"rental_uris":{"android":"levelo://app?vid=fecbdbba-f11f-4586-b2eb-90e0a8917392","ios":"levelo://app?vid=fecbdbba-f11f-4586-b2eb-90e0a8917392"},"vehicle_type_id":"4","last_reported":1699560453,"current_range_meters":12800,"station_id":"ce4bgkp2rcd13ifvqbmg","pricing_plan_id":"free"},{"bike_id":"a26a672c-8f86-40f5-9e8e-9856cf399a24","system_id":"levelo_inurba_marseille","lat":43.299707,"lon":5.384859,"is_reserved":false,"is_disabled":false,"rental_uris":{"android":"levelo://app?vid=a26a672c-8f86-40f5-9e8e-9856cf399a24","ios":"levelo://app?vid=a26a672c-8f86-40f5-9e8e-9856cf399a24"},"vehicle_type_id":"4","last_reported":1699560453,"current_range_meters":31200,"station_id":"ce4bgj92rcd13ifvqbd0","pricing_plan_id":"free"},{"bike_id":"dba2c1a2-e6a9-451b-9545-95869c02b46f","system_id":"levelo_inurba_marseille","lat":43.329065,"lon":5.379814,"is_reserved":false,"is_disabled":false,"rental_uris":{"android":"levelo://app?vid=dba2c1a2-e6a9-451b-9545-95869c02b46f","ios":"levelo://app?vid=dba2c1a2-e6a9-451b-9545-95869c02b46f"},"vehicle_type_id":"4","last_reported":1699560453,"current_range_meters":0,"station_id":"","pricing_plan_id":"free"},{"bike_id":"61fc040a-ad48-411a-aadb-f0a6672483c3","system_id":"levelo_inurba_marseille","lat":43.32367,"lon":5.388836,"is_reserved":false,"is_disabled":false,"rental_uris":{"android":"levelo://app?vid=61fc040a-ad48-411a-aadb-f0a6672483c3","ios":"levelo://app?vid=61fc040a-ad48-411a-aadb-f0a6672483c3"},"vehicle_type_id":"4","last_reported":1699560453,"current_range_meters":5200,"station_id":"ce4bhqp2rcd13ifvqhog","pricing_plan_id":"free"},{"bike_id":"f5008c8b-61ec-4ba4-8d57-7ff1a54f00f2","system_id":"levelo_inurba_marseille","lat":43.299243,"lon":5.386168,"is_reserved":false,"is_disabled":false,"rental_uris":{"android":"levelo://app?vid=f5008c8b-61ec-4ba4-8d57-7ff1a54f00f2","ios":"levelo://app?vid=f5008c8b-61ec-4ba4-8d57-7ff1a54f00f2"},"vehicle_type_id":"4","last_reported":1699560453,"current_range_meters":8800,"station_id":"","pricing_plan_id":"free"},{"bike_id":"5be27f1c-b5c9-464d-ac33-6afa4ea1d64b","system_id":"levelo_inurba_marseille","lat":43.314197,"lon":5.393777,"is_reserved":false,"is_disabled":false,"rental_uris":{"android":"levelo://app?vid=5be27f1c-b5c9-464d-ac33-6afa4ea1d64b","ios":"levelo://app?vid=5be27f1c-b5c9-464d-ac33-6afa4ea1d64b"},"vehicle_type_id":"4","last_reported":1699560453,"current_range_meters":17200,"station_id":"","pricing_plan_id":"free"},{"bike_id":"3ca1354f-4e61-437e-86e7-0c2e04924a8a","system_id":"levelo_inurba_marseille","lat":43.29602,"lon":5.381084,"is_reserved":false,"is_disabled":false,"rental_uris":{"android":"levelo://app?vid=3ca1354f-4e61-437e-86e7-0c2e04924a8a","ios":"levelo://app?vid=3ca1354f-4e61-437e-86e7-0c2e04924a8a"},"vehicle_type_id":"4","last_reported":1699560453,"current_range_meters":27200,"station_id":"ce4bgl12rcd13ifvqbo0","pricing_plan_id":"free"},{"bike_id":"6101ff1e-e28f-42e3-af9e-f88b26d55864","system_id":"levelo_inurba_marseille","lat":43.29277,"lon":5.36839,"is_reserved":false,"is_disabled":false,"rental_uris":{"android":"levelo://app?vid=6101ff1e-e28f-42e3-af9e-f88b26d55864","ios":"levelo://app?vid=6101ff1e-e28f-42e3-af9e-f88b26d55864"},"vehicle_type_id":"4","last_reported":1699560453,"current_range_meters":21200,"station_id":"ce4bhbp2rcd13ifvqesg","pricing_plan_id":"free"},{"bike_id":"da76f428-8323-45fa-b583-0d2fb22909bb","system_id":"levelo_inurba_marseille","lat":43.292749,"lon":5.368402,"is_reserved":false,"is_disabled":false,"rental_uris":{"android":"levelo://app?vid=da76f428-8323-45fa-b583-0d2fb22909bb","ios":"levelo://app?vid=da76f428-8323-45fa-b583-0d2fb22909bb"},"vehicle_type_id":"4","last_reported":1699560453,"current_range_meters":2400,"station_id":"ce4bhbp2rcd13ifvqesg","pricing_plan_id":"free"},{"bike_id":"aa60e79c-9339-41f2-870d-52768575bbfc","system_id":"levelo_inurba_marseille","lat":43.29275,"lon":5.3684,"is_reserved":false,"is_disabled":false,"rental_uris":{"android":"levelo://app?vid=aa60e79c-9339-41f2-870d-52768575bbfc","ios":"levelo://app?vid=aa60e79c-9339-41f2-870d-52768575bbfc"},"vehicle_type_id":"4","last_reported":1699560453,"current_range_meters":12000,"station_id":"ce4bhbp2rcd13ifvqesg","pricing_plan_id":"free"},{"bike_id":"19f5d95f-aabf-4390-ada5-796b598d2135","system_id":"levelo_inurba_marseille","lat":43.29272,"lon":5.36841,"is_reserved":false,"is_disabled":false,"rental_uris":{"android":"levelo://app?vid=19f5d95f-aabf-4390-ada5-796b598d2135","ios":"levelo://app?vid=19f5d95f-aabf-4390-ada5-796b598d2135"},"vehicle_type_id":"4","last_reported":1699560453,"current_range_meters":30000,"station_id":"ce4bhbp2rcd13ifvqesg","pricing_plan_id":"free"},{"bike_id":"dbccca11-1255-44a0-a462-4d140927d81a","system_id":"levelo_inurba_marseille","lat":43.292713,"lon":5.368481,"is_reserved":false,"is_disabled":false,"rental_uris":{"android":"levelo://app?vid=dbccca11-1255-44a0-a462-4d140927d81a","ios":"levelo://app?vid=dbccca11-1255-44a0-a462-4d140927d81a"},"vehicle_type_id":"4","last_reported":1699560453,"current_range_meters":800,"station_id":"","pricing_plan_id":"free"},{"bike_id":"2f19768d-6ea0-40a7-87de-976933a36692","system_id":"levelo_inurba_marseille","lat":43.295713,"lon":5.399639,"is_reserved":false,"is_disabled":false,"rental_uris":{"android":"levelo://app?vid=2f19768d-6ea0-40a7-87de-976933a36692","ios":"levelo://app?vid=2f19768d-6ea0-40a7-87de-976933a36692"},"vehicle_type_id":"4","last_reported":1699560453,"current_range_meters":23600,"station_id":"ce4bh312rcd13ifvqdj0","pricing_plan_id":"free"},{"bike_id":"0e5eb3f9-040c-4bfa-9b52-248d2afb108a","system_id":"levelo_inurba_marseille","lat":43.305994,"lon":5.393687,"is_reserved":false,"is_disabled":false,"rental_uris":{"android":"levelo://app?vid=0e5eb3f9-040c-4bfa-9b52-248d2afb108a","ios":"levelo://app?vid=0e5eb3f9-040c-4bfa-9b52-248d2afb108a"},"vehicle_type_id":"4","last_reported":1699560453,"current_range_meters":18800,"station_id":"ce4bh0p2rcd13ifvqd80","pricing_plan_id":"free"},{"bike_id":"3d663786-0be5-40f1-ad5f-532db113893c","system_id":"levelo_inurba_marseille","lat":43.2936,"lon":5.37835,"is_reserved":false,"is_disabled":false,"rental_uris":{"android":"levelo://app?vid=3d663786-0be5-40f1-ad5f-532db113893c","ios":"levelo://app?vid=3d663786-0be5-40f1-ad5f-532db113893c"},"vehicle_type_id":"4","last_reported":1699560453,"current_range_meters":6000,"station_id":"ce4bgjh2rcd13ifvqbf0","pricing_plan_id":"free"},{"bike_id":"4265892a-1a40-41e4-ac23-06e37669f4fc","system_id":"levelo_inurba_marseille","lat":43.302992,"lon":5.392136,"is_reserved":false,"is_disabled":false,"rental_uris":{"android":"levelo://app?vid=4265892a-1a40-41e4-ac23-06e37669f4fc","ios":"levelo://app?vid=4265892a-1a40-41e4-ac23-06e37669f4fc"},"vehicle_type_id":"4","last_reported":1699560453,"current_range_meters":1600,"station_id":"ce4bgkh2rcd13ifvqbk0","pricing_plan_id":"free"},{"bike_id":"7487850e-c3c6-4b63-bb94-70ea86d4ef85","system_id":"levelo_inurba_marseille","lat":43.2936,"lon":5.37835,"is_reserved":false,"is_disabled":false,"rental_uris":{"android":"levelo://app?vid=7487850e-c3c6-4b63-bb94-70ea86d4ef85","ios":"levelo://app?vid=7487850e-c3c6-4b63-bb94-70ea86d4ef85"},"vehicle_type_id":"4","last_reported":1699560453,"current_range_meters":20000,"station_id":"ce4bgjh2rcd13ifvqbf0","pricing_plan_id":"free"},{"bike_id":"f7572783-c52a-49bc-98cc-3dcd4baf37c8","system_id":"levelo_inurba_marseille","lat":43.2936,"lon":5.37835,"is_reserved":false,"is_disabled":false,"rental_uris":{"android":"levelo://app?vid=f7572783-c52a-49bc-98cc-3dcd4baf37c8","ios":"levelo://app?vid=f7572783-c52a-49bc-98cc-3dcd4baf37c8"},"vehicle_type_id":"4","last_reported":1699560453,"current_range_meters":14000,"station_id":"ce4bgjh2rcd13ifvqbf0","pricing_plan_id":"free"},{"bike_id":"2a4e2499-8efd-41e6-93b0-b77ea80a66c1","system_id":"levelo_inurba_marseille","lat":43.292216,"lon":5.36046,"is_reserved":false,"is_disabled":false,"rental_uris":{"android":"levelo://app?vid=2a4e2499-8efd-41e6-93b0-b77ea80a66c1","ios":"levelo://app?vid=2a4e2499-8efd-41e6-93b0-b77ea80a66c1"},"vehicle_type_id":"4","last_reported":1699560453,"current_range_meters":30000,"station_id":"ce4bhbh2rcd13ifvqeqg","pricing_plan_id":"free"},{"bike_id":"810e6469-af24-4b4d-8a17-f6ec2fbb37d1","system_id":"levelo_inurba_marseille","lat":43.3331,"lon":5.35949,"is_reserved":false,"is_disabled":false,"rental_uris":{"android":"levelo://app?vid=810e6469-af24-4b4d-8a17-f6ec2fbb37d1","ios":"levelo://app?vid=810e6469-af24-4b4d-8a17-f6ec2fbb37d1"},"vehicle_type_id":"4","last_reported":1699560453,"current_range_meters":0,"station_id":"","pricing_plan_id":"free"},{"bike_id":"52b9bdd2-8480-446d-a1d4-6ef7ca086477","system_id":"levelo_inurba_marseille","lat":43.292663,"lon":5.376389,"is_reserved":false,"is_disabled":false,"rental_uris":{"android":"levelo://app?vid=52b9bdd2-8480-446d-a1d4-6ef7ca086477","ios":"levelo://app?vid=52b9bdd2-8480-446d-a1d4-6ef7ca086477"},"vehicle_type_id":"4","last_reported":1699560453,"current_range_meters":12800,"station_id":"ce4bgi12rcd13ifvqb80","pricing_plan_id":"free"},{"bike_id":"26211cec-7e1e-4842-85dd-dc44595a3ed2","system_id":"levelo_inurba_marseille","lat":43.292663,"lon":5.376389,"is_reserved":false,"is_disabled":false,"rental_uris":{"android":"levelo://app?vid=26211cec-7e1e-4842-85dd-dc44595a3ed2","ios":"levelo://app?vid=26211cec-7e1e-4842-85dd-dc44595a3ed2"},"vehicle_type_id":"4","last_reported":1699560453,"current_range_meters":31200,"station_id":"ce4bgi12rcd13ifvqb80","pricing_plan_id":"free"},{"bike_id":"11f619c7-6c5e-4e86-916c-17ccba2b098d","system_id":"levelo_inurba_marseille","lat":43.292663,"lon":5.376389,"is_reserved":false,"is_disabled":false,"rental_uris":{"android":"levelo://app?vid=11f619c7-6c5e-4e86-916c-17ccba2b098d","ios":"levelo://app?vid=11f619c7-6c5e-4e86-916c-17ccba2b098d"},"vehicle_type_id":"4","last_reported":1699560453,"current_range_meters":25600,"station_id":"ce4bgi12rcd13ifvqb80","pricing_plan_id":"free"},{"bike_id":"f7316e4c-4c1a-4cac-966f-9fb4e19f27f5","system_id":"levelo_inurba_marseille","lat":43.291675,"lon":5.371583,"is_reserved":false,"is_disabled":false,"rental_uris":{"android":"levelo://app?vid=f7316e4c-4c1a-4cac-966f-9fb4e19f27f5","ios":"levelo://app?vid=f7316e4c-4c1a-4cac-966f-9fb4e19f27f5"},"vehicle_type_id":"4","last_reported":1699560453,"current_range_meters":11600,"station_id":"ce4bha92rcd13ifvqeh0","pricing_plan_id":"free"},{"bike_id":"6673023c-08ca-4d93-95fe-bfa9bcdf0d78","system_id":"levelo_inurba_marseille","lat":43.298764,"lon":5.388973,"is_reserved":false,"is_disabled":false,"rental_uris":{"android":"levelo://app?vid=6673023c-08ca-4d93-95fe-bfa9bcdf0d78","ios":"levelo://app?vid=6673023c-08ca-4d93-95fe-bfa9bcdf0d78"},"vehicle_type_id":"4","last_reported":1699560453,"current_range_meters":10800,"station_id":"ce4bh392rcd13ifvqdl0","pricing_plan_id":"free"},{"bike_id":"53d33eb6-2855-4ce9-85f0-ebbaf728cec4","system_id":"levelo_inurba_marseille","lat":43.33217,"lon":5.3788,"is_reserved":false,"is_disabled":false,"rental_uris":{"android":"levelo://app?vid=53d33eb6-2855-4ce9-85f0-ebbaf728cec4","ios":"levelo://app?vid=53d33eb6-2855-4ce9-85f0-ebbaf728cec4"},"vehicle_type_id":"4","last_reported":1699560453,"current_range_meters":0,"station_id":"","pricing_plan_id":"free"},{"bike_id":"f6d7d3d4-f2d0-4e40-8edb-52c723d8efbd","system_id":"levelo_inurba_marseille","lat":43.291671,"lon":5.371575,"is_reserved":false,"is_disabled":false,"rental_uris":{"android":"levelo://app?vid=f6d7d3d4-f2d0-4e40-8edb-52c723d8efbd","ios":"levelo://app?vid=f6d7d3d4-f2d0-4e40-8edb-52c723d8efbd"},"vehicle_type_id":"4","last_reported":1699560453,"current_range_meters":0,"station_id":"ce4bha92rcd13ifvqeh0","pricing_plan_id":"free"},{"bike_id":"78a327af-4b5e-41a5-b175-405a76d55d34","system_id":"levelo_inurba_marseille","lat":43.29872,"lon":5.38901,"is_reserved":false,"is_disabled":false,"rental_uris":{"android":"levelo://app?vid=78a327af-4b5e-41a5-b175-405a76d55d34","ios":"levelo://app?vid=78a327af-4b5e-41a5-b175-405a76d55d34"},"vehicle_type_id":"4","last_reported":1699560453,"current_range_meters":0,"station_id":"ce4bh392rcd13ifvqdl0","pricing_plan_id":"free"},{"bike_id":"815c5a82-ce60-4952-b795-f3502cdb9f2a","system_id":"levelo_inurba_marseille","lat":43.291994,"lon":5.357886,"is_reserved":false,"is_disabled":false,"rental_uris":{"android":"levelo://app?vid=815c5a82-ce60-4952-b795-f3502cdb9f2a","ios":"levelo://app?vid=815c5a82-ce60-4952-b795-f3502cdb9f2a"},"vehicle_type_id":"4","last_reported":1699560453,"current_range_meters":20400,"station_id":"ce4bhb12rcd13ifvqel0","pricing_plan_id":"free"},{"bike_id":"6b5e7785-54c4-411c-be26-c8472bc7b511","system_id":"levelo_inurba_marseille","lat":43.31324,"lon":5.39688,"is_reserved":false,"is_disabled":false,"rental_uris":{"android":"levelo://app?vid=6b5e7785-54c4-411c-be26-c8472bc7b511","ios":"levelo://app?vid=6b5e7785-54c4-411c-be26-c8472bc7b511"},"vehicle_type_id":"4","last_reported":1699560453,"current_range_meters":18000,"station_id":"ce4bgvp2rcd13ifvqcu0","pricing_plan_id":"free"},{"bike_id":"1038b876-edac-4203-983d-b9cacf11b3e1","system_id":"levelo_inurba_marseille","lat":43.31326,"lon":5.39688,"is_reserved":false,"is_disabled":false,"rental_uris":{"android":"levelo://app?vid=1038b876-edac-4203-983d-b9cacf11b3e1","ios":"levelo://app?vid=1038b876-edac-4203-983d-b9cacf11b3e1"},"vehicle_type_id":"4","last_reported":1699560453,"current_range_meters":26800,"station_id":"ce4bgvp2rcd13ifvqcu0","pricing_plan_id":"free"},{"bike_id":"600d8311-3e59-4589-8144-7ba37d671815","system_id":"levelo_inurba_marseille","lat":43.31327,"lon":5.39688,"is_reserved":false,"is_disabled":false,"rental_uris":{"android":"levelo://app?vid=600d8311-3e59-4589-8144-7ba37d671815","ios":"levelo://app?vid=600d8311-3e59-4589-8144-7ba37d671815"},"vehicle_type_id":"4","last_reported":1699560453,"current_range_meters":12400,"station_id":"ce4bgvp2rcd13ifvqcu0","pricing_plan_id":"free"},{"bike_id":"98afe370-ed7b-47b2-98fd-ba0b18585f00","system_id":"levelo_inurba_marseille","lat":43.313247,"lon":5.39693,"is_reserved":false,"is_disabled":false,"rental_uris":{"android":"levelo://app?vid=98afe370-ed7b-47b2-98fd-ba0b18585f00","ios":"levelo://app?vid=98afe370-ed7b-47b2-98fd-ba0b18585f00"},"vehicle_type_id":"4","last_reported":1699560453,"current_range_meters":4400,"station_id":"ce4bgvp2rcd13ifvqcu0","pricing_plan_id":"free"},{"bike_id":"dae12094-abcb-4b76-91bb-3d44d5e924b7","system_id":"levelo_inurba_marseille","lat":43.3133,"lon":5.396958,"is_reserved":false,"is_disabled":false,"rental_uris":{"android":"levelo://app?vid=dae12094-abcb-4b76-91bb-3d44d5e924b7","ios":"levelo://app?vid=dae12094-abcb-4b76-91bb-3d44d5e924b7"},"vehicle_type_id":"4","last_reported":1699560453,"current_range_meters":6800,"station_id":"ce4bgvp2rcd13ifvqcu0","pricing_plan_id":"free"},{"bike_id":"d5a8d086-e78f-45f3-b050-97814e312c90","system_id":"levelo_inurba_marseille","lat":43.31325,"lon":5.39696,"is_reserved":false,"is_disabled":false,"rental_uris":{"android":"levelo://app?vid=d5a8d086-e78f-45f3-b050-97814e312c90","ios":"levelo://app?vid=d5a8d086-e78f-45f3-b050-97814e312c90"},"vehicle_type_id":"4","last_reported":1699560453,"current_range_meters":25200,"station_id":"ce4bgvp2rcd13ifvqcu0","pricing_plan_id":"free"},{"bike_id":"69915967-cb2a-4026-97a0-2f354509b5d2","system_id":"levelo_inurba_marseille","lat":43.309038,"lon":5.396546,"is_reserved":false,"is_disabled":false,"rental_uris":{"android":"levelo://app?vid=69915967-cb2a-4026-97a0-2f354509b5d2","ios":"levelo://app?vid=69915967-cb2a-4026-97a0-2f354509b5d2"},"vehicle_type_id":"4","last_reported":1699560453,"current_range_meters":2000,"station_id":"ce4bh012rcd13ifvqcv0","pricing_plan_id":"free"},{"bike_id":"a7cc0a0b-1b31-4f8f-a2be-959b6160251c","system_id":"levelo_inurba_marseille","lat":43.309047,"lon":5.396551,"is_reserved":false,"is_disabled":false,"rental_uris":{"android":"levelo://app?vid=a7cc0a0b-1b31-4f8f-a2be-959b6160251c","ios":"levelo://app?vid=a7cc0a0b-1b31-4f8f-a2be-959b6160251c"},"vehicle_type_id":"4","last_reported":1699560453,"current_range_meters":23600,"station_id":"ce4bh012rcd13ifvqcv0","pricing_plan_id":"free"},{"bike_id":"f21b1881-ada2-44bd-8960-e3a235455eb5","system_id":"levelo_inurba_marseille","lat":43.290779,"lon":5.371482,"is_reserved":false,"is_disabled":false,"rental_uris":{"android":"levelo://app?vid=f21b1881-ada2-44bd-8960-e3a235455eb5","ios":"levelo://app?vid=f21b1881-ada2-44bd-8960-e3a235455eb5"},"vehicle_type_id":"4","last_reported":1699560453,"current_range_meters":23600,"station_id":"ce4bh5p2rcd13ifvqe4g","pricing_plan_id":"free"},{"bike_id":"7af534e2-0d72-411e-befc-ae93d0f52fb5","system_id":"levelo_inurba_marseille","lat":43.290624,"lon":5.359245,"is_reserved":false,"is_disabled":false,"rental_uris":{"android":"levelo://app?vid=7af534e2-0d72-411e-befc-ae93d0f52fb5","ios":"levelo://app?vid=7af534e2-0d72-411e-befc-ae93d0f52fb5"},"vehicle_type_id":"4","last_reported":1699560453,"current_range_meters":18400,"station_id":"ce4bha92rcd13ifvqeg0","pricing_plan_id":"free"},{"bike_id":"28721b64-63c3-4b59-9919-74890f7a3250","system_id":"levelo_inurba_marseille","lat":43.30215,"lon":5.39471,"is_reserved":false,"is_disabled":false,"rental_uris":{"android":"levelo://app?vid=28721b64-63c3-4b59-9919-74890f7a3250","ios":"levelo://app?vid=28721b64-63c3-4b59-9919-74890f7a3250"},"vehicle_type_id":"4","last_reported":1699560453,"current_range_meters":0,"station_id":"ce4bh0p2rcd13ifvqd70","pricing_plan_id":"free"},{"bike_id":"4a2d285a-b7b4-4bbc-a0fa-6a69432e05e9","system_id":"levelo_inurba_marseille","lat":43.294153,"lon":5.386305,"is_reserved":false,"is_disabled":false,"rental_uris":{"android":"levelo://app?vid=4a2d285a-b7b4-4bbc-a0fa-6a69432e05e9","ios":"levelo://app?vid=4a2d285a-b7b4-4bbc-a0fa-6a69432e05e9"},"vehicle_type_id":"4","last_reported":1699560453,"current_range_meters":13600,"station_id":"ce4bh2h2rcd13ifvqdh0","pricing_plan_id":"free"},{"bike_id":"daca23d6-d591-4392-b5cb-d3f25981a538","system_id":"levelo_inurba_marseille","lat":43.294162,"lon":5.386292,"is_reserved":false,"is_disabled":false,"rental_uris":{"android":"levelo://app?vid=daca23d6-d591-4392-b5cb-d3f25981a538","ios":"levelo://app?vid=daca23d6-d591-4392-b5cb-d3f25981a538"},"vehicle_type_id":"4","last_reported":1699560453,"current_range_meters":10000,"station_id":"ce4bh2h2rcd13ifvqdh0","pricing_plan_id":"free"},{"bike_id":"9957badd-53c8-43cb-bdc3-486b88ca538a","system_id":"levelo_inurba_marseille","lat":43.294162,"lon":5.386292,"is_reserved":false,"is_disabled":false,"rental_uris":{"android":"levelo://app?vid=9957badd-53c8-43cb-bdc3-486b88ca538a","ios":"levelo://app?vid=9957badd-53c8-43cb-bdc3-486b88ca538a"},"vehicle_type_id":"4","last_reported":1699560453,"current_range_meters":13200,"station_id":"ce4bh2h2rcd13ifvqdh0","pricing_plan_id":"free"},{"bike_id":"19ea2a1a-aa99-483c-92f0-78cca5973ba2","system_id":"levelo_inurba_marseille","lat":43.29418,"lon":5.38614,"is_reserved":false,"is_disabled":false,"rental_uris":{"android":"levelo://app?vid=19ea2a1a-aa99-483c-92f0-78cca5973ba2","ios":"levelo://app?vid=19ea2a1a-aa99-483c-92f0-78cca5973ba2"},"vehicle_type_id":"4","last_reported":1699560453,"current_range_meters":5600,"station_id":"ce4bh2h2rcd13ifvqdh0","pricing_plan_id":"free"},{"bike_id":"5db4197d-5875-4b28-94b3-c124cb9054b1","system_id":"levelo_inurba_marseille","lat":43.289184,"lon":5.366408,"is_reserved":false,"is_disabled":false,"rental_uris":{"android":"levelo://app?vid=5db4197d-5875-4b28-94b3-c124cb9054b1","ios":"levelo://app?vid=5db4197d-5875-4b28-94b3-c124cb9054b1"},"vehicle_type_id":"4","last_reported":1699560453,"current_range_meters":10800,"station_id":"ce4bhap2rcd13ifvqek0","pricing_plan_id":"free"},{"bike_id":"05118805-6957-4fca-8b62-c2ecdc7e4c6e","system_id":"levelo_inurba_marseille","lat":43.29418,"lon":5.38619,"is_reserved":false,"is_disabled":false,"rental_uris":{"android":"levelo://app?vid=05118805-6957-4fca-8b62-c2ecdc7e4c6e","ios":"levelo://app?vid=05118805-6957-4fca-8b62-c2ecdc7e4c6e"},"vehicle_type_id":"4","last_reported":1699560453,"current_range_meters":0,"station_id":"ce4bh2h2rcd13ifvqdh0","pricing_plan_id":"free"},{"bike_id":"610c2699-84a6-4b7d-8188-08cebba09a89","system_id":"levelo_inurba_marseille","lat":43.294162,"lon":5.386292,"is_reserved":false,"is_disabled":false,"rental_uris":{"android":"levelo://app?vid=610c2699-84a6-4b7d-8188-08cebba09a89","ios":"levelo://app?vid=610c2699-84a6-4b7d-8188-08cebba09a89"},"vehicle_type_id":"4","last_reported":1699560453,"current_range_meters":28400,"station_id":"ce4bh2h2rcd13ifvqdh0","pricing_plan_id":"free"},{"bike_id":"3eb6a8f0-66d6-49d7-9c7d-eaa8931f4c9d","system_id":"levelo_inurba_marseille","lat":43.294162,"lon":5.386292,"is_reserved":false,"is_disabled":false,"rental_uris":{"android":"levelo://app?vid=3eb6a8f0-66d6-49d7-9c7d-eaa8931f4c9d","ios":"levelo://app?vid=3eb6a8f0-66d6-49d7-9c7d-eaa8931f4c9d"},"vehicle_type_id":"4","last_reported":1699560453,"current_range_meters":24000,"station_id":"ce4bh2h2rcd13ifvqdh0","pricing_plan_id":"free"},{"bike_id":"28505def-0915-4b1f-842e-d7dee0842e95","system_id":"levelo_inurba_marseille","lat":43.289184,"lon":5.366408,"is_reserved":false,"is_disabled":false,"rental_uris":{"android":"levelo://app?vid=28505def-0915-4b1f-842e-d7dee0842e95","ios":"levelo://app?vid=28505def-0915-4b1f-842e-d7dee0842e95"},"vehicle_type_id":"4","last_reported":1699560453,"current_range_meters":18400,"station_id":"ce4bhap2rcd13ifvqek0","pricing_plan_id":"free"},{"bike_id":"b915a086-ba36-4772-a317-9a3c537faebd","system_id":"levelo_inurba_marseille","lat":43.294162,"lon":5.386292,"is_reserved":false,"is_disabled":false,"rental_uris":{"android":"levelo://app?vid=b915a086-ba36-4772-a317-9a3c537faebd","ios":"levelo://app?vid=b915a086-ba36-4772-a317-9a3c537faebd"},"vehicle_type_id":"4","last_reported":1699560453,"current_range_meters":11200,"station_id":"ce4bh2h2rcd13ifvqdh0","pricing_plan_id":"free"},{"bike_id":"19de861f-e424-4433-9257-62bfb6ceb2a3","system_id":"levelo_inurba_marseille","lat":43.294162,"lon":5.386292,"is_reserved":false,"is_disabled":false,"rental_uris":{"android":"levelo://app?vid=19de861f-e424-4433-9257-62bfb6ceb2a3","ios":"levelo://app?vid=19de861f-e424-4433-9257-62bfb6ceb2a3"},"vehicle_type_id":"4","last_reported":1699560453,"current_range_meters":30800,"station_id":"ce4bh2h2rcd13ifvqdh0","pricing_plan_id":"free"},{"bike_id":"a9540f6d-5675-4963-8337-6d5f908e4e0a","system_id":"levelo_inurba_marseille","lat":43.289468,"lon":5.363719,"is_reserved":false,"is_disabled":false,"rental_uris":{"android":"levelo://app?vid=a9540f6d-5675-4963-8337-6d5f908e4e0a","ios":"levelo://app?vid=a9540f6d-5675-4963-8337-6d5f908e4e0a"},"vehicle_type_id":"4","last_reported":1699560453,"current_range_meters":28400,"station_id":"ce4bhc92rcd13ifvqetg","pricing_plan_id":"free"},{"bike_id":"32663c79-83a3-49e4-91d6-38fd04db6597","system_id":"levelo_inurba_marseille","lat":43.289184,"lon":5.366408,"is_reserved":false,"is_disabled":false,"rental_uris":{"android":"levelo://app?vid=32663c79-83a3-49e4-91d6-38fd04db6597","ios":"levelo://app?vid=32663c79-83a3-49e4-91d6-38fd04db6597"},"vehicle_type_id":"4","last_reported":1699560453,"current_range_meters":400,"station_id":"ce4bhap2rcd13ifvqek0","pricing_plan_id":"free"},{"bike_id":"d38aaccb-39b2-494c-bd58-397cde556c70","system_id":"levelo_inurba_marseille","lat":43.289184,"lon":5.366408,"is_reserved":false,"is_disabled":false,"rental_uris":{"android":"levelo://app?vid=d38aaccb-39b2-494c-bd58-397cde556c70","ios":"levelo://app?vid=d38aaccb-39b2-494c-bd58-397cde556c70"},"vehicle_type_id":"4","last_reported":1699560453,"current_range_meters":6400,"station_id":"ce4bhap2rcd13ifvqek0","pricing_plan_id":"free"},{"bike_id":"97a0ee2f-c45b-41d3-940a-4911188f755f","system_id":"levelo_inurba_marseille","lat":43.289184,"lon":5.366408,"is_reserved":false,"is_disabled":false,"rental_uris":{"android":"levelo://app?vid=97a0ee2f-c45b-41d3-940a-4911188f755f","ios":"levelo://app?vid=97a0ee2f-c45b-41d3-940a-4911188f755f"},"vehicle_type_id":"4","last_reported":1699560453,"current_range_meters":21600,"station_id":"ce4bhap2rcd13ifvqek0","pricing_plan_id":"free"},{"bike_id":"6653ba03-efd2-42df-9e39-a1233479d961","system_id":"levelo_inurba_marseille","lat":43.289184,"lon":5.366408,"is_reserved":false,"is_disabled":false,"rental_uris":{"android":"levelo://app?vid=6653ba03-efd2-42df-9e39-a1233479d961","ios":"levelo://app?vid=6653ba03-efd2-42df-9e39-a1233479d961"},"vehicle_type_id":"4","last_reported":1699560453,"current_range_meters":16800,"station_id":"ce4bhap2rcd13ifvqek0","pricing_plan_id":"free"},{"bike_id":"941c85e4-ebe1-449f-a445-08144818ba91","system_id":"levelo_inurba_marseille","lat":43.292642,"lon":5.384254,"is_reserved":false,"is_disabled":false,"rental_uris":{"android":"levelo://app?vid=941c85e4-ebe1-449f-a445-08144818ba91","ios":"levelo://app?vid=941c85e4-ebe1-449f-a445-08144818ba91"},"vehicle_type_id":"4","last_reported":1699560453,"current_range_meters":18800,"station_id":"ce4bh692rcd13ifvqea0","pricing_plan_id":"free"},{"bike_id":"886233cf-bbc0-4464-9b82-f9a454af5110","system_id":"levelo_inurba_marseille","lat":43.292642,"lon":5.384254,"is_reserved":false,"is_disabled":false,"rental_uris":{"android":"levelo://app?vid=886233cf-bbc0-4464-9b82-f9a454af5110","ios":"levelo://app?vid=886233cf-bbc0-4464-9b82-f9a454af5110"},"vehicle_type_id":"4","last_reported":1699560453,"current_range_meters":400,"station_id":"ce4bh692rcd13ifvqea0","pricing_plan_id":"free"},{"bike_id":"bcc41154-f4df-4da2-8c53-e33469af4bdd","system_id":"levelo_inurba_marseille","lat":43.292642,"lon":5.384254,"is_reserved":false,"is_disabled":false,"rental_uris":{"android":"levelo://app?vid=bcc41154-f4df-4da2-8c53-e33469af4bdd","ios":"levelo://app?vid=bcc41154-f4df-4da2-8c53-e33469af4bdd"},"vehicle_type_id":"4","last_reported":1699560453,"current_range_meters":12000,"station_id":"ce4bh692rcd13ifvqea0","pricing_plan_id":"free"},{"bike_id":"de2d9346-2a08-464c-82c1-769ef3c93cc1","system_id":"levelo_inurba_marseille","lat":43.292644,"lon":5.384257,"is_reserved":false,"is_disabled":false,"rental_uris":{"android":"levelo://app?vid=de2d9346-2a08-464c-82c1-769ef3c93cc1","ios":"levelo://app?vid=de2d9346-2a08-464c-82c1-769ef3c93cc1"},"vehicle_type_id":"4","last_reported":1699560453,"current_range_meters":24800,"station_id":"ce4bh692rcd13ifvqea0","pricing_plan_id":"free"},{"bike_id":"5f521062-4528-4cbd-be9d-b12cc6d7b351","system_id":"levelo_inurba_marseille","lat":43.292642,"lon":5.384254,"is_reserved":false,"is_disabled":false,"rental_uris":{"android":"levelo://app?vid=5f521062-4528-4cbd-be9d-b12cc6d7b351","ios":"levelo://app?vid=5f521062-4528-4cbd-be9d-b12cc6d7b351"},"vehicle_type_id":"4","last_reported":1699560453,"current_range_meters":29600,"station_id":"ce4bh692rcd13ifvqea0","pricing_plan_id":"free"},{"bike_id":"e8dabef7-dcc2-467a-88cc-c2512c1f87d4","system_id":"levelo_inurba_marseille","lat":43.292644,"lon":5.384257,"is_reserved":false,"is_disabled":false,"rental_uris":{"android":"levelo://app?vid=e8dabef7-dcc2-467a-88cc-c2512c1f87d4","ios":"levelo://app?vid=e8dabef7-dcc2-467a-88cc-c2512c1f87d4"},"vehicle_type_id":"4","last_reported":1699560453,"current_range_meters":20000,"station_id":"ce4bh692rcd13ifvqea0","pricing_plan_id":"free"},{"bike_id":"ef53460d-46a6-4b6c-bc97-5c70c814f06e","system_id":"levelo_inurba_marseille","lat":43.292644,"lon":5.384257,"is_reserved":false,"is_disabled":false,"rental_uris":{"android":"levelo://app?vid=ef53460d-46a6-4b6c-bc97-5c70c814f06e","ios":"levelo://app?vid=ef53460d-46a6-4b6c-bc97-5c70c814f06e"},"vehicle_type_id":"4","last_reported":1699560453,"current_range_meters":16400,"station_id":"ce4bh692rcd13ifvqea0","pricing_plan_id":"free"},{"bike_id":"5fcde716-ddd4-4ee7-88b4-3ecc71897afa","system_id":"levelo_inurba_marseille","lat":43.29009,"lon":5.35617,"is_reserved":false,"is_disabled":false,"rental_uris":{"android":"levelo://app?vid=5fcde716-ddd4-4ee7-88b4-3ecc71897afa","ios":"levelo://app?vid=5fcde716-ddd4-4ee7-88b4-3ecc71897afa"},"vehicle_type_id":"4","last_reported":1699560453,"current_range_meters":30000,"station_id":"ce4bhb92rcd13ifvqen0","pricing_plan_id":"free"},{"bike_id":"d04738b8-0bbf-49f7-8cd8-fff3ec595439","system_id":"levelo_inurba_marseille","lat":43.290103,"lon":5.356114,"is_reserved":false,"is_disabled":false,"rental_uris":{"android":"levelo://app?vid=d04738b8-0bbf-49f7-8cd8-fff3ec595439","ios":"levelo://app?vid=d04738b8-0bbf-49f7-8cd8-fff3ec595439"},"vehicle_type_id":"4","last_reported":1699560453,"current_range_meters":24800,"station_id":"ce4bhb92rcd13ifvqen0","pricing_plan_id":"free"},{"bike_id":"5090a488-e011-4186-b5af-242d81334f76","system_id":"levelo_inurba_marseille","lat":43.33048,"lon":5.38913,"is_reserved":false,"is_disabled":false,"rental_uris":{"android":"levelo://app?vid=5090a488-e011-4186-b5af-242d81334f76","ios":"levelo://app?vid=5090a488-e011-4186-b5af-242d81334f76"},"vehicle_type_id":"4","last_reported":1699560453,"current_range_meters":6000,"station_id":"ce4bhr92rcd13ifvqhrg","pricing_plan_id":"free"},{"bike_id":"564f3ae8-b523-43e9-a76d-49c35333173e","system_id":"levelo_inurba_marseille","lat":43.290104,"lon":5.356111,"is_reserved":false,"is_disabled":false,"rental_uris":{"android":"levelo://app?vid=564f3ae8-b523-43e9-a76d-49c35333173e","ios":"levelo://app?vid=564f3ae8-b523-43e9-a76d-49c35333173e"},"vehicle_type_id":"4","last_reported":1699560453,"current_range_meters":8400,"station_id":"ce4bhb92rcd13ifvqen0","pricing_plan_id":"free"},{"bike_id":"71af83a8-cb36-41ad-ae76-9615e68184fa","system_id":"levelo_inurba_marseille","lat":43.290995,"lon":5.381361,"is_reserved":false,"is_disabled":false,"rental_uris":{"android":"levelo://app?vid=71af83a8-cb36-41ad-ae76-9615e68184fa","ios":"levelo://app?vid=71af83a8-cb36-41ad-ae76-9615e68184fa"},"vehicle_type_id":"4","last_reported":1699560453,"current_range_meters":22800,"station_id":"ce4bh512rcd13ifvqe2g","pricing_plan_id":"free"},{"bike_id":"9e1f5cb1-6453-497a-843b-6048ebc6e0fa","system_id":"levelo_inurba_marseille","lat":43.29796,"lon":5.39343,"is_reserved":false,"is_disabled":false,"rental_uris":{"android":"levelo://app?vid=9e1f5cb1-6453-497a-843b-6048ebc6e0fa","ios":"levelo://app?vid=9e1f5cb1-6453-497a-843b-6048ebc6e0fa"},"vehicle_type_id":"4","last_reported":1699560453,"current_range_meters":17600,"station_id":"chh1huq6cuj3fo74tm60","pricing_plan_id":"free"},{"bike_id":"d264f86a-5ec1-46bd-8cac-d5add23327bf","system_id":"levelo_inurba_marseille","lat":43.29792,"lon":5.393423,"is_reserved":false,"is_disabled":false,"rental_uris":{"android":"levelo://app?vid=d264f86a-5ec1-46bd-8cac-d5add23327bf","ios":"levelo://app?vid=d264f86a-5ec1-46bd-8cac-d5add23327bf"},"vehicle_type_id":"4","last_reported":1699560453,"current_range_meters":29600,"station_id":"chh1huq6cuj3fo74tm60","pricing_plan_id":"free"},{"bike_id":"8cfdde22-2810-4f92-ba0c-dd979241d2e4","system_id":"levelo_inurba_marseille","lat":43.297815,"lon":5.393548,"is_reserved":false,"is_disabled":false,"rental_uris":{"android":"levelo://app?vid=8cfdde22-2810-4f92-ba0c-dd979241d2e4","ios":"levelo://app?vid=8cfdde22-2810-4f92-ba0c-dd979241d2e4"},"vehicle_type_id":"4","last_reported":1699560453,"current_range_meters":9600,"station_id":"chh1huq6cuj3fo74tm60","pricing_plan_id":"free"},{"bike_id":"478e34a9-5997-4bc2-beef-adf08b14b36a","system_id":"levelo_inurba_marseille","lat":43.297815,"lon":5.393548,"is_reserved":false,"is_disabled":false,"rental_uris":{"android":"levelo://app?vid=478e34a9-5997-4bc2-beef-adf08b14b36a","ios":"levelo://app?vid=478e34a9-5997-4bc2-beef-adf08b14b36a"},"vehicle_type_id":"4","last_reported":1699560453,"current_range_meters":26000,"station_id":"chh1huq6cuj3fo74tm60","pricing_plan_id":"free"},{"bike_id":"a1ca3274-c56f-4da0-8861-5d0b956768bf","system_id":"levelo_inurba_marseille","lat":43.29786,"lon":5.3934,"is_reserved":false,"is_disabled":false,"rental_uris":{"android":"levelo://app?vid=a1ca3274-c56f-4da0-8861-5d0b956768bf","ios":"levelo://app?vid=a1ca3274-c56f-4da0-8861-5d0b956768bf"},"vehicle_type_id":"4","last_reported":1699560453,"current_range_meters":10400,"station_id":"chh1huq6cuj3fo74tm60","pricing_plan_id":"free"},{"bike_id":"7c876ed5-dbd2-4f41-b266-9af2bfed38e0","system_id":"levelo_inurba_marseille","lat":43.297815,"lon":5.393548,"is_reserved":false,"is_disabled":false,"rental_uris":{"android":"levelo://app?vid=7c876ed5-dbd2-4f41-b266-9af2bfed38e0","ios":"levelo://app?vid=7c876ed5-dbd2-4f41-b266-9af2bfed38e0"},"vehicle_type_id":"4","last_reported":1699560453,"current_range_meters":16000,"station_id":"chh1huq6cuj3fo74tm60","pricing_plan_id":"free"},{"bike_id":"286dff29-61e7-44b2-bf22-a33710337a89","system_id":"levelo_inurba_marseille","lat":43.29533,"lon":5.39035,"is_reserved":false,"is_disabled":false,"rental_uris":{"android":"levelo://app?vid=286dff29-61e7-44b2-bf22-a33710337a89","ios":"levelo://app?vid=286dff29-61e7-44b2-bf22-a33710337a89"},"vehicle_type_id":"4","last_reported":1699560453,"current_range_meters":11200,"station_id":"ce4bh3p2rcd13ifvqdp0","pricing_plan_id":"free"},{"bike_id":"2ceaaa0e-54bd-4352-be73-cdbd879bd85a","system_id":"levelo_inurba_marseille","lat":43.297835,"lon":5.39348,"is_reserved":false,"is_disabled":false,"rental_uris":{"android":"levelo://app?vid=2ceaaa0e-54bd-4352-be73-cdbd879bd85a","ios":"levelo://app?vid=2ceaaa0e-54bd-4352-be73-cdbd879bd85a"},"vehicle_type_id":"4","last_reported":1699560453,"current_range_meters":22800,"station_id":"chh1huq6cuj3fo74tm60","pricing_plan_id":"free"},{"bike_id":"6a7784ee-8497-4341-98d2-beb3e1f923ea","system_id":"levelo_inurba_marseille","lat":43.295169,"lon":5.390426,"is_reserved":false,"is_disabled":false,"rental_uris":{"android":"levelo://app?vid=6a7784ee-8497-4341-98d2-beb3e1f923ea","ios":"levelo://app?vid=6a7784ee-8497-4341-98d2-beb3e1f923ea"},"vehicle_type_id":"4","last_reported":1699560453,"current_range_meters":7600,"station_id":"ce4bh3p2rcd13ifvqdp0","pricing_plan_id":"free"},{"bike_id":"ca33ea6b-3028-4dc8-a98d-9fea3e2dca99","system_id":"levelo_inurba_marseille","lat":43.295169,"lon":5.390426,"is_reserved":false,"is_disabled":false,"rental_uris":{"android":"levelo://app?vid=ca33ea6b-3028-4dc8-a98d-9fea3e2dca99","ios":"levelo://app?vid=ca33ea6b-3028-4dc8-a98d-9fea3e2dca99"},"vehicle_type_id":"4","last_reported":1699560453,"current_range_meters":22800,"station_id":"ce4bh3p2rcd13ifvqdp0","pricing_plan_id":"free"},{"bike_id":"f3f01e56-ee8c-4c10-83c4-4641cd6e2224","system_id":"levelo_inurba_marseille","lat":43.295169,"lon":5.390426,"is_reserved":false,"is_disabled":false,"rental_uris":{"android":"levelo://app?vid=f3f01e56-ee8c-4c10-83c4-4641cd6e2224","ios":"levelo://app?vid=f3f01e56-ee8c-4c10-83c4-4641cd6e2224"},"vehicle_type_id":"4","last_reported":1699560453,"current_range_meters":0,"station_id":"ce4bh3p2rcd13ifvqdp0","pricing_plan_id":"free"},{"bike_id":"3b0b138f-fb8a-464f-be4c-51a2d19a493f","system_id":"levelo_inurba_marseille","lat":43.326548,"lon":5.395058,"is_reserved":false,"is_disabled":false,"rental_uris":{"android":"levelo://app?vid=3b0b138f-fb8a-464f-be4c-51a2d19a493f","ios":"levelo://app?vid=3b0b138f-fb8a-464f-be4c-51a2d19a493f"},"vehicle_type_id":"4","last_reported":1699560453,"current_range_meters":30400,"station_id":"","pricing_plan_id":"free"},{"bike_id":"1d9f3def-b767-4480-81bf-6499d133b450","system_id":"levelo_inurba_marseille","lat":43.28856,"lon":5.358371,"is_reserved":false,"is_disabled":false,"rental_uris":{"android":"levelo://app?vid=1d9f3def-b767-4480-81bf-6499d133b450","ios":"levelo://app?vid=1d9f3def-b767-4480-81bf-6499d133b450"},"vehicle_type_id":"4","last_reported":1699560453,"current_range_meters":18400,"station_id":"ce4bhb12rcd13ifvqem0","pricing_plan_id":"free"},{"bike_id":"8891763f-7baf-4497-a6b6-19ec427f9369","system_id":"levelo_inurba_marseille","lat":43.28856,"lon":5.358371,"is_reserved":false,"is_disabled":false,"rental_uris":{"android":"levelo://app?vid=8891763f-7baf-4497-a6b6-19ec427f9369","ios":"levelo://app?vid=8891763f-7baf-4497-a6b6-19ec427f9369"},"vehicle_type_id":"4","last_reported":1699560453,"current_range_meters":19600,"station_id":"ce4bhb12rcd13ifvqem0","pricing_plan_id":"free"},{"bike_id":"4f5d4356-be47-4197-a2e3-167846245f42","system_id":"levelo_inurba_marseille","lat":43.28856,"lon":5.358371,"is_reserved":false,"is_disabled":false,"rental_uris":{"android":"levelo://app?vid=4f5d4356-be47-4197-a2e3-167846245f42","ios":"levelo://app?vid=4f5d4356-be47-4197-a2e3-167846245f42"},"vehicle_type_id":"4","last_reported":1699560453,"current_range_meters":20800,"station_id":"ce4bhb12rcd13ifvqem0","pricing_plan_id":"free"},{"bike_id":"1a05a3c2-2f80-4175-a7f9-c2f2b7ca64cd","system_id":"levelo_inurba_marseille","lat":43.28856,"lon":5.358371,"is_reserved":false,"is_disabled":false,"rental_uris":{"android":"levelo://app?vid=1a05a3c2-2f80-4175-a7f9-c2f2b7ca64cd","ios":"levelo://app?vid=1a05a3c2-2f80-4175-a7f9-c2f2b7ca64cd"},"vehicle_type_id":"4","last_reported":1699560453,"current_range_meters":9600,"station_id":"ce4bhb12rcd13ifvqem0","pricing_plan_id":"free"},{"bike_id":"5b9dba80-0dcd-4596-b1ad-b25b0dacff84","system_id":"levelo_inurba_marseille","lat":43.28856,"lon":5.358371,"is_reserved":false,"is_disabled":false,"rental_uris":{"android":"levelo://app?vid=5b9dba80-0dcd-4596-b1ad-b25b0dacff84","ios":"levelo://app?vid=5b9dba80-0dcd-4596-b1ad-b25b0dacff84"},"vehicle_type_id":"4","last_reported":1699560453,"current_range_meters":25200,"station_id":"ce4bhb12rcd13ifvqem0","pricing_plan_id":"free"},{"bike_id":"c8f72ab4-a2ed-4c28-9eb8-10c0b7c549e8","system_id":"levelo_inurba_marseille","lat":43.28856,"lon":5.358371,"is_reserved":false,"is_disabled":false,"rental_uris":{"android":"levelo://app?vid=c8f72ab4-a2ed-4c28-9eb8-10c0b7c549e8","ios":"levelo://app?vid=c8f72ab4-a2ed-4c28-9eb8-10c0b7c549e8"},"vehicle_type_id":"4","last_reported":1699560453,"current_range_meters":12800,"station_id":"ce4bhb12rcd13ifvqem0","pricing_plan_id":"free"},{"bike_id":"bd09714f-edb2-4ebc-891c-b6d72498369c","system_id":"levelo_inurba_marseille","lat":43.31282,"lon":5.40173,"is_reserved":false,"is_disabled":false,"rental_uris":{"android":"levelo://app?vid=bd09714f-edb2-4ebc-891c-b6d72498369c","ios":"levelo://app?vid=bd09714f-edb2-4ebc-891c-b6d72498369c"},"vehicle_type_id":"4","last_reported":1699560453,"current_range_meters":0,"station_id":"ce4bh092rcd13ifvqd30","pricing_plan_id":"free"},{"bike_id":"fb8c267a-8fbc-4bb8-86fa-ead1c910eee3","system_id":"levelo_inurba_marseille","lat":43.337505,"lon":5.37443,"is_reserved":false,"is_disabled":false,"rental_uris":{"android":"levelo://app?vid=fb8c267a-8fbc-4bb8-86fa-ead1c910eee3","ios":"levelo://app?vid=fb8c267a-8fbc-4bb8-86fa-ead1c910eee3"},"vehicle_type_id":"4","last_reported":1699560453,"current_range_meters":31200,"station_id":"","pricing_plan_id":"free"},{"bike_id":"fc273dca-579c-4d48-9fcf-bdd1de3059a0","system_id":"levelo_inurba_marseille","lat":43.306412,"lon":5.401035,"is_reserved":false,"is_disabled":false,"rental_uris":{"android":"levelo://app?vid=fc273dca-579c-4d48-9fcf-bdd1de3059a0","ios":"levelo://app?vid=fc273dca-579c-4d48-9fcf-bdd1de3059a0"},"vehicle_type_id":"4","last_reported":1699560453,"current_range_meters":14000,"station_id":"ce4bh112rcd13ifvqda0","pricing_plan_id":"free"},{"bike_id":"61c9606b-5e0c-419f-a3b5-4fe4d535e889","system_id":"levelo_inurba_marseille","lat":43.33037,"lon":5.392367,"is_reserved":false,"is_disabled":false,"rental_uris":{"android":"levelo://app?vid=61c9606b-5e0c-419f-a3b5-4fe4d535e889","ios":"levelo://app?vid=61c9606b-5e0c-419f-a3b5-4fe4d535e889"},"vehicle_type_id":"4","last_reported":1699560453,"current_range_meters":16800,"station_id":"","pricing_plan_id":"free"},{"bike_id":"0e0d1ca6-4868-4030-8fe1-aa23fe8fcf8a","system_id":"levelo_inurba_marseille","lat":43.301315,"lon":5.398645,"is_reserved":false,"is_disabled":false,"rental_uris":{"android":"levelo://app?vid=0e0d1ca6-4868-4030-8fe1-aa23fe8fcf8a","ios":"levelo://app?vid=0e0d1ca6-4868-4030-8fe1-aa23fe8fcf8a"},"vehicle_type_id":"4","last_reported":1699560453,"current_range_meters":19600,"station_id":"ce4bh0h2rcd13ifvqd40","pricing_plan_id":"free"},{"bike_id":"3f62065f-401c-473d-bc1c-173e1ffae26d","system_id":"levelo_inurba_marseille","lat":43.28727,"lon":5.36078,"is_reserved":false,"is_disabled":false,"rental_uris":{"android":"levelo://app?vid=3f62065f-401c-473d-bc1c-173e1ffae26d","ios":"levelo://app?vid=3f62065f-401c-473d-bc1c-173e1ffae26d"},"vehicle_type_id":"4","last_reported":1699560453,"current_range_meters":29600,"station_id":"cki0cbj6b192h4jlfktg","pricing_plan_id":"free"},{"bike_id":"a3258b75-e09d-4420-b623-902fe16833be","system_id":"levelo_inurba_marseille","lat":43.28727,"lon":5.36078,"is_reserved":false,"is_disabled":false,"rental_uris":{"android":"levelo://app?vid=a3258b75-e09d-4420-b623-902fe16833be","ios":"levelo://app?vid=a3258b75-e09d-4420-b623-902fe16833be"},"vehicle_type_id":"4","last_reported":1699560453,"current_range_meters":8800,"station_id":"cki0cbj6b192h4jlfktg","pricing_plan_id":"free"},{"bike_id":"1afeea72-d45f-450e-9a74-8afe60f9d14a","system_id":"levelo_inurba_marseille","lat":43.28727,"lon":5.36078,"is_reserved":false,"is_disabled":false,"rental_uris":{"android":"levelo://app?vid=1afeea72-d45f-450e-9a74-8afe60f9d14a","ios":"levelo://app?vid=1afeea72-d45f-450e-9a74-8afe60f9d14a"},"vehicle_type_id":"4","last_reported":1699560453,"current_range_meters":16400,"station_id":"cki0cbj6b192h4jlfktg","pricing_plan_id":"free"},{"bike_id":"9c7d0c50-cf14-46bf-ad21-3b8132dedd8f","system_id":"levelo_inurba_marseille","lat":43.298681,"lon":5.397225,"is_reserved":false,"is_disabled":false,"rental_uris":{"android":"levelo://app?vid=9c7d0c50-cf14-46bf-ad21-3b8132dedd8f","ios":"levelo://app?vid=9c7d0c50-cf14-46bf-ad21-3b8132dedd8f"},"vehicle_type_id":"4","last_reported":1699560453,"current_range_meters":21200,"station_id":"ce4bh0h2rcd13ifvqd50","pricing_plan_id":"free"},{"bike_id":"c2eea334-a744-4007-8c9e-7945c53e6b1e","system_id":"levelo_inurba_marseille","lat":43.286961,"lon":5.373785,"is_reserved":false,"is_disabled":false,"rental_uris":{"android":"levelo://app?vid=c2eea334-a744-4007-8c9e-7945c53e6b1e","ios":"levelo://app?vid=c2eea334-a744-4007-8c9e-7945c53e6b1e"},"vehicle_type_id":"4","last_reported":1699560453,"current_range_meters":2000,"station_id":"ce4bh3p2rcd13ifvqdq0","pricing_plan_id":"free"},{"bike_id":"93bb130e-05f6-4f32-a71f-fbe08b37ca3b","system_id":"levelo_inurba_marseille","lat":43.286591,"lon":5.363346,"is_reserved":false,"is_disabled":false,"rental_uris":{"android":"levelo://app?vid=93bb130e-05f6-4f32-a71f-fbe08b37ca3b","ios":"levelo://app?vid=93bb130e-05f6-4f32-a71f-fbe08b37ca3b"},"vehicle_type_id":"4","last_reported":1699560453,"current_range_meters":28400,"station_id":"ce4bhah2rcd13ifvqej0","pricing_plan_id":"free"},{"bike_id":"757afeeb-7a71-4e23-a65f-c51e1f096a84","system_id":"levelo_inurba_marseille","lat":43.298681,"lon":5.397225,"is_reserved":false,"is_disabled":false,"rental_uris":{"android":"levelo://app?vid=757afeeb-7a71-4e23-a65f-c51e1f096a84","ios":"levelo://app?vid=757afeeb-7a71-4e23-a65f-c51e1f096a84"},"vehicle_type_id":"4","last_reported":1699560453,"current_range_meters":24000,"station_id":"ce4bh0h2rcd13ifvqd50","pricing_plan_id":"free"},{"bike_id":"bd60983d-26d9-4f02-bc92-711d21a2625e","system_id":"levelo_inurba_marseille","lat":43.286961,"lon":5.373785,"is_reserved":false,"is_disabled":false,"rental_uris":{"android":"levelo://app?vid=bd60983d-26d9-4f02-bc92-711d21a2625e","ios":"levelo://app?vid=bd60983d-26d9-4f02-bc92-711d21a2625e"},"vehicle_type_id":"4","last_reported":1699560453,"current_range_meters":30800,"station_id":"ce4bh3p2rcd13ifvqdq0","pricing_plan_id":"free"},{"bike_id":"a5114d3a-72cf-4732-84a3-3cac59bf360a","system_id":"levelo_inurba_marseille","lat":43.28706,"lon":5.37398,"is_reserved":false,"is_disabled":false,"rental_uris":{"android":"levelo://app?vid=a5114d3a-72cf-4732-84a3-3cac59bf360a","ios":"levelo://app?vid=a5114d3a-72cf-4732-84a3-3cac59bf360a"},"vehicle_type_id":"4","last_reported":1699560453,"current_range_meters":6400,"station_id":"ce4bh3p2rcd13ifvqdq0","pricing_plan_id":"free"},{"bike_id":"c646cf8b-396e-4638-9ca0-374425eae3a7","system_id":"levelo_inurba_marseille","lat":43.286961,"lon":5.373785,"is_reserved":false,"is_disabled":false,"rental_uris":{"android":"levelo://app?vid=c646cf8b-396e-4638-9ca0-374425eae3a7","ios":"levelo://app?vid=c646cf8b-396e-4638-9ca0-374425eae3a7"},"vehicle_type_id":"4","last_reported":1699560453,"current_range_meters":11600,"station_id":"ce4bh3p2rcd13ifvqdq0","pricing_plan_id":"free"},{"bike_id":"93269703-9607-43d3-a9c8-9c040bf66747","system_id":"levelo_inurba_marseille","lat":43.286961,"lon":5.373785,"is_reserved":false,"is_disabled":false,"rental_uris":{"android":"levelo://app?vid=93269703-9607-43d3-a9c8-9c040bf66747","ios":"levelo://app?vid=93269703-9607-43d3-a9c8-9c040bf66747"},"vehicle_type_id":"4","last_reported":1699560453,"current_range_meters":8000,"station_id":"ce4bh3p2rcd13ifvqdq0","pricing_plan_id":"free"},{"bike_id":"8295f13a-02ae-4ae9-a47e-57aa9912519a","system_id":"levelo_inurba_marseille","lat":43.295194,"lon":5.39397,"is_reserved":false,"is_disabled":false,"rental_uris":{"android":"levelo://app?vid=8295f13a-02ae-4ae9-a47e-57aa9912519a","ios":"levelo://app?vid=8295f13a-02ae-4ae9-a47e-57aa9912519a"},"vehicle_type_id":"4","last_reported":1699560453,"current_range_meters":24400,"station_id":"ce4bh292rcd13ifvqdf0","pricing_plan_id":"free"},{"bike_id":"3b59f904-c4e2-4766-a47a-d514503291f8","system_id":"levelo_inurba_marseille","lat":43.295194,"lon":5.39397,"is_reserved":false,"is_disabled":false,"rental_uris":{"android":"levelo://app?vid=3b59f904-c4e2-4766-a47a-d514503291f8","ios":"levelo://app?vid=3b59f904-c4e2-4766-a47a-d514503291f8"},"vehicle_type_id":"4","last_reported":1699560453,"current_range_meters":10000,"station_id":"ce4bh292rcd13ifvqdf0","pricing_plan_id":"free"},{"bike_id":"72f7df2a-2200-43b3-a45b-fbac3dea4a3e","system_id":"levelo_inurba_marseille","lat":43.295194,"lon":5.39397,"is_reserved":false,"is_disabled":false,"rental_uris":{"android":"levelo://app?vid=72f7df2a-2200-43b3-a45b-fbac3dea4a3e","ios":"levelo://app?vid=72f7df2a-2200-43b3-a45b-fbac3dea4a3e"},"vehicle_type_id":"4","last_reported":1699560453,"current_range_meters":4000,"station_id":"ce4bh292rcd13ifvqdf0","pricing_plan_id":"free"},{"bike_id":"6efde94d-0414-4607-ba12-c9805ca6860a","system_id":"levelo_inurba_marseille","lat":43.29032,"lon":5.38643,"is_reserved":false,"is_disabled":false,"rental_uris":{"android":"levelo://app?vid=6efde94d-0414-4607-ba12-c9805ca6860a","ios":"levelo://app?vid=6efde94d-0414-4607-ba12-c9805ca6860a"},"vehicle_type_id":"4","last_reported":1699560453,"current_range_meters":14800,"station_id":"ce4bh4p2rcd13ifvqe0g","pricing_plan_id":"free"},{"bike_id":"152a6319-5e56-498a-8ef8-2df37cdd5998","system_id":"levelo_inurba_marseille","lat":43.302759,"lon":5.400793,"is_reserved":false,"is_disabled":false,"rental_uris":{"android":"levelo://app?vid=152a6319-5e56-498a-8ef8-2df37cdd5998","ios":"levelo://app?vid=152a6319-5e56-498a-8ef8-2df37cdd5998"},"vehicle_type_id":"4","last_reported":1699560453,"current_range_meters":18800,"station_id":"ce4bgvh2rcd13ifvqcs0","pricing_plan_id":"free"},{"bike_id":"21bf5949-9758-4901-81f9-2dafa9dc78a9","system_id":"levelo_inurba_marseille","lat":43.28999,"lon":5.387933,"is_reserved":false,"is_disabled":false,"rental_uris":{"android":"levelo://app?vid=21bf5949-9758-4901-81f9-2dafa9dc78a9","ios":"levelo://app?vid=21bf5949-9758-4901-81f9-2dafa9dc78a9"},"vehicle_type_id":"4","last_reported":1699560453,"current_range_meters":6800,"station_id":"","pricing_plan_id":"free"},{"bike_id":"b0296fd1-b321-41b7-a6e3-9034fb8f459f","system_id":"levelo_inurba_marseille","lat":43.316517,"lon":5.404375,"is_reserved":false,"is_disabled":false,"rental_uris":{"android":"levelo://app?vid=b0296fd1-b321-41b7-a6e3-9034fb8f459f","ios":"levelo://app?vid=b0296fd1-b321-41b7-a6e3-9034fb8f459f"},"vehicle_type_id":"4","last_reported":1699560453,"current_range_meters":31200,"station_id":"ce4bh012rcd13ifvqd00","pricing_plan_id":"free"},{"bike_id":"06d9ca47-f432-40b8-a8fa-78fabcee464d","system_id":"levelo_inurba_marseille","lat":43.316517,"lon":5.404375,"is_reserved":false,"is_disabled":false,"rental_uris":{"android":"levelo://app?vid=06d9ca47-f432-40b8-a8fa-78fabcee464d","ios":"levelo://app?vid=06d9ca47-f432-40b8-a8fa-78fabcee464d"},"vehicle_type_id":"4","last_reported":1699560453,"current_range_meters":12400,"station_id":"ce4bh012rcd13ifvqd00","pricing_plan_id":"free"},{"bike_id":"246a2b33-aba0-4459-972e-773ca8b92a32","system_id":"levelo_inurba_marseille","lat":43.316517,"lon":5.404375,"is_reserved":false,"is_disabled":false,"rental_uris":{"android":"levelo://app?vid=246a2b33-aba0-4459-972e-773ca8b92a32","ios":"levelo://app?vid=246a2b33-aba0-4459-972e-773ca8b92a32"},"vehicle_type_id":"4","last_reported":1699560453,"current_range_meters":31200,"station_id":"ce4bh012rcd13ifvqd00","pricing_plan_id":"free"},{"bike_id":"e57449c2-d088-47cf-8bf2-271593713c89","system_id":"levelo_inurba_marseille","lat":43.328576,"lon":5.398841,"is_reserved":false,"is_disabled":false,"rental_uris":{"android":"levelo://app?vid=e57449c2-d088-47cf-8bf2-271593713c89","ios":"levelo://app?vid=e57449c2-d088-47cf-8bf2-271593713c89"},"vehicle_type_id":"4","last_reported":1699560453,"current_range_meters":14800,"station_id":"","pricing_plan_id":"free"},{"bike_id":"cc0f114f-940b-4c88-9eb9-6a312a524610","system_id":"levelo_inurba_marseille","lat":43.291994,"lon":5.392907,"is_reserved":false,"is_disabled":false,"rental_uris":{"android":"levelo://app?vid=cc0f114f-940b-4c88-9eb9-6a312a524610","ios":"levelo://app?vid=cc0f114f-940b-4c88-9eb9-6a312a524610"},"vehicle_type_id":"4","last_reported":1699560453,"current_range_meters":14400,"station_id":"ce4bh192rcd13ifvqdd0","pricing_plan_id":"free"},{"bike_id":"d35dc582-3cc7-424f-9095-68ce5beba1f1","system_id":"levelo_inurba_marseille","lat":43.291994,"lon":5.392907,"is_reserved":false,"is_disabled":false,"rental_uris":{"android":"levelo://app?vid=d35dc582-3cc7-424f-9095-68ce5beba1f1","ios":"levelo://app?vid=d35dc582-3cc7-424f-9095-68ce5beba1f1"},"vehicle_type_id":"4","last_reported":1699560453,"current_range_meters":9200,"station_id":"ce4bh192rcd13ifvqdd0","pricing_plan_id":"free"},{"bike_id":"9bb217ca-3551-4a57-84ab-20784a907507","system_id":"levelo_inurba_marseille","lat":43.28465,"lon":5.35897,"is_reserved":false,"is_disabled":false,"rental_uris":{"android":"levelo://app?vid=9bb217ca-3551-4a57-84ab-20784a907507","ios":"levelo://app?vid=9bb217ca-3551-4a57-84ab-20784a907507"},"vehicle_type_id":"4","last_reported":1699560453,"current_range_meters":31200,"station_id":"ce4bhah2rcd13ifvqei0","pricing_plan_id":"free"},{"bike_id":"c6335d6d-a7ad-4c2d-b60d-d28edb981e22","system_id":"levelo_inurba_marseille","lat":43.2846,"lon":5.35896,"is_reserved":false,"is_disabled":false,"rental_uris":{"android":"levelo://app?vid=c6335d6d-a7ad-4c2d-b60d-d28edb981e22","ios":"levelo://app?vid=c6335d6d-a7ad-4c2d-b60d-d28edb981e22"},"vehicle_type_id":"4","last_reported":1699560453,"current_range_meters":24400,"station_id":"ce4bhah2rcd13ifvqei0","pricing_plan_id":"free"},{"bike_id":"541ce9a2-5d06-4b63-8afd-8383b361cf22","system_id":"levelo_inurba_marseille","lat":43.284618,"lon":5.358829,"is_reserved":false,"is_disabled":false,"rental_uris":{"android":"levelo://app?vid=541ce9a2-5d06-4b63-8afd-8383b361cf22","ios":"levelo://app?vid=541ce9a2-5d06-4b63-8afd-8383b361cf22"},"vehicle_type_id":"4","last_reported":1699560453,"current_range_meters":31200,"station_id":"ce4bhah2rcd13ifvqei0","pricing_plan_id":"free"},{"bike_id":"f082430a-f2a0-46af-a8b8-e164bcb5dd18","system_id":"levelo_inurba_marseille","lat":43.284534,"lon":5.358662,"is_reserved":false,"is_disabled":false,"rental_uris":{"android":"levelo://app?vid=f082430a-f2a0-46af-a8b8-e164bcb5dd18","ios":"levelo://app?vid=f082430a-f2a0-46af-a8b8-e164bcb5dd18"},"vehicle_type_id":"4","last_reported":1699560453,"current_range_meters":16400,"station_id":"ce4bhah2rcd13ifvqei0","pricing_plan_id":"free"},{"bike_id":"19da7a58-9fc7-44ee-9a92-c803d6f45185","system_id":"levelo_inurba_marseille","lat":43.28458,"lon":5.35892,"is_reserved":false,"is_disabled":false,"rental_uris":{"android":"levelo://app?vid=19da7a58-9fc7-44ee-9a92-c803d6f45185","ios":"levelo://app?vid=19da7a58-9fc7-44ee-9a92-c803d6f45185"},"vehicle_type_id":"4","last_reported":1699560453,"current_range_meters":0,"station_id":"ce4bhah2rcd13ifvqei0","pricing_plan_id":"free"},{"bike_id":"94af14a7-e47d-4982-bbf0-3c1d6f6d5cbd","system_id":"levelo_inurba_marseille","lat":43.28458,"lon":5.35892,"is_reserved":false,"is_disabled":false,"rental_uris":{"android":"levelo://app?vid=94af14a7-e47d-4982-bbf0-3c1d6f6d5cbd","ios":"levelo://app?vid=94af14a7-e47d-4982-bbf0-3c1d6f6d5cbd"},"vehicle_type_id":"4","last_reported":1699560453,"current_range_meters":31200,"station_id":"ce4bhah2rcd13ifvqei0","pricing_plan_id":"free"},{"bike_id":"f1a5d00b-bd6f-4dc5-981a-d34af25438b9","system_id":"levelo_inurba_marseille","lat":43.284534,"lon":5.358662,"is_reserved":false,"is_disabled":false,"rental_uris":{"android":"levelo://app?vid=f1a5d00b-bd6f-4dc5-981a-d34af25438b9","ios":"levelo://app?vid=f1a5d00b-bd6f-4dc5-981a-d34af25438b9"},"vehicle_type_id":"4","last_reported":1699560453,"current_range_meters":23600,"station_id":"ce4bhah2rcd13ifvqei0","pricing_plan_id":"free"},{"bike_id":"897f18cd-b6cd-4003-bbf3-8e7e9b0615ce","system_id":"levelo_inurba_marseille","lat":43.28457,"lon":5.3588,"is_reserved":false,"is_disabled":false,"rental_uris":{"android":"levelo://app?vid=897f18cd-b6cd-4003-bbf3-8e7e9b0615ce","ios":"levelo://app?vid=897f18cd-b6cd-4003-bbf3-8e7e9b0615ce"},"vehicle_type_id":"4","last_reported":1699560453,"current_range_meters":18000,"station_id":"ce4bhah2rcd13ifvqei0","pricing_plan_id":"free"},{"bike_id":"bbab6207-7180-4281-8267-2a0871ff73b7","system_id":"levelo_inurba_marseille","lat":43.28455,"lon":5.35881,"is_reserved":false,"is_disabled":false,"rental_uris":{"android":"levelo://app?vid=bbab6207-7180-4281-8267-2a0871ff73b7","ios":"levelo://app?vid=bbab6207-7180-4281-8267-2a0871ff73b7"},"vehicle_type_id":"4","last_reported":1699560453,"current_range_meters":11200,"station_id":"ce4bhah2rcd13ifvqei0","pricing_plan_id":"free"},{"bike_id":"1ca452a7-c44f-4699-a1d9-4abe7d053869","system_id":"levelo_inurba_marseille","lat":43.284534,"lon":5.358662,"is_reserved":false,"is_disabled":false,"rental_uris":{"android":"levelo://app?vid=1ca452a7-c44f-4699-a1d9-4abe7d053869","ios":"levelo://app?vid=1ca452a7-c44f-4699-a1d9-4abe7d053869"},"vehicle_type_id":"4","last_reported":1699560453,"current_range_meters":29200,"station_id":"ce4bhah2rcd13ifvqei0","pricing_plan_id":"free"},{"bike_id":"5183c6e4-fa58-40ac-8863-b6b72ff08fb7","system_id":"levelo_inurba_marseille","lat":43.28455,"lon":5.35877,"is_reserved":false,"is_disabled":false,"rental_uris":{"android":"levelo://app?vid=5183c6e4-fa58-40ac-8863-b6b72ff08fb7","ios":"levelo://app?vid=5183c6e4-fa58-40ac-8863-b6b72ff08fb7"},"vehicle_type_id":"4","last_reported":1699560453,"current_range_meters":31200,"station_id":"ce4bhah2rcd13ifvqei0","pricing_plan_id":"free"},{"bike_id":"a239656f-1c8f-41ba-991e-82d309849438","system_id":"levelo_inurba_marseille","lat":43.283998,"lon":5.375062,"is_reserved":false,"is_disabled":false,"rental_uris":{"android":"levelo://app?vid=a239656f-1c8f-41ba-991e-82d309849438","ios":"levelo://app?vid=a239656f-1c8f-41ba-991e-82d309849438"},"vehicle_type_id":"4","last_reported":1699560453,"current_range_meters":6000,"station_id":"ce4bh412rcd13ifvqds0","pricing_plan_id":"free"},{"bike_id":"f398c349-4971-408c-aa67-cfaa83150e09","system_id":"levelo_inurba_marseille","lat":43.285856,"lon":5.350771,"is_reserved":false,"is_disabled":false,"rental_uris":{"android":"levelo://app?vid=f398c349-4971-408c-aa67-cfaa83150e09","ios":"levelo://app?vid=f398c349-4971-408c-aa67-cfaa83150e09"},"vehicle_type_id":"4","last_reported":1699560453,"current_range_meters":10400,"station_id":"ce4bhch2rcd13ifvqeug","pricing_plan_id":"free"},{"bike_id":"72b13af0-7009-4401-81fe-f49826c73d7a","system_id":"levelo_inurba_marseille","lat":43.28434,"lon":5.37514,"is_reserved":false,"is_disabled":false,"rental_uris":{"android":"levelo://app?vid=72b13af0-7009-4401-81fe-f49826c73d7a","ios":"levelo://app?vid=72b13af0-7009-4401-81fe-f49826c73d7a"},"vehicle_type_id":"4","last_reported":1699560453,"current_range_meters":10000,"station_id":"ce4bh412rcd13ifvqds0","pricing_plan_id":"free"},{"bike_id":"14ef8c17-3d6f-4778-b7f1-d87c1d370169","system_id":"levelo_inurba_marseille","lat":43.28418,"lon":5.37523,"is_reserved":false,"is_disabled":false,"rental_uris":{"android":"levelo://app?vid=14ef8c17-3d6f-4778-b7f1-d87c1d370169","ios":"levelo://app?vid=14ef8c17-3d6f-4778-b7f1-d87c1d370169"},"vehicle_type_id":"4","last_reported":1699560453,"current_range_meters":5600,"station_id":"ce4bh412rcd13ifvqds0","pricing_plan_id":"free"},{"bike_id":"0808600f-b882-4b43-9d44-8e67b5a84516","system_id":"levelo_inurba_marseille","lat":43.295713,"lon":5.399639,"is_reserved":false,"is_disabled":false,"rental_uris":{"android":"levelo://app?vid=0808600f-b882-4b43-9d44-8e67b5a84516","ios":"levelo://app?vid=0808600f-b882-4b43-9d44-8e67b5a84516"},"vehicle_type_id":"4","last_reported":1699560453,"current_range_meters":6000,"station_id":"ce4bh312rcd13ifvqdj0","pricing_plan_id":"free"},{"bike_id":"4336acf5-44c4-4472-9b82-1ca44dc14ea5","system_id":"levelo_inurba_marseille","lat":43.28414,"lon":5.37515,"is_reserved":false,"is_disabled":false,"rental_uris":{"android":"levelo://app?vid=4336acf5-44c4-4472-9b82-1ca44dc14ea5","ios":"levelo://app?vid=4336acf5-44c4-4472-9b82-1ca44dc14ea5"},"vehicle_type_id":"4","last_reported":1699560453,"current_range_meters":14400,"station_id":"ce4bh412rcd13ifvqds0","pricing_plan_id":"free"},{"bike_id":"b13ef130-dbbe-4db1-87fe-2f773a927430","system_id":"levelo_inurba_marseille","lat":43.28413,"lon":5.37509,"is_reserved":false,"is_disabled":false,"rental_uris":{"android":"levelo://app?vid=b13ef130-dbbe-4db1-87fe-2f773a927430","ios":"levelo://app?vid=b13ef130-dbbe-4db1-87fe-2f773a927430"},"vehicle_type_id":"4","last_reported":1699560453,"current_range_meters":7600,"station_id":"ce4bh412rcd13ifvqds0","pricing_plan_id":"free"},{"bike_id":"795a85e4-2b55-449f-8993-1b93943a1f4b","system_id":"levelo_inurba_marseille","lat":43.28408,"lon":5.37522,"is_reserved":false,"is_disabled":false,"rental_uris":{"android":"levelo://app?vid=795a85e4-2b55-449f-8993-1b93943a1f4b","ios":"levelo://app?vid=795a85e4-2b55-449f-8993-1b93943a1f4b"},"vehicle_type_id":"4","last_reported":1699560453,"current_range_meters":4800,"station_id":"ce4bh412rcd13ifvqds0","pricing_plan_id":"free"},{"bike_id":"312c69da-9a01-4f47-a7a9-0d656e5444e1","system_id":"levelo_inurba_marseille","lat":43.28404,"lon":5.37525,"is_reserved":false,"is_disabled":false,"rental_uris":{"android":"levelo://app?vid=312c69da-9a01-4f47-a7a9-0d656e5444e1","ios":"levelo://app?vid=312c69da-9a01-4f47-a7a9-0d656e5444e1"},"vehicle_type_id":"4","last_reported":1699560453,"current_range_meters":19200,"station_id":"ce4bh412rcd13ifvqds0","pricing_plan_id":"free"},{"bike_id":"f2f817da-15ef-4bc2-8ea2-4fc5a7701540","system_id":"levelo_inurba_marseille","lat":43.286595,"lon":5.386795,"is_reserved":false,"is_disabled":false,"rental_uris":{"android":"levelo://app?vid=f2f817da-15ef-4bc2-8ea2-4fc5a7701540","ios":"levelo://app?vid=f2f817da-15ef-4bc2-8ea2-4fc5a7701540"},"vehicle_type_id":"4","last_reported":1699560453,"current_range_meters":22400,"station_id":"ce4bh492rcd13ifvqdug","pricing_plan_id":"free"},{"bike_id":"1e24996a-46e8-46f3-999e-c0f2a9dc37ac","system_id":"levelo_inurba_marseille","lat":43.286517,"lon":5.386013,"is_reserved":false,"is_disabled":false,"rental_uris":{"android":"levelo://app?vid=1e24996a-46e8-46f3-999e-c0f2a9dc37ac","ios":"levelo://app?vid=1e24996a-46e8-46f3-999e-c0f2a9dc37ac"},"vehicle_type_id":"4","last_reported":1699560453,"current_range_meters":0,"station_id":"ce4bh492rcd13ifvqdug","pricing_plan_id":"free"},{"bike_id":"02878a13-1f8b-4b43-9e92-37e64d989f60","system_id":"levelo_inurba_marseille","lat":43.286595,"lon":5.386795,"is_reserved":false,"is_disabled":false,"rental_uris":{"android":"levelo://app?vid=02878a13-1f8b-4b43-9e92-37e64d989f60","ios":"levelo://app?vid=02878a13-1f8b-4b43-9e92-37e64d989f60"},"vehicle_type_id":"4","last_reported":1699560453,"current_range_meters":9600,"station_id":"ce4bh492rcd13ifvqdug","pricing_plan_id":"free"},{"bike_id":"699b8fcc-588b-485c-80ce-4f75419cfea7","system_id":"levelo_inurba_marseille","lat":43.286039,"lon":5.370681,"is_reserved":false,"is_disabled":false,"rental_uris":{"android":"levelo://app?vid=699b8fcc-588b-485c-80ce-4f75419cfea7","ios":"levelo://app?vid=699b8fcc-588b-485c-80ce-4f75419cfea7"},"vehicle_type_id":"4","last_reported":1699560453,"current_range_meters":17200,"station_id":"ce4bht12rcd13ifvqi60","pricing_plan_id":"free"},{"bike_id":"030625bd-f8ba-4389-9944-df2973894a22","system_id":"levelo_inurba_marseille","lat":43.325746,"lon":5.404204,"is_reserved":false,"is_disabled":false,"rental_uris":{"android":"levelo://app?vid=030625bd-f8ba-4389-9944-df2973894a22","ios":"levelo://app?vid=030625bd-f8ba-4389-9944-df2973894a22"},"vehicle_type_id":"4","last_reported":1699560453,"current_range_meters":8000,"station_id":"","pricing_plan_id":"free"},{"bike_id":"3fd447c9-bd02-4aa2-8b14-301ac9885ead","system_id":"levelo_inurba_marseille","lat":43.323464,"lon":5.406297,"is_reserved":false,"is_disabled":false,"rental_uris":{"android":"levelo://app?vid=3fd447c9-bd02-4aa2-8b14-301ac9885ead","ios":"levelo://app?vid=3fd447c9-bd02-4aa2-8b14-301ac9885ead"},"vehicle_type_id":"4","last_reported":1699560453,"current_range_meters":20800,"station_id":"ce4bhq92rcd13ifvqhjg","pricing_plan_id":"free"},{"bike_id":"c62a31fe-26d8-480d-83d1-44db580000e3","system_id":"levelo_inurba_marseille","lat":43.323464,"lon":5.406297,"is_reserved":false,"is_disabled":false,"rental_uris":{"android":"levelo://app?vid=c62a31fe-26d8-480d-83d1-44db580000e3","ios":"levelo://app?vid=c62a31fe-26d8-480d-83d1-44db580000e3"},"vehicle_type_id":"4","last_reported":1699560453,"current_range_meters":30000,"station_id":"ce4bhq92rcd13ifvqhjg","pricing_plan_id":"free"},{"bike_id":"63b3fafd-4c6c-4021-a52f-2438ef27fc12","system_id":"levelo_inurba_marseille","lat":43.284793,"lon":5.384113,"is_reserved":false,"is_disabled":false,"rental_uris":{"android":"levelo://app?vid=63b3fafd-4c6c-4021-a52f-2438ef27fc12","ios":"levelo://app?vid=63b3fafd-4c6c-4021-a52f-2438ef27fc12"},"vehicle_type_id":"4","last_reported":1699560453,"current_range_meters":22000,"station_id":"ce4bh512rcd13ifvqe3g","pricing_plan_id":"free"},{"bike_id":"8cdfcb9e-69bb-468c-bf59-62efa9d0bd5f","system_id":"levelo_inurba_marseille","lat":43.283494,"lon":5.380945,"is_reserved":false,"is_disabled":false,"rental_uris":{"android":"levelo://app?vid=8cdfcb9e-69bb-468c-bf59-62efa9d0bd5f","ios":"levelo://app?vid=8cdfcb9e-69bb-468c-bf59-62efa9d0bd5f"},"vehicle_type_id":"4","last_reported":1699560453,"current_range_meters":25600,"station_id":"ce4bh412rcd13ifvqdr0","pricing_plan_id":"free"},{"bike_id":"b36c7e19-0b48-4cba-891e-77ebe18432bd","system_id":"levelo_inurba_marseille","lat":43.284793,"lon":5.384113,"is_reserved":false,"is_disabled":false,"rental_uris":{"android":"levelo://app?vid=b36c7e19-0b48-4cba-891e-77ebe18432bd","ios":"levelo://app?vid=b36c7e19-0b48-4cba-891e-77ebe18432bd"},"vehicle_type_id":"4","last_reported":1699560453,"current_range_meters":19200,"station_id":"ce4bh512rcd13ifvqe3g","pricing_plan_id":"free"},{"bike_id":"9f2ccb77-6cea-47e5-b4a3-ed8442fd9088","system_id":"levelo_inurba_marseille","lat":43.284793,"lon":5.384113,"is_reserved":false,"is_disabled":false,"rental_uris":{"android":"levelo://app?vid=9f2ccb77-6cea-47e5-b4a3-ed8442fd9088","ios":"levelo://app?vid=9f2ccb77-6cea-47e5-b4a3-ed8442fd9088"},"vehicle_type_id":"4","last_reported":1699560453,"current_range_meters":29600,"station_id":"ce4bh512rcd13ifvqe3g","pricing_plan_id":"free"},{"bike_id":"b41020ac-9a61-464b-9cac-edfbe335b923","system_id":"levelo_inurba_marseille","lat":43.284793,"lon":5.384113,"is_reserved":false,"is_disabled":false,"rental_uris":{"android":"levelo://app?vid=b41020ac-9a61-464b-9cac-edfbe335b923","ios":"levelo://app?vid=b41020ac-9a61-464b-9cac-edfbe335b923"},"vehicle_type_id":"4","last_reported":1699560453,"current_range_meters":31200,"station_id":"ce4bh512rcd13ifvqe3g","pricing_plan_id":"free"},{"bike_id":"42faa0a9-18dc-479c-af04-f786a189f3cb","system_id":"levelo_inurba_marseille","lat":43.284793,"lon":5.384113,"is_reserved":false,"is_disabled":false,"rental_uris":{"android":"levelo://app?vid=42faa0a9-18dc-479c-af04-f786a189f3cb","ios":"levelo://app?vid=42faa0a9-18dc-479c-af04-f786a189f3cb"},"vehicle_type_id":"4","last_reported":1699560453,"current_range_meters":16400,"station_id":"ce4bh512rcd13ifvqe3g","pricing_plan_id":"free"},{"bike_id":"91a29675-2ed9-4a76-9b14-c4ffe04d9727","system_id":"levelo_inurba_marseille","lat":43.297946,"lon":5.404063,"is_reserved":false,"is_disabled":false,"rental_uris":{"android":"levelo://app?vid=91a29675-2ed9-4a76-9b14-c4ffe04d9727","ios":"levelo://app?vid=91a29675-2ed9-4a76-9b14-c4ffe04d9727"},"vehicle_type_id":"4","last_reported":1699560453,"current_range_meters":22000,"station_id":"ce4bh112rcd13ifvqd90","pricing_plan_id":"free"},{"bike_id":"47997ac3-886a-45b1-a379-0e4efbf5bf7c","system_id":"levelo_inurba_marseille","lat":43.283498,"lon":5.380948,"is_reserved":false,"is_disabled":false,"rental_uris":{"android":"levelo://app?vid=47997ac3-886a-45b1-a379-0e4efbf5bf7c","ios":"levelo://app?vid=47997ac3-886a-45b1-a379-0e4efbf5bf7c"},"vehicle_type_id":"4","last_reported":1699560453,"current_range_meters":6800,"station_id":"ce4bh412rcd13ifvqdr0","pricing_plan_id":"free"},{"bike_id":"694cc18d-6823-481a-9d09-67d990c2d197","system_id":"levelo_inurba_marseille","lat":43.324289,"lon":5.407562,"is_reserved":false,"is_disabled":false,"rental_uris":{"android":"levelo://app?vid=694cc18d-6823-481a-9d09-67d990c2d197","ios":"levelo://app?vid=694cc18d-6823-481a-9d09-67d990c2d197"},"vehicle_type_id":"4","last_reported":1699560453,"current_range_meters":4800,"station_id":"","pricing_plan_id":"free"},{"bike_id":"306ffcf9-7133-48d5-b47d-188c0322331b","system_id":"levelo_inurba_marseille","lat":43.285742,"lon":5.395004,"is_reserved":false,"is_disabled":false,"rental_uris":{"android":"levelo://app?vid=306ffcf9-7133-48d5-b47d-188c0322331b","ios":"levelo://app?vid=306ffcf9-7133-48d5-b47d-188c0322331b"},"vehicle_type_id":"4","last_reported":1699560453,"current_range_meters":17200,"station_id":"ce4bh292rcd13ifvqdg0","pricing_plan_id":"free"},{"bike_id":"f041c480-bb01-401c-bf67-6fd783b947c9","system_id":"levelo_inurba_marseille","lat":43.292724,"lon":5.401131,"is_reserved":false,"is_disabled":false,"rental_uris":{"android":"levelo://app?vid=f041c480-bb01-401c-bf67-6fd783b947c9","ios":"levelo://app?vid=f041c480-bb01-401c-bf67-6fd783b947c9"},"vehicle_type_id":"4","last_reported":1699560453,"current_range_meters":4800,"station_id":"ce4bh312rcd13ifvqdk0","pricing_plan_id":"free"},{"bike_id":"64319d02-14c3-4df0-80eb-970f6c356042","system_id":"levelo_inurba_marseille","lat":43.283502,"lon":5.386471,"is_reserved":false,"is_disabled":false,"rental_uris":{"android":"levelo://app?vid=64319d02-14c3-4df0-80eb-970f6c356042","ios":"levelo://app?vid=64319d02-14c3-4df0-80eb-970f6c356042"},"vehicle_type_id":"4","last_reported":1699560453,"current_range_meters":28800,"station_id":"ce4bh492rcd13ifvqdvg","pricing_plan_id":"free"},{"bike_id":"a4e16195-9fe8-49b5-a5ac-914ee79a665b","system_id":"levelo_inurba_marseille","lat":43.28039,"lon":5.369297,"is_reserved":false,"is_disabled":false,"rental_uris":{"android":"levelo://app?vid=a4e16195-9fe8-49b5-a5ac-914ee79a665b","ios":"levelo://app?vid=a4e16195-9fe8-49b5-a5ac-914ee79a665b"},"vehicle_type_id":"4","last_reported":1699560453,"current_range_meters":24800,"station_id":"ce4bha12rcd13ifvqef0","pricing_plan_id":"free"},{"bike_id":"10647cea-ded0-4f4c-9830-7a18fa86278a","system_id":"levelo_inurba_marseille","lat":43.282744,"lon":5.350533,"is_reserved":false,"is_disabled":false,"rental_uris":{"android":"levelo://app?vid=10647cea-ded0-4f4c-9830-7a18fa86278a","ios":"levelo://app?vid=10647cea-ded0-4f4c-9830-7a18fa86278a"},"vehicle_type_id":"4","last_reported":1699560453,"current_range_meters":28000,"station_id":"ce4bhbp2rcd13ifvqerg","pricing_plan_id":"free"},{"bike_id":"9f541c17-ae78-42c2-b450-39f424881703","system_id":"levelo_inurba_marseille","lat":43.283502,"lon":5.386471,"is_reserved":false,"is_disabled":false,"rental_uris":{"android":"levelo://app?vid=9f541c17-ae78-42c2-b450-39f424881703","ios":"levelo://app?vid=9f541c17-ae78-42c2-b450-39f424881703"},"vehicle_type_id":"4","last_reported":1699560453,"current_range_meters":10800,"station_id":"ce4bh492rcd13ifvqdvg","pricing_plan_id":"free"},{"bike_id":"127fab5f-d08b-4b84-b2a6-33091f62848b","system_id":"levelo_inurba_marseille","lat":43.280376,"lon":5.36944,"is_reserved":false,"is_disabled":false,"rental_uris":{"android":"levelo://app?vid=127fab5f-d08b-4b84-b2a6-33091f62848b","ios":"levelo://app?vid=127fab5f-d08b-4b84-b2a6-33091f62848b"},"vehicle_type_id":"4","last_reported":1699560453,"current_range_meters":13200,"station_id":"ce4bha12rcd13ifvqef0","pricing_plan_id":"free"},{"bike_id":"04ce808c-21a6-4eaf-b1ab-7d5a42de58c7","system_id":"levelo_inurba_marseille","lat":43.280363,"lon":5.369363,"is_reserved":false,"is_disabled":false,"rental_uris":{"android":"levelo://app?vid=04ce808c-21a6-4eaf-b1ab-7d5a42de58c7","ios":"levelo://app?vid=04ce808c-21a6-4eaf-b1ab-7d5a42de58c7"},"vehicle_type_id":"4","last_reported":1699560453,"current_range_meters":6400,"station_id":"ce4bha12rcd13ifvqef0","pricing_plan_id":"free"},{"bike_id":"6ce14d11-5c0b-40be-8dc1-99e20a1711f6","system_id":"levelo_inurba_marseille","lat":43.28035,"lon":5.36945,"is_reserved":false,"is_disabled":false,"rental_uris":{"android":"levelo://app?vid=6ce14d11-5c0b-40be-8dc1-99e20a1711f6","ios":"levelo://app?vid=6ce14d11-5c0b-40be-8dc1-99e20a1711f6"},"vehicle_type_id":"4","last_reported":1699560453,"current_range_meters":31200,"station_id":"ce4bha12rcd13ifvqef0","pricing_plan_id":"free"},{"bike_id":"0eca1d00-5069-4a15-98af-d74e4fb5633f","system_id":"levelo_inurba_marseille","lat":43.303625,"lon":5.41015,"is_reserved":false,"is_disabled":false,"rental_uris":{"android":"levelo://app?vid=0eca1d00-5069-4a15-98af-d74e4fb5633f","ios":"levelo://app?vid=0eca1d00-5069-4a15-98af-d74e4fb5633f"},"vehicle_type_id":"4","last_reported":1699560453,"current_range_meters":21600,"station_id":"","pricing_plan_id":"free"},{"bike_id":"c5269fde-c094-4163-a2ac-a6350e774e3c","system_id":"levelo_inurba_marseille","lat":43.323447,"lon":5.41003,"is_reserved":false,"is_disabled":false,"rental_uris":{"android":"levelo://app?vid=c5269fde-c094-4163-a2ac-a6350e774e3c","ios":"levelo://app?vid=c5269fde-c094-4163-a2ac-a6350e774e3c"},"vehicle_type_id":"4","last_reported":1699560453,"current_range_meters":12000,"station_id":"","pricing_plan_id":"free"},{"bike_id":"071e3f39-35a8-4b56-8827-68bd306436e5","system_id":"levelo_inurba_marseille","lat":43.284462,"lon":5.392121,"is_reserved":false,"is_disabled":false,"rental_uris":{"android":"levelo://app?vid=071e3f39-35a8-4b56-8827-68bd306436e5","ios":"levelo://app?vid=071e3f39-35a8-4b56-8827-68bd306436e5"},"vehicle_type_id":"4","last_reported":1699560453,"current_range_meters":20400,"station_id":"ce4bhoh2rcd13ifvqh5g","pricing_plan_id":"free"},