{"last_updated":1708186098,"ttl":30,"version":"2.2","data":{"bikes":[{"bike_id":"a402b0ff-821a-4924-9856-f2eceedf7970","system_id":"levelo_inurba_marseille","lat":43.31341,"lon":5.367098,"is_reserved":false,"is_disabled":false,"rental_uris":{"android":"levelo://app?vid=a402b0ff-821a-4924-9856-f2eceedf7970","ios":"levelo://app?vid=a402b0ff-821a-4924-9856-f2eceedf7970"},"vehicle_type_id":"4","last_reported":1708186098,"current_range_meters":19200,"station_id":"ce4bgr92rcd13ifvqc6g","pricing_plan_id":"cebpf4jnsgd1na2vs0mg"},{"bike_id":"733c2819-e3dd-4905-9ce7-3056d47b1a25","system_id":"levelo_inurba_marseille","lat":43.313559,"lon":5.367117,"is_reserved":false,"is_disabled":false,"rental_uris":{"android":"levelo://app?vid=733c2819-e3dd-4905-9ce7-3056d47b1a25","ios":"levelo://app?vid=733c2819-e3dd-4905-9ce7-3056d47b1a25"},"vehicle_type_id":"4","last_reported":1708186098,"current_range_meters":0,"station_id":"ce4bgr92rcd13ifvqc6g","pricing_plan_id":"cebpf4jnsgd1na2vs0mg"},{"bike_id":"6e5db821-9428-4964-8494-568b27ed2d7c","system_id":"levelo_inurba_marseille","lat":43.312239,"lon":5.368562,"is_reserved":false,"is_disabled":false,"rental_uris":{"android":"levelo://app?vid=6e5db821-9428-4964-8494-568b27ed2d7c","ios":"levelo://app?vid=6e5db821-9428-4964-8494-568b27ed2d7c"},"vehicle_type_id":"4","last_reported":1708186098,"current_range_meters":16000,"station_id":"ce4bgl92rcd13ifvqbq0","pricing_plan_id":"cebpf4jnsgd1na2vs0mg"},{"bike_id":"5fcff09f-6125-4872-b361-f665263e4563","system_id":"levelo_inurba_marseille","lat":43.309076,"lon":5.368465,"is_reserved":false,"is_disabled":false,"rental_uris":{"android":"levelo://app?vid=5fcff09f-6125-4872-b361-f665263e4563","ios":"levelo://app?vid=5fcff09f-6125-4872-b361-f665263e4563"},"vehicle_type_id":"4","last_reported":1708186098,"current_range_meters":9600,"station_id":"ce4bgn92rcd13ifvqbvg","pricing_plan_id":"cebpf4jnsgd1na2vs0mg"},{"bike_id":"b0fcddfd-7d8d-4484-bc70-8e78c8f4f1de","system_id":"levelo_inurba_marseille","lat":43.31484,"lon":5.37311,"is_reserved":false,"is_disabled":false,"rental_uris":{"android":"levelo://app?vid=b0fcddfd-7d8d-4484-bc70-8e78c8f4f1de","ios":"levelo://app?vid=b0fcddfd-7d8d-4484-bc70-8e78c8f4f1de"},"vehicle_type_id":"4","last_reported":1708186098,"current_range_meters":14400,"station_id":"ce4bgt12rcd13ifvqcd0","pricing_plan_id":"cebpf4jnsgd1na2vs0mg"},{"bike_id":"cee5a9fe-4994-402b-a545-8118d80370b7","system_id":"levelo_inurba_marseille","lat":43.309039,"lon":5.371797,"is_reserved":false,"is_disabled":false,"rental_uris":{"android":"levelo://app?vid=cee5a9fe-4994-402b-a545-8118d80370b7","ios":"levelo://app?vid=cee5a9fe-4994-402b-a545-8118d80370b7"},"vehicle_type_id":"4","last_reported":1708186098,"current_range_meters":5600,"station_id":"ce4bguh2rcd13ifvqckg","pricing_plan_id":"cebpf4jnsgd1na2vs0mg"},{"bike_id":"da139056-2ce0-4b43-92ec-fbb0a4c2d86b","system_id":"levelo_inurba_marseille","lat":43.309039,"lon":5.371797,"is_reserved":false,"is_disabled":false,"rental_uris":{"android":"levelo://app?vid=da139056-2ce0-4b43-92ec-fbb0a4c2d86b","ios":"levelo://app?vid=da139056-2ce0-4b43-92ec-fbb0a4c2d86b"},"vehicle_type_id":"4","last_reported":1708186098,"current_range_meters":20800,"station_id":"ce4bguh2rcd13ifvqckg","pricing_plan_id":"cebpf4jnsgd1na2vs0mg"},{"bike_id":"aa26ab9d-8f1a-4e1b-8fe5-1c1596357171","system_id":"levelo_inurba_marseille","lat":43.305712,"lon":5.365641,"is_reserved":false,"is_disabled":false,"rental_uris":{"android":"levelo://app?vid=aa26ab9d-8f1a-4e1b-8fe5-1c1596357171","ios":"levelo://app?vid=aa26ab9d-8f1a-4e1b-8fe5-1c1596357171"},"vehicle_type_id":"4","last_reported":1708186098,"current_range_meters":30000,"station_id":"ce4bgs12rcd13ifvqcag","pricing_plan_id":"cebpf4jnsgd1na2vs0mg"},{"bike_id":"051b30b2-4a17-47bc-ae27-fe26be6b0d2a","system_id":"levelo_inurba_marseille","lat":43.305706,"lon":5.365654,"is_reserved":false,"is_disabled":false,"rental_uris":{"android":"levelo://app?vid=051b30b2-4a17-47bc-ae27-fe26be6b0d2a","ios":"levelo://app?vid=051b30b2-4a17-47bc-ae27-fe26be6b0d2a"},"vehicle_type_id":"4","last_reported":1708186098,"current_range_meters":31200,"station_id":"ce4bgs12rcd13ifvqcag","pricing_plan_id":"cebpf4jnsgd1na2vs0mg"},{"bike_id":"1534894d-9d48-4735-b863-6ed936a31b9f","system_id":"levelo_inurba_marseille","lat":43.30597,"lon":5.37211,"is_reserved":false,"is_disabled":false,"rental_uris":{"android":"levelo://app?vid=1534894d-9d48-4735-b863-6ed936a31b9f","ios":"levelo://app?vid=1534894d-9d48-4735-b863-6ed936a31b9f"},"vehicle_type_id":"4","last_reported":1708186098,"current_range_meters":30000,"station_id":"ce4bgqh2rcd13ifvqc4g","pricing_plan_id":"cebpf4jnsgd1na2vs0mg"},{"bike_id":"d395dd3a-eb84-4696-a05f-08da7c57788f","system_id":"levelo_inurba_marseille","lat":43.305989,"lon":5.37225,"is_reserved":false,"is_disabled":false,"rental_uris":{"android":"levelo://app?vid=d395dd3a-eb84-4696-a05f-08da7c57788f","ios":"levelo://app?vid=d395dd3a-eb84-4696-a05f-08da7c57788f"},"vehicle_type_id":"4","last_reported":1708186098,"current_range_meters":6000,"station_id":"ce4bgqh2rcd13ifvqc4g","pricing_plan_id":"cebpf4jnsgd1na2vs0mg"},{"bike_id":"f867e659-7724-448b-bc02-21110868161e","system_id":"levelo_inurba_marseille","lat":43.311131,"lon":5.377651,"is_reserved":false,"is_disabled":false,"rental_uris":{"android":"levelo://app?vid=f867e659-7724-448b-bc02-21110868161e","ios":"levelo://app?vid=f867e659-7724-448b-bc02-21110868161e"},"vehicle_type_id":"4","last_reported":1708186098,"current_range_meters":9600,"station_id":"ce4bgt92rcd13ifvqcg0","pricing_plan_id":"cebpf4jnsgd1na2vs0mg"},{"bike_id":"845eaa91-873d-4191-a88a-28bd9653a967","system_id":"levelo_inurba_marseille","lat":43.311125,"lon":5.377624,"is_reserved":false,"is_disabled":false,"rental_uris":{"android":"levelo://app?vid=845eaa91-873d-4191-a88a-28bd9653a967","ios":"levelo://app?vid=845eaa91-873d-4191-a88a-28bd9653a967"},"vehicle_type_id":"4","last_reported":1708186098,"current_range_meters":22000,"station_id":"ce4bgt92rcd13ifvqcg0","pricing_plan_id":"cebpf4jnsgd1na2vs0mg"},{"bike_id":"086f8cd7-5c14-47ce-b2c4-5613e5755269","system_id":"levelo_inurba_marseille","lat":43.30781,"lon":5.37649,"is_reserved":false,"is_disabled":false,"rental_uris":{"android":"levelo://app?vid=086f8cd7-5c14-47ce-b2c4-5613e5755269","ios":"levelo://app?vid=086f8cd7-5c14-47ce-b2c4-5613e5755269"},"vehicle_type_id":"4","last_reported":1708186098,"current_range_meters":24800,"station_id":"ce4bgv92rcd13ifvqcq0","pricing_plan_id":"cebpf4jnsgd1na2vs0mg"},{"bike_id":"2c9706f0-4e9e-475c-9ea1-eeca5221679f","system_id":"levelo_inurba_marseille","lat":43.317075,"lon":5.377367,"is_reserved":false,"is_disabled":false,"rental_uris":{"android":"levelo://app?vid=2c9706f0-4e9e-475c-9ea1-eeca5221679f","ios":"levelo://app?vid=2c9706f0-4e9e-475c-9ea1-eeca5221679f"},"vehicle_type_id":"4","last_reported":1708186098,"current_range_meters":6000,"station_id":"ce4bgth2rcd13ifvqch0","pricing_plan_id":"cebpf4jnsgd1na2vs0mg"},{"bike_id":"7cd4c514-2442-4613-8766-5d89cb514497","system_id":"levelo_inurba_marseille","lat":43.301939,"lon":5.366286,"is_reserved":false,"is_disabled":false,"rental_uris":{"android":"levelo://app?vid=7cd4c514-2442-4613-8766-5d89cb514497","ios":"levelo://app?vid=7cd4c514-2442-4613-8766-5d89cb514497"},"vehicle_type_id":"4","last_reported":1708186098,"current_range_meters":21600,"station_id":"ce4bgrh2rcd13ifvqc8g","pricing_plan_id":"cebpf4jnsgd1na2vs0mg"},{"bike_id":"45eede77-a0ca-4824-9144-3f72a8c8bc61","system_id":"levelo_inurba_marseille","lat":43.304606,"lon":5.379026,"is_reserved":false,"is_disabled":false,"rental_uris":{"android":"levelo://app?vid=45eede77-a0ca-4824-9144-3f72a8c8bc61","ios":"levelo://app?vid=45eede77-a0ca-4824-9144-3f72a8c8bc61"},"vehicle_type_id":"4","last_reported":1708186098,"current_range_meters":9600,"station_id":"ce4bgup2rcd13ifvqcn0","pricing_plan_id":"cebpf4jnsgd1na2vs0mg"},{"bike_id":"de884407-9a9a-4916-9173-099da0d28e80","system_id":"levelo_inurba_marseille","lat":43.304606,"lon":5.379026,"is_reserved":false,"is_disabled":false,"rental_uris":{"android":"levelo://app?vid=de884407-9a9a-4916-9173-099da0d28e80","ios":"levelo://app?vid=de884407-9a9a-4916-9173-099da0d28e80"},"vehicle_type_id":"4","last_reported":1708186098,"current_range_meters":30400,"station_id":"ce4bgup2rcd13ifvqcn0","pricing_plan_id":"cebpf4jnsgd1na2vs0mg"},{"bike_id":"cd400b38-e853-4bc6-8efd-dc5ff46c228f","system_id":"levelo_inurba_marseille","lat":43.324771,"lon":5.36557,"is_reserved":false,"is_disabled":false,"rental_uris":{"android":"levelo://app?vid=cd400b38-e853-4bc6-8efd-dc5ff46c228f","ios":"levelo://app?vid=cd400b38-e853-4bc6-8efd-dc5ff46c228f"},"vehicle_type_id":"4","last_reported":1708186098,"current_range_meters":12800,"station_id":"ce4bhs12rcd13ifvqhvg","pricing_plan_id":"cebpf4jnsgd1na2vs0mg"},{"bike_id":"80069458-1a81-4483-a31a-6141c10d8329","system_id":"levelo_inurba_marseille","lat":43.324771,"lon":5.36557,"is_reserved":false,"is_disabled":false,"rental_uris":{"android":"levelo://app?vid=80069458-1a81-4483-a31a-6141c10d8329","ios":"levelo://app?vid=80069458-1a81-4483-a31a-6141c10d8329"},"vehicle_type_id":"4","last_reported":1708186098,"current_range_meters":6400,"station_id":"ce4bhs12rcd13ifvqhvg","pricing_plan_id":"cebpf4jnsgd1na2vs0mg"},{"bike_id":"cff15590-55ad-4da5-bb89-f2b4a922c9ca","system_id":"levelo_inurba_marseille","lat":43.310773,"lon":5.38348,"is_reserved":false,"is_disabled":false,"rental_uris":{"android":"levelo://app?vid=cff15590-55ad-4da5-bb89-f2b4a922c9ca","ios":"levelo://app?vid=cff15590-55ad-4da5-bb89-f2b4a922c9ca"},"vehicle_type_id":"4","last_reported":1708186098,"current_range_meters":0,"station_id":"ce4bgv92rcd13ifvqcr0","pricing_plan_id":"cebpf4jnsgd1na2vs0mg"},{"bike_id":"3c64ea9c-9220-4d4c-aefc-e817e982c37a","system_id":"levelo_inurba_marseille","lat":43.302885,"lon":5.376936,"is_reserved":false,"is_disabled":false,"rental_uris":{"android":"levelo://app?vid=3c64ea9c-9220-4d4c-aefc-e817e982c37a","ios":"levelo://app?vid=3c64ea9c-9220-4d4c-aefc-e817e982c37a"},"vehicle_type_id":"4","last_reported":1708186098,"current_range_meters":25600,"station_id":"ce4bh9p2rcd13ifvqec0","pricing_plan_id":"cebpf4jnsgd1na2vs0mg"},{"bike_id":"05e3499b-7acf-4ab9-b335-9e6489f6b173","system_id":"levelo_inurba_marseille","lat":43.310804,"lon":5.38359,"is_reserved":false,"is_disabled":false,"rental_uris":{"android":"levelo://app?vid=05e3499b-7acf-4ab9-b335-9e6489f6b173","ios":"levelo://app?vid=05e3499b-7acf-4ab9-b335-9e6489f6b173"},"vehicle_type_id":"4","last_reported":1708186098,"current_range_meters":0,"station_id":"ce4bgv92rcd13ifvqcr0","pricing_plan_id":"cebpf4jnsgd1na2vs0mg"},{"bike_id":"6ebbf03d-e886-4c08-8e5f-dd3774d9da9e","system_id":"levelo_inurba_marseille","lat":43.30143,"lon":5.37413,"is_reserved":false,"is_disabled":false,"rental_uris":{"android":"levelo://app?vid=6ebbf03d-e886-4c08-8e5f-dd3774d9da9e","ios":"levelo://app?vid=6ebbf03d-e886-4c08-8e5f-dd3774d9da9e"},"vehicle_type_id":"4","last_reported":1708186098,"current_range_meters":30400,"station_id":"ce4bgs92rcd13ifvqcc0","pricing_plan_id":"cebpf4jnsgd1na2vs0mg"},{"bike_id":"244ba138-9ba7-40fc-b223-69341dccecf8","system_id":"levelo_inurba_marseille","lat":43.31998,"lon":5.38151,"is_reserved":false,"is_disabled":false,"rental_uris":{"android":"levelo://app?vid=244ba138-9ba7-40fc-b223-69341dccecf8","ios":"levelo://app?vid=244ba138-9ba7-40fc-b223-69341dccecf8"},"vehicle_type_id":"4","last_reported":1708186098,"current_range_meters":15200,"station_id":"ce4bhr12rcd13ifvqhpg","pricing_plan_id":"cebpf4jnsgd1na2vs0mg"},{"bike_id":"1afbd0d5-5863-493c-9a15-c4d2312fe56b","system_id":"levelo_inurba_marseille","lat":43.313571,"lon":5.384829,"is_reserved":false,"is_disabled":false,"rental_uris":{"android":"levelo://app?vid=1afbd0d5-5863-493c-9a15-c4d2312fe56b","ios":"levelo://app?vid=1afbd0d5-5863-493c-9a15-c4d2312fe56b"},"vehicle_type_id":"4","last_reported":1708186098,"current_range_meters":30800,"station_id":"ce4bgt92rcd13ifvqcf0","pricing_plan_id":"cebpf4jnsgd1na2vs0mg"},{"bike_id":"1adcaeab-ebd9-4e92-ab05-c15e83101fe6","system_id":"levelo_inurba_marseille","lat":43.299724,"lon":5.371829,"is_reserved":false,"is_disabled":false,"rental_uris":{"android":"levelo://app?vid=1adcaeab-ebd9-4e92-ab05-c15e83101fe6","ios":"levelo://app?vid=1adcaeab-ebd9-4e92-ab05-c15e83101fe6"},"vehicle_type_id":"4","last_reported":1708186098,"current_range_meters":25600,"station_id":"ce4bgr92rcd13ifvqc7g","pricing_plan_id":"cebpf4jnsgd1na2vs0mg"},{"bike_id":"3a70c60a-26c1-4dec-b45d-48fbd9660a7b","system_id":"levelo_inurba_marseille","lat":43.299222,"lon":5.365554,"is_reserved":false,"is_disabled":false,"rental_uris":{"android":"levelo://app?vid=3a70c60a-26c1-4dec-b45d-48fbd9660a7b","ios":"levelo://app?vid=3a70c60a-26c1-4dec-b45d-48fbd9660a7b"},"vehicle_type_id":"4","last_reported":1708186098,"current_range_meters":16000,"station_id":"ce4bgm92rcd13ifvqbr0","pricing_plan_id":"cebpf4jnsgd1na2vs0mg"},{"bike_id":"7ec863af-6d06-438e-a8b4-28b050d51c85","system_id":"levelo_inurba_marseille","lat":43.299724,"lon":5.371829,"is_reserved":false,"is_disabled":false,"rental_uris":{"android":"levelo://app?vid=7ec863af-6d06-438e-a8b4-28b050d51c85","ios":"levelo://app?vid=7ec863af-6d06-438e-a8b4-28b050d51c85"},"vehicle_type_id":"4","last_reported":1708186098,"current_range_meters":14400,"station_id":"ce4bgr92rcd13ifvqc7g","pricing_plan_id":"cebpf4jnsgd1na2vs0mg"},{"bike_id":"d3974018-02e6-4720-a32d-05efe8d560c0","system_id":"levelo_inurba_marseille","lat":43.299724,"lon":5.371829,"is_reserved":false,"is_disabled":false,"rental_uris":{"android":"levelo://app?vid=d3974018-02e6-4720-a32d-05efe8d560c0","ios":"levelo://app?vid=d3974018-02e6-4720-a32d-05efe8d560c0"},"vehicle_type_id":"4","last_reported":1708186098,"current_range_meters":23200,"station_id":"ce4bgr92rcd13ifvqc7g","pricing_plan_id":"cebpf4jnsgd1na2vs0mg"},{"bike_id":"f4a826e4-d56d-42eb-9624-6883f6a4df29","system_id":"levelo_inurba_marseille","lat":43.30195,"lon":5.37965,"is_reserved":false,"is_disabled":false,"rental_uris":{"android":"levelo://app?vid=f4a826e4-d56d-42eb-9624-6883f6a4df29","ios":"levelo://app?vid=f4a826e4-d56d-42eb-9624-6883f6a4df29"},"vehicle_type_id":"4","last_reported":1708186098,"current_range_meters":11600,"station_id":"","pricing_plan_id":"cebpf4jnsgd1na2vs0mg"},{"bike_id":"e649a1de-a839-46bb-8352-c0eda9d170a2","system_id":"levelo_inurba_marseille","lat":43.30242,"lon":5.38096,"is_reserved":false,"is_disabled":false,"rental_uris":{"android":"levelo://app?vid=e649a1de-a839-46bb-8352-c0eda9d170a2","ios":"levelo://app?vid=e649a1de-a839-46bb-8352-c0eda9d170a2"},"vehicle_type_id":"4","last_reported":1708186098,"current_range_meters":4000,"station_id":"","pricing_plan_id":"cebpf4jnsgd1na2vs0mg"},{"bike_id":"0f4c6b36-44d6-4350-9e78-1b172fe2461f","system_id":"levelo_inurba_marseille","lat":43.297794,"lon":5.370888,"is_reserved":false,"is_disabled":false,"rental_uris":{"android":"levelo://app?vid=0f4c6b36-44d6-4350-9e78-1b172fe2461f","ios":"levelo://app?vid=0f4c6b36-44d6-4350-9e78-1b172fe2461f"},"vehicle_type_id":"4","last_reported":1708186098,"current_range_meters":8000,"station_id":"ce4bgop2rcd13ifvqc1g","pricing_plan_id":"cebpf4jnsgd1na2vs0mg"},{"bike_id":"410a532b-f4d9-44b0-bece-5fd8115e2fc4","system_id":"levelo_inurba_marseille","lat":43.322872,"lon":5.382756,"is_reserved":false,"is_disabled":false,"rental_uris":{"android":"levelo://app?vid=410a532b-f4d9-44b0-bece-5fd8115e2fc4","ios":"levelo://app?vid=410a532b-f4d9-44b0-bece-5fd8115e2fc4"},"vehicle_type_id":"4","last_reported":1708186098,"current_range_meters":23600,"station_id":"ce4bhr12rcd13ifvqhqg","pricing_plan_id":"cebpf4jnsgd1na2vs0mg"},{"bike_id":"9af28949-3abe-4ee4-a57a-c236655c3362","system_id":"levelo_inurba_marseille","lat":43.322872,"lon":5.382756,"is_reserved":false,"is_disabled":false,"rental_uris":{"android":"levelo://app?vid=9af28949-3abe-4ee4-a57a-c236655c3362","ios":"levelo://app?vid=9af28949-3abe-4ee4-a57a-c236655c3362"},"vehicle_type_id":"4","last_reported":1708186098,"current_range_meters":31600,"station_id":"ce4bhr12rcd13ifvqhqg","pricing_plan_id":"cebpf4jnsgd1na2vs0mg"},{"bike_id":"b1b6315b-741e-41c4-9436-570bcccd4400","system_id":"levelo_inurba_marseille","lat":43.297794,"lon":5.370888,"is_reserved":false,"is_disabled":false,"rental_uris":{"android":"levelo://app?vid=b1b6315b-741e-41c4-9436-570bcccd4400","ios":"levelo://app?vid=b1b6315b-741e-41c4-9436-570bcccd4400"},"vehicle_type_id":"4","last_reported":1708186098,"current_range_meters":4800,"station_id":"ce4bgop2rcd13ifvqc1g","pricing_plan_id":"cebpf4jnsgd1na2vs0mg"},{"bike_id":"e4cc1337-7654-41c0-8296-b1f3b25edb39","system_id":"levelo_inurba_marseille","lat":43.32823,"lon":5.36686,"is_reserved":false,"is_disabled":false,"rental_uris":{"android":"levelo://app?vid=e4cc1337-7654-41c0-8296-b1f3b25edb39","ios":"levelo://app?vid=e4cc1337-7654-41c0-8296-b1f3b25edb39"},"vehicle_type_id":"4","last_reported":1708186098,"current_range_meters":17600,"station_id":"ce4bhs92rcd13ifvqi0g","pricing_plan_id":"cebpf4jnsgd1na2vs0mg"},{"bike_id":"de7b05e7-d93b-439e-8f77-81ab12b3a7e6","system_id":"levelo_inurba_marseille","lat":43.32823,"lon":5.3668,"is_reserved":false,"is_disabled":false,"rental_uris":{"android":"levelo://app?vid=de7b05e7-d93b-439e-8f77-81ab12b3a7e6","ios":"levelo://app?vid=de7b05e7-d93b-439e-8f77-81ab12b3a7e6"},"vehicle_type_id":"4","last_reported":1708186098,"current_range_meters":0,"station_id":"ce4bhs92rcd13ifvqi0g","pricing_plan_id":"cebpf4jnsgd1na2vs0mg"},{"bike_id":"c9b88aad-86c2-4a51-9436-08e8586a0048","system_id":"levelo_inurba_marseille","lat":43.328371,"lon":5.366909,"is_reserved":false,"is_disabled":false,"rental_uris":{"android":"levelo://app?vid=c9b88aad-86c2-4a51-9436-08e8586a0048","ios":"levelo://app?vid=c9b88aad-86c2-4a51-9436-08e8586a0048"},"vehicle_type_id":"4","last_reported":1708186098,"current_range_meters":6000,"station_id":"ce4bhs92rcd13ifvqi0g","pricing_plan_id":"cebpf4jnsgd1na2vs0mg"},{"bike_id":"70a2f3f5-2e5c-4bed-a900-5e4d380cecac","system_id":"levelo_inurba_marseille","lat":43.32824,"lon":5.36691,"is_reserved":false,"is_disabled":false,"rental_uris":{"android":"levelo://app?vid=70a2f3f5-2e5c-4bed-a900-5e4d380cecac","ios":"levelo://app?vid=70a2f3f5-2e5c-4bed-a900-5e4d380cecac"},"vehicle_type_id":"4","last_reported":1708186098,"current_range_meters":23600,"station_id":"ce4bhs92rcd13ifvqi0g","pricing_plan_id":"cebpf4jnsgd1na2vs0mg"},{"bike_id":"b1a6d03f-e2ff-45bb-b890-788276a09a82","system_id":"levelo_inurba_marseille","lat":43.32824,"lon":5.36684,"is_reserved":false,"is_disabled":false,"rental_uris":{"android":"levelo://app?vid=b1a6d03f-e2ff-45bb-b890-788276a09a82","ios":"levelo://app?vid=b1a6d03f-e2ff-45bb-b890-788276a09a82"},"vehicle_type_id":"4","last_reported":1708186098,"current_range_meters":29200,"station_id":"ce4bhs92rcd13ifvqi0g","pricing_plan_id":"cebpf4jnsgd1na2vs0mg"},{"bike_id":"ec21c626-faeb-41e5-9192-4d2bef3ee4d3","system_id":"levelo_inurba_marseille","lat":43.32824,"lon":5.36673,"is_reserved":false,"is_disabled":false,"rental_uris":{"android":"levelo://app?vid=ec21c626-faeb-41e5-9192-4d2bef3ee4d3","ios":"levelo://app?vid=ec21c626-faeb-41e5-9192-4d2bef3ee4d3"},"vehicle_type_id":"4","last_reported":1708186098,"current_range_meters":0,"station_id":"ce4bhs92rcd13ifvqi0g","pricing_plan_id":"cebpf4jnsgd1na2vs0mg"},{"bike_id":"45fe6c6c-2569-4aee-9c18-3f3586004f23","system_id":"levelo_inurba_marseille","lat":43.32825,"lon":5.36677,"is_reserved":false,"is_disabled":false,"rental_uris":{"android":"levelo://app?vid=45fe6c6c-2569-4aee-9c18-3f3586004f23","ios":"levelo://app?vid=45fe6c6c-2569-4aee-9c18-3f3586004f23"},"vehicle_type_id":"4","last_reported":1708186098,"current_range_meters":22400,"station_id":"ce4bhs92rcd13ifvqi0g","pricing_plan_id":"cebpf4jnsgd1na2vs0mg"},{"bike_id":"b354d40e-f748-45df-b8a4-085ee0f39b31","system_id":"levelo_inurba_marseille","lat":43.32825,"lon":5.366747,"is_reserved":false,"is_disabled":false,"rental_uris":{"android":"levelo://app?vid=b354d40e-f748-45df-b8a4-085ee0f39b31","ios":"levelo://app?vid=b354d40e-f748-45df-b8a4-085ee0f39b31"},"vehicle_type_id":"4","last_reported":1708186098,"current_range_meters":11200,"station_id":"ce4bhs92rcd13ifvqi0g","pricing_plan_id":"cebpf4jnsgd1na2vs0mg"},{"bike_id":"cc924a54-60e4-4421-b12c-5aa0bb659927","system_id":"levelo_inurba_marseille","lat":43.328371,"lon":5.366909,"is_reserved":false,"is_disabled":false,"rental_uris":{"android":"levelo://app?vid=cc924a54-60e4-4421-b12c-5aa0bb659927","ios":"levelo://app?vid=cc924a54-60e4-4421-b12c-5aa0bb659927"},"vehicle_type_id":"4","last_reported":1708186098,"current_range_meters":2800,"station_id":"ce4bhs92rcd13ifvqi0g","pricing_plan_id":"cebpf4jnsgd1na2vs0mg"},{"bike_id":"d125619a-6ae6-4def-8c67-f1352fae5a27","system_id":"levelo_inurba_marseille","lat":43.32826,"lon":5.36678,"is_reserved":false,"is_disabled":false,"rental_uris":{"android":"levelo://app?vid=d125619a-6ae6-4def-8c67-f1352fae5a27","ios":"levelo://app?vid=d125619a-6ae6-4def-8c67-f1352fae5a27"},"vehicle_type_id":"4","last_reported":1708186098,"current_range_meters":18400,"station_id":"ce4bhs92rcd13ifvqi0g","pricing_plan_id":"cebpf4jnsgd1na2vs0mg"},{"bike_id":"5195dc94-0b55-41c8-9198-580992dd67c5","system_id":"levelo_inurba_marseille","lat":43.32827,"lon":5.36678,"is_reserved":false,"is_disabled":false,"rental_uris":{"android":"levelo://app?vid=5195dc94-0b55-41c8-9198-580992dd67c5","ios":"levelo://app?vid=5195dc94-0b55-41c8-9198-580992dd67c5"},"vehicle_type_id":"4","last_reported":1708186098,"current_range_meters":20800,"station_id":"ce4bhs92rcd13ifvqi0g","pricing_plan_id":"cebpf4jnsgd1na2vs0mg"},{"bike_id":"aadfba98-88f5-4230-8488-f6b7556adf88","system_id":"levelo_inurba_marseille","lat":43.328278,"lon":5.36684,"is_reserved":false,"is_disabled":false,"rental_uris":{"android":"levelo://app?vid=aadfba98-88f5-4230-8488-f6b7556adf88","ios":"levelo://app?vid=aadfba98-88f5-4230-8488-f6b7556adf88"},"vehicle_type_id":"4","last_reported":1708186098,"current_range_meters":0,"station_id":"ce4bhs92rcd13ifvqi0g","pricing_plan_id":"cebpf4jnsgd1na2vs0mg"},{"bike_id":"4858fa03-d21d-48b2-a63e-a5500b96c079","system_id":"levelo_inurba_marseille","lat":43.32828,"lon":5.36689,"is_reserved":false,"is_disabled":false,"rental_uris":{"android":"levelo://app?vid=4858fa03-d21d-48b2-a63e-a5500b96c079","ios":"levelo://app?vid=4858fa03-d21d-48b2-a63e-a5500b96c079"},"vehicle_type_id":"4","last_reported":1708186098,"current_range_meters":2000,"station_id":"ce4bhs92rcd13ifvqi0g","pricing_plan_id":"cebpf4jnsgd1na2vs0mg"},{"bike_id":"2459963a-9a41-477a-9f46-310730d184fe","system_id":"levelo_inurba_marseille","lat":43.32828,"lon":5.36676,"is_reserved":false,"is_disabled":false,"rental_uris":{"android":"levelo://app?vid=2459963a-9a41-477a-9f46-310730d184fe","ios":"levelo://app?vid=2459963a-9a41-477a-9f46-310730d184fe"},"vehicle_type_id":"4","last_reported":1708186098,"current_range_meters":18000,"station_id":"ce4bhs92rcd13ifvqi0g","pricing_plan_id":"cebpf4jnsgd1na2vs0mg"},{"bike_id":"3833ec15-b081-4b20-84c5-72daf8aa7006","system_id":"levelo_inurba_marseille","lat":43.328284,"lon":5.366787,"is_reserved":false,"is_disabled":false,"rental_uris":{"android":"levelo://app?vid=3833ec15-b081-4b20-84c5-72daf8aa7006","ios":"levelo://app?vid=3833ec15-b081-4b20-84c5-72daf8aa7006"},"vehicle_type_id":"4","last_reported":1708186098,"current_range_meters":22000,"station_id":"ce4bhs92rcd13ifvqi0g","pricing_plan_id":"cebpf4jnsgd1na2vs0mg"},{"bike_id":"c9ca704a-95d9-467c-ad5a-5403d53c76ed","system_id":"levelo_inurba_marseille","lat":43.328371,"lon":5.366909,"is_reserved":false,"is_disabled":false,"rental_uris":{"android":"levelo://app?vid=c9ca704a-95d9-467c-ad5a-5403d53c76ed","ios":"levelo://app?vid=c9ca704a-95d9-467c-ad5a-5403d53c76ed"},"vehicle_type_id":"4","last_reported":1708186098,"current_range_meters":7600,"station_id":"ce4bhs92rcd13ifvqi0g","pricing_plan_id":"cebpf4jnsgd1na2vs0mg"},{"bike_id":"d059372d-713e-4306-a0dc-ef5b2b5ad059","system_id":"levelo_inurba_marseille","lat":43.3283,"lon":5.36683,"is_reserved":false,"is_disabled":false,"rental_uris":{"android":"levelo://app?vid=d059372d-713e-4306-a0dc-ef5b2b5ad059","ios":"levelo://app?vid=d059372d-713e-4306-a0dc-ef5b2b5ad059"},"vehicle_type_id":"4","last_reported":1708186098,"current_range_meters":22400,"station_id":"ce4bhs92rcd13ifvqi0g","pricing_plan_id":"cebpf4jnsgd1na2vs0mg"},{"bike_id":"9a9df145-9e54-4492-8621-de0756e6d559","system_id":"levelo_inurba_marseille","lat":43.32831,"lon":5.36691,"is_reserved":false,"is_disabled":false,"rental_uris":{"android":"levelo://app?vid=9a9df145-9e54-4492-8621-de0756e6d559","ios":"levelo://app?vid=9a9df145-9e54-4492-8621-de0756e6d559"},"vehicle_type_id":"4","last_reported":1708186098,"current_range_meters":0,"station_id":"ce4bhs92rcd13ifvqi0g","pricing_plan_id":"cebpf4jnsgd1na2vs0mg"},{"bike_id":"3ce3bf05-0e26-4ba4-9a11-4781ff3d0eb6","system_id":"levelo_inurba_marseille","lat":43.328371,"lon":5.366909,"is_reserved":false,"is_disabled":false,"rental_uris":{"android":"levelo://app?vid=3ce3bf05-0e26-4ba4-9a11-4781ff3d0eb6","ios":"levelo://app?vid=3ce3bf05-0e26-4ba4-9a11-4781ff3d0eb6"},"vehicle_type_id":"4","last_reported":1708186098,"current_range_meters":3600,"station_id":"ce4bhs92rcd13ifvqi0g","pricing_plan_id":"cebpf4jnsgd1na2vs0mg"},{"bike_id":"45a7a14e-9b1e-4a1b-ad54-93a32f013a67","system_id":"levelo_inurba_marseille","lat":43.328371,"lon":5.366909,"is_reserved":false,"is_disabled":false,"rental_uris":{"android":"levelo://app?vid=45a7a14e-9b1e-4a1b-ad54-93a32f013a67","ios":"levelo://app?vid=45a7a14e-9b1e-4a1b-ad54-93a32f013a67"},"vehicle_type_id":"4","last_reported":1708186098,"current_range_meters":12000,"station_id":"ce4bhs92rcd13ifvqi0g","pricing_plan_id":"cebpf4jnsgd1na2vs0mg"},{"bike_id":"3014b7f4-fa6c-4fe2-a077-cac4089e95bd","system_id":"levelo_inurba_marseille","lat":43.297163,"lon":5.365866,"is_reserved":false,"is_disabled":false,"rental_uris":{"android":"levelo://app?vid=3014b7f4-fa6c-4fe2-a077-cac4089e95bd","ios":"levelo://app?vid=3014b7f4-fa6c-4fe2-a077-cac4089e95bd"},"vehicle_type_id":"4","last_reported":1708186098,"current_range_meters":12000,"station_id":"ce4bgn12rcd13ifvqbt0","pricing_plan_id":"cebpf4jnsgd1na2vs0mg"},{"bike_id":"8948ce2d-458e-45d1-ad76-c09e1ea0f4cf","system_id":"levelo_inurba_marseille","lat":43.29573,"lon":5.367355,"is_reserved":false,"is_disabled":false,"rental_uris":{"android":"levelo://app?vid=8948ce2d-458e-45d1-ad76-c09e1ea0f4cf","ios":"levelo://app?vid=8948ce2d-458e-45d1-ad76-c09e1ea0f4cf"},"vehicle_type_id":"4","last_reported":1708186098,"current_range_meters":11600,"station_id":"ce4bgph2rcd13ifvqc2g","pricing_plan_id":"cebpf4jnsgd1na2vs0mg"},{"bike_id":"6b892dcd-ea25-49a3-a04f-fb893ec783c5","system_id":"levelo_inurba_marseille","lat":43.29576,"lon":5.36739,"is_reserved":false,"is_disabled":false,"rental_uris":{"android":"levelo://app?vid=6b892dcd-ea25-49a3-a04f-fb893ec783c5","ios":"levelo://app?vid=6b892dcd-ea25-49a3-a04f-fb893ec783c5"},"vehicle_type_id":"4","last_reported":1708186098,"current_range_meters":4800,"station_id":"","pricing_plan_id":"cebpf4jnsgd1na2vs0mg"},{"bike_id":"d655e613-a1a6-4fdc-92c4-bda8a9adeb62","system_id":"levelo_inurba_marseille","lat":43.296921,"lon":5.376579,"is_reserved":false,"is_disabled":false,"rental_uris":{"android":"levelo://app?vid=d655e613-a1a6-4fdc-92c4-bda8a9adeb62","ios":"levelo://app?vid=d655e613-a1a6-4fdc-92c4-bda8a9adeb62"},"vehicle_type_id":"4","last_reported":1708186098,"current_range_meters":0,"station_id":"ce4bgkh2rcd13ifvqbl0","pricing_plan_id":"cebpf4jnsgd1na2vs0mg"},{"bike_id":"3fa7e92a-25db-4177-8f54-bcf7d2f959b1","system_id":"levelo_inurba_marseille","lat":43.30953,"lon":5.39032,"is_reserved":false,"is_disabled":false,"rental_uris":{"android":"levelo://app?vid=3fa7e92a-25db-4177-8f54-bcf7d2f959b1","ios":"levelo://app?vid=3fa7e92a-25db-4177-8f54-bcf7d2f959b1"},"vehicle_type_id":"4","last_reported":1708186098,"current_range_meters":0,"station_id":"ce4bgup2rcd13ifvqco0","pricing_plan_id":"cebpf4jnsgd1na2vs0mg"},{"bike_id":"a86e4556-2555-4d8b-9f0d-01bf26762ce1","system_id":"levelo_inurba_marseille","lat":43.309589,"lon":5.390258,"is_reserved":false,"is_disabled":false,"rental_uris":{"android":"levelo://app?vid=a86e4556-2555-4d8b-9f0d-01bf26762ce1","ios":"levelo://app?vid=a86e4556-2555-4d8b-9f0d-01bf26762ce1"},"vehicle_type_id":"4","last_reported":1708186098,"current_range_meters":10800,"station_id":"ce4bgup2rcd13ifvqco0","pricing_plan_id":"cebpf4jnsgd1na2vs0mg"},{"bike_id":"a926afc2-88ba-4612-987a-be82749a25e0","system_id":"levelo_inurba_marseille","lat":43.309589,"lon":5.390258,"is_reserved":false,"is_disabled":false,"rental_uris":{"android":"levelo://app?vid=a926afc2-88ba-4612-987a-be82749a25e0","ios":"levelo://app?vid=a926afc2-88ba-4612-987a-be82749a25e0"},"vehicle_type_id":"4","last_reported":1708186098,"current_range_meters":23600,"station_id":"ce4bgup2rcd13ifvqco0","pricing_plan_id":"cebpf4jnsgd1na2vs0mg"},{"bike_id":"08d3f150-3803-46e0-adfd-192c30b80446","system_id":"levelo_inurba_marseille","lat":43.299028,"lon":5.381509,"is_reserved":false,"is_disabled":false,"rental_uris":{"android":"levelo://app?vid=08d3f150-3803-46e0-adfd-192c30b80446","ios":"levelo://app?vid=08d3f150-3803-46e0-adfd-192c30b80446"},"vehicle_type_id":"4","last_reported":1708186098,"current_range_meters":0,"station_id":"ce4bgj12rcd13ifvqbc0","pricing_plan_id":"cebpf4jnsgd1na2vs0mg"},{"bike_id":"1b7a4234-bddd-44fc-a528-80a01224d060","system_id":"levelo_inurba_marseille","lat":43.31762,"lon":5.3901,"is_reserved":false,"is_disabled":false,"rental_uris":{"android":"levelo://app?vid=1b7a4234-bddd-44fc-a528-80a01224d060","ios":"levelo://app?vid=1b7a4234-bddd-44fc-a528-80a01224d060"},"vehicle_type_id":"4","last_reported":1708186098,"current_range_meters":0,"station_id":"ce4bhqp2rcd13ifvqhng","pricing_plan_id":"cebpf4jnsgd1na2vs0mg"},{"bike_id":"efed216a-faca-4ca2-83ff-1695dcac3eef","system_id":"levelo_inurba_marseille","lat":43.317557,"lon":5.390173,"is_reserved":false,"is_disabled":false,"rental_uris":{"android":"levelo://app?vid=efed216a-faca-4ca2-83ff-1695dcac3eef","ios":"levelo://app?vid=efed216a-faca-4ca2-83ff-1695dcac3eef"},"vehicle_type_id":"4","last_reported":1708186098,"current_range_meters":16800,"station_id":"ce4bhqp2rcd13ifvqhng","pricing_plan_id":"cebpf4jnsgd1na2vs0mg"},{"bike_id":"b3dcb9ba-bf07-48c1-aada-2fbdb761a352","system_id":"levelo_inurba_marseille","lat":43.317557,"lon":5.390173,"is_reserved":false,"is_disabled":false,"rental_uris":{"android":"levelo://app?vid=b3dcb9ba-bf07-48c1-aada-2fbdb761a352","ios":"levelo://app?vid=b3dcb9ba-bf07-48c1-aada-2fbdb761a352"},"vehicle_type_id":"4","last_reported":1708186098,"current_range_meters":31600,"station_id":"ce4bhqp2rcd13ifvqhng","pricing_plan_id":"cebpf4jnsgd1na2vs0mg"},{"bike_id":"92c4433a-1432-4883-85e8-2b2d9843ff33","system_id":"levelo_inurba_marseille","lat":43.317557,"lon":5.390173,"is_reserved":false,"is_disabled":false,"rental_uris":{"android":"levelo://app?vid=92c4433a-1432-4883-85e8-2b2d9843ff33","ios":"levelo://app?vid=92c4433a-1432-4883-85e8-2b2d9843ff33"},"vehicle_type_id":"4","last_reported":1708186098,"current_range_meters":24800,"station_id":"ce4bhqp2rcd13ifvqhng","pricing_plan_id":"cebpf4jnsgd1na2vs0mg"},{"bike_id":"ed87d69f-71e3-4a80-a6a0-6a1355afd957","system_id":"levelo_inurba_marseille","lat":43.317591,"lon":5.39014,"is_reserved":false,"is_disabled":false,"rental_uris":{"android":"levelo://app?vid=ed87d69f-71e3-4a80-a6a0-6a1355afd957","ios":"levelo://app?vid=ed87d69f-71e3-4a80-a6a0-6a1355afd957"},"vehicle_type_id":"4","last_reported":1708186098,"current_range_meters":11200,"station_id":"ce4bhqp2rcd13ifvqhng","pricing_plan_id":"cebpf4jnsgd1na2vs0mg"},{"bike_id":"0ddd06ca-78d6-4fdc-92ed-9c8ef81f47fe","system_id":"levelo_inurba_marseille","lat":43.317557,"lon":5.390173,"is_reserved":false,"is_disabled":false,"rental_uris":{"android":"levelo://app?vid=0ddd06ca-78d6-4fdc-92ed-9c8ef81f47fe","ios":"levelo://app?vid=0ddd06ca-78d6-4fdc-92ed-9c8ef81f47fe"},"vehicle_type_id":"4","last_reported":1708186098,"current_range_meters":31200,"station_id":"ce4bhqp2rcd13ifvqhng","pricing_plan_id":"cebpf4jnsgd1na2vs0mg"},{"bike_id":"4128f872-093b-47f8-808d-0a19116b9dc4","system_id":"levelo_inurba_marseille","lat":43.317528,"lon":5.390184,"is_reserved":false,"is_disabled":false,"rental_uris":{"android":"levelo://app?vid=4128f872-093b-47f8-808d-0a19116b9dc4","ios":"levelo://app?vid=4128f872-093b-47f8-808d-0a19116b9dc4"},"vehicle_type_id":"4","last_reported":1708186098,"current_range_meters":6000,"station_id":"ce4bhqp2rcd13ifvqhng","pricing_plan_id":"cebpf4jnsgd1na2vs0mg"},{"bike_id":"44c0a2a0-88a3-4e19-8fc3-deba4ee3e011","system_id":"levelo_inurba_marseille","lat":43.317557,"lon":5.390173,"is_reserved":false,"is_disabled":false,"rental_uris":{"android":"levelo://app?vid=44c0a2a0-88a3-4e19-8fc3-deba4ee3e011","ios":"levelo://app?vid=44c0a2a0-88a3-4e19-8fc3-deba4ee3e011"},"vehicle_type_id":"4","last_reported":1708186098,"current_range_meters":24800,"station_id":"ce4bhqp2rcd13ifvqhng","pricing_plan_id":"cebpf4jnsgd1na2vs0mg"},{"bike_id":"d7ff2894-9c5e-41d5-878d-d5d27747d579","system_id":"levelo_inurba_marseille","lat":43.317557,"lon":5.390173,"is_reserved":false,"is_disabled":false,"rental_uris":{"android":"levelo://app?vid=d7ff2894-9c5e-41d5-878d-d5d27747d579","ios":"levelo://app?vid=d7ff2894-9c5e-41d5-878d-d5d27747d579"},"vehicle_type_id":"4","last_reported":1708186098,"current_range_meters":11200,"station_id":"ce4bhqp2rcd13ifvqhng","pricing_plan_id":"cebpf4jnsgd1na2vs0mg"},{"bike_id":"6ccb21c5-f410-4f97-a31b-5d3674cc4c24","system_id":"levelo_inurba_marseille","lat":43.317557,"lon":5.390173,"is_reserved":false,"is_disabled":false,"rental_uris":{"android":"levelo://app?vid=6ccb21c5-f410-4f97-a31b-5d3674cc4c24","ios":"levelo://app?vid=6ccb21c5-f410-4f97-a31b-5d3674cc4c24"},"vehicle_type_id":"4","last_reported":1708186098,"current_range_meters":31200,"station_id":"ce4bhqp2rcd13ifvqhng","pricing_plan_id":"cebpf4jnsgd1na2vs0mg"},{"bike_id":"a203661e-355b-42f4-9955-ac4c89f27d54","system_id":"levelo_inurba_marseille","lat":43.317557,"lon":5.390173,"is_reserved":false,"is_disabled":false,"rental_uris":{"android":"levelo://app?vid=a203661e-355b-42f4-9955-ac4c89f27d54","ios":"levelo://app?vid=a203661e-355b-42f4-9955-ac4c89f27d54"},"vehicle_type_id":"4","last_reported":1708186098,"current_range_meters":31200,"station_id":"ce4bhqp2rcd13ifvqhng","pricing_plan_id":"cebpf4jnsgd1na2vs0mg"},{"bike_id":"8b19d0ec-456b-4753-8097-2e2ef0dad484","system_id":"levelo_inurba_marseille","lat":43.317557,"lon":5.390173,"is_reserved":false,"is_disabled":false,"rental_uris":{"android":"levelo://app?vid=8b19d0ec-456b-4753-8097-2e2ef0dad484","ios":"levelo://app?vid=8b19d0ec-456b-4753-8097-2e2ef0dad484"},"vehicle_type_id":"4","last_reported":1708186098,"current_range_meters":31200,"station_id":"ce4bhqp2rcd13ifvqhng","pricing_plan_id":"cebpf4jnsgd1na2vs0mg"},{"bike_id":"b9ff7b9a-104a-4540-8290-f8fad157eb56","system_id":"levelo_inurba_marseille","lat":43.29505,"lon":5.36357,"is_reserved":false,"is_disabled":false,"rental_uris":{"android":"levelo://app?vid=b9ff7b9a-104a-4540-8290-f8fad157eb56","ios":"levelo://app?vid=b9ff7b9a-104a-4540-8290-f8fad157eb56"},"vehicle_type_id":"4","last_reported":1708186098,"current_range_meters":13600,"station_id":"","pricing_plan_id":"cebpf4jnsgd1na2vs0mg"},{"bike_id":"6b5f0d54-bcd5-4568-89c0-afed909a0147","system_id":"levelo_inurba_marseille","lat":43.29799,"lon":5.38086,"is_reserved":false,"is_disabled":false,"rental_uris":{"android":"levelo://app?vid=6b5f0d54-bcd5-4568-89c0-afed909a0147","ios":"levelo://app?vid=6b5f0d54-bcd5-4568-89c0-afed909a0147"},"vehicle_type_id":"4","last_reported":1708186098,"current_range_meters":0,"station_id":"ce4bgip2rcd13ifvqbb0","pricing_plan_id":"cebpf4jnsgd1na2vs0mg"},{"bike_id":"4ef65298-ba5e-4cc2-9230-4c818237f73a","system_id":"levelo_inurba_marseille","lat":43.298011,"lon":5.380994,"is_reserved":false,"is_disabled":false,"rental_uris":{"android":"levelo://app?vid=4ef65298-ba5e-4cc2-9230-4c818237f73a","ios":"levelo://app?vid=4ef65298-ba5e-4cc2-9230-4c818237f73a"},"vehicle_type_id":"4","last_reported":1708186098,"current_range_meters":0,"station_id":"ce4bgip2rcd13ifvqbb0","pricing_plan_id":"cebpf4jnsgd1na2vs0mg"},{"bike_id":"c72ee6f6-cc73-4523-8938-9f4c1a99f96d","system_id":"levelo_inurba_marseille","lat":43.298037,"lon":5.381066,"is_reserved":false,"is_disabled":false,"rental_uris":{"android":"levelo://app?vid=c72ee6f6-cc73-4523-8938-9f4c1a99f96d","ios":"levelo://app?vid=c72ee6f6-cc73-4523-8938-9f4c1a99f96d"},"vehicle_type_id":"4","last_reported":1708186098,"current_range_meters":3200,"station_id":"ce4bgip2rcd13ifvqbb0","pricing_plan_id":"cebpf4jnsgd1na2vs0mg"},{"bike_id":"faf604a0-17d0-413f-9079-daaf765cf9f4","system_id":"levelo_inurba_marseille","lat":43.304278,"lon":5.388868,"is_reserved":false,"is_disabled":false,"rental_uris":{"android":"levelo://app?vid=faf604a0-17d0-413f-9079-daaf765cf9f4","ios":"levelo://app?vid=faf604a0-17d0-413f-9079-daaf765cf9f4"},"vehicle_type_id":"4","last_reported":1708186098,"current_range_meters":26800,"station_id":"ce4bgk12rcd13ifvqbi0","pricing_plan_id":"cebpf4jnsgd1na2vs0mg"},{"bike_id":"99d38774-43b9-4ec3-8de2-a42ab27f4200","system_id":"levelo_inurba_marseille","lat":43.296131,"lon":5.370791,"is_reserved":false,"is_disabled":false,"rental_uris":{"android":"levelo://app?vid=99d38774-43b9-4ec3-8de2-a42ab27f4200","ios":"levelo://app?vid=99d38774-43b9-4ec3-8de2-a42ab27f4200"},"vehicle_type_id":"4","last_reported":1708186098,"current_range_meters":0,"station_id":"ce4bgnh2rcd13ifvqc0g","pricing_plan_id":"cebpf4jnsgd1na2vs0mg"},{"bike_id":"1f17d839-a5d2-44b0-b279-2eacd3ef3454","system_id":"levelo_inurba_marseille","lat":43.301429,"lon":5.388357,"is_reserved":false,"is_disabled":false,"rental_uris":{"android":"levelo://app?vid=1f17d839-a5d2-44b0-b279-2eacd3ef3454","ios":"levelo://app?vid=1f17d839-a5d2-44b0-b279-2eacd3ef3454"},"vehicle_type_id":"4","last_reported":1708186098,"current_range_meters":0,"station_id":"","pricing_plan_id":"cebpf4jnsgd1na2vs0mg"},{"bike_id":"552029bf-ca42-4d0d-83fb-83812017cfd4","system_id":"levelo_inurba_marseille","lat":43.32367,"lon":5.388836,"is_reserved":false,"is_disabled":false,"rental_uris":{"android":"levelo://app?vid=552029bf-ca42-4d0d-83fb-83812017cfd4","ios":"levelo://app?vid=552029bf-ca42-4d0d-83fb-83812017cfd4"},"vehicle_type_id":"4","last_reported":1708186098,"current_range_meters":21600,"station_id":"ce4bhqp2rcd13ifvqhog","pricing_plan_id":"cebpf4jnsgd1na2vs0mg"},{"bike_id":"75783be7-9010-4b66-ad21-b1903ad2b30e","system_id":"levelo_inurba_marseille","lat":43.32367,"lon":5.388836,"is_reserved":false,"is_disabled":false,"rental_uris":{"android":"levelo://app?vid=75783be7-9010-4b66-ad21-b1903ad2b30e","ios":"levelo://app?vid=75783be7-9010-4b66-ad21-b1903ad2b30e"},"vehicle_type_id":"4","last_reported":1708186098,"current_range_meters":0,"station_id":"ce4bhqp2rcd13ifvqhog","pricing_plan_id":"cebpf4jnsgd1na2vs0mg"},{"bike_id":"11f16d73-52cf-4b59-8120-4e257d4d363b","system_id":"levelo_inurba_marseille","lat":43.32367,"lon":5.388836,"is_reserved":false,"is_disabled":false,"rental_uris":{"android":"levelo://app?vid=11f16d73-52cf-4b59-8120-4e257d4d363b","ios":"levelo://app?vid=11f16d73-52cf-4b59-8120-4e257d4d363b"},"vehicle_type_id":"4","last_reported":1708186098,"current_range_meters":8000,"station_id":"ce4bhqp2rcd13ifvqhog","pricing_plan_id":"cebpf4jnsgd1na2vs0mg"},{"bike_id":"6af73b7c-3333-47f9-9c52-fb4e2c063bc2","system_id":"levelo_inurba_marseille","lat":43.32367,"lon":5.388836,"is_reserved":false,"is_disabled":false,"rental_uris":{"android":"levelo://app?vid=6af73b7c-3333-47f9-9c52-fb4e2c063bc2","ios":"levelo://app?vid=6af73b7c-3333-47f9-9c52-fb4e2c063bc2"},"vehicle_type_id":"4","last_reported":1708186098,"current_range_meters":10800,"station_id":"ce4bhqp2rcd13ifvqhog","pricing_plan_id":"cebpf4jnsgd1na2vs0mg"},{"bike_id":"85b7d3f5-0fa2-43f3-a410-8e41ce1cabfc","system_id":"levelo_inurba_marseille","lat":43.3237,"lon":5.38884,"is_reserved":false,"is_disabled":false,"rental_uris":{"android":"levelo://app?vid=85b7d3f5-0fa2-43f3-a410-8e41ce1cabfc","ios":"levelo://app?vid=85b7d3f5-0fa2-43f3-a410-8e41ce1cabfc"},"vehicle_type_id":"4","last_reported":1708186098,"current_range_meters":7600,"station_id":"ce4bhqp2rcd13ifvqhog","pricing_plan_id":"cebpf4jnsgd1na2vs0mg"},{"bike_id":"097fbc68-0e12-4cda-a32c-f9f7e74ee0ed","system_id":"levelo_inurba_marseille","lat":43.3237,"lon":5.38886,"is_reserved":false,"is_disabled":false,"rental_uris":{"android":"levelo://app?vid=097fbc68-0e12-4cda-a32c-f9f7e74ee0ed","ios":"levelo://app?vid=097fbc68-0e12-4cda-a32c-f9f7e74ee0ed"},"vehicle_type_id":"4","last_reported":1708186098,"current_range_meters":6400,"station_id":"ce4bhqp2rcd13ifvqhog","pricing_plan_id":"cebpf4jnsgd1na2vs0mg"},{"bike_id":"39218043-babe-4383-8f3e-ac96355ba56e","system_id":"levelo_inurba_marseille","lat":43.32367,"lon":5.388836,"is_reserved":false,"is_disabled":false,"rental_uris":{"android":"levelo://app?vid=39218043-babe-4383-8f3e-ac96355ba56e","ios":"levelo://app?vid=39218043-babe-4383-8f3e-ac96355ba56e"},"vehicle_type_id":"4","last_reported":1708186098,"current_range_meters":4000,"station_id":"ce4bhqp2rcd13ifvqhog","pricing_plan_id":"cebpf4jnsgd1na2vs0mg"},{"bike_id":"9d871f50-0327-4348-a9da-d10b72178825","system_id":"levelo_inurba_marseille","lat":43.32369,"lon":5.3889,"is_reserved":false,"is_disabled":false,"rental_uris":{"android":"levelo://app?vid=9d871f50-0327-4348-a9da-d10b72178825","ios":"levelo://app?vid=9d871f50-0327-4348-a9da-d10b72178825"},"vehicle_type_id":"4","last_reported":1708186098,"current_range_meters":23600,"station_id":"ce4bhqp2rcd13ifvqhog","pricing_plan_id":"cebpf4jnsgd1na2vs0mg"},{"bike_id":"47eafb4f-c4f4-4c49-adff-f0631aa24f49","system_id":"levelo_inurba_marseille","lat":43.32367,"lon":5.388836,"is_reserved":false,"is_disabled":false,"rental_uris":{"android":"levelo://app?vid=47eafb4f-c4f4-4c49-adff-f0631aa24f49","ios":"levelo://app?vid=47eafb4f-c4f4-4c49-adff-f0631aa24f49"},"vehicle_type_id":"4","last_reported":1708186098,"current_range_meters":18000,"station_id":"ce4bhqp2rcd13ifvqhog","pricing_plan_id":"cebpf4jnsgd1na2vs0mg"},{"bike_id":"1533657d-f2bb-4773-9f0e-92b33ca16aea","system_id":"levelo_inurba_marseille","lat":43.29602,"lon":5.381084,"is_reserved":false,"is_disabled":false,"rental_uris":{"android":"levelo://app?vid=1533657d-f2bb-4773-9f0e-92b33ca16aea","ios":"levelo://app?vid=1533657d-f2bb-4773-9f0e-92b33ca16aea"},"vehicle_type_id":"4","last_reported":1708186098,"current_range_meters":2000,"station_id":"ce4bgl12rcd13ifvqbo0","pricing_plan_id":"cebpf4jnsgd1na2vs0mg"},{"bike_id":"c39ba4d1-e5fc-40bf-8964-c3c12caca35b","system_id":"levelo_inurba_marseille","lat":43.292749,"lon":5.368402,"is_reserved":false,"is_disabled":false,"rental_uris":{"android":"levelo://app?vid=c39ba4d1-e5fc-40bf-8964-c3c12caca35b","ios":"levelo://app?vid=c39ba4d1-e5fc-40bf-8964-c3c12caca35b"},"vehicle_type_id":"4","last_reported":1708186098,"current_range_meters":23600,"station_id":"ce4bhbp2rcd13ifvqesg","pricing_plan_id":"cebpf4jnsgd1na2vs0mg"},{"bike_id":"782b98ae-42a4-46bd-9df2-9cdff5b4340e","system_id":"levelo_inurba_marseille","lat":43.289468,"lon":5.363719,"is_reserved":false,"is_disabled":false,"rental_uris":{"android":"levelo://app?vid=782b98ae-42a4-46bd-9df2-9cdff5b4340e","ios":"levelo://app?vid=782b98ae-42a4-46bd-9df2-9cdff5b4340e"},"vehicle_type_id":"4","last_reported":1708186098,"current_range_meters":18400,"station_id":"ce4bhc92rcd13ifvqetg","pricing_plan_id":"cebpf4jnsgd1na2vs0mg"},{"bike_id":"ca0b6e5b-868e-495b-a2aa-e59d60caebfc","system_id":"levelo_inurba_marseille","lat":43.305994,"lon":5.393687,"is_reserved":false,"is_disabled":false,"rental_uris":{"android":"levelo://app?vid=ca0b6e5b-868e-495b-a2aa-e59d60caebfc","ios":"levelo://app?vid=ca0b6e5b-868e-495b-a2aa-e59d60caebfc"},"vehicle_type_id":"4","last_reported":1708186098,"current_range_meters":31200,"station_id":"ce4bh0p2rcd13ifvqd80","pricing_plan_id":"cebpf4jnsgd1na2vs0mg"},{"bike_id":"12464700-7c76-4bb9-96d8-abc8fa33db9e","system_id":"levelo_inurba_marseille","lat":43.293009,"lon":5.374584,"is_reserved":false,"is_disabled":false,"rental_uris":{"android":"levelo://app?vid=12464700-7c76-4bb9-96d8-abc8fa33db9e","ios":"levelo://app?vid=12464700-7c76-4bb9-96d8-abc8fa33db9e"},"vehicle_type_id":"4","last_reported":1708186098,"current_range_meters":0,"station_id":"ce4bgi12rcd13ifvqb70","pricing_plan_id":"cebpf4jnsgd1na2vs0mg"},{"bike_id":"b89fc63a-13c7-4144-b90c-91c7a31e093e","system_id":"levelo_inurba_marseille","lat":43.30308,"lon":5.39204,"is_reserved":false,"is_disabled":false,"rental_uris":{"android":"levelo://app?vid=b89fc63a-13c7-4144-b90c-91c7a31e093e","ios":"levelo://app?vid=b89fc63a-13c7-4144-b90c-91c7a31e093e"},"vehicle_type_id":"4","last_reported":1708186098,"current_range_meters":0,"station_id":"ce4bgkh2rcd13ifvqbk0","pricing_plan_id":"cebpf4jnsgd1na2vs0mg"},{"bike_id":"37964e5f-1218-440f-9e5a-2eb483c1dbfc","system_id":"levelo_inurba_marseille","lat":43.302992,"lon":5.392136,"is_reserved":false,"is_disabled":false,"rental_uris":{"android":"levelo://app?vid=37964e5f-1218-440f-9e5a-2eb483c1dbfc","ios":"levelo://app?vid=37964e5f-1218-440f-9e5a-2eb483c1dbfc"},"vehicle_type_id":"4","last_reported":1708186098,"current_range_meters":5200,"station_id":"ce4bgkh2rcd13ifvqbk0","pricing_plan_id":"cebpf4jnsgd1na2vs0mg"},{"bike_id":"11f4a5ef-3d0e-4f9c-8af2-baa8e4d372b3","system_id":"levelo_inurba_marseille","lat":43.303019,"lon":5.392219,"is_reserved":false,"is_disabled":false,"rental_uris":{"android":"levelo://app?vid=11f4a5ef-3d0e-4f9c-8af2-baa8e4d372b3","ios":"levelo://app?vid=11f4a5ef-3d0e-4f9c-8af2-baa8e4d372b3"},"vehicle_type_id":"4","last_reported":1708186098,"current_range_meters":0,"station_id":"ce4bgkh2rcd13ifvqbk0","pricing_plan_id":"cebpf4jnsgd1na2vs0mg"},{"bike_id":"1966743a-11cf-4a91-9761-82d7c2befe9c","system_id":"levelo_inurba_marseille","lat":43.2936,"lon":5.37835,"is_reserved":false,"is_disabled":false,"rental_uris":{"android":"levelo://app?vid=1966743a-11cf-4a91-9761-82d7c2befe9c","ios":"levelo://app?vid=1966743a-11cf-4a91-9761-82d7c2befe9c"},"vehicle_type_id":"4","last_reported":1708186098,"current_range_meters":1200,"station_id":"ce4bgjh2rcd13ifvqbf0","pricing_plan_id":"cebpf4jnsgd1na2vs0mg"},{"bike_id":"658a511c-6f77-43bf-89ab-c6468ef69256","system_id":"levelo_inurba_marseille","lat":43.29224,"lon":5.36053,"is_reserved":false,"is_disabled":false,"rental_uris":{"android":"levelo://app?vid=658a511c-6f77-43bf-89ab-c6468ef69256","ios":"levelo://app?vid=658a511c-6f77-43bf-89ab-c6468ef69256"},"vehicle_type_id":"4","last_reported":1708186098,"current_range_meters":30000,"station_id":"ce4bhbh2rcd13ifvqeqg","pricing_plan_id":"cebpf4jnsgd1na2vs0mg"},{"bike_id":"dae9a895-e1c7-42de-809e-aa7941a40398","system_id":"levelo_inurba_marseille","lat":43.292223,"lon":5.360508,"is_reserved":false,"is_disabled":false,"rental_uris":{"android":"levelo://app?vid=dae9a895-e1c7-42de-809e-aa7941a40398","ios":"levelo://app?vid=dae9a895-e1c7-42de-809e-aa7941a40398"},"vehicle_type_id":"4","last_reported":1708186098,"current_range_meters":0,"station_id":"","pricing_plan_id":"cebpf4jnsgd1na2vs0mg"},{"bike_id":"72b7cb3c-fb1f-4a9a-9990-3e77e74eb905","system_id":"levelo_inurba_marseille","lat":43.29223,"lon":5.36046,"is_reserved":false,"is_disabled":false,"rental_uris":{"android":"levelo://app?vid=72b7cb3c-fb1f-4a9a-9990-3e77e74eb905","ios":"levelo://app?vid=72b7cb3c-fb1f-4a9a-9990-3e77e74eb905"},"vehicle_type_id":"4","last_reported":1708186098,"current_range_meters":30800,"station_id":"ce4bhbh2rcd13ifvqeqg","pricing_plan_id":"cebpf4jnsgd1na2vs0mg"},{"bike_id":"5891ac4e-1b61-4f05-bccb-975361ac5ee4","system_id":"levelo_inurba_marseille","lat":43.293009,"lon":5.374584,"is_reserved":false,"is_disabled":false,"rental_uris":{"android":"levelo://app?vid=5891ac4e-1b61-4f05-bccb-975361ac5ee4","ios":"levelo://app?vid=5891ac4e-1b61-4f05-bccb-975361ac5ee4"},"vehicle_type_id":"4","last_reported":1708186098,"current_range_meters":2400,"station_id":"ce4bgi12rcd13ifvqb70","pricing_plan_id":"cebpf4jnsgd1na2vs0mg"},{"bike_id":"62272959-a2e3-4fe6-a94f-e791e3bd2a9d","system_id":"levelo_inurba_marseille","lat":43.293009,"lon":5.374584,"is_reserved":false,"is_disabled":false,"rental_uris":{"android":"levelo://app?vid=62272959-a2e3-4fe6-a94f-e791e3bd2a9d","ios":"levelo://app?vid=62272959-a2e3-4fe6-a94f-e791e3bd2a9d"},"vehicle_type_id":"4","last_reported":1708186098,"current_range_meters":5200,"station_id":"ce4bgi12rcd13ifvqb70","pricing_plan_id":"cebpf4jnsgd1na2vs0mg"},{"bike_id":"db903208-a866-4ddc-b93c-5592ae1e2c4e","system_id":"levelo_inurba_marseille","lat":43.291675,"lon":5.371583,"is_reserved":false,"is_disabled":false,"rental_uris":{"android":"levelo://app?vid=db903208-a866-4ddc-b93c-5592ae1e2c4e","ios":"levelo://app?vid=db903208-a866-4ddc-b93c-5592ae1e2c4e"},"vehicle_type_id":"4","last_reported":1708186098,"current_range_meters":12400,"station_id":"ce4bha92rcd13ifvqeh0","pricing_plan_id":"cebpf4jnsgd1na2vs0mg"},{"bike_id":"69086abf-dcd5-408f-9553-ca20cae04675","system_id":"levelo_inurba_marseille","lat":43.291994,"lon":5.358066,"is_reserved":false,"is_disabled":false,"rental_uris":{"android":"levelo://app?vid=69086abf-dcd5-408f-9553-ca20cae04675","ios":"levelo://app?vid=69086abf-dcd5-408f-9553-ca20cae04675"},"vehicle_type_id":"4","last_reported":1708186098,"current_range_meters":2400,"station_id":"ce4bhb12rcd13ifvqel0","pricing_plan_id":"cebpf4jnsgd1na2vs0mg"},{"bike_id":"0883f246-8b88-4dcb-90c0-b043db918a5a","system_id":"levelo_inurba_marseille","lat":43.291984,"lon":5.357949,"is_reserved":false,"is_disabled":false,"rental_uris":{"android":"levelo://app?vid=0883f246-8b88-4dcb-90c0-b043db918a5a","ios":"levelo://app?vid=0883f246-8b88-4dcb-90c0-b043db918a5a"},"vehicle_type_id":"4","last_reported":1708186098,"current_range_meters":7200,"station_id":"ce4bhb12rcd13ifvqel0","pricing_plan_id":"cebpf4jnsgd1na2vs0mg"},{"bike_id":"7971e4fa-ae84-4d7e-b0b4-bfd4fad24e75","system_id":"levelo_inurba_marseille","lat":43.29195,"lon":5.35802,"is_reserved":false,"is_disabled":false,"rental_uris":{"android":"levelo://app?vid=7971e4fa-ae84-4d7e-b0b4-bfd4fad24e75","ios":"levelo://app?vid=7971e4fa-ae84-4d7e-b0b4-bfd4fad24e75"},"vehicle_type_id":"4","last_reported":1708186098,"current_range_meters":3200,"station_id":"ce4bhb12rcd13ifvqel0","pricing_plan_id":"cebpf4jnsgd1na2vs0mg"},{"bike_id":"f2073237-e9a5-40f1-8539-a846b97af420","system_id":"levelo_inurba_marseille","lat":43.29191,"lon":5.35793,"is_reserved":false,"is_disabled":false,"rental_uris":{"android":"levelo://app?vid=f2073237-e9a5-40f1-8539-a846b97af420","ios":"levelo://app?vid=f2073237-e9a5-40f1-8539-a846b97af420"},"vehicle_type_id":"4","last_reported":1708186098,"current_range_meters":0,"station_id":"ce4bhb12rcd13ifvqel0","pricing_plan_id":"cebpf4jnsgd1na2vs0mg"},{"bike_id":"6af9cbb7-5b8e-45cc-b893-bfcf6a3ad3cc","system_id":"levelo_inurba_marseille","lat":43.309038,"lon":5.396546,"is_reserved":false,"is_disabled":false,"rental_uris":{"android":"levelo://app?vid=6af9cbb7-5b8e-45cc-b893-bfcf6a3ad3cc","ios":"levelo://app?vid=6af9cbb7-5b8e-45cc-b893-bfcf6a3ad3cc"},"vehicle_type_id":"4","last_reported":1708186098,"current_range_meters":4400,"station_id":"ce4bh012rcd13ifvqcv0","pricing_plan_id":"cebpf4jnsgd1na2vs0mg"},{"bike_id":"2177d99b-2afc-411f-8c62-fe498d4858a1","system_id":"levelo_inurba_marseille","lat":43.29529,"lon":5.385581,"is_reserved":false,"is_disabled":false,"rental_uris":{"android":"levelo://app?vid=2177d99b-2afc-411f-8c62-fe498d4858a1","ios":"levelo://app?vid=2177d99b-2afc-411f-8c62-fe498d4858a1"},"vehicle_type_id":"4","last_reported":1708186098,"current_range_meters":26400,"station_id":"ce4bgih2rcd13ifvqba0","pricing_plan_id":"cebpf4jnsgd1na2vs0mg"},{"bike_id":"32723186-b482-49c4-8932-6f619153d48d","system_id":"levelo_inurba_marseille","lat":43.29529,"lon":5.385581,"is_reserved":false,"is_disabled":false,"rental_uris":{"android":"levelo://app?vid=32723186-b482-49c4-8932-6f619153d48d","ios":"levelo://app?vid=32723186-b482-49c4-8932-6f619153d48d"},"vehicle_type_id":"4","last_reported":1708186098,"current_range_meters":24400,"station_id":"ce4bgih2rcd13ifvqba0","pricing_plan_id":"cebpf4jnsgd1na2vs0mg"},{"bike_id":"ba6850ed-a21c-49b0-abe1-d28a44d75614","system_id":"levelo_inurba_marseille","lat":43.29533,"lon":5.3855,"is_reserved":false,"is_disabled":false,"rental_uris":{"android":"levelo://app?vid=ba6850ed-a21c-49b0-abe1-d28a44d75614","ios":"levelo://app?vid=ba6850ed-a21c-49b0-abe1-d28a44d75614"},"vehicle_type_id":"4","last_reported":1708186098,"current_range_meters":8400,"station_id":"ce4bgih2rcd13ifvqba0","pricing_plan_id":"cebpf4jnsgd1na2vs0mg"},{"bike_id":"f82d934f-89ab-47c9-ad3d-467036261ac9","system_id":"levelo_inurba_marseille","lat":43.29529,"lon":5.385581,"is_reserved":false,"is_disabled":false,"rental_uris":{"android":"levelo://app?vid=f82d934f-89ab-47c9-ad3d-467036261ac9","ios":"levelo://app?vid=f82d934f-89ab-47c9-ad3d-467036261ac9"},"vehicle_type_id":"4","last_reported":1708186098,"current_range_meters":2400,"station_id":"ce4bgih2rcd13ifvqba0","pricing_plan_id":"cebpf4jnsgd1na2vs0mg"},{"bike_id":"5fdc578b-3823-4109-b3ba-9fc67dcbb122","system_id":"levelo_inurba_marseille","lat":43.29529,"lon":5.385581,"is_reserved":false,"is_disabled":false,"rental_uris":{"android":"levelo://app?vid=5fdc578b-3823-4109-b3ba-9fc67dcbb122","ios":"levelo://app?vid=5fdc578b-3823-4109-b3ba-9fc67dcbb122"},"vehicle_type_id":"4","last_reported":1708186098,"current_range_meters":30000,"station_id":"ce4bgih2rcd13ifvqba0","pricing_plan_id":"cebpf4jnsgd1na2vs0mg"},{"bike_id":"fcba68cd-e5c4-444c-84dc-9a3c85fa8732","system_id":"levelo_inurba_marseille","lat":43.29181,"lon":5.357,"is_reserved":false,"is_disabled":false,"rental_uris":{"android":"levelo://app?vid=fcba68cd-e5c4-444c-84dc-9a3c85fa8732","ios":"levelo://app?vid=fcba68cd-e5c4-444c-84dc-9a3c85fa8732"},"vehicle_type_id":"4","last_reported":1708186098,"current_range_meters":30400,"station_id":"","pricing_plan_id":"cebpf4jnsgd1na2vs0mg"},{"bike_id":"37fb6991-0dba-450c-b21c-41b466adeca2","system_id":"levelo_inurba_marseille","lat":43.30224,"lon":5.394078,"is_reserved":false,"is_disabled":false,"rental_uris":{"android":"levelo://app?vid=37fb6991-0dba-450c-b21c-41b466adeca2","ios":"levelo://app?vid=37fb6991-0dba-450c-b21c-41b466adeca2"},"vehicle_type_id":"4","last_reported":1708186098,"current_range_meters":14400,"station_id":"","pricing_plan_id":"cebpf4jnsgd1na2vs0mg"},{"bike_id":"59564bb3-130e-4636-9c6f-2f6323409043","system_id":"levelo_inurba_marseille","lat":43.302008,"lon":5.394694,"is_reserved":false,"is_disabled":false,"rental_uris":{"android":"levelo://app?vid=59564bb3-130e-4636-9c6f-2f6323409043","ios":"levelo://app?vid=59564bb3-130e-4636-9c6f-2f6323409043"},"vehicle_type_id":"4","last_reported":1708186098,"current_range_meters":0,"station_id":"ce4bh0p2rcd13ifvqd70","pricing_plan_id":"cebpf4jnsgd1na2vs0mg"},{"bike_id":"aad02c22-50ba-4625-8e4c-e765868aa200","system_id":"levelo_inurba_marseille","lat":43.302008,"lon":5.394694,"is_reserved":false,"is_disabled":false,"rental_uris":{"android":"levelo://app?vid=aad02c22-50ba-4625-8e4c-e765868aa200","ios":"levelo://app?vid=aad02c22-50ba-4625-8e4c-e765868aa200"},"vehicle_type_id":"4","last_reported":1708186098,"current_range_meters":16000,"station_id":"ce4bh0p2rcd13ifvqd70","pricing_plan_id":"cebpf4jnsgd1na2vs0mg"},{"bike_id":"4610659a-fce4-4355-9ad8-1cc6bb37db98","system_id":"levelo_inurba_marseille","lat":43.290631,"lon":5.359244,"is_reserved":false,"is_disabled":false,"rental_uris":{"android":"levelo://app?vid=4610659a-fce4-4355-9ad8-1cc6bb37db98","ios":"levelo://app?vid=4610659a-fce4-4355-9ad8-1cc6bb37db98"},"vehicle_type_id":"4","last_reported":1708186098,"current_range_meters":18800,"station_id":"ce4bha92rcd13ifvqeg0","pricing_plan_id":"cebpf4jnsgd1na2vs0mg"},{"bike_id":"fbab8fb1-c299-453b-844e-04b34699a43a","system_id":"levelo_inurba_marseille","lat":43.294153,"lon":5.386305,"is_reserved":false,"is_disabled":false,"rental_uris":{"android":"levelo://app?vid=fbab8fb1-c299-453b-844e-04b34699a43a","ios":"levelo://app?vid=fbab8fb1-c299-453b-844e-04b34699a43a"},"vehicle_type_id":"4","last_reported":1708186098,"current_range_meters":22000,"station_id":"ce4bh2h2rcd13ifvqdh0","pricing_plan_id":"cebpf4jnsgd1na2vs0mg"},{"bike_id":"9b2a842b-9c1a-4aff-8f23-9a7905027db7","system_id":"levelo_inurba_marseille","lat":43.294162,"lon":5.386292,"is_reserved":false,"is_disabled":false,"rental_uris":{"android":"levelo://app?vid=9b2a842b-9c1a-4aff-8f23-9a7905027db7","ios":"levelo://app?vid=9b2a842b-9c1a-4aff-8f23-9a7905027db7"},"vehicle_type_id":"4","last_reported":1708186098,"current_range_meters":10400,"station_id":"ce4bh2h2rcd13ifvqdh0","pricing_plan_id":"cebpf4jnsgd1na2vs0mg"},{"bike_id":"43989287-bde0-4761-a933-ca3aec1b2e3b","system_id":"levelo_inurba_marseille","lat":43.29414,"lon":5.38623,"is_reserved":false,"is_disabled":false,"rental_uris":{"android":"levelo://app?vid=43989287-bde0-4761-a933-ca3aec1b2e3b","ios":"levelo://app?vid=43989287-bde0-4761-a933-ca3aec1b2e3b"},"vehicle_type_id":"4","last_reported":1708186098,"current_range_meters":0,"station_id":"ce4bh2h2rcd13ifvqdh0","pricing_plan_id":"cebpf4jnsgd1na2vs0mg"},{"bike_id":"67832a4b-ff39-4e8b-a8b8-eb2d8701a9d4","system_id":"levelo_inurba_marseille","lat":43.294162,"lon":5.386292,"is_reserved":false,"is_disabled":false,"rental_uris":{"android":"levelo://app?vid=67832a4b-ff39-4e8b-a8b8-eb2d8701a9d4","ios":"levelo://app?vid=67832a4b-ff39-4e8b-a8b8-eb2d8701a9d4"},"vehicle_type_id":"4","last_reported":1708186098,"current_range_meters":25600,"station_id":"ce4bh2h2rcd13ifvqdh0","pricing_plan_id":"cebpf4jnsgd1na2vs0mg"},{"bike_id":"56f3e9e1-73a2-4e65-8a0c-c29fee41f9a0","system_id":"levelo_inurba_marseille","lat":43.289184,"lon":5.366408,"is_reserved":false,"is_disabled":false,"rental_uris":{"android":"levelo://app?vid=56f3e9e1-73a2-4e65-8a0c-c29fee41f9a0","ios":"levelo://app?vid=56f3e9e1-73a2-4e65-8a0c-c29fee41f9a0"},"vehicle_type_id":"4","last_reported":1708186098,"current_range_meters":5600,"station_id":"ce4bhap2rcd13ifvqek0","pricing_plan_id":"cebpf4jnsgd1na2vs0mg"},{"bike_id":"50f2ddfc-9be0-4357-95a2-10b10eb38b96","system_id":"levelo_inurba_marseille","lat":43.289468,"lon":5.363719,"is_reserved":false,"is_disabled":false,"rental_uris":{"android":"levelo://app?vid=50f2ddfc-9be0-4357-95a2-10b10eb38b96","ios":"levelo://app?vid=50f2ddfc-9be0-4357-95a2-10b10eb38b96"},"vehicle_type_id":"4","last_reported":1708186098,"current_range_meters":12000,"station_id":"ce4bhc92rcd13ifvqetg","pricing_plan_id":"cebpf4jnsgd1na2vs0mg"},{"bike_id":"215e785b-87b0-4229-b181-5d600dc1e1b7","system_id":"levelo_inurba_marseille","lat":43.289364,"lon":5.366317,"is_reserved":false,"is_disabled":false,"rental_uris":{"android":"levelo://app?vid=215e785b-87b0-4229-b181-5d600dc1e1b7","ios":"levelo://app?vid=215e785b-87b0-4229-b181-5d600dc1e1b7"},"vehicle_type_id":"4","last_reported":1708186098,"current_range_meters":400,"station_id":"ce4bhc92rcd13ifvqetg","pricing_plan_id":"cebpf4jnsgd1na2vs0mg"},{"bike_id":"a3635157-7087-49e5-8635-95872137b51d","system_id":"levelo_inurba_marseille","lat":43.290213,"lon":5.357368,"is_reserved":false,"is_disabled":false,"rental_uris":{"android":"levelo://app?vid=a3635157-7087-49e5-8635-95872137b51d","ios":"levelo://app?vid=a3635157-7087-49e5-8635-95872137b51d"},"vehicle_type_id":"4","last_reported":1708186098,"current_range_meters":26800,"station_id":"ce4bhb92rcd13ifvqen0","pricing_plan_id":"cebpf4jnsgd1na2vs0mg"},{"bike_id":"65b5d8b0-61f0-4254-9ad5-d6b0070589ed","system_id":"levelo_inurba_marseille","lat":43.292644,"lon":5.384257,"is_reserved":false,"is_disabled":false,"rental_uris":{"android":"levelo://app?vid=65b5d8b0-61f0-4254-9ad5-d6b0070589ed","ios":"levelo://app?vid=65b5d8b0-61f0-4254-9ad5-d6b0070589ed"},"vehicle_type_id":"4","last_reported":1708186098,"current_range_meters":4400,"station_id":"ce4bh692rcd13ifvqea0","pricing_plan_id":"cebpf4jnsgd1na2vs0mg"},{"bike_id":"4192dfb7-a793-4faa-ac6c-5b117435bf09","system_id":"levelo_inurba_marseille","lat":43.292642,"lon":5.384254,"is_reserved":false,"is_disabled":false,"rental_uris":{"android":"levelo://app?vid=4192dfb7-a793-4faa-ac6c-5b117435bf09","ios":"levelo://app?vid=4192dfb7-a793-4faa-ac6c-5b117435bf09"},"vehicle_type_id":"4","last_reported":1708186098,"current_range_meters":800,"station_id":"ce4bh692rcd13ifvqea0","pricing_plan_id":"cebpf4jnsgd1na2vs0mg"},{"bike_id":"74f263cd-7ca1-47a9-8991-9c763a688bc9","system_id":"levelo_inurba_marseille","lat":43.292642,"lon":5.384254,"is_reserved":false,"is_disabled":false,"rental_uris":{"android":"levelo://app?vid=74f263cd-7ca1-47a9-8991-9c763a688bc9","ios":"levelo://app?vid=74f263cd-7ca1-47a9-8991-9c763a688bc9"},"vehicle_type_id":"4","last_reported":1708186098,"current_range_meters":10400,"station_id":"ce4bh692rcd13ifvqea0","pricing_plan_id":"cebpf4jnsgd1na2vs0mg"},{"bike_id":"b1e86daa-c4d5-4e27-ba0c-5a7a4cacdd9a","system_id":"levelo_inurba_marseille","lat":43.292642,"lon":5.384254,"is_reserved":false,"is_disabled":false,"rental_uris":{"android":"levelo://app?vid=b1e86daa-c4d5-4e27-ba0c-5a7a4cacdd9a","ios":"levelo://app?vid=b1e86daa-c4d5-4e27-ba0c-5a7a4cacdd9a"},"vehicle_type_id":"4","last_reported":1708186098,"current_range_meters":19600,"station_id":"ce4bh692rcd13ifvqea0","pricing_plan_id":"cebpf4jnsgd1na2vs0mg"},{"bike_id":"500381ba-8db2-4bf8-9fb6-0590b2e4bc4d","system_id":"levelo_inurba_marseille","lat":43.292642,"lon":5.384254,"is_reserved":false,"is_disabled":false,"rental_uris":{"android":"levelo://app?vid=500381ba-8db2-4bf8-9fb6-0590b2e4bc4d","ios":"levelo://app?vid=500381ba-8db2-4bf8-9fb6-0590b2e4bc4d"},"vehicle_type_id":"4","last_reported":1708186098,"current_range_meters":0,"station_id":"ce4bh692rcd13ifvqea0","pricing_plan_id":"cebpf4jnsgd1na2vs0mg"},{"bike_id":"f51d4c7f-2bbf-4611-9706-abaa833925dc","system_id":"levelo_inurba_marseille","lat":43.29011,"lon":5.35616,"is_reserved":false,"is_disabled":false,"rental_uris":{"android":"levelo://app?vid=f51d4c7f-2bbf-4611-9706-abaa833925dc","ios":"levelo://app?vid=f51d4c7f-2bbf-4611-9706-abaa833925dc"},"vehicle_type_id":"4","last_reported":1708186098,"current_range_meters":29200,"station_id":"ce4bhch2rcd13ifvqeug","pricing_plan_id":"cebpf4jnsgd1na2vs0mg"},{"bike_id":"d8daecb7-e64a-4b1c-af22-54d7f1072dc0","system_id":"levelo_inurba_marseille","lat":43.290104,"lon":5.356111,"is_reserved":false,"is_disabled":false,"rental_uris":{"android":"levelo://app?vid=d8daecb7-e64a-4b1c-af22-54d7f1072dc0","ios":"levelo://app?vid=d8daecb7-e64a-4b1c-af22-54d7f1072dc0"},"vehicle_type_id":"4","last_reported":1708186098,"current_range_meters":0,"station_id":"ce4bhb92rcd13ifvqen0","pricing_plan_id":"cebpf4jnsgd1na2vs0mg"},{"bike_id":"64c8a977-e817-4529-bbbf-d54830de4873","system_id":"levelo_inurba_marseille","lat":43.29103,"lon":5.38085,"is_reserved":false,"is_disabled":false,"rental_uris":{"android":"levelo://app?vid=64c8a977-e817-4529-bbbf-d54830de4873","ios":"levelo://app?vid=64c8a977-e817-4529-bbbf-d54830de4873"},"vehicle_type_id":"4","last_reported":1708186098,"current_range_meters":24000,"station_id":"","pricing_plan_id":"cebpf4jnsgd1na2vs0mg"},{"bike_id":"f185aa91-b30f-4f77-a432-c994df085a99","system_id":"levelo_inurba_marseille","lat":43.290076,"lon":5.35619,"is_reserved":false,"is_disabled":false,"rental_uris":{"android":"levelo://app?vid=f185aa91-b30f-4f77-a432-c994df085a99","ios":"levelo://app?vid=f185aa91-b30f-4f77-a432-c994df085a99"},"vehicle_type_id":"4","last_reported":1708186098,"current_range_meters":30800,"station_id":"ce4bhb92rcd13ifvqen0","pricing_plan_id":"cebpf4jnsgd1na2vs0mg"},{"bike_id":"9e925bdb-a399-43ba-912b-860379121cda","system_id":"levelo_inurba_marseille","lat":43.290104,"lon":5.356111,"is_reserved":false,"is_disabled":false,"rental_uris":{"android":"levelo://app?vid=9e925bdb-a399-43ba-912b-860379121cda","ios":"levelo://app?vid=9e925bdb-a399-43ba-912b-860379121cda"},"vehicle_type_id":"4","last_reported":1708186098,"current_range_meters":22000,"station_id":"ce4bhb92rcd13ifvqen0","pricing_plan_id":"cebpf4jnsgd1na2vs0mg"},{"bike_id":"7f0afdd3-9eeb-46f2-a302-930ed37a9edb","system_id":"levelo_inurba_marseille","lat":43.290037,"lon":5.356177,"is_reserved":false,"is_disabled":false,"rental_uris":{"android":"levelo://app?vid=7f0afdd3-9eeb-46f2-a302-930ed37a9edb","ios":"levelo://app?vid=7f0afdd3-9eeb-46f2-a302-930ed37a9edb"},"vehicle_type_id":"4","last_reported":1708186098,"current_range_meters":19200,"station_id":"ce4bhb92rcd13ifvqen0","pricing_plan_id":"cebpf4jnsgd1na2vs0mg"},{"bike_id":"c2edf84b-fe24-43aa-a240-8f2aed1482be","system_id":"levelo_inurba_marseille","lat":43.290104,"lon":5.356111,"is_reserved":false,"is_disabled":false,"rental_uris":{"android":"levelo://app?vid=c2edf84b-fe24-43aa-a240-8f2aed1482be","ios":"levelo://app?vid=c2edf84b-fe24-43aa-a240-8f2aed1482be"},"vehicle_type_id":"4","last_reported":1708186098,"current_range_meters":0,"station_id":"ce4bhb92rcd13ifvqen0","pricing_plan_id":"cebpf4jnsgd1na2vs0mg"},{"bike_id":"c5d03d12-519b-4476-a6ba-8b1390b65be8","system_id":"levelo_inurba_marseille","lat":43.290104,"lon":5.356111,"is_reserved":false,"is_disabled":false,"rental_uris":{"android":"levelo://app?vid=c5d03d12-519b-4476-a6ba-8b1390b65be8","ios":"levelo://app?vid=c5d03d12-519b-4476-a6ba-8b1390b65be8"},"vehicle_type_id":"4","last_reported":1708186098,"current_range_meters":0,"station_id":"ce4bhb92rcd13ifvqen0","pricing_plan_id":"cebpf4jnsgd1na2vs0mg"},{"bike_id":"867944cc-9f64-429c-8dc3-b81f3cb7ff29","system_id":"levelo_inurba_marseille","lat":43.290012,"lon":5.356159,"is_reserved":false,"is_disabled":false,"rental_uris":{"android":"levelo://app?vid=867944cc-9f64-429c-8dc3-b81f3cb7ff29","ios":"levelo://app?vid=867944cc-9f64-429c-8dc3-b81f3cb7ff29"},"vehicle_type_id":"4","last_reported":1708186098,"current_range_meters":0,"station_id":"ce4bhb92rcd13ifvqen0","pricing_plan_id":"cebpf4jnsgd1na2vs0mg"},{"bike_id":"5c20924e-fd5e-4188-a9ba-b5fb1d7a8e01","system_id":"levelo_inurba_marseille","lat":43.290104,"lon":5.356111,"is_reserved":false,"is_disabled":false,"rental_uris":{"android":"levelo://app?vid=5c20924e-fd5e-4188-a9ba-b5fb1d7a8e01","ios":"levelo://app?vid=5c20924e-fd5e-4188-a9ba-b5fb1d7a8e01"},"vehicle_type_id":"4","last_reported":1708186098,"current_range_meters":2000,"station_id":"ce4bhb92rcd13ifvqen0","pricing_plan_id":"cebpf4jnsgd1na2vs0mg"},{"bike_id":"7fb382a7-1178-4f5a-aadd-22faa1b4871d","system_id":"levelo_inurba_marseille","lat":43.290104,"lon":5.356111,"is_reserved":false,"is_disabled":false,"rental_uris":{"android":"levelo://app?vid=7fb382a7-1178-4f5a-aadd-22faa1b4871d","ios":"levelo://app?vid=7fb382a7-1178-4f5a-aadd-22faa1b4871d"},"vehicle_type_id":"4","last_reported":1708186098,"current_range_meters":5200,"station_id":"ce4bhb92rcd13ifvqen0","pricing_plan_id":"cebpf4jnsgd1na2vs0mg"},{"bike_id":"4e2d23a9-046f-458c-956f-a59b943e4805","system_id":"levelo_inurba_marseille","lat":43.28994,"lon":5.35611,"is_reserved":false,"is_disabled":false,"rental_uris":{"android":"levelo://app?vid=4e2d23a9-046f-458c-956f-a59b943e4805","ios":"levelo://app?vid=4e2d23a9-046f-458c-956f-a59b943e4805"},"vehicle_type_id":"4","last_reported":1708186098,"current_range_meters":17600,"station_id":"ce4bhb92rcd13ifvqen0","pricing_plan_id":"cebpf4jnsgd1na2vs0mg"},{"bike_id":"01ce5799-3ba5-46b8-989d-af5e76560b51","system_id":"levelo_inurba_marseille","lat":43.290995,"lon":5.381361,"is_reserved":false,"is_disabled":false,"rental_uris":{"android":"levelo://app?vid=01ce5799-3ba5-46b8-989d-af5e76560b51","ios":"levelo://app?vid=01ce5799-3ba5-46b8-989d-af5e76560b51"},"vehicle_type_id":"4","last_reported":1708186098,"current_range_meters":0,"station_id":"ce4bh512rcd13ifvqe2g","pricing_plan_id":"cebpf4jnsgd1na2vs0mg"},{"bike_id":"9a43e49a-4d88-48db-a283-24494d5460ad","system_id":"levelo_inurba_marseille","lat":43.289741,"lon":5.378306,"is_reserved":false,"is_disabled":false,"rental_uris":{"android":"levelo://app?vid=9a43e49a-4d88-48db-a283-24494d5460ad","ios":"levelo://app?vid=9a43e49a-4d88-48db-a283-24494d5460ad"},"vehicle_type_id":"4","last_reported":1708186098,"current_range_meters":0,"station_id":"ce4bh9p2rcd13ifvqed0","pricing_plan_id":"cebpf4jnsgd1na2vs0mg"},{"bike_id":"9ccad124-d62b-4cd0-a44f-48ca5759d208","system_id":"levelo_inurba_marseille","lat":43.295169,"lon":5.390426,"is_reserved":false,"is_disabled":false,"rental_uris":{"android":"levelo://app?vid=9ccad124-d62b-4cd0-a44f-48ca5759d208","ios":"levelo://app?vid=9ccad124-d62b-4cd0-a44f-48ca5759d208"},"vehicle_type_id":"4","last_reported":1708186098,"current_range_meters":7200,"station_id":"ce4bh3p2rcd13ifvqdp0","pricing_plan_id":"cebpf4jnsgd1na2vs0mg"},{"bike_id":"39cae70d-2498-41a7-b81d-13862d43916b","system_id":"levelo_inurba_marseille","lat":43.295169,"lon":5.390426,"is_reserved":false,"is_disabled":false,"rental_uris":{"android":"levelo://app?vid=39cae70d-2498-41a7-b81d-13862d43916b","ios":"levelo://app?vid=39cae70d-2498-41a7-b81d-13862d43916b"},"vehicle_type_id":"4","last_reported":1708186098,"current_range_meters":11600,"station_id":"ce4bh3p2rcd13ifvqdp0","pricing_plan_id":"cebpf4jnsgd1na2vs0mg"},{"bike_id":"552957ef-a11e-4b67-8285-62e131c03149","system_id":"levelo_inurba_marseille","lat":43.330442,"lon":5.389148,"is_reserved":false,"is_disabled":false,"rental_uris":{"android":"levelo://app?vid=552957ef-a11e-4b67-8285-62e131c03149","ios":"levelo://app?vid=552957ef-a11e-4b67-8285-62e131c03149"},"vehicle_type_id":"4","last_reported":1708186098,"current_range_meters":26000,"station_id":"ce4bhr92rcd13ifvqhrg","pricing_plan_id":"cebpf4jnsgd1na2vs0mg"},{"bike_id":"035f51cb-1968-4ae8-b60c-a996f2abaf45","system_id":"levelo_inurba_marseille","lat":43.289741,"lon":5.378306,"is_reserved":false,"is_disabled":false,"rental_uris":{"android":"levelo://app?vid=035f51cb-1968-4ae8-b60c-a996f2abaf45","ios":"levelo://app?vid=035f51cb-1968-4ae8-b60c-a996f2abaf45"},"vehicle_type_id":"4","last_reported":1708186098,"current_range_meters":6400,"station_id":"ce4bh9p2rcd13ifvqed0","pricing_plan_id":"cebpf4jnsgd1na2vs0mg"},{"bike_id":"d0c7e855-123a-43d0-9f3e-24683eb5f3d0","system_id":"levelo_inurba_marseille","lat":43.330442,"lon":5.389148,"is_reserved":false,"is_disabled":false,"rental_uris":{"android":"levelo://app?vid=d0c7e855-123a-43d0-9f3e-24683eb5f3d0","ios":"levelo://app?vid=d0c7e855-123a-43d0-9f3e-24683eb5f3d0"},"vehicle_type_id":"4","last_reported":1708186098,"current_range_meters":11600,"station_id":"ce4bhr92rcd13ifvqhrg","pricing_plan_id":"cebpf4jnsgd1na2vs0mg"},{"bike_id":"32a32ef1-c040-403d-ac00-386f42a7c636","system_id":"levelo_inurba_marseille","lat":43.2901,"lon":5.381269,"is_reserved":false,"is_disabled":false,"rental_uris":{"android":"levelo://app?vid=32a32ef1-c040-403d-ac00-386f42a7c636","ios":"levelo://app?vid=32a32ef1-c040-403d-ac00-386f42a7c636"},"vehicle_type_id":"4","last_reported":1708186098,"current_range_meters":30000,"station_id":"ce4bh4p2rcd13ifvqe1g","pricing_plan_id":"cebpf4jnsgd1na2vs0mg"},{"bike_id":"4d48373e-fd9c-4f8b-865a-f3e5ebd978db","system_id":"levelo_inurba_marseille","lat":43.309371,"lon":5.401449,"is_reserved":false,"is_disabled":false,"rental_uris":{"android":"levelo://app?vid=4d48373e-fd9c-4f8b-865a-f3e5ebd978db","ios":"levelo://app?vid=4d48373e-fd9c-4f8b-865a-f3e5ebd978db"},"vehicle_type_id":"4","last_reported":1708186098,"current_range_meters":0,"station_id":"ce4bgvp2rcd13ifvqct0","pricing_plan_id":"cebpf4jnsgd1na2vs0mg"},{"bike_id":"0fe061df-cd37-4ce1-b218-30c698c6033c","system_id":"levelo_inurba_marseille","lat":43.28857,"lon":5.35855,"is_reserved":false,"is_disabled":false,"rental_uris":{"android":"levelo://app?vid=0fe061df-cd37-4ce1-b218-30c698c6033c","ios":"levelo://app?vid=0fe061df-cd37-4ce1-b218-30c698c6033c"},"vehicle_type_id":"4","last_reported":1708186098,"current_range_meters":15200,"station_id":"ce4bhb12rcd13ifvqem0","pricing_plan_id":"cebpf4jnsgd1na2vs0mg"},{"bike_id":"c7c62bf1-6664-42b2-b8e3-a935ae9899bc","system_id":"levelo_inurba_marseille","lat":43.28849,"lon":5.35855,"is_reserved":false,"is_disabled":false,"rental_uris":{"android":"levelo://app?vid=c7c62bf1-6664-42b2-b8e3-a935ae9899bc","ios":"levelo://app?vid=c7c62bf1-6664-42b2-b8e3-a935ae9899bc"},"vehicle_type_id":"4","last_reported":1708186098,"current_range_meters":2400,"station_id":"ce4bhb12rcd13ifvqem0","pricing_plan_id":"cebpf4jnsgd1na2vs0mg"},{"bike_id":"e67d1a21-69aa-4441-82ed-451ba91c0030","system_id":"levelo_inurba_marseille","lat":43.28922,"lon":5.35456,"is_reserved":false,"is_disabled":false,"rental_uris":{"android":"levelo://app?vid=e67d1a21-69aa-4441-82ed-451ba91c0030","ios":"levelo://app?vid=e67d1a21-69aa-4441-82ed-451ba91c0030"},"vehicle_type_id":"4","last_reported":1708186098,"current_range_meters":20800,"station_id":"ce4bhi12rcd13ifvqfp0","pricing_plan_id":"cebpf4jnsgd1na2vs0mg"},{"bike_id":"fe6bf883-a866-4d63-b6ed-bbd3739b01f1","system_id":"levelo_inurba_marseille","lat":43.312677,"lon":5.401635,"is_reserved":false,"is_disabled":false,"rental_uris":{"android":"levelo://app?vid=fe6bf883-a866-4d63-b6ed-bbd3739b01f1","ios":"levelo://app?vid=fe6bf883-a866-4d63-b6ed-bbd3739b01f1"},"vehicle_type_id":"4","last_reported":1708186098,"current_range_meters":2800,"station_id":"ce4bh092rcd13ifvqd30","pricing_plan_id":"cebpf4jnsgd1na2vs0mg"},{"bike_id":"c824b3df-300d-4cad-a8f8-737768589e7f","system_id":"levelo_inurba_marseille","lat":43.33744,"lon":5.37458,"is_reserved":false,"is_disabled":false,"rental_uris":{"android":"levelo://app?vid=c824b3df-300d-4cad-a8f8-737768589e7f","ios":"levelo://app?vid=c824b3df-300d-4cad-a8f8-737768589e7f"},"vehicle_type_id":"4","last_reported":1708186098,"current_range_meters":23600,"station_id":"","pricing_plan_id":"cebpf4jnsgd1na2vs0mg"},{"bike_id":"7a4457a9-3bd4-4628-8c88-9902c5c677a6","system_id":"levelo_inurba_marseille","lat":43.309371,"lon":5.401449,"is_reserved":false,"is_disabled":false,"rental_uris":{"android":"levelo://app?vid=7a4457a9-3bd4-4628-8c88-9902c5c677a6","ios":"levelo://app?vid=7a4457a9-3bd4-4628-8c88-9902c5c677a6"},"vehicle_type_id":"4","last_reported":1708186098,"current_range_meters":15200,"station_id":"ce4bgvp2rcd13ifvqct0","pricing_plan_id":"cebpf4jnsgd1na2vs0mg"},{"bike_id":"cc011084-1c94-4953-a92a-42803ec91860","system_id":"levelo_inurba_marseille","lat":43.33764,"lon":5.37442,"is_reserved":false,"is_disabled":false,"rental_uris":{"android":"levelo://app?vid=cc011084-1c94-4953-a92a-42803ec91860","ios":"levelo://app?vid=cc011084-1c94-4953-a92a-42803ec91860"},"vehicle_type_id":"4","last_reported":1708186098,"current_range_meters":13200,"station_id":"","pricing_plan_id":"cebpf4jnsgd1na2vs0mg"},{"bike_id":"dd98c02e-7430-4428-b432-4f37cec14d66","system_id":"levelo_inurba_marseille","lat":43.309371,"lon":5.401449,"is_reserved":false,"is_disabled":false,"rental_uris":{"android":"levelo://app?vid=dd98c02e-7430-4428-b432-4f37cec14d66","ios":"levelo://app?vid=dd98c02e-7430-4428-b432-4f37cec14d66"},"vehicle_type_id":"4","last_reported":1708186098,"current_range_meters":6400,"station_id":"ce4bgvp2rcd13ifvqct0","pricing_plan_id":"cebpf4jnsgd1na2vs0mg"},{"bike_id":"7eb0b794-2eb9-4875-813b-5cb822de8c38","system_id":"levelo_inurba_marseille","lat":43.30642,"lon":5.401031,"is_reserved":false,"is_disabled":false,"rental_uris":{"android":"levelo://app?vid=7eb0b794-2eb9-4875-813b-5cb822de8c38","ios":"levelo://app?vid=7eb0b794-2eb9-4875-813b-5cb822de8c38"},"vehicle_type_id":"4","last_reported":1708186098,"current_range_meters":21600,"station_id":"ce4bh112rcd13ifvqda0","pricing_plan_id":"cebpf4jnsgd1na2vs0mg"},{"bike_id":"7ceb355e-1ee3-40f2-8747-4bf194824902","system_id":"levelo_inurba_marseille","lat":43.28727,"lon":5.36078,"is_reserved":false,"is_disabled":false,"rental_uris":{"android":"levelo://app?vid=7ceb355e-1ee3-40f2-8747-4bf194824902","ios":"levelo://app?vid=7ceb355e-1ee3-40f2-8747-4bf194824902"},"vehicle_type_id":"4","last_reported":1708186098,"current_range_meters":4400,"station_id":"cki0cbj6b192h4jlfktg","pricing_plan_id":"cebpf4jnsgd1na2vs0mg"},{"bike_id":"6c6a9544-f9af-4fd3-9bdb-93f4f3be5cf1","system_id":"levelo_inurba_marseille","lat":43.28727,"lon":5.36078,"is_reserved":false,"is_disabled":false,"rental_uris":{"android":"levelo://app?vid=6c6a9544-f9af-4fd3-9bdb-93f4f3be5cf1","ios":"levelo://app?vid=6c6a9544-f9af-4fd3-9bdb-93f4f3be5cf1"},"vehicle_type_id":"4","last_reported":1708186098,"current_range_meters":13200,"station_id":"cki0cbj6b192h4jlfktg","pricing_plan_id":"cebpf4jnsgd1na2vs0mg"},{"bike_id":"cd3cdfed-7662-4f1b-a654-fa832eeda1a7","system_id":"levelo_inurba_marseille","lat":43.317104,"lon":5.436818,"is_reserved":false,"is_disabled":false,"rental_uris":{"android":"levelo://app?vid=cd3cdfed-7662-4f1b-a654-fa832eeda1a7","ios":"levelo://app?vid=cd3cdfed-7662-4f1b-a654-fa832eeda1a7"},"vehicle_type_id":"4","last_reported":1708186098,"current_range_meters":12400,"station_id":"ce4bhp92rcd13ifvqhcg","pricing_plan_id":"cebpf4jnsgd1na2vs0mg"},{"bike_id":"603b8dc6-bced-4255-aadf-ecb231941799","system_id":"levelo_inurba_marseille","lat":43.28727,"lon":5.36078,"is_reserved":false,"is_disabled":false,"rental_uris":{"android":"levelo://app?vid=603b8dc6-bced-4255-aadf-ecb231941799","ios":"levelo://app?vid=603b8dc6-bced-4255-aadf-ecb231941799"},"vehicle_type_id":"4","last_reported":1708186098,"current_range_meters":10400,"station_id":"cki0cbj6b192h4jlfktg","pricing_plan_id":"cebpf4jnsgd1na2vs0mg"},{"bike_id":"45b90144-1c42-40cf-bc40-cd0b3f147c2f","system_id":"levelo_inurba_marseille","lat":43.298681,"lon":5.397225,"is_reserved":false,"is_disabled":false,"rental_uris":{"android":"levelo://app?vid=45b90144-1c42-40cf-bc40-cd0b3f147c2f","ios":"levelo://app?vid=45b90144-1c42-40cf-bc40-cd0b3f147c2f"},"vehicle_type_id":"4","last_reported":1708186098,"current_range_meters":10800,"station_id":"ce4bh0h2rcd13ifvqd50","pricing_plan_id":"cebpf4jnsgd1na2vs0mg"},{"bike_id":"32117a49-0a59-4f62-be28-9636c32e5e01","system_id":"levelo_inurba_marseille","lat":43.298681,"lon":5.397225,"is_reserved":false,"is_disabled":false,"rental_uris":{"android":"levelo://app?vid=32117a49-0a59-4f62-be28-9636c32e5e01","ios":"levelo://app?vid=32117a49-0a59-4f62-be28-9636c32e5e01"},"vehicle_type_id":"4","last_reported":1708186098,"current_range_meters":25600,"station_id":"ce4bh0h2rcd13ifvqd50","pricing_plan_id":"cebpf4jnsgd1na2vs0mg"},{"bike_id":"53dfcd4c-c2e1-48a8-890b-33c391016c86","system_id":"levelo_inurba_marseille","lat":43.286593,"lon":5.363346,"is_reserved":false,"is_disabled":false,"rental_uris":{"android":"levelo://app?vid=53dfcd4c-c2e1-48a8-890b-33c391016c86","ios":"levelo://app?vid=53dfcd4c-c2e1-48a8-890b-33c391016c86"},"vehicle_type_id":"4","last_reported":1708186098,"current_range_meters":20000,"station_id":"ce4bhah2rcd13ifvqej0","pricing_plan_id":"cebpf4jnsgd1na2vs0mg"},{"bike_id":"3bdedd1b-1615-4bb9-a1fe-5900bcf8587b","system_id":"levelo_inurba_marseille","lat":43.302759,"lon":5.400793,"is_reserved":false,"is_disabled":false,"rental_uris":{"android":"levelo://app?vid=3bdedd1b-1615-4bb9-a1fe-5900bcf8587b","ios":"levelo://app?vid=3bdedd1b-1615-4bb9-a1fe-5900bcf8587b"},"vehicle_type_id":"4","last_reported":1708186098,"current_range_meters":24800,"station_id":"ce4bgvh2rcd13ifvqcs0","pricing_plan_id":"cebpf4jnsgd1na2vs0mg"},{"bike_id":"ae2182cd-8b80-4b15-a360-b56e56911290","system_id":"levelo_inurba_marseille","lat":43.289307,"lon":5.38406,"is_reserved":false,"is_disabled":false,"rental_uris":{"android":"levelo://app?vid=ae2182cd-8b80-4b15-a360-b56e56911290","ios":"levelo://app?vid=ae2182cd-8b80-4b15-a360-b56e56911290"},"vehicle_type_id":"4","last_reported":1708186098,"current_range_meters":13600,"station_id":"ce4bh612rcd13ifvqe6g","pricing_plan_id":"cebpf4jnsgd1na2vs0mg"},{"bike_id":"4b13c769-ef21-4609-b860-50510fb687e3","system_id":"levelo_inurba_marseille","lat":43.302759,"lon":5.400793,"is_reserved":false,"is_disabled":false,"rental_uris":{"android":"levelo://app?vid=4b13c769-ef21-4609-b860-50510fb687e3","ios":"levelo://app?vid=4b13c769-ef21-4609-b860-50510fb687e3"},"vehicle_type_id":"4","last_reported":1708186098,"current_range_meters":6800,"station_id":"ce4bgvh2rcd13ifvqcs0","pricing_plan_id":"cebpf4jnsgd1na2vs0mg"},{"bike_id":"c2257cea-be09-4747-bead-a0b757ab133d","system_id":"levelo_inurba_marseille","lat":43.302759,"lon":5.400793,"is_reserved":false,"is_disabled":false,"rental_uris":{"android":"levelo://app?vid=c2257cea-be09-4747-bead-a0b757ab133d","ios":"levelo://app?vid=c2257cea-be09-4747-bead-a0b757ab133d"},"vehicle_type_id":"4","last_reported":1708186098,"current_range_meters":16400,"station_id":"ce4bgvh2rcd13ifvqcs0","pricing_plan_id":"cebpf4jnsgd1na2vs0mg"},{"bike_id":"e21c22e7-cf0c-40b2-b74b-0789082fa0ec","system_id":"levelo_inurba_marseille","lat":43.295511,"lon":5.422926,"is_reserved":false,"is_disabled":false,"rental_uris":{"android":"levelo://app?vid=e21c22e7-cf0c-40b2-b74b-0789082fa0ec","ios":"levelo://app?vid=e21c22e7-cf0c-40b2-b74b-0789082fa0ec"},"vehicle_type_id":"4","last_reported":1708186098,"current_range_meters":31600,"station_id":"ce4bhph2rcd13ifvqhdg","pricing_plan_id":"cebpf4jnsgd1na2vs0mg"},{"bike_id":"8402d1c6-9452-4c13-9310-478f84a85be9","system_id":"levelo_inurba_marseille","lat":43.316828,"lon":5.404723,"is_reserved":false,"is_disabled":false,"rental_uris":{"android":"levelo://app?vid=8402d1c6-9452-4c13-9310-478f84a85be9","ios":"levelo://app?vid=8402d1c6-9452-4c13-9310-478f84a85be9"},"vehicle_type_id":"4","last_reported":1708186098,"current_range_meters":25200,"station_id":"ce4bh012rcd13ifvqd00","pricing_plan_id":"cebpf4jnsgd1na2vs0mg"},{"bike_id":"e1900143-e04f-412f-886c-3cc229a26575","system_id":"levelo_inurba_marseille","lat":43.317024,"lon":5.404706,"is_reserved":false,"is_disabled":false,"rental_uris":{"android":"levelo://app?vid=e1900143-e04f-412f-886c-3cc229a26575","ios":"levelo://app?vid=e1900143-e04f-412f-886c-3cc229a26575"},"vehicle_type_id":"4","last_reported":1708186098,"current_range_meters":16000,"station_id":"ce4bh012rcd13ifvqd00","pricing_plan_id":"cebpf4jnsgd1na2vs0mg"},{"bike_id":"ec8a82df-1ec4-4024-9484-21e1b20241b2","system_id":"levelo_inurba_marseille","lat":43.316821,"lon":5.404737,"is_reserved":false,"is_disabled":false,"rental_uris":{"android":"levelo://app?vid=ec8a82df-1ec4-4024-9484-21e1b20241b2","ios":"levelo://app?vid=ec8a82df-1ec4-4024-9484-21e1b20241b2"},"vehicle_type_id":"4","last_reported":1708186098,"current_range_meters":20000,"station_id":"ce4bh012rcd13ifvqd00","pricing_plan_id":"cebpf4jnsgd1na2vs0mg"},{"bike_id":"cbab0360-ab17-47d6-94f3-b2118f0fdc69","system_id":"levelo_inurba_marseille","lat":43.316821,"lon":5.404737,"is_reserved":false,"is_disabled":false,"rental_uris":{"android":"levelo://app?vid=cbab0360-ab17-47d6-94f3-b2118f0fdc69","ios":"levelo://app?vid=cbab0360-ab17-47d6-94f3-b2118f0fdc69"},"vehicle_type_id":"4","last_reported":1708186098,"current_range_meters":19600,"station_id":"ce4bh012rcd13ifvqd00","pricing_plan_id":"cebpf4jnsgd1na2vs0mg"},{"bike_id":"67e1abf6-c648-47b3-b089-af3c51e22326","system_id":"levelo_inurba_marseille","lat":43.286538,"lon":5.351417,"is_reserved":false,"is_disabled":false,"rental_uris":{"android":"levelo://app?vid=67e1abf6-c648-47b3-b089-af3c51e22326","ios":"levelo://app?vid=67e1abf6-c648-47b3-b089-af3c51e22326"},"vehicle_type_id":"4","last_reported":1708186098,"current_range_meters":26800,"station_id":"ce4bhch2rcd13ifvqeug","pricing_plan_id":"cebpf4jnsgd1na2vs0mg"},{"bike_id":"4adaa304-c9dd-44df-8d53-da5fc4fa9378","system_id":"levelo_inurba_marseille","lat":43.284538,"lon":5.358657,"is_reserved":false,"is_disabled":false,"rental_uris":{"android":"levelo://app?vid=4adaa304-c9dd-44df-8d53-da5fc4fa9378","ios":"levelo://app?vid=4adaa304-c9dd-44df-8d53-da5fc4fa9378"},"vehicle_type_id":"4","last_reported":1708186098,"current_range_meters":0,"station_id":"ce4bhah2rcd13ifvqei0","pricing_plan_id":"cebpf4jnsgd1na2vs0mg"},{"bike_id":"dde8a262-056d-4e42-97a1-a0c69a431e16","system_id":"levelo_inurba_marseille","lat":43.284538,"lon":5.358657,"is_reserved":false,"is_disabled":false,"rental_uris":{"android":"levelo://app?vid=dde8a262-056d-4e42-97a1-a0c69a431e16","ios":"levelo://app?vid=dde8a262-056d-4e42-97a1-a0c69a431e16"},"vehicle_type_id":"4","last_reported":1708186098,"current_range_meters":9200,"station_id":"ce4bhah2rcd13ifvqei0","pricing_plan_id":"cebpf4jnsgd1na2vs0mg"},{"bike_id":"4eac3e3d-54f0-401c-b7ed-16a03fc216ba","system_id":"levelo_inurba_marseille","lat":43.28638,"lon":5.35134,"is_reserved":false,"is_disabled":false,"rental_uris":{"android":"levelo://app?vid=4eac3e3d-54f0-401c-b7ed-16a03fc216ba","ios":"levelo://app?vid=4eac3e3d-54f0-401c-b7ed-16a03fc216ba"},"vehicle_type_id":"4","last_reported":1708186098,"current_range_meters":10000,"station_id":"ce4bhch2rcd13ifvqeug","pricing_plan_id":"cebpf4jnsgd1na2vs0mg"},{"bike_id":"8a942362-1a9d-427e-8012-3b4661b803d4","system_id":"levelo_inurba_marseille","lat":43.284534,"lon":5.358662,"is_reserved":false,"is_disabled":false,"rental_uris":{"android":"levelo://app?vid=8a942362-1a9d-427e-8012-3b4661b803d4","ios":"levelo://app?vid=8a942362-1a9d-427e-8012-3b4661b803d4"},"vehicle_type_id":"4","last_reported":1708186098,"current_range_meters":13200,"station_id":"ce4bhah2rcd13ifvqei0","pricing_plan_id":"cebpf4jnsgd1na2vs0mg"},{"bike_id":"4094a615-b897-4558-8bb0-088e338ea99f","system_id":"levelo_inurba_marseille","lat":43.284534,"lon":5.358662,"is_reserved":false,"is_disabled":false,"rental_uris":{"android":"levelo://app?vid=4094a615-b897-4558-8bb0-088e338ea99f","ios":"levelo://app?vid=4094a615-b897-4558-8bb0-088e338ea99f"},"vehicle_type_id":"4","last_reported":1708186098,"current_range_meters":11600,"station_id":"ce4bhah2rcd13ifvqei0","pricing_plan_id":"cebpf4jnsgd1na2vs0mg"},{"bike_id":"9ed97857-9623-4849-b52f-f6663f9589d8","system_id":"levelo_inurba_marseille","lat":43.284534,"lon":5.358662,"is_reserved":false,"is_disabled":false,"rental_uris":{"android":"levelo://app?vid=9ed97857-9623-4849-b52f-f6663f9589d8","ios":"levelo://app?vid=9ed97857-9623-4849-b52f-f6663f9589d8"},"vehicle_type_id":"4","last_reported":1708186098,"current_range_meters":23200,"station_id":"ce4bhah2rcd13ifvqei0","pricing_plan_id":"cebpf4jnsgd1na2vs0mg"},{"bike_id":"4a989fd0-e196-467f-8c65-337275bbb622","system_id":"levelo_inurba_marseille","lat":43.284534,"lon":5.358662,"is_reserved":false,"is_disabled":false,"rental_uris":{"android":"levelo://app?vid=4a989fd0-e196-467f-8c65-337275bbb622","ios":"levelo://app?vid=4a989fd0-e196-467f-8c65-337275bbb622"},"vehicle_type_id":"4","last_reported":1708186098,"current_range_meters":24800,"station_id":"ce4bhah2rcd13ifvqei0","pricing_plan_id":"cebpf4jnsgd1na2vs0mg"},{"bike_id":"938576bf-e855-4343-ad68-c64ba156ea56","system_id":"levelo_inurba_marseille","lat":43.284534,"lon":5.358662,"is_reserved":false,"is_disabled":false,"rental_uris":{"android":"levelo://app?vid=938576bf-e855-4343-ad68-c64ba156ea56","ios":"levelo://app?vid=938576bf-e855-4343-ad68-c64ba156ea56"},"vehicle_type_id":"4","last_reported":1708186098,"current_range_meters":0,"station_id":"ce4bhah2rcd13ifvqei0","pricing_plan_id":"cebpf4jnsgd1na2vs0mg"},{"bike_id":"8952a758-303f-414f-9ba5-a4fd2cf43cbf","system_id":"levelo_inurba_marseille","lat":43.28619,"lon":5.35104,"is_reserved":false,"is_disabled":false,"rental_uris":{"android":"levelo://app?vid=8952a758-303f-414f-9ba5-a4fd2cf43cbf","ios":"levelo://app?vid=8952a758-303f-414f-9ba5-a4fd2cf43cbf"},"vehicle_type_id":"4","last_reported":1708186098,"current_range_meters":19600,"station_id":"ce4bhch2rcd13ifvqeug","pricing_plan_id":"cebpf4jnsgd1na2vs0mg"},{"bike_id":"ed698eea-671d-4601-b472-0bfcb8cfe127","system_id":"levelo_inurba_marseille","lat":43.286192,"lon":5.351002,"is_reserved":false,"is_disabled":false,"rental_uris":{"android":"levelo://app?vid=ed698eea-671d-4601-b472-0bfcb8cfe127","ios":"levelo://app?vid=ed698eea-671d-4601-b472-0bfcb8cfe127"},"vehicle_type_id":"4","last_reported":1708186098,"current_range_meters":23200,"station_id":"ce4bhch2rcd13ifvqeug","pricing_plan_id":"cebpf4jnsgd1na2vs0mg"},{"bike_id":"162af2e0-1817-41ee-9d65-0c26405a3e8e","system_id":"levelo_inurba_marseille","lat":43.28617,"lon":5.35105,"is_reserved":false,"is_disabled":false,"rental_uris":{"android":"levelo://app?vid=162af2e0-1817-41ee-9d65-0c26405a3e8e","ios":"levelo://app?vid=162af2e0-1817-41ee-9d65-0c26405a3e8e"},"vehicle_type_id":"4","last_reported":1708186098,"current_range_meters":1600,"station_id":"ce4bhch2rcd13ifvqeug","pricing_plan_id":"cebpf4jnsgd1na2vs0mg"},{"bike_id":"992f6b51-f179-4145-98f4-1fee523ec755","system_id":"levelo_inurba_marseille","lat":43.285848,"lon":5.350787,"is_reserved":false,"is_disabled":false,"rental_uris":{"android":"levelo://app?vid=992f6b51-f179-4145-98f4-1fee523ec755","ios":"levelo://app?vid=992f6b51-f179-4145-98f4-1fee523ec755"},"vehicle_type_id":"4","last_reported":1708186098,"current_range_meters":16400,"station_id":"ce4bhch2rcd13ifvqeug","pricing_plan_id":"cebpf4jnsgd1na2vs0mg"},{"bike_id":"9d389fe1-cacc-44da-8d24-0645c20e0cde","system_id":"levelo_inurba_marseille","lat":43.28618,"lon":5.351,"is_reserved":false,"is_disabled":false,"rental_uris":{"android":"levelo://app?vid=9d389fe1-cacc-44da-8d24-0645c20e0cde","ios":"levelo://app?vid=9d389fe1-cacc-44da-8d24-0645c20e0cde"},"vehicle_type_id":"4","last_reported":1708186098,"current_range_meters":21200,"station_id":"ce4bhch2rcd13ifvqeug","pricing_plan_id":"cebpf4jnsgd1na2vs0mg"},{"bike_id":"3f2a78e9-8f94-46e3-b76b-a8c76e3f9a43","system_id":"levelo_inurba_marseille","lat":43.286151,"lon":5.351091,"is_reserved":false,"is_disabled":false,"rental_uris":{"android":"levelo://app?vid=3f2a78e9-8f94-46e3-b76b-a8c76e3f9a43","ios":"levelo://app?vid=3f2a78e9-8f94-46e3-b76b-a8c76e3f9a43"},"vehicle_type_id":"4","last_reported":1708186098,"current_range_meters":400,"station_id":"ce4bhch2rcd13ifvqeug","pricing_plan_id":"cebpf4jnsgd1na2vs0mg"},{"bike_id":"aea2ecc6-a7f3-4175-b030-45ee16357b38","system_id":"levelo_inurba_marseille","lat":43.28616,"lon":5.35105,"is_reserved":false,"is_disabled":false,"rental_uris":{"android":"levelo://app?vid=aea2ecc6-a7f3-4175-b030-45ee16357b38","ios":"levelo://app?vid=aea2ecc6-a7f3-4175-b030-45ee16357b38"},"vehicle_type_id":"4","last_reported":1708186098,"current_range_meters":19600,"station_id":"ce4bhch2rcd13ifvqeug","pricing_plan_id":"cebpf4jnsgd1na2vs0mg"},{"bike_id":"021d586f-30d1-4852-9df3-c380ee996ca1","system_id":"levelo_inurba_marseille","lat":43.28615,"lon":5.35107,"is_reserved":false,"is_disabled":false,"rental_uris":{"android":"levelo://app?vid=021d586f-30d1-4852-9df3-c380ee996ca1","ios":"levelo://app?vid=021d586f-30d1-4852-9df3-c380ee996ca1"},"vehicle_type_id":"4","last_reported":1708186098,"current_range_meters":28400,"station_id":"ce4bhch2rcd13ifvqeug","pricing_plan_id":"cebpf4jnsgd1na2vs0mg"},{"bike_id":"06cc4cc6-f91d-4268-be9b-0f9ec9f98587","system_id":"levelo_inurba_marseille","lat":43.28615,"lon":5.35107,"is_reserved":false,"is_disabled":false,"rental_uris":{"android":"levelo://app?vid=06cc4cc6-f91d-4268-be9b-0f9ec9f98587","ios":"levelo://app?vid=06cc4cc6-f91d-4268-be9b-0f9ec9f98587"},"vehicle_type_id":"4","last_reported":1708186098,"current_range_meters":15200,"station_id":"ce4bhch2rcd13ifvqeug","pricing_plan_id":"cebpf4jnsgd1na2vs0mg"},{"bike_id":"a5c0540a-226a-46f2-8d64-64a30625411c","system_id":"levelo_inurba_marseille","lat":43.28614,"lon":5.3511,"is_reserved":false,"is_disabled":false,"rental_uris":{"android":"levelo://app?vid=a5c0540a-226a-46f2-8d64-64a30625411c","ios":"levelo://app?vid=a5c0540a-226a-46f2-8d64-64a30625411c"},"vehicle_type_id":"4","last_reported":1708186098,"current_range_meters":22400,"station_id":"ce4bhch2rcd13ifvqeug","pricing_plan_id":"cebpf4jnsgd1na2vs0mg"},{"bike_id":"b67ce585-22c6-469a-9a87-bbc6b2e0bcd2","system_id":"levelo_inurba_marseille","lat":43.28616,"lon":5.35103,"is_reserved":false,"is_disabled":false,"rental_uris":{"android":"levelo://app?vid=b67ce585-22c6-469a-9a87-bbc6b2e0bcd2","ios":"levelo://app?vid=b67ce585-22c6-469a-9a87-bbc6b2e0bcd2"},"vehicle_type_id":"4","last_reported":1708186098,"current_range_meters":400,"station_id":"ce4bhch2rcd13ifvqeug","pricing_plan_id":"cebpf4jnsgd1na2vs0mg"},{"bike_id":"e02c4b10-a865-4be3-a22a-2c159317aea6","system_id":"levelo_inurba_marseille","lat":43.28614,"lon":5.35109,"is_reserved":false,"is_disabled":false,"rental_uris":{"android":"levelo://app?vid=e02c4b10-a865-4be3-a22a-2c159317aea6","ios":"levelo://app?vid=e02c4b10-a865-4be3-a22a-2c159317aea6"},"vehicle_type_id":"4","last_reported":1708186098,"current_range_meters":18800,"station_id":"ce4bhch2rcd13ifvqeug","pricing_plan_id":"cebpf4jnsgd1na2vs0mg"},{"bike_id":"6a4f2dfd-669e-462d-8511-431940b6ff83","system_id":"levelo_inurba_marseille","lat":43.28614,"lon":5.35106,"is_reserved":false,"is_disabled":false,"rental_uris":{"android":"levelo://app?vid=6a4f2dfd-669e-462d-8511-431940b6ff83","ios":"levelo://app?vid=6a4f2dfd-669e-462d-8511-431940b6ff83"},"vehicle_type_id":"4","last_reported":1708186098,"current_range_meters":21600,"station_id":"ce4bhch2rcd13ifvqeug","pricing_plan_id":"cebpf4jnsgd1na2vs0mg"},{"bike_id":"804fd12b-bc42-4057-ba7d-eeb043bd2d43","system_id":"levelo_inurba_marseille","lat":43.285848,"lon":5.350787,"is_reserved":false,"is_disabled":false,"rental_uris":{"android":"levelo://app?vid=804fd12b-bc42-4057-ba7d-eeb043bd2d43","ios":"levelo://app?vid=804fd12b-bc42-4057-ba7d-eeb043bd2d43"},"vehicle_type_id":"4","last_reported":1708186098,"current_range_meters":3200,"station_id":"ce4bhch2rcd13ifvqeug","pricing_plan_id":"cebpf4jnsgd1na2vs0mg"},{"bike_id":"4e028f74-2566-4c79-bdb8-764aa62fda92","system_id":"levelo_inurba_marseille","lat":43.28614,"lon":5.35103,"is_reserved":false,"is_disabled":false,"rental_uris":{"android":"levelo://app?vid=4e028f74-2566-4c79-bdb8-764aa62fda92","ios":"levelo://app?vid=4e028f74-2566-4c79-bdb8-764aa62fda92"},"vehicle_type_id":"4","last_reported":1708186098,"current_range_meters":400,"station_id":"ce4bhch2rcd13ifvqeug","pricing_plan_id":"cebpf4jnsgd1na2vs0mg"},{"bike_id":"a3428d7a-6fcd-4e75-8565-2eaebe192df2","system_id":"levelo_inurba_marseille","lat":43.286119,"lon":5.351081,"is_reserved":false,"is_disabled":false,"rental_uris":{"android":"levelo://app?vid=a3428d7a-6fcd-4e75-8565-2eaebe192df2","ios":"levelo://app?vid=a3428d7a-6fcd-4e75-8565-2eaebe192df2"},"vehicle_type_id":"4","last_reported":1708186098,"current_range_meters":6400,"station_id":"ce4bhch2rcd13ifvqeug","pricing_plan_id":"cebpf4jnsgd1na2vs0mg"},{"bike_id":"fa14a256-3873-4da2-a435-eea6e01a7828","system_id":"levelo_inurba_marseille","lat":43.28613,"lon":5.35103,"is_reserved":false,"is_disabled":false,"rental_uris":{"android":"levelo://app?vid=fa14a256-3873-4da2-a435-eea6e01a7828","ios":"levelo://app?vid=fa14a256-3873-4da2-a435-eea6e01a7828"},"vehicle_type_id":"4","last_reported":1708186098,"current_range_meters":26000,"station_id":"ce4bhch2rcd13ifvqeug","pricing_plan_id":"cebpf4jnsgd1na2vs0mg"},{"bike_id":"f40080a0-23fd-4c42-9cdc-01c1301f51be","system_id":"levelo_inurba_marseille","lat":43.28614,"lon":5.35099,"is_reserved":false,"is_disabled":false,"rental_uris":{"android":"levelo://app?vid=f40080a0-23fd-4c42-9cdc-01c1301f51be","ios":"levelo://app?vid=f40080a0-23fd-4c42-9cdc-01c1301f51be"},"vehicle_type_id":"4","last_reported":1708186098,"current_range_meters":23200,"station_id":"ce4bhch2rcd13ifvqeug","pricing_plan_id":"cebpf4jnsgd1na2vs0mg"},{"bike_id":"378fc1e9-8050-48d1-82cd-0d4b038cc320","system_id":"levelo_inurba_marseille","lat":43.28613,"lon":5.351,"is_reserved":false,"is_disabled":false,"rental_uris":{"android":"levelo://app?vid=378fc1e9-8050-48d1-82cd-0d4b038cc320","ios":"levelo://app?vid=378fc1e9-8050-48d1-82cd-0d4b038cc320"},"vehicle_type_id":"4","last_reported":1708186098,"current_range_meters":0,"station_id":"ce4bhch2rcd13ifvqeug","pricing_plan_id":"cebpf4jnsgd1na2vs0mg"},{"bike_id":"ceea141a-5dde-490e-aaa1-e3a0259e5dab","system_id":"levelo_inurba_marseille","lat":43.28613,"lon":5.351,"is_reserved":false,"is_disabled":false,"rental_uris":{"android":"levelo://app?vid=ceea141a-5dde-490e-aaa1-e3a0259e5dab","ios":"levelo://app?vid=ceea141a-5dde-490e-aaa1-e3a0259e5dab"},"vehicle_type_id":"4","last_reported":1708186098,"current_range_meters":14400,"station_id":"ce4bhch2rcd13ifvqeug","pricing_plan_id":"cebpf4jnsgd1na2vs0mg"},{"bike_id":"76f8accc-3380-44ef-b705-031a5a09612a","system_id":"levelo_inurba_marseille","lat":43.28612,"lon":5.35102,"is_reserved":false,"is_disabled":false,"rental_uris":{"android":"levelo://app?vid=76f8accc-3380-44ef-b705-031a5a09612a","ios":"levelo://app?vid=76f8accc-3380-44ef-b705-031a5a09612a"},"vehicle_type_id":"4","last_reported":1708186098,"current_range_meters":24400,"station_id":"ce4bhch2rcd13ifvqeug","pricing_plan_id":"cebpf4jnsgd1na2vs0mg"},{"bike_id":"5889cc56-8157-4f01-8ae9-2383c8224afb","system_id":"levelo_inurba_marseille","lat":43.28613,"lon":5.35098,"is_reserved":false,"is_disabled":false,"rental_uris":{"android":"levelo://app?vid=5889cc56-8157-4f01-8ae9-2383c8224afb","ios":"levelo://app?vid=5889cc56-8157-4f01-8ae9-2383c8224afb"},"vehicle_type_id":"4","last_reported":1708186098,"current_range_meters":4400,"station_id":"ce4bhch2rcd13ifvqeug","pricing_plan_id":"cebpf4jnsgd1na2vs0mg"},{"bike_id":"e18805c7-8dbc-4c73-aa69-c4ff9ea80165","system_id":"levelo_inurba_marseille","lat":43.28613,"lon":5.35096,"is_reserved":false,"is_disabled":false,"rental_uris":{"android":"levelo://app?vid=e18805c7-8dbc-4c73-aa69-c4ff9ea80165","ios":"levelo://app?vid=e18805c7-8dbc-4c73-aa69-c4ff9ea80165"},"vehicle_type_id":"4","last_reported":1708186098,"current_range_meters":17600,"station_id":"ce4bhch2rcd13ifvqeug","pricing_plan_id":"cebpf4jnsgd1na2vs0mg"},{"bike_id":"a2e08652-fea3-4a95-9db7-137bfcaf25ee","system_id":"levelo_inurba_marseille","lat":43.28599,"lon":5.35107,"is_reserved":false,"is_disabled":false,"rental_uris":{"android":"levelo://app?vid=a2e08652-fea3-4a95-9db7-137bfcaf25ee","ios":"levelo://app?vid=a2e08652-fea3-4a95-9db7-137bfcaf25ee"},"vehicle_type_id":"4","last_reported":1708186098,"current_range_meters":4400,"station_id":"","pricing_plan_id":"cebpf4jnsgd1na2vs0mg"},{"bike_id":"95ba61aa-f1e5-4e68-a465-78e634986962","system_id":"levelo_inurba_marseille","lat":43.283998,"lon":5.375062,"is_reserved":false,"is_disabled":false,"rental_uris":{"android":"levelo://app?vid=95ba61aa-f1e5-4e68-a465-78e634986962","ios":"levelo://app?vid=95ba61aa-f1e5-4e68-a465-78e634986962"},"vehicle_type_id":"4","last_reported":1708186098,"current_range_meters":8400,"station_id":"ce4bh412rcd13ifvqds0","pricing_plan_id":"cebpf4jnsgd1na2vs0mg"},{"bike_id":"6a8917c9-7e3f-4ad7-877f-a5dc6a804224","system_id":"levelo_inurba_marseille","lat":43.295713,"lon":5.399639,"is_reserved":false,"is_disabled":false,"rental_uris":{"android":"levelo://app?vid=6a8917c9-7e3f-4ad7-877f-a5dc6a804224","ios":"levelo://app?vid=6a8917c9-7e3f-4ad7-877f-a5dc6a804224"},"vehicle_type_id":"4","last_reported":1708186098,"current_range_meters":6400,"station_id":"ce4bh312rcd13ifvqdj0","pricing_plan_id":"cebpf4jnsgd1na2vs0mg"},{"bike_id":"10a852e7-16ec-4caa-b3d2-5dd9a92c4df3","system_id":"levelo_inurba_marseille","lat":43.283998,"lon":5.375062,"is_reserved":false,"is_disabled":false,"rental_uris":{"android":"levelo://app?vid=10a852e7-16ec-4caa-b3d2-5dd9a92c4df3","ios":"levelo://app?vid=10a852e7-16ec-4caa-b3d2-5dd9a92c4df3"},"vehicle_type_id":"4","last_reported":1708186098,"current_range_meters":13200,"station_id":"ce4bh412rcd13ifvqds0","pricing_plan_id":"cebpf4jnsgd1na2vs0mg"},{"bike_id":"c2db2fde-d856-4638-acda-309a1e98a95c","system_id":"levelo_inurba_marseille","lat":43.295713,"lon":5.399639,"is_reserved":false,"is_disabled":false,"rental_uris":{"android":"levelo://app?vid=c2db2fde-d856-4638-acda-309a1e98a95c","ios":"levelo://app?vid=c2db2fde-d856-4638-acda-309a1e98a95c"},"vehicle_type_id":"4","last_reported":1708186098,"current_range_meters":18800,"station_id":"ce4bh312rcd13ifvqdj0","pricing_plan_id":"cebpf4jnsgd1na2vs0mg"},{"bike_id":"360d4272-a09f-4ca7-b8b4-cdc8bea1af53","system_id":"levelo_inurba_marseille","lat":43.284538,"lon":5.358657,"is_reserved":false,"is_disabled":false,"rental_uris":{"android":"levelo://app?vid=360d4272-a09f-4ca7-b8b4-cdc8bea1af53","ios":"levelo://app?vid=360d4272-a09f-4ca7-b8b4-cdc8bea1af53"},"vehicle_type_id":"4","last_reported":1708186098,"current_range_meters":9200,"station_id":"ce4bhah2rcd13ifvqei0","pricing_plan_id":"cebpf4jnsgd1na2vs0mg"},