{"last_updated":1723486354,"ttl":30,"version":"2.2","data":{"bikes":[{"bike_id":"644c55a3-925c-41a6-ba21-6759d7d6daf6","system_id":"levelo_inurba_marseille","lat":43.31225,"lon":5.36849,"is_reserved":false,"is_disabled":false,"rental_uris":{"android":"levelo://app?vid=644c55a3-925c-41a6-ba21-6759d7d6daf6","ios":"levelo://app?vid=644c55a3-925c-41a6-ba21-6759d7d6daf6"},"vehicle_type_id":"4","last_reported":1723486354,"current_range_meters":30000,"station_id":"ce4bgl92rcd13ifvqbq0","pricing_plan_id":"cebpf4jnsgd1na2vs0mg"},{"bike_id":"c2f43ab2-c888-4fc0-a464-d72cfa57dfea","system_id":"levelo_inurba_marseille","lat":43.309076,"lon":5.368465,"is_reserved":false,"is_disabled":false,"rental_uris":{"android":"levelo://app?vid=c2f43ab2-c888-4fc0-a464-d72cfa57dfea","ios":"levelo://app?vid=c2f43ab2-c888-4fc0-a464-d72cfa57dfea"},"vehicle_type_id":"4","last_reported":1723486354,"current_range_meters":30800,"station_id":"ce4bgn92rcd13ifvqbvg","pricing_plan_id":"cebpf4jnsgd1na2vs0mg"},{"bike_id":"5fc53863-efc1-487d-8174-2dba0a48524d","system_id":"levelo_inurba_marseille","lat":43.309076,"lon":5.368465,"is_reserved":false,"is_disabled":false,"rental_uris":{"android":"levelo://app?vid=5fc53863-efc1-487d-8174-2dba0a48524d","ios":"levelo://app?vid=5fc53863-efc1-487d-8174-2dba0a48524d"},"vehicle_type_id":"4","last_reported":1723486354,"current_range_meters":24400,"station_id":"ce4bgn92rcd13ifvqbvg","pricing_plan_id":"cebpf4jnsgd1na2vs0mg"},{"bike_id":"312bbb50-463b-4edc-954e-6acbf5960ec1","system_id":"levelo_inurba_marseille","lat":43.314811,"lon":5.373104,"is_reserved":false,"is_disabled":false,"rental_uris":{"android":"levelo://app?vid=312bbb50-463b-4edc-954e-6acbf5960ec1","ios":"levelo://app?vid=312bbb50-463b-4edc-954e-6acbf5960ec1"},"vehicle_type_id":"4","last_reported":1723486354,"current_range_meters":31200,"station_id":"ce4bgt12rcd13ifvqcd0","pricing_plan_id":"cebpf4jnsgd1na2vs0mg"},{"bike_id":"04517526-8445-4071-a5a7-ba09231f4fc9","system_id":"levelo_inurba_marseille","lat":43.314811,"lon":5.373103,"is_reserved":false,"is_disabled":false,"rental_uris":{"android":"levelo://app?vid=04517526-8445-4071-a5a7-ba09231f4fc9","ios":"levelo://app?vid=04517526-8445-4071-a5a7-ba09231f4fc9"},"vehicle_type_id":"4","last_reported":1723486354,"current_range_meters":8400,"station_id":"ce4bgt12rcd13ifvqcd0","pricing_plan_id":"cebpf4jnsgd1na2vs0mg"},{"bike_id":"36c097e2-6855-4cdb-8f30-e6e12ac16e1e","system_id":"levelo_inurba_marseille","lat":43.314811,"lon":5.373103,"is_reserved":false,"is_disabled":false,"rental_uris":{"android":"levelo://app?vid=36c097e2-6855-4cdb-8f30-e6e12ac16e1e","ios":"levelo://app?vid=36c097e2-6855-4cdb-8f30-e6e12ac16e1e"},"vehicle_type_id":"4","last_reported":1723486354,"current_range_meters":26800,"station_id":"ce4bgt12rcd13ifvqcd0","pricing_plan_id":"cebpf4jnsgd1na2vs0mg"},{"bike_id":"068a1b9a-3832-4cbd-b979-0e605323d6a7","system_id":"levelo_inurba_marseille","lat":43.314811,"lon":5.373103,"is_reserved":false,"is_disabled":false,"rental_uris":{"android":"levelo://app?vid=068a1b9a-3832-4cbd-b979-0e605323d6a7","ios":"levelo://app?vid=068a1b9a-3832-4cbd-b979-0e605323d6a7"},"vehicle_type_id":"4","last_reported":1723486354,"current_range_meters":3200,"station_id":"ce4bgt12rcd13ifvqcd0","pricing_plan_id":"cebpf4jnsgd1na2vs0mg"},{"bike_id":"0786dc0a-cdf7-4255-b7e2-c83342f4b235","system_id":"levelo_inurba_marseille","lat":43.309039,"lon":5.371797,"is_reserved":false,"is_disabled":false,"rental_uris":{"android":"levelo://app?vid=0786dc0a-cdf7-4255-b7e2-c83342f4b235","ios":"levelo://app?vid=0786dc0a-cdf7-4255-b7e2-c83342f4b235"},"vehicle_type_id":"4","last_reported":1723486354,"current_range_meters":3200,"station_id":"ce4bguh2rcd13ifvqckg","pricing_plan_id":"cebpf4jnsgd1na2vs0mg"},{"bike_id":"605f281c-bea2-42f7-b91a-7299ccbd76a1","system_id":"levelo_inurba_marseille","lat":43.31279,"lon":5.37595,"is_reserved":false,"is_disabled":false,"rental_uris":{"android":"levelo://app?vid=605f281c-bea2-42f7-b91a-7299ccbd76a1","ios":"levelo://app?vid=605f281c-bea2-42f7-b91a-7299ccbd76a1"},"vehicle_type_id":"4","last_reported":1723486354,"current_range_meters":29600,"station_id":"","pricing_plan_id":"cebpf4jnsgd1na2vs0mg"},{"bike_id":"dda914dd-ff79-4394-ad6d-2e8fda4d120b","system_id":"levelo_inurba_marseille","lat":43.305368,"lon":5.367343,"is_reserved":false,"is_disabled":false,"rental_uris":{"android":"levelo://app?vid=dda914dd-ff79-4394-ad6d-2e8fda4d120b","ios":"levelo://app?vid=dda914dd-ff79-4394-ad6d-2e8fda4d120b"},"vehicle_type_id":"4","last_reported":1723486354,"current_range_meters":0,"station_id":"ce4bgrp2rcd13ifvqc9g","pricing_plan_id":"cebpf4jnsgd1na2vs0mg"},{"bike_id":"9ae28c70-8e01-477d-8a10-7e4590750dfa","system_id":"levelo_inurba_marseille","lat":43.305989,"lon":5.37225,"is_reserved":false,"is_disabled":false,"rental_uris":{"android":"levelo://app?vid=9ae28c70-8e01-477d-8a10-7e4590750dfa","ios":"levelo://app?vid=9ae28c70-8e01-477d-8a10-7e4590750dfa"},"vehicle_type_id":"4","last_reported":1723486354,"current_range_meters":26000,"station_id":"ce4bgqh2rcd13ifvqc4g","pricing_plan_id":"cebpf4jnsgd1na2vs0mg"},{"bike_id":"03d1a710-d188-42ec-ab76-2dbac38e9fed","system_id":"levelo_inurba_marseille","lat":43.31127,"lon":5.37769,"is_reserved":false,"is_disabled":false,"rental_uris":{"android":"levelo://app?vid=03d1a710-d188-42ec-ab76-2dbac38e9fed","ios":"levelo://app?vid=03d1a710-d188-42ec-ab76-2dbac38e9fed"},"vehicle_type_id":"4","last_reported":1723486354,"current_range_meters":23600,"station_id":"ce4bgt92rcd13ifvqcg0","pricing_plan_id":"cebpf4jnsgd1na2vs0mg"},{"bike_id":"a3935a2a-e260-43fa-baa6-bd570791ed5d","system_id":"levelo_inurba_marseille","lat":43.31118,"lon":5.37771,"is_reserved":false,"is_disabled":false,"rental_uris":{"android":"levelo://app?vid=a3935a2a-e260-43fa-baa6-bd570791ed5d","ios":"levelo://app?vid=a3935a2a-e260-43fa-baa6-bd570791ed5d"},"vehicle_type_id":"4","last_reported":1723486354,"current_range_meters":31200,"station_id":"ce4bgt92rcd13ifvqcg0","pricing_plan_id":"cebpf4jnsgd1na2vs0mg"},{"bike_id":"4c497721-79eb-4158-aa50-4b48e50f9df3","system_id":"levelo_inurba_marseille","lat":43.30778,"lon":5.37652,"is_reserved":false,"is_disabled":false,"rental_uris":{"android":"levelo://app?vid=4c497721-79eb-4158-aa50-4b48e50f9df3","ios":"levelo://app?vid=4c497721-79eb-4158-aa50-4b48e50f9df3"},"vehicle_type_id":"4","last_reported":1723486354,"current_range_meters":20000,"station_id":"","pricing_plan_id":"cebpf4jnsgd1na2vs0mg"},{"bike_id":"e43d9e2c-9d56-4741-96c8-9ef311a5fe37","system_id":"levelo_inurba_marseille","lat":43.30866,"lon":5.37902,"is_reserved":false,"is_disabled":false,"rental_uris":{"android":"levelo://app?vid=e43d9e2c-9d56-4741-96c8-9ef311a5fe37","ios":"levelo://app?vid=e43d9e2c-9d56-4741-96c8-9ef311a5fe37"},"vehicle_type_id":"4","last_reported":1723486354,"current_range_meters":20000,"station_id":"","pricing_plan_id":"cebpf4jnsgd1na2vs0mg"},{"bike_id":"de396b2a-afa7-4f4f-9c15-f603c737bdbb","system_id":"levelo_inurba_marseille","lat":43.315293,"lon":5.380349,"is_reserved":false,"is_disabled":false,"rental_uris":{"android":"levelo://app?vid=de396b2a-afa7-4f4f-9c15-f603c737bdbb","ios":"levelo://app?vid=de396b2a-afa7-4f4f-9c15-f603c737bdbb"},"vehicle_type_id":"4","last_reported":1723486354,"current_range_meters":18800,"station_id":"ce4bhsp2rcd13ifvqi50","pricing_plan_id":"cebpf4jnsgd1na2vs0mg"},{"bike_id":"92fdf15f-68cd-422f-89ad-9a9c9d3d946d","system_id":"levelo_inurba_marseille","lat":43.308012,"lon":5.381511,"is_reserved":false,"is_disabled":false,"rental_uris":{"android":"levelo://app?vid=92fdf15f-68cd-422f-89ad-9a9c9d3d946d","ios":"levelo://app?vid=92fdf15f-68cd-422f-89ad-9a9c9d3d946d"},"vehicle_type_id":"4","last_reported":1723486354,"current_range_meters":0,"station_id":"ce4bgt12rcd13ifvqce0","pricing_plan_id":"cebpf4jnsgd1na2vs0mg"},{"bike_id":"55b7ff80-d183-43f9-8ad1-98259ae13231","system_id":"levelo_inurba_marseille","lat":43.31048,"lon":5.38319,"is_reserved":false,"is_disabled":false,"rental_uris":{"android":"levelo://app?vid=55b7ff80-d183-43f9-8ad1-98259ae13231","ios":"levelo://app?vid=55b7ff80-d183-43f9-8ad1-98259ae13231"},"vehicle_type_id":"4","last_reported":1723486354,"current_range_meters":31200,"station_id":"ce4bgv92rcd13ifvqcr0","pricing_plan_id":"cebpf4jnsgd1na2vs0mg"},{"bike_id":"c13f7f79-f71c-4d51-b7ab-47bd66c66449","system_id":"levelo_inurba_marseille","lat":43.304606,"lon":5.379026,"is_reserved":false,"is_disabled":false,"rental_uris":{"android":"levelo://app?vid=c13f7f79-f71c-4d51-b7ab-47bd66c66449","ios":"levelo://app?vid=c13f7f79-f71c-4d51-b7ab-47bd66c66449"},"vehicle_type_id":"4","last_reported":1723486354,"current_range_meters":2800,"station_id":"ce4bgup2rcd13ifvqcn0","pricing_plan_id":"cebpf4jnsgd1na2vs0mg"},{"bike_id":"f811e173-4731-424a-8631-08e95fb739e8","system_id":"levelo_inurba_marseille","lat":43.324771,"lon":5.36557,"is_reserved":false,"is_disabled":false,"rental_uris":{"android":"levelo://app?vid=f811e173-4731-424a-8631-08e95fb739e8","ios":"levelo://app?vid=f811e173-4731-424a-8631-08e95fb739e8"},"vehicle_type_id":"4","last_reported":1723486354,"current_range_meters":21600,"station_id":"ce4bhs12rcd13ifvqhvg","pricing_plan_id":"cebpf4jnsgd1na2vs0mg"},{"bike_id":"d3707ab6-9351-435f-8c3d-bfed53ba46d2","system_id":"levelo_inurba_marseille","lat":43.324771,"lon":5.36557,"is_reserved":false,"is_disabled":false,"rental_uris":{"android":"levelo://app?vid=d3707ab6-9351-435f-8c3d-bfed53ba46d2","ios":"levelo://app?vid=d3707ab6-9351-435f-8c3d-bfed53ba46d2"},"vehicle_type_id":"4","last_reported":1723486354,"current_range_meters":20400,"station_id":"ce4bhs12rcd13ifvqhvg","pricing_plan_id":"cebpf4jnsgd1na2vs0mg"},{"bike_id":"3ca0ea30-06e9-4623-a1ca-7f61118e9fe6","system_id":"levelo_inurba_marseille","lat":43.30143,"lon":5.37413,"is_reserved":false,"is_disabled":false,"rental_uris":{"android":"levelo://app?vid=3ca0ea30-06e9-4623-a1ca-7f61118e9fe6","ios":"levelo://app?vid=3ca0ea30-06e9-4623-a1ca-7f61118e9fe6"},"vehicle_type_id":"4","last_reported":1723486354,"current_range_meters":4400,"station_id":"ce4bgs92rcd13ifvqcc0","pricing_plan_id":"cebpf4jnsgd1na2vs0mg"},{"bike_id":"5458212d-d1c8-4ed1-8751-6f9d0535184e","system_id":"levelo_inurba_marseille","lat":43.302784,"lon":5.377158,"is_reserved":false,"is_disabled":false,"rental_uris":{"android":"levelo://app?vid=5458212d-d1c8-4ed1-8751-6f9d0535184e","ios":"levelo://app?vid=5458212d-d1c8-4ed1-8751-6f9d0535184e"},"vehicle_type_id":"4","last_reported":1723486354,"current_range_meters":0,"station_id":"ce4bguh2rcd13ifvqcj0","pricing_plan_id":"cebpf4jnsgd1na2vs0mg"},{"bike_id":"b2245de5-5f52-413e-853a-d1da03e9b097","system_id":"levelo_inurba_marseille","lat":43.30612,"lon":5.38149,"is_reserved":false,"is_disabled":false,"rental_uris":{"android":"levelo://app?vid=b2245de5-5f52-413e-853a-d1da03e9b097","ios":"levelo://app?vid=b2245de5-5f52-413e-853a-d1da03e9b097"},"vehicle_type_id":"4","last_reported":1723486354,"current_range_meters":21600,"station_id":"","pricing_plan_id":"cebpf4jnsgd1na2vs0mg"},{"bike_id":"b54e9942-f137-4c32-81ff-26bb09452c29","system_id":"levelo_inurba_marseille","lat":43.301429,"lon":5.37413,"is_reserved":false,"is_disabled":false,"rental_uris":{"android":"levelo://app?vid=b54e9942-f137-4c32-81ff-26bb09452c29","ios":"levelo://app?vid=b54e9942-f137-4c32-81ff-26bb09452c29"},"vehicle_type_id":"4","last_reported":1723486354,"current_range_meters":31200,"station_id":"ce4bgs92rcd13ifvqcc0","pricing_plan_id":"cebpf4jnsgd1na2vs0mg"},{"bike_id":"7e07d043-4625-4766-8584-8ecb16c8321d","system_id":"levelo_inurba_marseille","lat":43.301429,"lon":5.37413,"is_reserved":false,"is_disabled":false,"rental_uris":{"android":"levelo://app?vid=7e07d043-4625-4766-8584-8ecb16c8321d","ios":"levelo://app?vid=7e07d043-4625-4766-8584-8ecb16c8321d"},"vehicle_type_id":"4","last_reported":1723486354,"current_range_meters":10000,"station_id":"ce4bgs92rcd13ifvqcc0","pricing_plan_id":"cebpf4jnsgd1na2vs0mg"},{"bike_id":"02c9dd0b-9bd8-4ac8-a213-24400626f233","system_id":"levelo_inurba_marseille","lat":43.319935,"lon":5.381699,"is_reserved":false,"is_disabled":false,"rental_uris":{"android":"levelo://app?vid=02c9dd0b-9bd8-4ac8-a213-24400626f233","ios":"levelo://app?vid=02c9dd0b-9bd8-4ac8-a213-24400626f233"},"vehicle_type_id":"4","last_reported":1723486354,"current_range_meters":30400,"station_id":"ce4bhr12rcd13ifvqhpg","pricing_plan_id":"cebpf4jnsgd1na2vs0mg"},{"bike_id":"c84dd652-621c-45e0-891f-3b7a79a42fed","system_id":"levelo_inurba_marseille","lat":43.31361,"lon":5.38499,"is_reserved":false,"is_disabled":false,"rental_uris":{"android":"levelo://app?vid=c84dd652-621c-45e0-891f-3b7a79a42fed","ios":"levelo://app?vid=c84dd652-621c-45e0-891f-3b7a79a42fed"},"vehicle_type_id":"4","last_reported":1723486354,"current_range_meters":23600,"station_id":"ce4bgt92rcd13ifvqcf0","pricing_plan_id":"cebpf4jnsgd1na2vs0mg"},{"bike_id":"92ddebc6-ea5b-4b44-a9fa-02cd7e029007","system_id":"levelo_inurba_marseille","lat":43.299724,"lon":5.371829,"is_reserved":false,"is_disabled":false,"rental_uris":{"android":"levelo://app?vid=92ddebc6-ea5b-4b44-a9fa-02cd7e029007","ios":"levelo://app?vid=92ddebc6-ea5b-4b44-a9fa-02cd7e029007"},"vehicle_type_id":"4","last_reported":1723486354,"current_range_meters":31200,"station_id":"ce4bgr92rcd13ifvqc7g","pricing_plan_id":"cebpf4jnsgd1na2vs0mg"},{"bike_id":"b8c40372-c091-472f-841a-01a9f63ef2e6","system_id":"levelo_inurba_marseille","lat":43.298433,"lon":5.362774,"is_reserved":false,"is_disabled":false,"rental_uris":{"android":"levelo://app?vid=b8c40372-c091-472f-841a-01a9f63ef2e6","ios":"levelo://app?vid=b8c40372-c091-472f-841a-01a9f63ef2e6"},"vehicle_type_id":"4","last_reported":1723486354,"current_range_meters":800,"station_id":"ce4bgpp2rcd13ifvqc3g","pricing_plan_id":"cebpf4jnsgd1na2vs0mg"},{"bike_id":"70fe3f77-1dc7-4c81-93e8-85d5105ab4ea","system_id":"levelo_inurba_marseille","lat":43.30014,"lon":5.37707,"is_reserved":false,"is_disabled":false,"rental_uris":{"android":"levelo://app?vid=70fe3f77-1dc7-4c81-93e8-85d5105ab4ea","ios":"levelo://app?vid=70fe3f77-1dc7-4c81-93e8-85d5105ab4ea"},"vehicle_type_id":"4","last_reported":1723486354,"current_range_meters":800,"station_id":"","pricing_plan_id":"cebpf4jnsgd1na2vs0mg"},{"bike_id":"f7a9023c-eb60-4846-a950-edc145f0cdcd","system_id":"levelo_inurba_marseille","lat":43.299243,"lon":5.37481,"is_reserved":false,"is_disabled":false,"rental_uris":{"android":"levelo://app?vid=f7a9023c-eb60-4846-a950-edc145f0cdcd","ios":"levelo://app?vid=f7a9023c-eb60-4846-a950-edc145f0cdcd"},"vehicle_type_id":"4","last_reported":1723486354,"current_range_meters":4400,"station_id":"ce4bgjh2rcd13ifvqbg0","pricing_plan_id":"cebpf4jnsgd1na2vs0mg"},{"bike_id":"460fa3d0-8582-4bfc-8c2d-0381ce500521","system_id":"levelo_inurba_marseille","lat":43.311722,"lon":5.387247,"is_reserved":false,"is_disabled":false,"rental_uris":{"android":"levelo://app?vid=460fa3d0-8582-4bfc-8c2d-0381ce500521","ios":"levelo://app?vid=460fa3d0-8582-4bfc-8c2d-0381ce500521"},"vehicle_type_id":"4","last_reported":1723486354,"current_range_meters":0,"station_id":"ce4bgv12rcd13ifvqcp0","pricing_plan_id":"cebpf4jnsgd1na2vs0mg"},{"bike_id":"d506dd65-5f23-4a41-9ee5-076ed2b94f6f","system_id":"levelo_inurba_marseille","lat":43.301098,"lon":5.38044,"is_reserved":false,"is_disabled":false,"rental_uris":{"android":"levelo://app?vid=d506dd65-5f23-4a41-9ee5-076ed2b94f6f","ios":"levelo://app?vid=d506dd65-5f23-4a41-9ee5-076ed2b94f6f"},"vehicle_type_id":"4","last_reported":1723486354,"current_range_meters":4000,"station_id":"","pricing_plan_id":"cebpf4jnsgd1na2vs0mg"},{"bike_id":"5809a4a0-7a7f-4cdc-8c74-1b9f59cbea9a","system_id":"levelo_inurba_marseille","lat":43.29945,"lon":5.37724,"is_reserved":false,"is_disabled":false,"rental_uris":{"android":"levelo://app?vid=5809a4a0-7a7f-4cdc-8c74-1b9f59cbea9a","ios":"levelo://app?vid=5809a4a0-7a7f-4cdc-8c74-1b9f59cbea9a"},"vehicle_type_id":"4","last_reported":1723486354,"current_range_meters":6800,"station_id":"","pricing_plan_id":"cebpf4jnsgd1na2vs0mg"},{"bike_id":"3e315c03-bb88-4419-a1bb-0cce4e0eaae7","system_id":"levelo_inurba_marseille","lat":43.322872,"lon":5.382756,"is_reserved":false,"is_disabled":false,"rental_uris":{"android":"levelo://app?vid=3e315c03-bb88-4419-a1bb-0cce4e0eaae7","ios":"levelo://app?vid=3e315c03-bb88-4419-a1bb-0cce4e0eaae7"},"vehicle_type_id":"4","last_reported":1723486354,"current_range_meters":18800,"station_id":"ce4bhr12rcd13ifvqhqg","pricing_plan_id":"cebpf4jnsgd1na2vs0mg"},{"bike_id":"924ce2d9-da75-4c84-99e4-401d61c095c0","system_id":"levelo_inurba_marseille","lat":43.297163,"lon":5.365866,"is_reserved":false,"is_disabled":false,"rental_uris":{"android":"levelo://app?vid=924ce2d9-da75-4c84-99e4-401d61c095c0","ios":"levelo://app?vid=924ce2d9-da75-4c84-99e4-401d61c095c0"},"vehicle_type_id":"4","last_reported":1723486354,"current_range_meters":26400,"station_id":"ce4bgn12rcd13ifvqbt0","pricing_plan_id":"cebpf4jnsgd1na2vs0mg"},{"bike_id":"b0fcbade-59fe-4b5b-b5a2-37603a5ac40f","system_id":"levelo_inurba_marseille","lat":43.297163,"lon":5.365866,"is_reserved":false,"is_disabled":false,"rental_uris":{"android":"levelo://app?vid=b0fcbade-59fe-4b5b-b5a2-37603a5ac40f","ios":"levelo://app?vid=b0fcbade-59fe-4b5b-b5a2-37603a5ac40f"},"vehicle_type_id":"4","last_reported":1723486354,"current_range_meters":0,"station_id":"ce4bgn12rcd13ifvqbt0","pricing_plan_id":"cebpf4jnsgd1na2vs0mg"},{"bike_id":"0dde477f-e872-4b20-a5c0-7b78ad2ca690","system_id":"levelo_inurba_marseille","lat":43.2968,"lon":5.37291,"is_reserved":false,"is_disabled":false,"rental_uris":{"android":"levelo://app?vid=0dde477f-e872-4b20-a5c0-7b78ad2ca690","ios":"levelo://app?vid=0dde477f-e872-4b20-a5c0-7b78ad2ca690"},"vehicle_type_id":"4","last_reported":1723486354,"current_range_meters":28800,"station_id":"ce4bgk12rcd13ifvqbj0","pricing_plan_id":"cebpf4jnsgd1na2vs0mg"},{"bike_id":"eac9aa78-e716-4aaa-8069-8342823c57bb","system_id":"levelo_inurba_marseille","lat":43.296131,"lon":5.370773,"is_reserved":false,"is_disabled":false,"rental_uris":{"android":"levelo://app?vid=eac9aa78-e716-4aaa-8069-8342823c57bb","ios":"levelo://app?vid=eac9aa78-e716-4aaa-8069-8342823c57bb"},"vehicle_type_id":"4","last_reported":1723486354,"current_range_meters":7200,"station_id":"ce4bgnh2rcd13ifvqc0g","pricing_plan_id":"cebpf4jnsgd1na2vs0mg"},{"bike_id":"7616d157-9395-48b3-8b86-6d62acea177f","system_id":"levelo_inurba_marseille","lat":43.317557,"lon":5.390173,"is_reserved":false,"is_disabled":false,"rental_uris":{"android":"levelo://app?vid=7616d157-9395-48b3-8b86-6d62acea177f","ios":"levelo://app?vid=7616d157-9395-48b3-8b86-6d62acea177f"},"vehicle_type_id":"4","last_reported":1723486354,"current_range_meters":27600,"station_id":"ce4bhqp2rcd13ifvqhng","pricing_plan_id":"cebpf4jnsgd1na2vs0mg"},{"bike_id":"1bdbc40a-603f-4797-ab97-9d7928b648d0","system_id":"levelo_inurba_marseille","lat":43.298037,"lon":5.381066,"is_reserved":false,"is_disabled":false,"rental_uris":{"android":"levelo://app?vid=1bdbc40a-603f-4797-ab97-9d7928b648d0","ios":"levelo://app?vid=1bdbc40a-603f-4797-ab97-9d7928b648d0"},"vehicle_type_id":"4","last_reported":1723486354,"current_range_meters":24800,"station_id":"ce4bgip2rcd13ifvqbb0","pricing_plan_id":"cebpf4jnsgd1na2vs0mg"},{"bike_id":"9abe1438-42ae-434b-8d95-9b6a12da4d96","system_id":"levelo_inurba_marseille","lat":43.29804,"lon":5.38081,"is_reserved":false,"is_disabled":false,"rental_uris":{"android":"levelo://app?vid=9abe1438-42ae-434b-8d95-9b6a12da4d96","ios":"levelo://app?vid=9abe1438-42ae-434b-8d95-9b6a12da4d96"},"vehicle_type_id":"4","last_reported":1723486354,"current_range_meters":31200,"station_id":"ce4bgip2rcd13ifvqbb0","pricing_plan_id":"cebpf4jnsgd1na2vs0mg"},{"bike_id":"27af3ec4-52c3-4c0a-abca-32fb74ce4182","system_id":"levelo_inurba_marseille","lat":43.29805,"lon":5.38094,"is_reserved":false,"is_disabled":false,"rental_uris":{"android":"levelo://app?vid=27af3ec4-52c3-4c0a-abca-32fb74ce4182","ios":"levelo://app?vid=27af3ec4-52c3-4c0a-abca-32fb74ce4182"},"vehicle_type_id":"4","last_reported":1723486354,"current_range_meters":23600,"station_id":"ce4bgip2rcd13ifvqbb0","pricing_plan_id":"cebpf4jnsgd1na2vs0mg"},{"bike_id":"879fb181-35a3-40a8-a059-72a21d4f6ced","system_id":"levelo_inurba_marseille","lat":43.298037,"lon":5.381066,"is_reserved":false,"is_disabled":false,"rental_uris":{"android":"levelo://app?vid=879fb181-35a3-40a8-a059-72a21d4f6ced","ios":"levelo://app?vid=879fb181-35a3-40a8-a059-72a21d4f6ced"},"vehicle_type_id":"4","last_reported":1723486354,"current_range_meters":29200,"station_id":"ce4bgip2rcd13ifvqbb0","pricing_plan_id":"cebpf4jnsgd1na2vs0mg"},{"bike_id":"893febe2-33e6-472d-ad29-7c7669e81f22","system_id":"levelo_inurba_marseille","lat":43.29579,"lon":5.37515,"is_reserved":false,"is_disabled":false,"rental_uris":{"android":"levelo://app?vid=893febe2-33e6-472d-ad29-7c7669e81f22","ios":"levelo://app?vid=893febe2-33e6-472d-ad29-7c7669e81f22"},"vehicle_type_id":"4","last_reported":1723486354,"current_range_meters":16400,"station_id":"ce4bgh92rcd13ifvqb50","pricing_plan_id":"cebpf4jnsgd1na2vs0mg"},{"bike_id":"3851a957-49b4-48a8-aa85-cc388852fecd","system_id":"levelo_inurba_marseille","lat":43.29577,"lon":5.37516,"is_reserved":false,"is_disabled":false,"rental_uris":{"android":"levelo://app?vid=3851a957-49b4-48a8-aa85-cc388852fecd","ios":"levelo://app?vid=3851a957-49b4-48a8-aa85-cc388852fecd"},"vehicle_type_id":"4","last_reported":1723486354,"current_range_meters":27200,"station_id":"ce4bgh92rcd13ifvqb50","pricing_plan_id":"cebpf4jnsgd1na2vs0mg"},{"bike_id":"1c03f8ab-625e-4bcc-8c54-95a660ec4eb0","system_id":"levelo_inurba_marseille","lat":43.295748,"lon":5.37522,"is_reserved":false,"is_disabled":false,"rental_uris":{"android":"levelo://app?vid=1c03f8ab-625e-4bcc-8c54-95a660ec4eb0","ios":"levelo://app?vid=1c03f8ab-625e-4bcc-8c54-95a660ec4eb0"},"vehicle_type_id":"4","last_reported":1723486354,"current_range_meters":10800,"station_id":"ce4bgh92rcd13ifvqb50","pricing_plan_id":"cebpf4jnsgd1na2vs0mg"},{"bike_id":"101c311e-c02a-4361-9613-d53a76b10611","system_id":"levelo_inurba_marseille","lat":43.304274,"lon":5.388873,"is_reserved":false,"is_disabled":false,"rental_uris":{"android":"levelo://app?vid=101c311e-c02a-4361-9613-d53a76b10611","ios":"levelo://app?vid=101c311e-c02a-4361-9613-d53a76b10611"},"vehicle_type_id":"4","last_reported":1723486354,"current_range_meters":12400,"station_id":"ce4bgk12rcd13ifvqbi0","pricing_plan_id":"cebpf4jnsgd1na2vs0mg"},{"bike_id":"6af2846c-71c5-4cc0-a8b1-0c04eb11585b","system_id":"levelo_inurba_marseille","lat":43.298037,"lon":5.381066,"is_reserved":false,"is_disabled":false,"rental_uris":{"android":"levelo://app?vid=6af2846c-71c5-4cc0-a8b1-0c04eb11585b","ios":"levelo://app?vid=6af2846c-71c5-4cc0-a8b1-0c04eb11585b"},"vehicle_type_id":"4","last_reported":1723486354,"current_range_meters":31200,"station_id":"ce4bgip2rcd13ifvqbb0","pricing_plan_id":"cebpf4jnsgd1na2vs0mg"},{"bike_id":"cb9d206e-eee8-4b17-9d6d-366f239cac09","system_id":"levelo_inurba_marseille","lat":43.298037,"lon":5.381066,"is_reserved":false,"is_disabled":false,"rental_uris":{"android":"levelo://app?vid=cb9d206e-eee8-4b17-9d6d-366f239cac09","ios":"levelo://app?vid=cb9d206e-eee8-4b17-9d6d-366f239cac09"},"vehicle_type_id":"4","last_reported":1723486354,"current_range_meters":31200,"station_id":"ce4bgip2rcd13ifvqbb0","pricing_plan_id":"cebpf4jnsgd1na2vs0mg"},{"bike_id":"cf79d003-29d5-4ccd-a5e1-51587b3ea060","system_id":"levelo_inurba_marseille","lat":43.295279,"lon":5.375048,"is_reserved":false,"is_disabled":false,"rental_uris":{"android":"levelo://app?vid=cf79d003-29d5-4ccd-a5e1-51587b3ea060","ios":"levelo://app?vid=cf79d003-29d5-4ccd-a5e1-51587b3ea060"},"vehicle_type_id":"4","last_reported":1723486354,"current_range_meters":30400,"station_id":"ce4bgkp2rcd13ifvqbmg","pricing_plan_id":"cebpf4jnsgd1na2vs0mg"},{"bike_id":"bb11c0be-5609-40a1-80c3-d7e00463fc44","system_id":"levelo_inurba_marseille","lat":43.295279,"lon":5.375048,"is_reserved":false,"is_disabled":false,"rental_uris":{"android":"levelo://app?vid=bb11c0be-5609-40a1-80c3-d7e00463fc44","ios":"levelo://app?vid=bb11c0be-5609-40a1-80c3-d7e00463fc44"},"vehicle_type_id":"4","last_reported":1723486354,"current_range_meters":4000,"station_id":"ce4bgkp2rcd13ifvqbmg","pricing_plan_id":"cebpf4jnsgd1na2vs0mg"},{"bike_id":"3cade6f7-1813-4401-830c-0a43c61a7a5b","system_id":"levelo_inurba_marseille","lat":43.299707,"lon":5.384859,"is_reserved":false,"is_disabled":false,"rental_uris":{"android":"levelo://app?vid=3cade6f7-1813-4401-830c-0a43c61a7a5b","ios":"levelo://app?vid=3cade6f7-1813-4401-830c-0a43c61a7a5b"},"vehicle_type_id":"4","last_reported":1723486354,"current_range_meters":400,"station_id":"ce4bgj92rcd13ifvqbd0","pricing_plan_id":"cebpf4jnsgd1na2vs0mg"},{"bike_id":"34810e08-0dd0-4191-8c4a-fa073e58abb0","system_id":"levelo_inurba_marseille","lat":43.299707,"lon":5.384859,"is_reserved":false,"is_disabled":false,"rental_uris":{"android":"levelo://app?vid=34810e08-0dd0-4191-8c4a-fa073e58abb0","ios":"levelo://app?vid=34810e08-0dd0-4191-8c4a-fa073e58abb0"},"vehicle_type_id":"4","last_reported":1723486354,"current_range_meters":14400,"station_id":"ce4bgj92rcd13ifvqbd0","pricing_plan_id":"cebpf4jnsgd1na2vs0mg"},{"bike_id":"48ccc61e-c8fb-4399-a237-791cb0019ee2","system_id":"levelo_inurba_marseille","lat":43.299707,"lon":5.384859,"is_reserved":false,"is_disabled":false,"rental_uris":{"android":"levelo://app?vid=48ccc61e-c8fb-4399-a237-791cb0019ee2","ios":"levelo://app?vid=48ccc61e-c8fb-4399-a237-791cb0019ee2"},"vehicle_type_id":"4","last_reported":1723486354,"current_range_meters":17200,"station_id":"ce4bgj92rcd13ifvqbd0","pricing_plan_id":"cebpf4jnsgd1na2vs0mg"},{"bike_id":"94b9e2f8-9b67-4a0d-b57b-952dc9a4d35e","system_id":"levelo_inurba_marseille","lat":43.299724,"lon":5.384848,"is_reserved":false,"is_disabled":false,"rental_uris":{"android":"levelo://app?vid=94b9e2f8-9b67-4a0d-b57b-952dc9a4d35e","ios":"levelo://app?vid=94b9e2f8-9b67-4a0d-b57b-952dc9a4d35e"},"vehicle_type_id":"4","last_reported":1723486354,"current_range_meters":16400,"station_id":"ce4bgj92rcd13ifvqbd0","pricing_plan_id":"cebpf4jnsgd1na2vs0mg"},{"bike_id":"38f4d822-8974-4448-8eab-89353b87c3f8","system_id":"levelo_inurba_marseille","lat":43.29973,"lon":5.38493,"is_reserved":false,"is_disabled":false,"rental_uris":{"android":"levelo://app?vid=38f4d822-8974-4448-8eab-89353b87c3f8","ios":"levelo://app?vid=38f4d822-8974-4448-8eab-89353b87c3f8"},"vehicle_type_id":"4","last_reported":1723486354,"current_range_meters":12800,"station_id":"ce4bgj92rcd13ifvqbd0","pricing_plan_id":"cebpf4jnsgd1na2vs0mg"},{"bike_id":"9b2f217d-c9ec-493e-80dc-648f2bc4b8f3","system_id":"levelo_inurba_marseille","lat":43.295279,"lon":5.375048,"is_reserved":false,"is_disabled":false,"rental_uris":{"android":"levelo://app?vid=9b2f217d-c9ec-493e-80dc-648f2bc4b8f3","ios":"levelo://app?vid=9b2f217d-c9ec-493e-80dc-648f2bc4b8f3"},"vehicle_type_id":"4","last_reported":1723486354,"current_range_meters":27600,"station_id":"ce4bgkp2rcd13ifvqbmg","pricing_plan_id":"cebpf4jnsgd1na2vs0mg"},{"bike_id":"fbbb5242-5f25-4302-a232-38baa700cb9e","system_id":"levelo_inurba_marseille","lat":43.304606,"lon":5.379026,"is_reserved":false,"is_disabled":false,"rental_uris":{"android":"levelo://app?vid=fbbb5242-5f25-4302-a232-38baa700cb9e","ios":"levelo://app?vid=fbbb5242-5f25-4302-a232-38baa700cb9e"},"vehicle_type_id":"4","last_reported":1723486354,"current_range_meters":22000,"station_id":"ce4bgup2rcd13ifvqcn0","pricing_plan_id":"cebpf4jnsgd1na2vs0mg"},{"bike_id":"9c146ec0-0b10-4fc9-88be-37b187e2bc28","system_id":"levelo_inurba_marseille","lat":43.299724,"lon":5.384848,"is_reserved":false,"is_disabled":false,"rental_uris":{"android":"levelo://app?vid=9c146ec0-0b10-4fc9-88be-37b187e2bc28","ios":"levelo://app?vid=9c146ec0-0b10-4fc9-88be-37b187e2bc28"},"vehicle_type_id":"4","last_reported":1723486354,"current_range_meters":13200,"station_id":"ce4bgj92rcd13ifvqbd0","pricing_plan_id":"cebpf4jnsgd1na2vs0mg"},{"bike_id":"537a2a05-8194-44d4-a79d-11a9639539ac","system_id":"levelo_inurba_marseille","lat":43.299724,"lon":5.384848,"is_reserved":false,"is_disabled":false,"rental_uris":{"android":"levelo://app?vid=537a2a05-8194-44d4-a79d-11a9639539ac","ios":"levelo://app?vid=537a2a05-8194-44d4-a79d-11a9639539ac"},"vehicle_type_id":"4","last_reported":1723486354,"current_range_meters":26800,"station_id":"ce4bgj92rcd13ifvqbd0","pricing_plan_id":"cebpf4jnsgd1na2vs0mg"},{"bike_id":"f233efa1-c365-4527-a049-74b951aff933","system_id":"levelo_inurba_marseille","lat":43.301396,"lon":5.387812,"is_reserved":false,"is_disabled":false,"rental_uris":{"android":"levelo://app?vid=f233efa1-c365-4527-a049-74b951aff933","ios":"levelo://app?vid=f233efa1-c365-4527-a049-74b951aff933"},"vehicle_type_id":"4","last_reported":1723486354,"current_range_meters":25200,"station_id":"ce4bghh2rcd13ifvqb60","pricing_plan_id":"cebpf4jnsgd1na2vs0mg"},{"bike_id":"b43dcac0-12e2-47d0-9043-ee978abc1d3f","system_id":"levelo_inurba_marseille","lat":43.32367,"lon":5.388836,"is_reserved":false,"is_disabled":false,"rental_uris":{"android":"levelo://app?vid=b43dcac0-12e2-47d0-9043-ee978abc1d3f","ios":"levelo://app?vid=b43dcac0-12e2-47d0-9043-ee978abc1d3f"},"vehicle_type_id":"4","last_reported":1723486354,"current_range_meters":4400,"station_id":"ce4bhqp2rcd13ifvqhog","pricing_plan_id":"cebpf4jnsgd1na2vs0mg"},{"bike_id":"7c86baad-70be-45ea-af7d-73b004c51184","system_id":"levelo_inurba_marseille","lat":43.29601,"lon":5.381084,"is_reserved":false,"is_disabled":false,"rental_uris":{"android":"levelo://app?vid=7c86baad-70be-45ea-af7d-73b004c51184","ios":"levelo://app?vid=7c86baad-70be-45ea-af7d-73b004c51184"},"vehicle_type_id":"4","last_reported":1723486354,"current_range_meters":0,"station_id":"ce4bgl12rcd13ifvqbo0","pricing_plan_id":"cebpf4jnsgd1na2vs0mg"},{"bike_id":"13772e19-9354-408c-8a82-5e1869f2ed7e","system_id":"levelo_inurba_marseille","lat":43.29602,"lon":5.381084,"is_reserved":false,"is_disabled":false,"rental_uris":{"android":"levelo://app?vid=13772e19-9354-408c-8a82-5e1869f2ed7e","ios":"levelo://app?vid=13772e19-9354-408c-8a82-5e1869f2ed7e"},"vehicle_type_id":"4","last_reported":1723486354,"current_range_meters":19200,"station_id":"ce4bgl12rcd13ifvqbo0","pricing_plan_id":"cebpf4jnsgd1na2vs0mg"},{"bike_id":"cd657caf-b346-4c64-9ba1-e163e4cda03a","system_id":"levelo_inurba_marseille","lat":43.29602,"lon":5.381084,"is_reserved":false,"is_disabled":false,"rental_uris":{"android":"levelo://app?vid=cd657caf-b346-4c64-9ba1-e163e4cda03a","ios":"levelo://app?vid=cd657caf-b346-4c64-9ba1-e163e4cda03a"},"vehicle_type_id":"4","last_reported":1723486354,"current_range_meters":18000,"station_id":"ce4bgl12rcd13ifvqbo0","pricing_plan_id":"cebpf4jnsgd1na2vs0mg"},{"bike_id":"11823539-c327-44e0-baad-2826d09b625d","system_id":"levelo_inurba_marseille","lat":43.29592,"lon":5.38096,"is_reserved":false,"is_disabled":false,"rental_uris":{"android":"levelo://app?vid=11823539-c327-44e0-baad-2826d09b625d","ios":"levelo://app?vid=11823539-c327-44e0-baad-2826d09b625d"},"vehicle_type_id":"4","last_reported":1723486354,"current_range_meters":0,"station_id":"ce4bgl12rcd13ifvqbo0","pricing_plan_id":"cebpf4jnsgd1na2vs0mg"},{"bike_id":"c3483583-6392-4545-b197-c1077fd422d3","system_id":"levelo_inurba_marseille","lat":43.260219,"lon":5.37546,"is_reserved":false,"is_disabled":false,"rental_uris":{"android":"levelo://app?vid=c3483583-6392-4545-b197-c1077fd422d3","ios":"levelo://app?vid=c3483583-6392-4545-b197-c1077fd422d3"},"vehicle_type_id":"4","last_reported":1723486354,"current_range_meters":4800,"station_id":"ce4bhgh2rcd13ifvqfa0","pricing_plan_id":"cebpf4jnsgd1na2vs0mg"},{"bike_id":"aac4bf78-9c39-47b0-97eb-dc1c72202c92","system_id":"levelo_inurba_marseille","lat":43.293249,"lon":5.371578,"is_reserved":false,"is_disabled":false,"rental_uris":{"android":"levelo://app?vid=aac4bf78-9c39-47b0-97eb-dc1c72202c92","ios":"levelo://app?vid=aac4bf78-9c39-47b0-97eb-dc1c72202c92"},"vehicle_type_id":"4","last_reported":1723486354,"current_range_meters":18000,"station_id":"ce4bgh92rcd13ifvqb40","pricing_plan_id":"cebpf4jnsgd1na2vs0mg"},{"bike_id":"c3bad747-1591-4866-bd3f-690526d11daf","system_id":"levelo_inurba_marseille","lat":43.292749,"lon":5.368402,"is_reserved":false,"is_disabled":false,"rental_uris":{"android":"levelo://app?vid=c3bad747-1591-4866-bd3f-690526d11daf","ios":"levelo://app?vid=c3bad747-1591-4866-bd3f-690526d11daf"},"vehicle_type_id":"4","last_reported":1723486354,"current_range_meters":9600,"station_id":"ce4bhbp2rcd13ifvqesg","pricing_plan_id":"cebpf4jnsgd1na2vs0mg"},{"bike_id":"8f3e4ddf-4167-4efe-bd8c-b87f4b9c6912","system_id":"levelo_inurba_marseille","lat":43.292749,"lon":5.368402,"is_reserved":false,"is_disabled":false,"rental_uris":{"android":"levelo://app?vid=8f3e4ddf-4167-4efe-bd8c-b87f4b9c6912","ios":"levelo://app?vid=8f3e4ddf-4167-4efe-bd8c-b87f4b9c6912"},"vehicle_type_id":"4","last_reported":1723486354,"current_range_meters":28400,"station_id":"ce4bhbp2rcd13ifvqesg","pricing_plan_id":"cebpf4jnsgd1na2vs0mg"},{"bike_id":"9ec5b0bb-44bc-420f-8b9e-63727756e47e","system_id":"levelo_inurba_marseille","lat":43.292749,"lon":5.368402,"is_reserved":false,"is_disabled":false,"rental_uris":{"android":"levelo://app?vid=9ec5b0bb-44bc-420f-8b9e-63727756e47e","ios":"levelo://app?vid=9ec5b0bb-44bc-420f-8b9e-63727756e47e"},"vehicle_type_id":"4","last_reported":1723486354,"current_range_meters":25600,"station_id":"ce4bhbp2rcd13ifvqesg","pricing_plan_id":"cebpf4jnsgd1na2vs0mg"},{"bike_id":"12da4448-f9dc-4137-a3cd-aba682985bb2","system_id":"levelo_inurba_marseille","lat":43.293,"lon":5.37177,"is_reserved":false,"is_disabled":false,"rental_uris":{"android":"levelo://app?vid=12da4448-f9dc-4137-a3cd-aba682985bb2","ios":"levelo://app?vid=12da4448-f9dc-4137-a3cd-aba682985bb2"},"vehicle_type_id":"4","last_reported":1723486354,"current_range_meters":0,"station_id":"ce4bgh92rcd13ifvqb40","pricing_plan_id":"cebpf4jnsgd1na2vs0mg"},{"bike_id":"fecfcd6f-0ada-4bd8-bec6-ca0cf494ca5b","system_id":"levelo_inurba_marseille","lat":43.29301,"lon":5.37443,"is_reserved":false,"is_disabled":false,"rental_uris":{"android":"levelo://app?vid=fecfcd6f-0ada-4bd8-bec6-ca0cf494ca5b","ios":"levelo://app?vid=fecfcd6f-0ada-4bd8-bec6-ca0cf494ca5b"},"vehicle_type_id":"4","last_reported":1723486354,"current_range_meters":0,"station_id":"ce4bgi12rcd13ifvqb70","pricing_plan_id":"cebpf4jnsgd1na2vs0mg"},{"bike_id":"38831877-51ef-4db6-b446-79861ceeb1d3","system_id":"levelo_inurba_marseille","lat":43.29302,"lon":5.37449,"is_reserved":false,"is_disabled":false,"rental_uris":{"android":"levelo://app?vid=38831877-51ef-4db6-b446-79861ceeb1d3","ios":"levelo://app?vid=38831877-51ef-4db6-b446-79861ceeb1d3"},"vehicle_type_id":"4","last_reported":1723486354,"current_range_meters":0,"station_id":"ce4bgi12rcd13ifvqb70","pricing_plan_id":"cebpf4jnsgd1na2vs0mg"},{"bike_id":"1241db0c-2f18-4571-a361-7f258dcad0e2","system_id":"levelo_inurba_marseille","lat":43.29303,"lon":5.37456,"is_reserved":false,"is_disabled":false,"rental_uris":{"android":"levelo://app?vid=1241db0c-2f18-4571-a361-7f258dcad0e2","ios":"levelo://app?vid=1241db0c-2f18-4571-a361-7f258dcad0e2"},"vehicle_type_id":"4","last_reported":1723486354,"current_range_meters":0,"station_id":"ce4bgi12rcd13ifvqb70","pricing_plan_id":"cebpf4jnsgd1na2vs0mg"},{"bike_id":"01bfacdf-bd22-49db-88a2-ff2a8b5421f1","system_id":"levelo_inurba_marseille","lat":43.293009,"lon":5.374584,"is_reserved":false,"is_disabled":false,"rental_uris":{"android":"levelo://app?vid=01bfacdf-bd22-49db-88a2-ff2a8b5421f1","ios":"levelo://app?vid=01bfacdf-bd22-49db-88a2-ff2a8b5421f1"},"vehicle_type_id":"4","last_reported":1723486354,"current_range_meters":13200,"station_id":"ce4bgi12rcd13ifvqb70","pricing_plan_id":"cebpf4jnsgd1na2vs0mg"},{"bike_id":"8d37495d-9961-45f8-ba67-ee81725ae3ae","system_id":"levelo_inurba_marseille","lat":43.29228,"lon":5.36363,"is_reserved":false,"is_disabled":false,"rental_uris":{"android":"levelo://app?vid=8d37495d-9961-45f8-ba67-ee81725ae3ae","ios":"levelo://app?vid=8d37495d-9961-45f8-ba67-ee81725ae3ae"},"vehicle_type_id":"4","last_reported":1723486354,"current_range_meters":400,"station_id":"","pricing_plan_id":"cebpf4jnsgd1na2vs0mg"},{"bike_id":"7d60a366-e62c-4327-8afc-5786810d6907","system_id":"levelo_inurba_marseille","lat":43.29379,"lon":5.37852,"is_reserved":false,"is_disabled":false,"rental_uris":{"android":"levelo://app?vid=7d60a366-e62c-4327-8afc-5786810d6907","ios":"levelo://app?vid=7d60a366-e62c-4327-8afc-5786810d6907"},"vehicle_type_id":"4","last_reported":1723486354,"current_range_meters":0,"station_id":"ce4bgjh2rcd13ifvqbf0","pricing_plan_id":"cebpf4jnsgd1na2vs0mg"},{"bike_id":"2aced076-ea89-4712-9d7e-7797547dc6c9","system_id":"levelo_inurba_marseille","lat":43.29371,"lon":5.3785,"is_reserved":false,"is_disabled":false,"rental_uris":{"android":"levelo://app?vid=2aced076-ea89-4712-9d7e-7797547dc6c9","ios":"levelo://app?vid=2aced076-ea89-4712-9d7e-7797547dc6c9"},"vehicle_type_id":"4","last_reported":1723486354,"current_range_meters":2000,"station_id":"ce4bgjh2rcd13ifvqbf0","pricing_plan_id":"cebpf4jnsgd1na2vs0mg"},{"bike_id":"263a3ca3-cf9a-40c4-9da2-eb43758c46bd","system_id":"levelo_inurba_marseille","lat":43.2936,"lon":5.37835,"is_reserved":false,"is_disabled":false,"rental_uris":{"android":"levelo://app?vid=263a3ca3-cf9a-40c4-9da2-eb43758c46bd","ios":"levelo://app?vid=263a3ca3-cf9a-40c4-9da2-eb43758c46bd"},"vehicle_type_id":"4","last_reported":1723486354,"current_range_meters":400,"station_id":"ce4bgjh2rcd13ifvqbf0","pricing_plan_id":"cebpf4jnsgd1na2vs0mg"},{"bike_id":"486b470f-b439-431f-927d-9fc3c4fd14ee","system_id":"levelo_inurba_marseille","lat":43.292238,"lon":5.360612,"is_reserved":false,"is_disabled":false,"rental_uris":{"android":"levelo://app?vid=486b470f-b439-431f-927d-9fc3c4fd14ee","ios":"levelo://app?vid=486b470f-b439-431f-927d-9fc3c4fd14ee"},"vehicle_type_id":"4","last_reported":1723486354,"current_range_meters":16800,"station_id":"ce4bhbh2rcd13ifvqeqg","pricing_plan_id":"cebpf4jnsgd1na2vs0mg"},{"bike_id":"875311b2-9a4e-48f5-ac96-e3773d555d0d","system_id":"levelo_inurba_marseille","lat":43.292311,"lon":5.360731,"is_reserved":false,"is_disabled":false,"rental_uris":{"android":"levelo://app?vid=875311b2-9a4e-48f5-ac96-e3773d555d0d","ios":"levelo://app?vid=875311b2-9a4e-48f5-ac96-e3773d555d0d"},"vehicle_type_id":"4","last_reported":1723486354,"current_range_meters":0,"station_id":"ce4bhbh2rcd13ifvqeqg","pricing_plan_id":"cebpf4jnsgd1na2vs0mg"},{"bike_id":"df910204-9860-4786-b612-6dfb1e02b439","system_id":"levelo_inurba_marseille","lat":43.29223,"lon":5.36055,"is_reserved":false,"is_disabled":false,"rental_uris":{"android":"levelo://app?vid=df910204-9860-4786-b612-6dfb1e02b439","ios":"levelo://app?vid=df910204-9860-4786-b612-6dfb1e02b439"},"vehicle_type_id":"4","last_reported":1723486354,"current_range_meters":7200,"station_id":"ce4bhbh2rcd13ifvqeqg","pricing_plan_id":"cebpf4jnsgd1na2vs0mg"},{"bike_id":"86b6f6b5-2f0e-4004-9134-cada1e2ba5b6","system_id":"levelo_inurba_marseille","lat":43.29329,"lon":5.378427,"is_reserved":false,"is_disabled":false,"rental_uris":{"android":"levelo://app?vid=86b6f6b5-2f0e-4004-9134-cada1e2ba5b6","ios":"levelo://app?vid=86b6f6b5-2f0e-4004-9134-cada1e2ba5b6"},"vehicle_type_id":"4","last_reported":1723486354,"current_range_meters":12400,"station_id":"ce4bgjh2rcd13ifvqbf0","pricing_plan_id":"cebpf4jnsgd1na2vs0mg"},{"bike_id":"9d4b68a5-c93f-4844-a235-5ff4a055b660","system_id":"levelo_inurba_marseille","lat":43.292385,"lon":5.37767,"is_reserved":false,"is_disabled":false,"rental_uris":{"android":"levelo://app?vid=9d4b68a5-c93f-4844-a235-5ff4a055b660","ios":"levelo://app?vid=9d4b68a5-c93f-4844-a235-5ff4a055b660"},"vehicle_type_id":"4","last_reported":1723486354,"current_range_meters":3200,"station_id":"","pricing_plan_id":"cebpf4jnsgd1na2vs0mg"},{"bike_id":"1c7b4b4c-f126-4cd9-828f-c354191c0df2","system_id":"levelo_inurba_marseille","lat":43.291994,"lon":5.357886,"is_reserved":false,"is_disabled":false,"rental_uris":{"android":"levelo://app?vid=1c7b4b4c-f126-4cd9-828f-c354191c0df2","ios":"levelo://app?vid=1c7b4b4c-f126-4cd9-828f-c354191c0df2"},"vehicle_type_id":"4","last_reported":1723486354,"current_range_meters":0,"station_id":"ce4bhb12rcd13ifvqel0","pricing_plan_id":"cebpf4jnsgd1na2vs0mg"},{"bike_id":"8ddbf294-9363-428d-95c5-69dad46ec4ee","system_id":"levelo_inurba_marseille","lat":43.291994,"lon":5.357886,"is_reserved":false,"is_disabled":false,"rental_uris":{"android":"levelo://app?vid=8ddbf294-9363-428d-95c5-69dad46ec4ee","ios":"levelo://app?vid=8ddbf294-9363-428d-95c5-69dad46ec4ee"},"vehicle_type_id":"4","last_reported":1723486354,"current_range_meters":7600,"station_id":"ce4bhb12rcd13ifvqel0","pricing_plan_id":"cebpf4jnsgd1na2vs0mg"},{"bike_id":"c3c0cf4f-fb24-4eff-89b9-d56408dd77f7","system_id":"levelo_inurba_marseille","lat":43.29529,"lon":5.385581,"is_reserved":false,"is_disabled":false,"rental_uris":{"android":"levelo://app?vid=c3c0cf4f-fb24-4eff-89b9-d56408dd77f7","ios":"levelo://app?vid=c3c0cf4f-fb24-4eff-89b9-d56408dd77f7"},"vehicle_type_id":"4","last_reported":1723486354,"current_range_meters":7600,"station_id":"ce4bgih2rcd13ifvqba0","pricing_plan_id":"cebpf4jnsgd1na2vs0mg"},{"bike_id":"d30993bb-d495-4e8c-97da-2e5d55aada47","system_id":"levelo_inurba_marseille","lat":43.29529,"lon":5.385581,"is_reserved":false,"is_disabled":false,"rental_uris":{"android":"levelo://app?vid=d30993bb-d495-4e8c-97da-2e5d55aada47","ios":"levelo://app?vid=d30993bb-d495-4e8c-97da-2e5d55aada47"},"vehicle_type_id":"4","last_reported":1723486354,"current_range_meters":3600,"station_id":"ce4bgih2rcd13ifvqba0","pricing_plan_id":"cebpf4jnsgd1na2vs0mg"},{"bike_id":"69c268a8-f66d-4c22-b9d1-d247e3690155","system_id":"levelo_inurba_marseille","lat":43.29529,"lon":5.385581,"is_reserved":false,"is_disabled":false,"rental_uris":{"android":"levelo://app?vid=69c268a8-f66d-4c22-b9d1-d247e3690155","ios":"levelo://app?vid=69c268a8-f66d-4c22-b9d1-d247e3690155"},"vehicle_type_id":"4","last_reported":1723486354,"current_range_meters":13600,"station_id":"ce4bgih2rcd13ifvqba0","pricing_plan_id":"cebpf4jnsgd1na2vs0mg"},{"bike_id":"0b99f985-6008-4f66-ab99-c2540c7ffbe1","system_id":"levelo_inurba_marseille","lat":43.290631,"lon":5.359244,"is_reserved":false,"is_disabled":false,"rental_uris":{"android":"levelo://app?vid=0b99f985-6008-4f66-ab99-c2540c7ffbe1","ios":"levelo://app?vid=0b99f985-6008-4f66-ab99-c2540c7ffbe1"},"vehicle_type_id":"4","last_reported":1723486354,"current_range_meters":9200,"station_id":"ce4bha92rcd13ifvqeg0","pricing_plan_id":"cebpf4jnsgd1na2vs0mg"},{"bike_id":"943d167e-252d-4474-923d-de567831eae7","system_id":"levelo_inurba_marseille","lat":43.290327,"lon":5.375711,"is_reserved":false,"is_disabled":false,"rental_uris":{"android":"levelo://app?vid=943d167e-252d-4474-923d-de567831eae7","ios":"levelo://app?vid=943d167e-252d-4474-923d-de567831eae7"},"vehicle_type_id":"4","last_reported":1723486354,"current_range_meters":400,"station_id":"ce4bh692rcd13ifvqe90","pricing_plan_id":"cebpf4jnsgd1na2vs0mg"},{"bike_id":"7a6040e3-bc70-4605-b4a8-5254399c2269","system_id":"levelo_inurba_marseille","lat":43.294167,"lon":5.386207,"is_reserved":false,"is_disabled":false,"rental_uris":{"android":"levelo://app?vid=7a6040e3-bc70-4605-b4a8-5254399c2269","ios":"levelo://app?vid=7a6040e3-bc70-4605-b4a8-5254399c2269"},"vehicle_type_id":"4","last_reported":1723486354,"current_range_meters":0,"station_id":"ce4bh2h2rcd13ifvqdh0","pricing_plan_id":"cebpf4jnsgd1na2vs0mg"},{"bike_id":"4e0f87ca-e303-411a-b93b-d1e60a83e4da","system_id":"levelo_inurba_marseille","lat":43.290327,"lon":5.375711,"is_reserved":false,"is_disabled":false,"rental_uris":{"android":"levelo://app?vid=4e0f87ca-e303-411a-b93b-d1e60a83e4da","ios":"levelo://app?vid=4e0f87ca-e303-411a-b93b-d1e60a83e4da"},"vehicle_type_id":"4","last_reported":1723486354,"current_range_meters":0,"station_id":"ce4bh692rcd13ifvqe90","pricing_plan_id":"cebpf4jnsgd1na2vs0mg"},{"bike_id":"5bec4cb2-53ae-4379-a1bb-e50d3f6951e4","system_id":"levelo_inurba_marseille","lat":43.29416,"lon":5.38623,"is_reserved":false,"is_disabled":false,"rental_uris":{"android":"levelo://app?vid=5bec4cb2-53ae-4379-a1bb-e50d3f6951e4","ios":"levelo://app?vid=5bec4cb2-53ae-4379-a1bb-e50d3f6951e4"},"vehicle_type_id":"4","last_reported":1723486354,"current_range_meters":0,"station_id":"ce4bh2h2rcd13ifvqdh0","pricing_plan_id":"cebpf4jnsgd1na2vs0mg"},{"bike_id":"3952e7c3-1ea1-4c4b-903e-0ee3305e1f7f","system_id":"levelo_inurba_marseille","lat":43.294153,"lon":5.386305,"is_reserved":false,"is_disabled":false,"rental_uris":{"android":"levelo://app?vid=3952e7c3-1ea1-4c4b-903e-0ee3305e1f7f","ios":"levelo://app?vid=3952e7c3-1ea1-4c4b-903e-0ee3305e1f7f"},"vehicle_type_id":"4","last_reported":1723486354,"current_range_meters":1200,"station_id":"ce4bh2h2rcd13ifvqdh0","pricing_plan_id":"cebpf4jnsgd1na2vs0mg"},{"bike_id":"b380623a-948e-47d6-b9b9-90d6e120faf0","system_id":"levelo_inurba_marseille","lat":43.289184,"lon":5.366408,"is_reserved":false,"is_disabled":false,"rental_uris":{"android":"levelo://app?vid=b380623a-948e-47d6-b9b9-90d6e120faf0","ios":"levelo://app?vid=b380623a-948e-47d6-b9b9-90d6e120faf0"},"vehicle_type_id":"4","last_reported":1723486354,"current_range_meters":0,"station_id":"ce4bhap2rcd13ifvqek0","pricing_plan_id":"cebpf4jnsgd1na2vs0mg"},{"bike_id":"01f3c7ca-fcf1-431a-b88b-59d799e2704f","system_id":"levelo_inurba_marseille","lat":43.289184,"lon":5.366408,"is_reserved":false,"is_disabled":false,"rental_uris":{"android":"levelo://app?vid=01f3c7ca-fcf1-431a-b88b-59d799e2704f","ios":"levelo://app?vid=01f3c7ca-fcf1-431a-b88b-59d799e2704f"},"vehicle_type_id":"4","last_reported":1723486354,"current_range_meters":11200,"station_id":"ce4bhap2rcd13ifvqek0","pricing_plan_id":"cebpf4jnsgd1na2vs0mg"},{"bike_id":"6d82e218-6633-4a60-a452-aea6c0ee9670","system_id":"levelo_inurba_marseille","lat":43.289184,"lon":5.366408,"is_reserved":false,"is_disabled":false,"rental_uris":{"android":"levelo://app?vid=6d82e218-6633-4a60-a452-aea6c0ee9670","ios":"levelo://app?vid=6d82e218-6633-4a60-a452-aea6c0ee9670"},"vehicle_type_id":"4","last_reported":1723486354,"current_range_meters":0,"station_id":"ce4bhap2rcd13ifvqek0","pricing_plan_id":"cebpf4jnsgd1na2vs0mg"},{"bike_id":"7ca56c40-d603-4fd4-aa47-b02f628852bf","system_id":"levelo_inurba_marseille","lat":43.289437,"lon":5.363923,"is_reserved":false,"is_disabled":false,"rental_uris":{"android":"levelo://app?vid=7ca56c40-d603-4fd4-aa47-b02f628852bf","ios":"levelo://app?vid=7ca56c40-d603-4fd4-aa47-b02f628852bf"},"vehicle_type_id":"4","last_reported":1723486354,"current_range_meters":0,"station_id":"ce4bhc92rcd13ifvqetg","pricing_plan_id":"cebpf4jnsgd1na2vs0mg"},{"bike_id":"a2947017-d2ac-4d3a-a3b7-c18569ee9861","system_id":"levelo_inurba_marseille","lat":43.289184,"lon":5.366408,"is_reserved":false,"is_disabled":false,"rental_uris":{"android":"levelo://app?vid=a2947017-d2ac-4d3a-a3b7-c18569ee9861","ios":"levelo://app?vid=a2947017-d2ac-4d3a-a3b7-c18569ee9861"},"vehicle_type_id":"4","last_reported":1723486354,"current_range_meters":29600,"station_id":"ce4bhap2rcd13ifvqek0","pricing_plan_id":"cebpf4jnsgd1na2vs0mg"},{"bike_id":"a47feb1c-1bb2-4e5b-98a8-20e122e5fdda","system_id":"levelo_inurba_marseille","lat":43.289184,"lon":5.366408,"is_reserved":false,"is_disabled":false,"rental_uris":{"android":"levelo://app?vid=a47feb1c-1bb2-4e5b-98a8-20e122e5fdda","ios":"levelo://app?vid=a47feb1c-1bb2-4e5b-98a8-20e122e5fdda"},"vehicle_type_id":"4","last_reported":1723486354,"current_range_meters":0,"station_id":"ce4bhap2rcd13ifvqek0","pricing_plan_id":"cebpf4jnsgd1na2vs0mg"},{"bike_id":"476bacc2-82a9-4968-94cd-d6ee0606e481","system_id":"levelo_inurba_marseille","lat":43.29419,"lon":5.38668,"is_reserved":false,"is_disabled":false,"rental_uris":{"android":"levelo://app?vid=476bacc2-82a9-4968-94cd-d6ee0606e481","ios":"levelo://app?vid=476bacc2-82a9-4968-94cd-d6ee0606e481"},"vehicle_type_id":"4","last_reported":1723486354,"current_range_meters":1200,"station_id":"ce4bh2h2rcd13ifvqdh0","pricing_plan_id":"cebpf4jnsgd1na2vs0mg"},{"bike_id":"f3d4b450-397d-4eaa-925d-18506582b1ee","system_id":"levelo_inurba_marseille","lat":43.289468,"lon":5.363719,"is_reserved":false,"is_disabled":false,"rental_uris":{"android":"levelo://app?vid=f3d4b450-397d-4eaa-925d-18506582b1ee","ios":"levelo://app?vid=f3d4b450-397d-4eaa-925d-18506582b1ee"},"vehicle_type_id":"4","last_reported":1723486354,"current_range_meters":6000,"station_id":"ce4bhc92rcd13ifvqetg","pricing_plan_id":"cebpf4jnsgd1na2vs0mg"},{"bike_id":"4f4763a8-4917-40ed-a551-10cf62ad6d75","system_id":"levelo_inurba_marseille","lat":43.29269,"lon":5.38431,"is_reserved":false,"is_disabled":false,"rental_uris":{"android":"levelo://app?vid=4f4763a8-4917-40ed-a551-10cf62ad6d75","ios":"levelo://app?vid=4f4763a8-4917-40ed-a551-10cf62ad6d75"},"vehicle_type_id":"4","last_reported":1723486354,"current_range_meters":0,"station_id":"ce4bh692rcd13ifvqea0","pricing_plan_id":"cebpf4jnsgd1na2vs0mg"},{"bike_id":"87093125-91ec-452c-8a63-ce84d117fb97","system_id":"levelo_inurba_marseille","lat":43.292642,"lon":5.384254,"is_reserved":false,"is_disabled":false,"rental_uris":{"android":"levelo://app?vid=87093125-91ec-452c-8a63-ce84d117fb97","ios":"levelo://app?vid=87093125-91ec-452c-8a63-ce84d117fb97"},"vehicle_type_id":"4","last_reported":1723486354,"current_range_meters":8000,"station_id":"ce4bh692rcd13ifvqea0","pricing_plan_id":"cebpf4jnsgd1na2vs0mg"},{"bike_id":"3b0395e8-2a96-49d6-9bf1-136ce8a8bd68","system_id":"levelo_inurba_marseille","lat":43.292644,"lon":5.384257,"is_reserved":false,"is_disabled":false,"rental_uris":{"android":"levelo://app?vid=3b0395e8-2a96-49d6-9bf1-136ce8a8bd68","ios":"levelo://app?vid=3b0395e8-2a96-49d6-9bf1-136ce8a8bd68"},"vehicle_type_id":"4","last_reported":1723486354,"current_range_meters":4800,"station_id":"ce4bh692rcd13ifvqea0","pricing_plan_id":"cebpf4jnsgd1na2vs0mg"},{"bike_id":"9f9e3c31-f097-4234-97d8-fac73bde0c32","system_id":"levelo_inurba_marseille","lat":43.292642,"lon":5.384254,"is_reserved":false,"is_disabled":false,"rental_uris":{"android":"levelo://app?vid=9f9e3c31-f097-4234-97d8-fac73bde0c32","ios":"levelo://app?vid=9f9e3c31-f097-4234-97d8-fac73bde0c32"},"vehicle_type_id":"4","last_reported":1723486354,"current_range_meters":4000,"station_id":"ce4bh692rcd13ifvqea0","pricing_plan_id":"cebpf4jnsgd1na2vs0mg"},{"bike_id":"eadc8e78-29d3-4984-8bc9-ca18964cc76b","system_id":"levelo_inurba_marseille","lat":43.292642,"lon":5.384254,"is_reserved":false,"is_disabled":false,"rental_uris":{"android":"levelo://app?vid=eadc8e78-29d3-4984-8bc9-ca18964cc76b","ios":"levelo://app?vid=eadc8e78-29d3-4984-8bc9-ca18964cc76b"},"vehicle_type_id":"4","last_reported":1723486354,"current_range_meters":21200,"station_id":"ce4bh692rcd13ifvqea0","pricing_plan_id":"cebpf4jnsgd1na2vs0mg"},{"bike_id":"f30a5eb7-dda4-4cb4-bff4-6f6d920577ad","system_id":"levelo_inurba_marseille","lat":43.292642,"lon":5.384254,"is_reserved":false,"is_disabled":false,"rental_uris":{"android":"levelo://app?vid=f30a5eb7-dda4-4cb4-bff4-6f6d920577ad","ios":"levelo://app?vid=f30a5eb7-dda4-4cb4-bff4-6f6d920577ad"},"vehicle_type_id":"4","last_reported":1723486354,"current_range_meters":0,"station_id":"ce4bh692rcd13ifvqea0","pricing_plan_id":"cebpf4jnsgd1na2vs0mg"},{"bike_id":"670ff205-7630-491f-99cc-541901a0a09c","system_id":"levelo_inurba_marseille","lat":43.2926,"lon":5.3844,"is_reserved":false,"is_disabled":false,"rental_uris":{"android":"levelo://app?vid=670ff205-7630-491f-99cc-541901a0a09c","ios":"levelo://app?vid=670ff205-7630-491f-99cc-541901a0a09c"},"vehicle_type_id":"4","last_reported":1723486354,"current_range_meters":0,"station_id":"ce4bh692rcd13ifvqea0","pricing_plan_id":"cebpf4jnsgd1na2vs0mg"},{"bike_id":"34643477-cf8b-4f23-87da-6d49c80a5fec","system_id":"levelo_inurba_marseille","lat":43.29007,"lon":5.35617,"is_reserved":false,"is_disabled":false,"rental_uris":{"android":"levelo://app?vid=34643477-cf8b-4f23-87da-6d49c80a5fec","ios":"levelo://app?vid=34643477-cf8b-4f23-87da-6d49c80a5fec"},"vehicle_type_id":"4","last_reported":1723486354,"current_range_meters":29200,"station_id":"ce4bhb92rcd13ifvqen0","pricing_plan_id":"cebpf4jnsgd1na2vs0mg"},{"bike_id":"8966253b-0448-4a7f-93e9-9a999ebd9d57","system_id":"levelo_inurba_marseille","lat":43.290103,"lon":5.356114,"is_reserved":false,"is_disabled":false,"rental_uris":{"android":"levelo://app?vid=8966253b-0448-4a7f-93e9-9a999ebd9d57","ios":"levelo://app?vid=8966253b-0448-4a7f-93e9-9a999ebd9d57"},"vehicle_type_id":"4","last_reported":1723486354,"current_range_meters":0,"station_id":"ce4bhb92rcd13ifvqen0","pricing_plan_id":"cebpf4jnsgd1na2vs0mg"},{"bike_id":"7d53018d-6235-40bb-8b82-cbeb3cfc75c4","system_id":"levelo_inurba_marseille","lat":43.29003,"lon":5.35613,"is_reserved":false,"is_disabled":false,"rental_uris":{"android":"levelo://app?vid=7d53018d-6235-40bb-8b82-cbeb3cfc75c4","ios":"levelo://app?vid=7d53018d-6235-40bb-8b82-cbeb3cfc75c4"},"vehicle_type_id":"4","last_reported":1723486354,"current_range_meters":0,"station_id":"ce4bhb92rcd13ifvqen0","pricing_plan_id":"cebpf4jnsgd1na2vs0mg"},{"bike_id":"2c69cb3e-af2f-4e88-84ec-bfdb8ec464c6","system_id":"levelo_inurba_marseille","lat":43.290104,"lon":5.356111,"is_reserved":false,"is_disabled":false,"rental_uris":{"android":"levelo://app?vid=2c69cb3e-af2f-4e88-84ec-bfdb8ec464c6","ios":"levelo://app?vid=2c69cb3e-af2f-4e88-84ec-bfdb8ec464c6"},"vehicle_type_id":"4","last_reported":1723486354,"current_range_meters":0,"station_id":"ce4bhb92rcd13ifvqen0","pricing_plan_id":"cebpf4jnsgd1na2vs0mg"},{"bike_id":"49717239-f945-4d37-ab94-b04a89ef2274","system_id":"levelo_inurba_marseille","lat":43.29003,"lon":5.35612,"is_reserved":false,"is_disabled":false,"rental_uris":{"android":"levelo://app?vid=49717239-f945-4d37-ab94-b04a89ef2274","ios":"levelo://app?vid=49717239-f945-4d37-ab94-b04a89ef2274"},"vehicle_type_id":"4","last_reported":1723486354,"current_range_meters":0,"station_id":"ce4bhb92rcd13ifvqen0","pricing_plan_id":"cebpf4jnsgd1na2vs0mg"},{"bike_id":"035fb379-dd5a-4429-a793-a800996b8516","system_id":"levelo_inurba_marseille","lat":43.29001,"lon":5.35618,"is_reserved":false,"is_disabled":false,"rental_uris":{"android":"levelo://app?vid=035fb379-dd5a-4429-a793-a800996b8516","ios":"levelo://app?vid=035fb379-dd5a-4429-a793-a800996b8516"},"vehicle_type_id":"4","last_reported":1723486354,"current_range_meters":0,"station_id":"ce4bhb92rcd13ifvqen0","pricing_plan_id":"cebpf4jnsgd1na2vs0mg"},{"bike_id":"632bc140-d837-4e9f-87da-6ab40ba235c9","system_id":"levelo_inurba_marseille","lat":43.290104,"lon":5.356111,"is_reserved":false,"is_disabled":false,"rental_uris":{"android":"levelo://app?vid=632bc140-d837-4e9f-87da-6ab40ba235c9","ios":"levelo://app?vid=632bc140-d837-4e9f-87da-6ab40ba235c9"},"vehicle_type_id":"4","last_reported":1723486354,"current_range_meters":0,"station_id":"ce4bhb92rcd13ifvqen0","pricing_plan_id":"cebpf4jnsgd1na2vs0mg"},{"bike_id":"be6293d9-7f30-4172-88d4-f262b7055591","system_id":"levelo_inurba_marseille","lat":43.290104,"lon":5.356111,"is_reserved":false,"is_disabled":false,"rental_uris":{"android":"levelo://app?vid=be6293d9-7f30-4172-88d4-f262b7055591","ios":"levelo://app?vid=be6293d9-7f30-4172-88d4-f262b7055591"},"vehicle_type_id":"4","last_reported":1723486354,"current_range_meters":7600,"station_id":"ce4bhb92rcd13ifvqen0","pricing_plan_id":"cebpf4jnsgd1na2vs0mg"},{"bike_id":"e5265461-dcc3-40c5-ad56-a89332f80d94","system_id":"levelo_inurba_marseille","lat":43.290104,"lon":5.356111,"is_reserved":false,"is_disabled":false,"rental_uris":{"android":"levelo://app?vid=e5265461-dcc3-40c5-ad56-a89332f80d94","ios":"levelo://app?vid=e5265461-dcc3-40c5-ad56-a89332f80d94"},"vehicle_type_id":"4","last_reported":1723486354,"current_range_meters":0,"station_id":"ce4bhb92rcd13ifvqen0","pricing_plan_id":"cebpf4jnsgd1na2vs0mg"},{"bike_id":"267562be-bfe7-4b1d-9147-fbb4a8ff47bd","system_id":"levelo_inurba_marseille","lat":43.297807,"lon":5.393533,"is_reserved":false,"is_disabled":false,"rental_uris":{"android":"levelo://app?vid=267562be-bfe7-4b1d-9147-fbb4a8ff47bd","ios":"levelo://app?vid=267562be-bfe7-4b1d-9147-fbb4a8ff47bd"},"vehicle_type_id":"4","last_reported":1723486354,"current_range_meters":31200,"station_id":"chh1huq6cuj3fo74tm60","pricing_plan_id":"cebpf4jnsgd1na2vs0mg"},{"bike_id":"a7205dcd-a319-4c22-a09a-3f91b46e9147","system_id":"levelo_inurba_marseille","lat":43.33016,"lon":5.39038,"is_reserved":false,"is_disabled":false,"rental_uris":{"android":"levelo://app?vid=a7205dcd-a319-4c22-a09a-3f91b46e9147","ios":"levelo://app?vid=a7205dcd-a319-4c22-a09a-3f91b46e9147"},"vehicle_type_id":"4","last_reported":1723486354,"current_range_meters":17600,"station_id":"ce4bhr92rcd13ifvqhrg","pricing_plan_id":"cebpf4jnsgd1na2vs0mg"},{"bike_id":"602c9938-a94c-4db9-8127-dd99e8726a09","system_id":"levelo_inurba_marseille","lat":43.29785,"lon":5.39347,"is_reserved":false,"is_disabled":false,"rental_uris":{"android":"levelo://app?vid=602c9938-a94c-4db9-8127-dd99e8726a09","ios":"levelo://app?vid=602c9938-a94c-4db9-8127-dd99e8726a09"},"vehicle_type_id":"4","last_reported":1723486354,"current_range_meters":0,"station_id":"chh1huq6cuj3fo74tm60","pricing_plan_id":"cebpf4jnsgd1na2vs0mg"},{"bike_id":"efcb3bf1-55fc-4a7a-8a61-fcf6e9c94f8c","system_id":"levelo_inurba_marseille","lat":43.33018,"lon":5.3904,"is_reserved":false,"is_disabled":false,"rental_uris":{"android":"levelo://app?vid=efcb3bf1-55fc-4a7a-8a61-fcf6e9c94f8c","ios":"levelo://app?vid=efcb3bf1-55fc-4a7a-8a61-fcf6e9c94f8c"},"vehicle_type_id":"4","last_reported":1723486354,"current_range_meters":31200,"station_id":"ce4bhr92rcd13ifvqhrg","pricing_plan_id":"cebpf4jnsgd1na2vs0mg"},{"bike_id":"3d39f3b9-eced-454d-a727-2493f11dc708","system_id":"levelo_inurba_marseille","lat":43.33019,"lon":5.39044,"is_reserved":false,"is_disabled":false,"rental_uris":{"android":"levelo://app?vid=3d39f3b9-eced-454d-a727-2493f11dc708","ios":"levelo://app?vid=3d39f3b9-eced-454d-a727-2493f11dc708"},"vehicle_type_id":"4","last_reported":1723486354,"current_range_meters":20400,"station_id":"ce4bhr92rcd13ifvqhrg","pricing_plan_id":"cebpf4jnsgd1na2vs0mg"},{"bike_id":"3364f47f-76f1-44b4-b0fd-75dd5b18631f","system_id":"levelo_inurba_marseille","lat":43.33023,"lon":5.39039,"is_reserved":false,"is_disabled":false,"rental_uris":{"android":"levelo://app?vid=3364f47f-76f1-44b4-b0fd-75dd5b18631f","ios":"levelo://app?vid=3364f47f-76f1-44b4-b0fd-75dd5b18631f"},"vehicle_type_id":"4","last_reported":1723486354,"current_range_meters":30800,"station_id":"ce4bhr92rcd13ifvqhrg","pricing_plan_id":"cebpf4jnsgd1na2vs0mg"},{"bike_id":"78045f97-e788-4ad2-a5ca-467ad1c83c71","system_id":"levelo_inurba_marseille","lat":43.330442,"lon":5.389148,"is_reserved":false,"is_disabled":false,"rental_uris":{"android":"levelo://app?vid=78045f97-e788-4ad2-a5ca-467ad1c83c71","ios":"levelo://app?vid=78045f97-e788-4ad2-a5ca-467ad1c83c71"},"vehicle_type_id":"4","last_reported":1723486354,"current_range_meters":6000,"station_id":"ce4bhr92rcd13ifvqhrg","pricing_plan_id":"cebpf4jnsgd1na2vs0mg"},{"bike_id":"5dc4e44b-f035-4abb-b9b2-1dec673d7139","system_id":"levelo_inurba_marseille","lat":43.295169,"lon":5.390426,"is_reserved":false,"is_disabled":false,"rental_uris":{"android":"levelo://app?vid=5dc4e44b-f035-4abb-b9b2-1dec673d7139","ios":"levelo://app?vid=5dc4e44b-f035-4abb-b9b2-1dec673d7139"},"vehicle_type_id":"4","last_reported":1723486354,"current_range_meters":30800,"station_id":"ce4bh3p2rcd13ifvqdp0","pricing_plan_id":"cebpf4jnsgd1na2vs0mg"},{"bike_id":"36038f53-7842-489a-a682-13f7e827c2a2","system_id":"levelo_inurba_marseille","lat":43.288687,"lon":5.358737,"is_reserved":false,"is_disabled":false,"rental_uris":{"android":"levelo://app?vid=36038f53-7842-489a-a682-13f7e827c2a2","ios":"levelo://app?vid=36038f53-7842-489a-a682-13f7e827c2a2"},"vehicle_type_id":"4","last_reported":1723486354,"current_range_meters":6400,"station_id":"","pricing_plan_id":"cebpf4jnsgd1na2vs0mg"},{"bike_id":"f49e4836-9698-45d9-8332-b1fcb5ccf1f8","system_id":"levelo_inurba_marseille","lat":43.28856,"lon":5.358371,"is_reserved":false,"is_disabled":false,"rental_uris":{"android":"levelo://app?vid=f49e4836-9698-45d9-8332-b1fcb5ccf1f8","ios":"levelo://app?vid=f49e4836-9698-45d9-8332-b1fcb5ccf1f8"},"vehicle_type_id":"4","last_reported":1723486354,"current_range_meters":0,"station_id":"ce4bhb12rcd13ifvqem0","pricing_plan_id":"cebpf4jnsgd1na2vs0mg"},{"bike_id":"4dbff5e9-ed43-45a4-8b1f-8b5fb4a33e89","system_id":"levelo_inurba_marseille","lat":43.28856,"lon":5.358371,"is_reserved":false,"is_disabled":false,"rental_uris":{"android":"levelo://app?vid=4dbff5e9-ed43-45a4-8b1f-8b5fb4a33e89","ios":"levelo://app?vid=4dbff5e9-ed43-45a4-8b1f-8b5fb4a33e89"},"vehicle_type_id":"4","last_reported":1723486354,"current_range_meters":4400,"station_id":"ce4bhb12rcd13ifvqem0","pricing_plan_id":"cebpf4jnsgd1na2vs0mg"},{"bike_id":"9a8439dc-9f5e-4809-9d44-55f47493894e","system_id":"levelo_inurba_marseille","lat":43.28856,"lon":5.358371,"is_reserved":false,"is_disabled":false,"rental_uris":{"android":"levelo://app?vid=9a8439dc-9f5e-4809-9d44-55f47493894e","ios":"levelo://app?vid=9a8439dc-9f5e-4809-9d44-55f47493894e"},"vehicle_type_id":"4","last_reported":1723486354,"current_range_meters":3600,"station_id":"ce4bhb12rcd13ifvqem0","pricing_plan_id":"cebpf4jnsgd1na2vs0mg"},{"bike_id":"ac75d8e5-5139-4e43-a64e-51e7994c2517","system_id":"levelo_inurba_marseille","lat":43.337444,"lon":5.374475,"is_reserved":false,"is_disabled":false,"rental_uris":{"android":"levelo://app?vid=ac75d8e5-5139-4e43-a64e-51e7994c2517","ios":"levelo://app?vid=ac75d8e5-5139-4e43-a64e-51e7994c2517"},"vehicle_type_id":"3","last_reported":1723486354,"current_range_meters":24800,"station_id":"","pricing_plan_id":"cebpf4jnsgd1na2vs0mg"},{"bike_id":"43f21911-683d-4ba4-93d3-8a7e20e1c78c","system_id":"levelo_inurba_marseille","lat":43.337459,"lon":5.374564,"is_reserved":false,"is_disabled":false,"rental_uris":{"android":"levelo://app?vid=43f21911-683d-4ba4-93d3-8a7e20e1c78c","ios":"levelo://app?vid=43f21911-683d-4ba4-93d3-8a7e20e1c78c"},"vehicle_type_id":"4","last_reported":1723486354,"current_range_meters":24000,"station_id":"","pricing_plan_id":"cebpf4jnsgd1na2vs0mg"},{"bike_id":"50503b1c-23de-412c-8bb5-4f40012a64e8","system_id":"levelo_inurba_marseille","lat":43.33751,"lon":5.37451,"is_reserved":false,"is_disabled":false,"rental_uris":{"android":"levelo://app?vid=50503b1c-23de-412c-8bb5-4f40012a64e8","ios":"levelo://app?vid=50503b1c-23de-412c-8bb5-4f40012a64e8"},"vehicle_type_id":"4","last_reported":1723486354,"current_range_meters":24400,"station_id":"","pricing_plan_id":"cebpf4jnsgd1na2vs0mg"},{"bike_id":"6086599c-14e6-492d-8b53-d8808720b8a6","system_id":"levelo_inurba_marseille","lat":43.287839,"lon":5.373678,"is_reserved":false,"is_disabled":false,"rental_uris":{"android":"levelo://app?vid=6086599c-14e6-492d-8b53-d8808720b8a6","ios":"levelo://app?vid=6086599c-14e6-492d-8b53-d8808720b8a6"},"vehicle_type_id":"4","last_reported":1723486354,"current_range_meters":8000,"station_id":"","pricing_plan_id":"cebpf4jnsgd1na2vs0mg"},{"bike_id":"7b9e8744-1a62-4d79-83e6-366501021f18","system_id":"levelo_inurba_marseille","lat":43.33756,"lon":5.37441,"is_reserved":false,"is_disabled":false,"rental_uris":{"android":"levelo://app?vid=7b9e8744-1a62-4d79-83e6-366501021f18","ios":"levelo://app?vid=7b9e8744-1a62-4d79-83e6-366501021f18"},"vehicle_type_id":"4","last_reported":1723486354,"current_range_meters":31200,"station_id":"","pricing_plan_id":"cebpf4jnsgd1na2vs0mg"},{"bike_id":"1ece39e8-5ec5-465b-b0d5-bdea3554c74d","system_id":"levelo_inurba_marseille","lat":43.337583,"lon":5.374513,"is_reserved":false,"is_disabled":false,"rental_uris":{"android":"levelo://app?vid=1ece39e8-5ec5-465b-b0d5-bdea3554c74d","ios":"levelo://app?vid=1ece39e8-5ec5-465b-b0d5-bdea3554c74d"},"vehicle_type_id":"4","last_reported":1723486354,"current_range_meters":16000,"station_id":"","pricing_plan_id":"cebpf4jnsgd1na2vs0mg"},{"bike_id":"d864ba7e-16d1-4987-93ae-bd6de54c610b","system_id":"levelo_inurba_marseille","lat":43.306412,"lon":5.401035,"is_reserved":false,"is_disabled":false,"rental_uris":{"android":"levelo://app?vid=d864ba7e-16d1-4987-93ae-bd6de54c610b","ios":"levelo://app?vid=d864ba7e-16d1-4987-93ae-bd6de54c610b"},"vehicle_type_id":"4","last_reported":1723486354,"current_range_meters":4400,"station_id":"ce4bh112rcd13ifvqda0","pricing_plan_id":"cebpf4jnsgd1na2vs0mg"},{"bike_id":"b2d6b700-be3e-4c27-ab3b-d1fbb5513dee","system_id":"levelo_inurba_marseille","lat":43.33769,"lon":5.37468,"is_reserved":false,"is_disabled":false,"rental_uris":{"android":"levelo://app?vid=b2d6b700-be3e-4c27-ab3b-d1fbb5513dee","ios":"levelo://app?vid=b2d6b700-be3e-4c27-ab3b-d1fbb5513dee"},"vehicle_type_id":"4","last_reported":1723486354,"current_range_meters":26800,"station_id":"","pricing_plan_id":"cebpf4jnsgd1na2vs0mg"},{"bike_id":"22d23e81-d601-4c76-9973-e595fa549c3b","system_id":"levelo_inurba_marseille","lat":43.33769,"lon":5.37477,"is_reserved":false,"is_disabled":false,"rental_uris":{"android":"levelo://app?vid=22d23e81-d601-4c76-9973-e595fa549c3b","ios":"levelo://app?vid=22d23e81-d601-4c76-9973-e595fa549c3b"},"vehicle_type_id":"4","last_reported":1723486354,"current_range_meters":1200,"station_id":"","pricing_plan_id":"cebpf4jnsgd1na2vs0mg"},{"bike_id":"a0eeb4a3-6ae3-44c3-8527-155da571cd64","system_id":"levelo_inurba_marseille","lat":43.3377,"lon":5.37475,"is_reserved":false,"is_disabled":false,"rental_uris":{"android":"levelo://app?vid=a0eeb4a3-6ae3-44c3-8527-155da571cd64","ios":"levelo://app?vid=a0eeb4a3-6ae3-44c3-8527-155da571cd64"},"vehicle_type_id":"4","last_reported":1723486354,"current_range_meters":23200,"station_id":"","pricing_plan_id":"cebpf4jnsgd1na2vs0mg"},{"bike_id":"ace12e57-f66f-4efa-96db-c6aa50a829e9","system_id":"levelo_inurba_marseille","lat":43.33773,"lon":5.37477,"is_reserved":false,"is_disabled":false,"rental_uris":{"android":"levelo://app?vid=ace12e57-f66f-4efa-96db-c6aa50a829e9","ios":"levelo://app?vid=ace12e57-f66f-4efa-96db-c6aa50a829e9"},"vehicle_type_id":"4","last_reported":1723486354,"current_range_meters":19600,"station_id":"","pricing_plan_id":"cebpf4jnsgd1na2vs0mg"},{"bike_id":"8580717d-eb3f-4f14-b031-ffa8a147d520","system_id":"levelo_inurba_marseille","lat":43.33776,"lon":5.37482,"is_reserved":false,"is_disabled":false,"rental_uris":{"android":"levelo://app?vid=8580717d-eb3f-4f14-b031-ffa8a147d520","ios":"levelo://app?vid=8580717d-eb3f-4f14-b031-ffa8a147d520"},"vehicle_type_id":"4","last_reported":1723486354,"current_range_meters":15600,"station_id":"","pricing_plan_id":"cebpf4jnsgd1na2vs0mg"},{"bike_id":"45587c4a-e96c-4dea-92c5-58315d64dbf0","system_id":"levelo_inurba_marseille","lat":43.30138,"lon":5.39874,"is_reserved":false,"is_disabled":false,"rental_uris":{"android":"levelo://app?vid=45587c4a-e96c-4dea-92c5-58315d64dbf0","ios":"levelo://app?vid=45587c4a-e96c-4dea-92c5-58315d64dbf0"},"vehicle_type_id":"4","last_reported":1723486354,"current_range_meters":0,"station_id":"ce4bh0h2rcd13ifvqd40","pricing_plan_id":"cebpf4jnsgd1na2vs0mg"},{"bike_id":"67f46399-54c0-4338-9690-822ac44a0da5","system_id":"levelo_inurba_marseille","lat":43.28725,"lon":5.36091,"is_reserved":false,"is_disabled":false,"rental_uris":{"android":"levelo://app?vid=67f46399-54c0-4338-9690-822ac44a0da5","ios":"levelo://app?vid=67f46399-54c0-4338-9690-822ac44a0da5"},"vehicle_type_id":"4","last_reported":1723486354,"current_range_meters":18800,"station_id":"cki0cbj6b192h4jlfktg","pricing_plan_id":"cebpf4jnsgd1na2vs0mg"},{"bike_id":"c6ca1b0d-fd65-4d59-a501-2c5c5f3aba9e","system_id":"levelo_inurba_marseille","lat":43.301117,"lon":5.398795,"is_reserved":false,"is_disabled":false,"rental_uris":{"android":"levelo://app?vid=c6ca1b0d-fd65-4d59-a501-2c5c5f3aba9e","ios":"levelo://app?vid=c6ca1b0d-fd65-4d59-a501-2c5c5f3aba9e"},"vehicle_type_id":"4","last_reported":1723486354,"current_range_meters":0,"station_id":"ce4bh0h2rcd13ifvqd40","pricing_plan_id":"cebpf4jnsgd1na2vs0mg"},{"bike_id":"a286c73d-39a3-4880-8318-f4839eca8077","system_id":"levelo_inurba_marseille","lat":43.286961,"lon":5.373785,"is_reserved":false,"is_disabled":false,"rental_uris":{"android":"levelo://app?vid=a286c73d-39a3-4880-8318-f4839eca8077","ios":"levelo://app?vid=a286c73d-39a3-4880-8318-f4839eca8077"},"vehicle_type_id":"4","last_reported":1723486354,"current_range_meters":400,"station_id":"ce4bh3p2rcd13ifvqdq0","pricing_plan_id":"cebpf4jnsgd1na2vs0mg"},{"bike_id":"b9114623-9cf0-4c5b-a25a-c82a2f5fbe44","system_id":"levelo_inurba_marseille","lat":43.33888,"lon":5.36605,"is_reserved":false,"is_disabled":false,"rental_uris":{"android":"levelo://app?vid=b9114623-9cf0-4c5b-a25a-c82a2f5fbe44","ios":"levelo://app?vid=b9114623-9cf0-4c5b-a25a-c82a2f5fbe44"},"vehicle_type_id":"4","last_reported":1723486354,"current_range_meters":4400,"station_id":"","pricing_plan_id":"cebpf4jnsgd1na2vs0mg"},{"bike_id":"3e44436b-d14a-4f24-9d23-580dfd705b43","system_id":"levelo_inurba_marseille","lat":43.289307,"lon":5.38406,"is_reserved":false,"is_disabled":false,"rental_uris":{"android":"levelo://app?vid=3e44436b-d14a-4f24-9d23-580dfd705b43","ios":"levelo://app?vid=3e44436b-d14a-4f24-9d23-580dfd705b43"},"vehicle_type_id":"4","last_reported":1723486354,"current_range_meters":0,"station_id":"ce4bh612rcd13ifvqe6g","pricing_plan_id":"cebpf4jnsgd1na2vs0mg"},{"bike_id":"b3b932ad-3d82-497d-bb42-07d3ee14a550","system_id":"levelo_inurba_marseille","lat":43.290336,"lon":5.386425,"is_reserved":false,"is_disabled":false,"rental_uris":{"android":"levelo://app?vid=b3b932ad-3d82-497d-bb42-07d3ee14a550","ios":"levelo://app?vid=b3b932ad-3d82-497d-bb42-07d3ee14a550"},"vehicle_type_id":"4","last_reported":1723486354,"current_range_meters":11600,"station_id":"ce4bh4p2rcd13ifvqe0g","pricing_plan_id":"cebpf4jnsgd1na2vs0mg"},{"bike_id":"b60c8dd4-4b63-4590-9cbe-a5d4ce572296","system_id":"levelo_inurba_marseille","lat":43.290336,"lon":5.386425,"is_reserved":false,"is_disabled":false,"rental_uris":{"android":"levelo://app?vid=b60c8dd4-4b63-4590-9cbe-a5d4ce572296","ios":"levelo://app?vid=b60c8dd4-4b63-4590-9cbe-a5d4ce572296"},"vehicle_type_id":"4","last_reported":1723486354,"current_range_meters":0,"station_id":"ce4bh4p2rcd13ifvqe0g","pricing_plan_id":"cebpf4jnsgd1na2vs0mg"},{"bike_id":"a16fe2ff-739d-4b78-b63c-a800749a7b24","system_id":"levelo_inurba_marseille","lat":43.28709,"lon":5.37954,"is_reserved":false,"is_disabled":false,"rental_uris":{"android":"levelo://app?vid=a16fe2ff-739d-4b78-b63c-a800749a7b24","ios":"levelo://app?vid=a16fe2ff-739d-4b78-b63c-a800749a7b24"},"vehicle_type_id":"4","last_reported":1723486354,"current_range_meters":15200,"station_id":"ce4bh9p2rcd13ifvqec0","pricing_plan_id":"cebpf4jnsgd1na2vs0mg"},{"bike_id":"ca5809bb-5cb4-4e57-ab06-a3cd116a1a84","system_id":"levelo_inurba_marseille","lat":43.31693,"lon":5.40474,"is_reserved":false,"is_disabled":false,"rental_uris":{"android":"levelo://app?vid=ca5809bb-5cb4-4e57-ab06-a3cd116a1a84","ios":"levelo://app?vid=ca5809bb-5cb4-4e57-ab06-a3cd116a1a84"},"vehicle_type_id":"4","last_reported":1723486354,"current_range_meters":31200,"station_id":"ce4bh012rcd13ifvqd00","pricing_plan_id":"cebpf4jnsgd1na2vs0mg"},{"bike_id":"0d8a2b5a-a2b4-4449-b738-0d32f99acede","system_id":"levelo_inurba_marseille","lat":43.316828,"lon":5.404723,"is_reserved":false,"is_disabled":false,"rental_uris":{"android":"levelo://app?vid=0d8a2b5a-a2b4-4449-b738-0d32f99acede","ios":"levelo://app?vid=0d8a2b5a-a2b4-4449-b738-0d32f99acede"},"vehicle_type_id":"4","last_reported":1723486354,"current_range_meters":24000,"station_id":"ce4bh012rcd13ifvqd00","pricing_plan_id":"cebpf4jnsgd1na2vs0mg"},{"bike_id":"5624871b-b6e3-4d23-9b3f-7c907cd3a51a","system_id":"levelo_inurba_marseille","lat":43.284534,"lon":5.358662,"is_reserved":false,"is_disabled":false,"rental_uris":{"android":"levelo://app?vid=5624871b-b6e3-4d23-9b3f-7c907cd3a51a","ios":"levelo://app?vid=5624871b-b6e3-4d23-9b3f-7c907cd3a51a"},"vehicle_type_id":"4","last_reported":1723486354,"current_range_meters":0,"station_id":"ce4bhah2rcd13ifvqei0","pricing_plan_id":"cebpf4jnsgd1na2vs0mg"},{"bike_id":"722d8618-d821-44b6-be61-bed580cc9d0a","system_id":"levelo_inurba_marseille","lat":43.291994,"lon":5.392907,"is_reserved":false,"is_disabled":false,"rental_uris":{"android":"levelo://app?vid=722d8618-d821-44b6-be61-bed580cc9d0a","ios":"levelo://app?vid=722d8618-d821-44b6-be61-bed580cc9d0a"},"vehicle_type_id":"4","last_reported":1723486354,"current_range_meters":30400,"station_id":"ce4bh192rcd13ifvqdd0","pricing_plan_id":"cebpf4jnsgd1na2vs0mg"},{"bike_id":"89ae2037-845f-4634-ad1b-4948ae196553","system_id":"levelo_inurba_marseille","lat":43.291994,"lon":5.392907,"is_reserved":false,"is_disabled":false,"rental_uris":{"android":"levelo://app?vid=89ae2037-845f-4634-ad1b-4948ae196553","ios":"levelo://app?vid=89ae2037-845f-4634-ad1b-4948ae196553"},"vehicle_type_id":"4","last_reported":1723486354,"current_range_meters":800,"station_id":"ce4bh192rcd13ifvqdd0","pricing_plan_id":"cebpf4jnsgd1na2vs0mg"},{"bike_id":"04888ead-0787-4543-9312-29073b70d86f","system_id":"levelo_inurba_marseille","lat":43.291994,"lon":5.392907,"is_reserved":false,"is_disabled":false,"rental_uris":{"android":"levelo://app?vid=04888ead-0787-4543-9312-29073b70d86f","ios":"levelo://app?vid=04888ead-0787-4543-9312-29073b70d86f"},"vehicle_type_id":"4","last_reported":1723486354,"current_range_meters":12400,"station_id":"ce4bh192rcd13ifvqdd0","pricing_plan_id":"cebpf4jnsgd1na2vs0mg"},{"bike_id":"4d6aa061-e5af-4267-8e97-923c0f9ae426","system_id":"levelo_inurba_marseille","lat":43.2993,"lon":5.40161,"is_reserved":false,"is_disabled":false,"rental_uris":{"android":"levelo://app?vid=4d6aa061-e5af-4267-8e97-923c0f9ae426","ios":"levelo://app?vid=4d6aa061-e5af-4267-8e97-923c0f9ae426"},"vehicle_type_id":"4","last_reported":1723486354,"current_range_meters":0,"station_id":"","pricing_plan_id":"cebpf4jnsgd1na2vs0mg"},{"bike_id":"a7941ee8-217f-4096-b28b-801e9d08978b","system_id":"levelo_inurba_marseille","lat":43.284538,"lon":5.358657,"is_reserved":false,"is_disabled":false,"rental_uris":{"android":"levelo://app?vid=a7941ee8-217f-4096-b28b-801e9d08978b","ios":"levelo://app?vid=a7941ee8-217f-4096-b28b-801e9d08978b"},"vehicle_type_id":"4","last_reported":1723486354,"current_range_meters":8800,"station_id":"ce4bhah2rcd13ifvqei0","pricing_plan_id":"cebpf4jnsgd1na2vs0mg"},{"bike_id":"b1b29396-fad5-483a-84eb-29b823349746","system_id":"levelo_inurba_marseille","lat":43.2846,"lon":5.35893,"is_reserved":false,"is_disabled":false,"rental_uris":{"android":"levelo://app?vid=b1b29396-fad5-483a-84eb-29b823349746","ios":"levelo://app?vid=b1b29396-fad5-483a-84eb-29b823349746"},"vehicle_type_id":"4","last_reported":1723486354,"current_range_meters":0,"station_id":"ce4bhah2rcd13ifvqei0","pricing_plan_id":"cebpf4jnsgd1na2vs0mg"},{"bike_id":"07509b70-4a83-4094-94da-0f118c55bc12","system_id":"levelo_inurba_marseille","lat":43.284588,"lon":5.358882,"is_reserved":false,"is_disabled":false,"rental_uris":{"android":"levelo://app?vid=07509b70-4a83-4094-94da-0f118c55bc12","ios":"levelo://app?vid=07509b70-4a83-4094-94da-0f118c55bc12"},"vehicle_type_id":"4","last_reported":1723486354,"current_range_meters":0,"station_id":"ce4bhah2rcd13ifvqei0","pricing_plan_id":"cebpf4jnsgd1na2vs0mg"},{"bike_id":"f67a65f1-b901-4148-804c-f03018d66ea0","system_id":"levelo_inurba_marseille","lat":43.294314,"lon":5.397498,"is_reserved":false,"is_disabled":false,"rental_uris":{"android":"levelo://app?vid=f67a65f1-b901-4148-804c-f03018d66ea0","ios":"levelo://app?vid=f67a65f1-b901-4148-804c-f03018d66ea0"},"vehicle_type_id":"4","last_reported":1723486354,"current_range_meters":800,"station_id":"ce4bh3h2rcd13ifvqdo0","pricing_plan_id":"cebpf4jnsgd1na2vs0mg"},{"bike_id":"d3b8ccea-0f6a-4e8f-bf1f-b6622340dcd9","system_id":"levelo_inurba_marseille","lat":43.294314,"lon":5.397498,"is_reserved":false,"is_disabled":false,"rental_uris":{"android":"levelo://app?vid=d3b8ccea-0f6a-4e8f-bf1f-b6622340dcd9","ios":"levelo://app?vid=d3b8ccea-0f6a-4e8f-bf1f-b6622340dcd9"},"vehicle_type_id":"4","last_reported":1723486354,"current_range_meters":0,"station_id":"ce4bh3h2rcd13ifvqdo0","pricing_plan_id":"cebpf4jnsgd1na2vs0mg"},{"bike_id":"7fd1d3b8-691e-4672-850e-52eda69d9b86","system_id":"levelo_inurba_marseille","lat":43.29437,"lon":5.39744,"is_reserved":false,"is_disabled":false,"rental_uris":{"android":"levelo://app?vid=7fd1d3b8-691e-4672-850e-52eda69d9b86","ios":"levelo://app?vid=7fd1d3b8-691e-4672-850e-52eda69d9b86"},"vehicle_type_id":"4","last_reported":1723486354,"current_range_meters":0,"station_id":"ce4bh3h2rcd13ifvqdo0","pricing_plan_id":"cebpf4jnsgd1na2vs0mg"},{"bike_id":"0d333205-7cd1-464b-a696-49755027c07f","system_id":"levelo_inurba_marseille","lat":43.294314,"lon":5.397498,"is_reserved":false,"is_disabled":false,"rental_uris":{"android":"levelo://app?vid=0d333205-7cd1-464b-a696-49755027c07f","ios":"levelo://app?vid=0d333205-7cd1-464b-a696-49755027c07f"},"vehicle_type_id":"4","last_reported":1723486354,"current_range_meters":400,"station_id":"ce4bh3h2rcd13ifvqdo0","pricing_plan_id":"cebpf4jnsgd1na2vs0mg"},{"bike_id":"42ab8245-b5e0-4ad1-9f9a-67fd35811756","system_id":"levelo_inurba_marseille","lat":43.2862,"lon":5.35102,"is_reserved":false,"is_disabled":false,"rental_uris":{"android":"levelo://app?vid=42ab8245-b5e0-4ad1-9f9a-67fd35811756","ios":"levelo://app?vid=42ab8245-b5e0-4ad1-9f9a-67fd35811756"},"vehicle_type_id":"4","last_reported":1723486354,"current_range_meters":10800,"station_id":"ce4bhch2rcd13ifvqeug","pricing_plan_id":"cebpf4jnsgd1na2vs0mg"},{"bike_id":"b1f1190a-5f1a-4e17-bfe3-8a258dd86538","system_id":"levelo_inurba_marseille","lat":43.28617,"lon":5.35107,"is_reserved":false,"is_disabled":false,"rental_uris":{"android":"levelo://app?vid=b1f1190a-5f1a-4e17-bfe3-8a258dd86538","ios":"levelo://app?vid=b1f1190a-5f1a-4e17-bfe3-8a258dd86538"},"vehicle_type_id":"4","last_reported":1723486354,"current_range_meters":19600,"station_id":"ce4bhch2rcd13ifvqeug","pricing_plan_id":"cebpf4jnsgd1na2vs0mg"},{"bike_id":"65b1023f-a0d0-485b-9312-7c740e98a1f2","system_id":"levelo_inurba_marseille","lat":43.285856,"lon":5.350771,"is_reserved":false,"is_disabled":false,"rental_uris":{"android":"levelo://app?vid=65b1023f-a0d0-485b-9312-7c740e98a1f2","ios":"levelo://app?vid=65b1023f-a0d0-485b-9312-7c740e98a1f2"},"vehicle_type_id":"4","last_reported":1723486354,"current_range_meters":16400,"station_id":"ce4bhch2rcd13ifvqeug","pricing_plan_id":"cebpf4jnsgd1na2vs0mg"},{"bike_id":"39c35bac-7943-470d-9f96-1ab281a728c6","system_id":"levelo_inurba_marseille","lat":43.285856,"lon":5.350771,"is_reserved":false,"is_disabled":false,"rental_uris":{"android":"levelo://app?vid=39c35bac-7943-470d-9f96-1ab281a728c6","ios":"levelo://app?vid=39c35bac-7943-470d-9f96-1ab281a728c6"},"vehicle_type_id":"4","last_reported":1723486354,"current_range_meters":8800,"station_id":"ce4bhch2rcd13ifvqeug","pricing_plan_id":"cebpf4jnsgd1na2vs0mg"},{"bike_id":"fc0af50b-d5d6-463d-88e9-82c34e1d4ea8","system_id":"levelo_inurba_marseille","lat":43.285856,"lon":5.350771,"is_reserved":false,"is_disabled":false,"rental_uris":{"android":"levelo://app?vid=fc0af50b-d5d6-463d-88e9-82c34e1d4ea8","ios":"levelo://app?vid=fc0af50b-d5d6-463d-88e9-82c34e1d4ea8"},"vehicle_type_id":"4","last_reported":1723486354,"current_range_meters":800,"station_id":"ce4bhch2rcd13ifvqeug","pricing_plan_id":"cebpf4jnsgd1na2vs0mg"},{"bike_id":"a71149ac-fda5-45ad-a16a-85923503ec5a","system_id":"levelo_inurba_marseille","lat":43.28616,"lon":5.35106,"is_reserved":false,"is_disabled":false,"rental_uris":{"android":"levelo://app?vid=a71149ac-fda5-45ad-a16a-85923503ec5a","ios":"levelo://app?vid=a71149ac-fda5-45ad-a16a-85923503ec5a"},"vehicle_type_id":"4","last_reported":1723486354,"current_range_meters":4400,"station_id":"ce4bhch2rcd13ifvqeug","pricing_plan_id":"cebpf4jnsgd1na2vs0mg"},{"bike_id":"397181c3-4885-4b68-92ad-545dcb20460f","system_id":"levelo_inurba_marseille","lat":43.28615,"lon":5.35108,"is_reserved":false,"is_disabled":false,"rental_uris":{"android":"levelo://app?vid=397181c3-4885-4b68-92ad-545dcb20460f","ios":"levelo://app?vid=397181c3-4885-4b68-92ad-545dcb20460f"},"vehicle_type_id":"4","last_reported":1723486354,"current_range_meters":28800,"station_id":"ce4bhch2rcd13ifvqeug","pricing_plan_id":"cebpf4jnsgd1na2vs0mg"},{"bike_id":"f2bfbdd8-5581-4af5-aa99-8b7e9a8611b7","system_id":"levelo_inurba_marseille","lat":43.28615,"lon":5.35107,"is_reserved":false,"is_disabled":false,"rental_uris":{"android":"levelo://app?vid=f2bfbdd8-5581-4af5-aa99-8b7e9a8611b7","ios":"levelo://app?vid=f2bfbdd8-5581-4af5-aa99-8b7e9a8611b7"},"vehicle_type_id":"4","last_reported":1723486354,"current_range_meters":21200,"station_id":"ce4bhch2rcd13ifvqeug","pricing_plan_id":"cebpf4jnsgd1na2vs0mg"},{"bike_id":"6b1a5c78-777e-4031-8966-7c38a4389c8b","system_id":"levelo_inurba_marseille","lat":43.28615,"lon":5.35106,"is_reserved":false,"is_disabled":false,"rental_uris":{"android":"levelo://app?vid=6b1a5c78-777e-4031-8966-7c38a4389c8b","ios":"levelo://app?vid=6b1a5c78-777e-4031-8966-7c38a4389c8b"},"vehicle_type_id":"4","last_reported":1723486354,"current_range_meters":11600,"station_id":"ce4bhch2rcd13ifvqeug","pricing_plan_id":"cebpf4jnsgd1na2vs0mg"},{"bike_id":"4929c0ec-fa6b-47d1-b94e-87c75a273a1c","system_id":"levelo_inurba_marseille","lat":43.28615,"lon":5.35104,"is_reserved":false,"is_disabled":false,"rental_uris":{"android":"levelo://app?vid=4929c0ec-fa6b-47d1-b94e-87c75a273a1c","ios":"levelo://app?vid=4929c0ec-fa6b-47d1-b94e-87c75a273a1c"},"vehicle_type_id":"4","last_reported":1723486354,"current_range_meters":0,"station_id":"ce4bhch2rcd13ifvqeug","pricing_plan_id":"cebpf4jnsgd1na2vs0mg"},{"bike_id":"441b7636-ff10-4283-b858-508dcd766626","system_id":"levelo_inurba_marseille","lat":43.28615,"lon":5.35102,"is_reserved":false,"is_disabled":false,"rental_uris":{"android":"levelo://app?vid=441b7636-ff10-4283-b858-508dcd766626","ios":"levelo://app?vid=441b7636-ff10-4283-b858-508dcd766626"},"vehicle_type_id":"4","last_reported":1723486354,"current_range_meters":8400,"station_id":"ce4bhch2rcd13ifvqeug","pricing_plan_id":"cebpf4jnsgd1na2vs0mg"},{"bike_id":"4410c0bf-c273-487c-9059-c94b0018d082","system_id":"levelo_inurba_marseille","lat":43.290336,"lon":5.386425,"is_reserved":false,"is_disabled":false,"rental_uris":{"android":"levelo://app?vid=4410c0bf-c273-487c-9059-c94b0018d082","ios":"levelo://app?vid=4410c0bf-c273-487c-9059-c94b0018d082"},"vehicle_type_id":"4","last_reported":1723486354,"current_range_meters":8000,"station_id":"ce4bh4p2rcd13ifvqe0g","pricing_plan_id":"cebpf4jnsgd1na2vs0mg"},{"bike_id":"2fa8dea9-1ae9-466c-89ab-d7b783409cc8","system_id":"levelo_inurba_marseille","lat":43.28611,"lon":5.35102,"is_reserved":false,"is_disabled":false,"rental_uris":{"android":"levelo://app?vid=2fa8dea9-1ae9-466c-89ab-d7b783409cc8","ios":"levelo://app?vid=2fa8dea9-1ae9-466c-89ab-d7b783409cc8"},"vehicle_type_id":"4","last_reported":1723486354,"current_range_meters":0,"station_id":"ce4bhch2rcd13ifvqeug","pricing_plan_id":"cebpf4jnsgd1na2vs0mg"},{"bike_id":"2dd740d4-6d8b-41b0-a669-9ced7b225837","system_id":"levelo_inurba_marseille","lat":43.285856,"lon":5.350771,"is_reserved":false,"is_disabled":false,"rental_uris":{"android":"levelo://app?vid=2dd740d4-6d8b-41b0-a669-9ced7b225837","ios":"levelo://app?vid=2dd740d4-6d8b-41b0-a669-9ced7b225837"},"vehicle_type_id":"4","last_reported":1723486354,"current_range_meters":6400,"station_id":"ce4bhch2rcd13ifvqeug","pricing_plan_id":"cebpf4jnsgd1na2vs0mg"},{"bike_id":"9236943a-7570-4ca2-9b02-ce7f0d082add","system_id":"levelo_inurba_marseille","lat":43.285856,"lon":5.350771,"is_reserved":false,"is_disabled":false,"rental_uris":{"android":"levelo://app?vid=9236943a-7570-4ca2-9b02-ce7f0d082add","ios":"levelo://app?vid=9236943a-7570-4ca2-9b02-ce7f0d082add"},"vehicle_type_id":"4","last_reported":1723486354,"current_range_meters":0,"station_id":"ce4bhch2rcd13ifvqeug","pricing_plan_id":"cebpf4jnsgd1na2vs0mg"},{"bike_id":"82952700-fb2e-4d27-ad22-2503e62d3ceb","system_id":"levelo_inurba_marseille","lat":43.28608,"lon":5.35102,"is_reserved":false,"is_disabled":false,"rental_uris":{"android":"levelo://app?vid=82952700-fb2e-4d27-ad22-2503e62d3ceb","ios":"levelo://app?vid=82952700-fb2e-4d27-ad22-2503e62d3ceb"},"vehicle_type_id":"4","last_reported":1723486354,"current_range_meters":0,"station_id":"ce4bhch2rcd13ifvqeug","pricing_plan_id":"cebpf4jnsgd1na2vs0mg"},{"bike_id":"a954a834-36f5-4c57-954a-739d94132e21","system_id":"levelo_inurba_marseille","lat":43.29022,"lon":5.39227,"is_reserved":false,"is_disabled":false,"rental_uris":{"android":"levelo://app?vid=a954a834-36f5-4c57-954a-739d94132e21","ios":"levelo://app?vid=a954a834-36f5-4c57-954a-739d94132e21"},"vehicle_type_id":"4","last_reported":1723486354,"current_range_meters":14800,"station_id":"","pricing_plan_id":"cebpf4jnsgd1na2vs0mg"},{"bike_id":"814593e8-1fa4-47d9-9e1e-ac170a6d4e9d","system_id":"levelo_inurba_marseille","lat":43.28412,"lon":5.37517,"is_reserved":false,"is_disabled":false,"rental_uris":{"android":"levelo://app?vid=814593e8-1fa4-47d9-9e1e-ac170a6d4e9d","ios":"levelo://app?vid=814593e8-1fa4-47d9-9e1e-ac170a6d4e9d"},"vehicle_type_id":"4","last_reported":1723486354,"current_range_meters":1600,"station_id":"ce4bh412rcd13ifvqds0","pricing_plan_id":"cebpf4jnsgd1na2vs0mg"},{"bike_id":"c29a4f11-ed92-41de-aafa-3dc0b5ead7d7","system_id":"levelo_inurba_marseille","lat":43.295713,"lon":5.399639,"is_reserved":false,"is_disabled":false,"rental_uris":{"android":"levelo://app?vid=c29a4f11-ed92-41de-aafa-3dc0b5ead7d7","ios":"levelo://app?vid=c29a4f11-ed92-41de-aafa-3dc0b5ead7d7"},"vehicle_type_id":"4","last_reported":1723486354,"current_range_meters":7600,"station_id":"ce4bh312rcd13ifvqdj0","pricing_plan_id":"cebpf4jnsgd1na2vs0mg"},{"bike_id":"77c4ecbd-5952-4cd6-a233-8f9b4ffbd4a4","system_id":"levelo_inurba_marseille","lat":43.283998,"lon":5.375062,"is_reserved":false,"is_disabled":false,"rental_uris":{"android":"levelo://app?vid=77c4ecbd-5952-4cd6-a233-8f9b4ffbd4a4","ios":"levelo://app?vid=77c4ecbd-5952-4cd6-a233-8f9b4ffbd4a4"},"vehicle_type_id":"4","last_reported":1723486354,"current_range_meters":8400,"station_id":"ce4bh412rcd13ifvqds0","pricing_plan_id":"cebpf4jnsgd1na2vs0mg"},{"bike_id":"1196d796-25a5-477a-9c6e-e0f2d1e04095","system_id":"levelo_inurba_marseille","lat":43.295713,"lon":5.399639,"is_reserved":false,"is_disabled":false,"rental_uris":{"android":"levelo://app?vid=1196d796-25a5-477a-9c6e-e0f2d1e04095","ios":"levelo://app?vid=1196d796-25a5-477a-9c6e-e0f2d1e04095"},"vehicle_type_id":"4","last_reported":1723486354,"current_range_meters":6400,"station_id":"ce4bh312rcd13ifvqdj0","pricing_plan_id":"cebpf4jnsgd1na2vs0mg"},{"bike_id":"59216bd7-e09f-4edc-962a-ac93ab0e7fd6","system_id":"levelo_inurba_marseille","lat":43.283998,"lon":5.375062,"is_reserved":false,"is_disabled":false,"rental_uris":{"android":"levelo://app?vid=59216bd7-e09f-4edc-962a-ac93ab0e7fd6","ios":"levelo://app?vid=59216bd7-e09f-4edc-962a-ac93ab0e7fd6"},"vehicle_type_id":"4","last_reported":1723486354,"current_range_meters":1600,"station_id":"ce4bh412rcd13ifvqds0","pricing_plan_id":"cebpf4jnsgd1na2vs0mg"},{"bike_id":"0d0e7071-066e-4774-9644-c36fb243c49a","system_id":"levelo_inurba_marseille","lat":43.283998,"lon":5.375062,"is_reserved":false,"is_disabled":false,"rental_uris":{"android":"levelo://app?vid=0d0e7071-066e-4774-9644-c36fb243c49a","ios":"levelo://app?vid=0d0e7071-066e-4774-9644-c36fb243c49a"},"vehicle_type_id":"4","last_reported":1723486354,"current_range_meters":0,"station_id":"ce4bh412rcd13ifvqds0","pricing_plan_id":"cebpf4jnsgd1na2vs0mg"},{"bike_id":"aefc1805-4d6f-42d0-9195-611d78cf91fc","system_id":"levelo_inurba_marseille","lat":43.295713,"lon":5.399639,"is_reserved":false,"is_disabled":false,"rental_uris":{"android":"levelo://app?vid=aefc1805-4d6f-42d0-9195-611d78cf91fc","ios":"levelo://app?vid=aefc1805-4d6f-42d0-9195-611d78cf91fc"},"vehicle_type_id":"4","last_reported":1723486354,"current_range_meters":0,"station_id":"ce4bh312rcd13ifvqdj0","pricing_plan_id":"cebpf4jnsgd1na2vs0mg"},{"bike_id":"a329c250-0ae1-4d08-a417-d7cb18d413d2","system_id":"levelo_inurba_marseille","lat":43.295713,"lon":5.399639,"is_reserved":false,"is_disabled":false,"rental_uris":{"android":"levelo://app?vid=a329c250-0ae1-4d08-a417-d7cb18d413d2","ios":"levelo://app?vid=a329c250-0ae1-4d08-a417-d7cb18d413d2"},"vehicle_type_id":"4","last_reported":1723486354,"current_range_meters":2000,"station_id":"ce4bh312rcd13ifvqdj0","pricing_plan_id":"cebpf4jnsgd1na2vs0mg"},{"bike_id":"e5185f7e-a1c1-4749-922f-4996e3bd72f4","system_id":"levelo_inurba_marseille","lat":43.286674,"lon":5.386664,"is_reserved":false,"is_disabled":false,"rental_uris":{"android":"levelo://app?vid=e5185f7e-a1c1-4749-922f-4996e3bd72f4","ios":"levelo://app?vid=e5185f7e-a1c1-4749-922f-4996e3bd72f4"},"vehicle_type_id":"4","last_reported":1723486354,"current_range_meters":0,"station_id":"ce4bh492rcd13ifvqdug","pricing_plan_id":"cebpf4jnsgd1na2vs0mg"},{"bike_id":"af398b8c-1b2b-4d47-9373-24f988f40e65","system_id":"levelo_inurba_marseille","lat":43.286595,"lon":5.386795,"is_reserved":false,"is_disabled":false,"rental_uris":{"android":"levelo://app?vid=af398b8c-1b2b-4d47-9373-24f988f40e65","ios":"levelo://app?vid=af398b8c-1b2b-4d47-9373-24f988f40e65"},"vehicle_type_id":"4","last_reported":1723486354,"current_range_meters":18400,"station_id":"ce4bh492rcd13ifvqdug","pricing_plan_id":"cebpf4jnsgd1na2vs0mg"},{"bike_id":"f687216f-7e5c-4126-99e4-8bd7b93c7fbc","system_id":"levelo_inurba_marseille","lat":43.286595,"lon":5.386795,"is_reserved":false,"is_disabled":false,"rental_uris":{"android":"levelo://app?vid=f687216f-7e5c-4126-99e4-8bd7b93c7fbc","ios":"levelo://app?vid=f687216f-7e5c-4126-99e4-8bd7b93c7fbc"},"vehicle_type_id":"4","last_reported":1723486354,"current_range_meters":5200,"station_id":"ce4bh492rcd13ifvqdug","pricing_plan_id":"cebpf4jnsgd1na2vs0mg"},{"bike_id":"c8726d0a-c4e9-4170-a6cd-8fd33338c80d","system_id":"levelo_inurba_marseille","lat":43.319179,"lon":5.407725,"is_reserved":false,"is_disabled":false,"rental_uris":{"android":"levelo://app?vid=c8726d0a-c4e9-4170-a6cd-8fd33338c80d","ios":"levelo://app?vid=c8726d0a-c4e9-4170-a6cd-8fd33338c80d"},"vehicle_type_id":"4","last_reported":1723486354,"current_range_meters":21200,"station_id":"ce4bhq12rcd13ifvqhig","pricing_plan_id":"cebpf4jnsgd1na2vs0mg"},{"bike_id":"53067878-f739-472d-a5ca-8803e47f08b5","system_id":"levelo_inurba_marseille","lat":43.323464,"lon":5.406297,"is_reserved":false,"is_disabled":false,"rental_uris":{"android":"levelo://app?vid=53067878-f739-472d-a5ca-8803e47f08b5","ios":"levelo://app?vid=53067878-f739-472d-a5ca-8803e47f08b5"},"vehicle_type_id":"4","last_reported":1723486354,"current_range_meters":24400,"station_id":"ce4bhq92rcd13ifvqhjg","pricing_plan_id":"cebpf4jnsgd1na2vs0mg"},{"bike_id":"f42d372a-6771-4026-a24d-6be37b5d8839","system_id":"levelo_inurba_marseille","lat":43.323464,"lon":5.406297,"is_reserved":false,"is_disabled":false,"rental_uris":{"android":"levelo://app?vid=f42d372a-6771-4026-a24d-6be37b5d8839","ios":"levelo://app?vid=f42d372a-6771-4026-a24d-6be37b5d8839"},"vehicle_type_id":"4","last_reported":1723486354,"current_range_meters":26000,"station_id":"ce4bhq92rcd13ifvqhjg","pricing_plan_id":"cebpf4jnsgd1na2vs0mg"},{"bike_id":"2bfb3998-1417-4d26-9401-b7ca2cb617df","system_id":"levelo_inurba_marseille","lat":43.33717,"lon":5.391857,"is_reserved":false,"is_disabled":false,"rental_uris":{"android":"levelo://app?vid=2bfb3998-1417-4d26-9401-b7ca2cb617df","ios":"levelo://app?vid=2bfb3998-1417-4d26-9401-b7ca2cb617df"},"vehicle_type_id":"4","last_reported":1723486354,"current_range_meters":4000,"station_id":"ce4bhr92rcd13ifvqhsg","pricing_plan_id":"cebpf4jnsgd1na2vs0mg"},{"bike_id":"aebba070-f0ee-42b1-8a63-cb808b997825","system_id":"levelo_inurba_marseille","lat":43.323464,"lon":5.406297,"is_reserved":false,"is_disabled":false,"rental_uris":{"android":"levelo://app?vid=aebba070-f0ee-42b1-8a63-cb808b997825","ios":"levelo://app?vid=aebba070-f0ee-42b1-8a63-cb808b997825"},"vehicle_type_id":"4","last_reported":1723486354,"current_range_meters":24400,"station_id":"ce4bhq92rcd13ifvqhjg","pricing_plan_id":"cebpf4jnsgd1na2vs0mg"},{"bike_id":"3f857a98-eaf1-4a28-bd18-72f1ef5414b6","system_id":"levelo_inurba_marseille","lat":43.323464,"lon":5.406297,"is_reserved":false,"is_disabled":false,"rental_uris":{"android":"levelo://app?vid=3f857a98-eaf1-4a28-bd18-72f1ef5414b6","ios":"levelo://app?vid=3f857a98-eaf1-4a28-bd18-72f1ef5414b6"},"vehicle_type_id":"4","last_reported":1723486354,"current_range_meters":30400,"station_id":"ce4bhq92rcd13ifvqhjg","pricing_plan_id":"cebpf4jnsgd1na2vs0mg"},{"bike_id":"4c159671-055f-46d5-9472-28843ef63557","system_id":"levelo_inurba_marseille","lat":43.323464,"lon":5.406297,"is_reserved":false,"is_disabled":false,"rental_uris":{"android":"levelo://app?vid=4c159671-055f-46d5-9472-28843ef63557","ios":"levelo://app?vid=4c159671-055f-46d5-9472-28843ef63557"},"vehicle_type_id":"4","last_reported":1723486354,"current_range_meters":29600,"station_id":"ce4bhq92rcd13ifvqhjg","pricing_plan_id":"cebpf4jnsgd1na2vs0mg"},{"bike_id":"e8891c97-dcdf-4b6a-9780-3012c4ae7160","system_id":"levelo_inurba_marseille","lat":43.337168,"lon":5.391825,"is_reserved":false,"is_disabled":false,"rental_uris":{"android":"levelo://app?vid=e8891c97-dcdf-4b6a-9780-3012c4ae7160","ios":"levelo://app?vid=e8891c97-dcdf-4b6a-9780-3012c4ae7160"},"vehicle_type_id":"4","last_reported":1723486354,"current_range_meters":6400,"station_id":"ce4bhr92rcd13ifvqhsg","pricing_plan_id":"cebpf4jnsgd1na2vs0mg"},{"bike_id":"9332204d-757a-4f62-a25b-7d9eab710ae7","system_id":"levelo_inurba_marseille","lat":43.284793,"lon":5.384113,"is_reserved":false,"is_disabled":false,"rental_uris":{"android":"levelo://app?vid=9332204d-757a-4f62-a25b-7d9eab710ae7","ios":"levelo://app?vid=9332204d-757a-4f62-a25b-7d9eab710ae7"},"vehicle_type_id":"4","last_reported":1723486354,"current_range_meters":400,"station_id":"ce4bh512rcd13ifvqe3g","pricing_plan_id":"cebpf4jnsgd1na2vs0mg"},{"bike_id":"434e4488-c20f-4470-8997-12de954b567a","system_id":"levelo_inurba_marseille","lat":43.284793,"lon":5.384113,"is_reserved":false,"is_disabled":false,"rental_uris":{"android":"levelo://app?vid=434e4488-c20f-4470-8997-12de954b567a","ios":"levelo://app?vid=434e4488-c20f-4470-8997-12de954b567a"},"vehicle_type_id":"4","last_reported":1723486354,"current_range_meters":0,"station_id":"ce4bh512rcd13ifvqe3g","pricing_plan_id":"cebpf4jnsgd1na2vs0mg"},{"bike_id":"4bf86c3a-ab2e-4f17-86d0-f618a45ba7f1","system_id":"levelo_inurba_marseille","lat":43.2885,"lon":5.39313,"is_reserved":false,"is_disabled":false,"rental_uris":{"android":"levelo://app?vid=4bf86c3a-ab2e-4f17-86d0-f618a45ba7f1","ios":"levelo://app?vid=4bf86c3a-ab2e-4f17-86d0-f618a45ba7f1"},"vehicle_type_id":"4","last_reported":1723486354,"current_range_meters":0,"station_id":"ce4bh2p2rcd13ifvqdi0","pricing_plan_id":"cebpf4jnsgd1na2vs0mg"},{"bike_id":"9770ab9d-4be3-4745-8c71-dcc214d5220e","system_id":"levelo_inurba_marseille","lat":43.28857,"lon":5.39329,"is_reserved":false,"is_disabled":false,"rental_uris":{"android":"levelo://app?vid=9770ab9d-4be3-4745-8c71-dcc214d5220e","ios":"levelo://app?vid=9770ab9d-4be3-4745-8c71-dcc214d5220e"},"vehicle_type_id":"4","last_reported":1723486354,"current_range_meters":0,"station_id":"ce4bh2p2rcd13ifvqdi0","pricing_plan_id":"cebpf4jnsgd1na2vs0mg"},{"bike_id":"57df3d88-ef6c-448f-83a9-6428f2c3c7cf","system_id":"levelo_inurba_marseille","lat":43.28852,"lon":5.39325,"is_reserved":false,"is_disabled":false,"rental_uris":{"android":"levelo://app?vid=57df3d88-ef6c-448f-83a9-6428f2c3c7cf","ios":"levelo://app?vid=57df3d88-ef6c-448f-83a9-6428f2c3c7cf"},"vehicle_type_id":"4","last_reported":1723486354,"current_range_meters":0,"station_id":"ce4bh2p2rcd13ifvqdi0","pricing_plan_id":"cebpf4jnsgd1na2vs0mg"},{"bike_id":"bc981738-b0c9-41b4-a78c-fc11af86d877","system_id":"levelo_inurba_marseille","lat":43.29381,"lon":5.40049,"is_reserved":false,"is_disabled":false,"rental_uris":{"android":"levelo://app?vid=bc981738-b0c9-41b4-a78c-fc11af86d877","ios":"levelo://app?vid=bc981738-b0c9-41b4-a78c-fc11af86d877"},"vehicle_type_id":"4","last_reported":1723486354,"current_range_meters":0,"station_id":"","pricing_plan_id":"cebpf4jnsgd1na2vs0mg"},{"bike_id":"ad4289d1-2134-4d3e-88c6-f51bb231eb7a","system_id":"levelo_inurba_marseille","lat":43.283494,"lon":5.380945,"is_reserved":false,"is_disabled":false,"rental_uris":{"android":"levelo://app?vid=ad4289d1-2134-4d3e-88c6-f51bb231eb7a","ios":"levelo://app?vid=ad4289d1-2134-4d3e-88c6-f51bb231eb7a"},"vehicle_type_id":"4","last_reported":1723486354,"current_range_meters":6400,"station_id":"ce4bh412rcd13ifvqdr0","pricing_plan_id":"cebpf4jnsgd1na2vs0mg"},{"bike_id":"bff52e75-6d42-4156-b676-6dc6b0d71d30","system_id":"levelo_inurba_marseille","lat":43.284776,"lon":5.385603,"is_reserved":false,"is_disabled":false,"rental_uris":{"android":"levelo://app?vid=bff52e75-6d42-4156-b676-6dc6b0d71d30","ios":"levelo://app?vid=bff52e75-6d42-4156-b676-6dc6b0d71d30"},"vehicle_type_id":"4","last_reported":1723486354,"current_range_meters":0,"station_id":"ce4bh8p2rcd13ifvqeb0","pricing_plan_id":"cebpf4jnsgd1na2vs0mg"},{"bike_id":"b896321f-10ae-4cee-a1f4-1c40f4fdd821","system_id":"levelo_inurba_marseille","lat":43.28423,"lon":5.35007,"is_reserved":false,"is_disabled":false,"rental_uris":{"android":"levelo://app?vid=b896321f-10ae-4cee-a1f4-1c40f4fdd821","ios":"levelo://app?vid=b896321f-10ae-4cee-a1f4-1c40f4fdd821"},"vehicle_type_id":"4","last_reported":1723486354,"current_range_meters":0,"station_id":"ce4bhbh2rcd13ifvqepg","pricing_plan_id":"cebpf4jnsgd1na2vs0mg"},{"bike_id":"899297e4-e5f7-4f2c-ba4a-772a3cde2329","system_id":"levelo_inurba_marseille","lat":43.283498,"lon":5.380948,"is_reserved":false,"is_disabled":false,"rental_uris":{"android":"levelo://app?vid=899297e4-e5f7-4f2c-ba4a-772a3cde2329","ios":"levelo://app?vid=899297e4-e5f7-4f2c-ba4a-772a3cde2329"},"vehicle_type_id":"4","last_reported":1723486354,"current_range_meters":2400,"station_id":"ce4bh412rcd13ifvqdr0","pricing_plan_id":"cebpf4jnsgd1na2vs0mg"},{"bike_id":"d7dcddcd-30a3-498d-ac54-3a55c4415463","system_id":"levelo_inurba_marseille","lat":43.28422,"lon":5.34994,"is_reserved":false,"is_disabled":false,"rental_uris":{"android":"levelo://app?vid=d7dcddcd-30a3-498d-ac54-3a55c4415463","ios":"levelo://app?vid=d7dcddcd-30a3-498d-ac54-3a55c4415463"},"vehicle_type_id":"4","last_reported":1723486354,"current_range_meters":0,"station_id":"ce4bhbh2rcd13ifvqepg","pricing_plan_id":"cebpf4jnsgd1na2vs0mg"},{"bike_id":"7ec83b6a-21ff-4baa-84ca-a3b992408aa2","system_id":"levelo_inurba_marseille","lat":43.28421,"lon":5.34988,"is_reserved":false,"is_disabled":false,"rental_uris":{"android":"levelo://app?vid=7ec83b6a-21ff-4baa-84ca-a3b992408aa2","ios":"levelo://app?vid=7ec83b6a-21ff-4baa-84ca-a3b992408aa2"},"vehicle_type_id":"4","last_reported":1723486354,"current_range_meters":30400,"station_id":"ce4bhbh2rcd13ifvqepg","pricing_plan_id":"cebpf4jnsgd1na2vs0mg"},{"bike_id":"e1e20769-f806-4e1c-8dac-111d2f310078","system_id":"levelo_inurba_marseille","lat":43.28421,"lon":5.34988,"is_reserved":false,"is_disabled":false,"rental_uris":{"android":"levelo://app?vid=e1e20769-f806-4e1c-8dac-111d2f310078","ios":"levelo://app?vid=e1e20769-f806-4e1c-8dac-111d2f310078"},"vehicle_type_id":"4","last_reported":1723486354,"current_range_meters":4800,"station_id":"ce4bhbh2rcd13ifvqepg","pricing_plan_id":"cebpf4jnsgd1na2vs0mg"},{"bike_id":"a8e5f6fc-31b3-4c8a-a4cb-0c6db8bea042","system_id":"levelo_inurba_marseille","lat":43.28415,"lon":5.34993,"is_reserved":false,"is_disabled":false,"rental_uris":{"android":"levelo://app?vid=a8e5f6fc-31b3-4c8a-a4cb-0c6db8bea042","ios":"levelo://app?vid=a8e5f6fc-31b3-4c8a-a4cb-0c6db8bea042"},"vehicle_type_id":"4","last_reported":1723486354,"current_range_meters":22400,"station_id":"ce4bhbh2rcd13ifvqepg","pricing_plan_id":"cebpf4jnsgd1na2vs0mg"},{"bike_id":"33cf546b-b8b5-498c-afd3-89dada336adc","system_id":"levelo_inurba_marseille","lat":43.28416,"lon":5.34987,"is_reserved":false,"is_disabled":false,"rental_uris":{"android":"levelo://app?vid=33cf546b-b8b5-498c-afd3-89dada336adc","ios":"levelo://app?vid=33cf546b-b8b5-498c-afd3-89dada336adc"},