{"last_updated":1692306360,"ttl":30,"version":"2.2","data":{"bikes":[{"bike_id":"309c616a-51ee-40d2-8918-d41e49d0a524","system_id":"levelo_inurba_marseille","lat":43.31221,"lon":5.36849,"is_reserved":false,"is_disabled":false,"rental_uris":{"android":"levelo://app?vid=309c616a-51ee-40d2-8918-d41e49d0a524","ios":"levelo://app?vid=309c616a-51ee-40d2-8918-d41e49d0a524"},"vehicle_type_id":"4","last_reported":1692306360,"current_range_meters":21600,"station_id":"ce4bgl92rcd13ifvqbq0","pricing_plan_id":"free"},{"bike_id":"5b99a27c-9930-4e1e-8964-33bf1c70ff56","system_id":"levelo_inurba_marseille","lat":43.312239,"lon":5.368562,"is_reserved":false,"is_disabled":false,"rental_uris":{"android":"levelo://app?vid=5b99a27c-9930-4e1e-8964-33bf1c70ff56","ios":"levelo://app?vid=5b99a27c-9930-4e1e-8964-33bf1c70ff56"},"vehicle_type_id":"4","last_reported":1692306360,"current_range_meters":8400,"station_id":"ce4bgl92rcd13ifvqbq0","pricing_plan_id":"free"},{"bike_id":"66b7054c-c936-457a-b91d-e74a8893b7d7","system_id":"levelo_inurba_marseille","lat":43.312239,"lon":5.368562,"is_reserved":false,"is_disabled":false,"rental_uris":{"android":"levelo://app?vid=66b7054c-c936-457a-b91d-e74a8893b7d7","ios":"levelo://app?vid=66b7054c-c936-457a-b91d-e74a8893b7d7"},"vehicle_type_id":"4","last_reported":1692306360,"current_range_meters":10400,"station_id":"ce4bgl92rcd13ifvqbq0","pricing_plan_id":"free"},{"bike_id":"c5b6b847-c8f0-40cd-8194-7e8d61ce733a","system_id":"levelo_inurba_marseille","lat":43.309076,"lon":5.368465,"is_reserved":false,"is_disabled":false,"rental_uris":{"android":"levelo://app?vid=c5b6b847-c8f0-40cd-8194-7e8d61ce733a","ios":"levelo://app?vid=c5b6b847-c8f0-40cd-8194-7e8d61ce733a"},"vehicle_type_id":"4","last_reported":1692306360,"current_range_meters":19200,"station_id":"ce4bgn92rcd13ifvqbvg","pricing_plan_id":"free"},{"bike_id":"777f9153-e3f7-4a15-8504-452c7b5c995b","system_id":"levelo_inurba_marseille","lat":43.314811,"lon":5.373103,"is_reserved":false,"is_disabled":false,"rental_uris":{"android":"levelo://app?vid=777f9153-e3f7-4a15-8504-452c7b5c995b","ios":"levelo://app?vid=777f9153-e3f7-4a15-8504-452c7b5c995b"},"vehicle_type_id":"4","last_reported":1692306360,"current_range_meters":6800,"station_id":"ce4bgt12rcd13ifvqcd0","pricing_plan_id":"free"},{"bike_id":"de4bc856-360c-4984-80aa-92d0bba44fb6","system_id":"levelo_inurba_marseille","lat":43.314811,"lon":5.373103,"is_reserved":false,"is_disabled":false,"rental_uris":{"android":"levelo://app?vid=de4bc856-360c-4984-80aa-92d0bba44fb6","ios":"levelo://app?vid=de4bc856-360c-4984-80aa-92d0bba44fb6"},"vehicle_type_id":"4","last_reported":1692306360,"current_range_meters":10000,"station_id":"ce4bgt12rcd13ifvqcd0","pricing_plan_id":"free"},{"bike_id":"a904af8e-e60f-4783-a85b-8eca0b69ce63","system_id":"levelo_inurba_marseille","lat":43.30587,"lon":5.36532,"is_reserved":false,"is_disabled":false,"rental_uris":{"android":"levelo://app?vid=a904af8e-e60f-4783-a85b-8eca0b69ce63","ios":"levelo://app?vid=a904af8e-e60f-4783-a85b-8eca0b69ce63"},"vehicle_type_id":"4","last_reported":1692306360,"current_range_meters":1200,"station_id":"","pricing_plan_id":"free"},{"bike_id":"386ed8e3-b71e-4f68-86af-202c5b76503e","system_id":"levelo_inurba_marseille","lat":43.30539,"lon":5.36699,"is_reserved":false,"is_disabled":false,"rental_uris":{"android":"levelo://app?vid=386ed8e3-b71e-4f68-86af-202c5b76503e","ios":"levelo://app?vid=386ed8e3-b71e-4f68-86af-202c5b76503e"},"vehicle_type_id":"4","last_reported":1692306360,"current_range_meters":31200,"station_id":"ce4bgrp2rcd13ifvqc9g","pricing_plan_id":"free"},{"bike_id":"9fbe6e18-d192-44c2-98b5-cafb68b41aa4","system_id":"levelo_inurba_marseille","lat":43.30532,"lon":5.36538,"is_reserved":false,"is_disabled":false,"rental_uris":{"android":"levelo://app?vid=9fbe6e18-d192-44c2-98b5-cafb68b41aa4","ios":"levelo://app?vid=9fbe6e18-d192-44c2-98b5-cafb68b41aa4"},"vehicle_type_id":"4","last_reported":1692306360,"current_range_meters":19200,"station_id":"ce4bgs12rcd13ifvqcag","pricing_plan_id":"free"},{"bike_id":"1b34e0fc-ca5a-4e25-a4f6-c07aa4827826","system_id":"levelo_inurba_marseille","lat":43.305706,"lon":5.365654,"is_reserved":false,"is_disabled":false,"rental_uris":{"android":"levelo://app?vid=1b34e0fc-ca5a-4e25-a4f6-c07aa4827826","ios":"levelo://app?vid=1b34e0fc-ca5a-4e25-a4f6-c07aa4827826"},"vehicle_type_id":"4","last_reported":1692306360,"current_range_meters":10800,"station_id":"ce4bgs12rcd13ifvqcag","pricing_plan_id":"free"},{"bike_id":"51e7e2c3-ba86-456f-b01b-563941890c48","system_id":"levelo_inurba_marseille","lat":43.305989,"lon":5.37225,"is_reserved":false,"is_disabled":false,"rental_uris":{"android":"levelo://app?vid=51e7e2c3-ba86-456f-b01b-563941890c48","ios":"levelo://app?vid=51e7e2c3-ba86-456f-b01b-563941890c48"},"vehicle_type_id":"4","last_reported":1692306360,"current_range_meters":4800,"station_id":"ce4bgqh2rcd13ifvqc4g","pricing_plan_id":"free"},{"bike_id":"8e282257-5c1b-47f9-8bd4-e61679c24a4a","system_id":"levelo_inurba_marseille","lat":43.30589,"lon":5.37222,"is_reserved":false,"is_disabled":false,"rental_uris":{"android":"levelo://app?vid=8e282257-5c1b-47f9-8bd4-e61679c24a4a","ios":"levelo://app?vid=8e282257-5c1b-47f9-8bd4-e61679c24a4a"},"vehicle_type_id":"4","last_reported":1692306360,"current_range_meters":16800,"station_id":"ce4bgqh2rcd13ifvqc4g","pricing_plan_id":"free"},{"bike_id":"10a0ac15-8a4c-4168-b034-7c8b545bd3cc","system_id":"levelo_inurba_marseille","lat":43.305989,"lon":5.37225,"is_reserved":false,"is_disabled":false,"rental_uris":{"android":"levelo://app?vid=10a0ac15-8a4c-4168-b034-7c8b545bd3cc","ios":"levelo://app?vid=10a0ac15-8a4c-4168-b034-7c8b545bd3cc"},"vehicle_type_id":"4","last_reported":1692306360,"current_range_meters":14000,"station_id":"ce4bgqh2rcd13ifvqc4g","pricing_plan_id":"free"},{"bike_id":"fb19023d-ac35-4d6b-983c-0b4614e496b5","system_id":"levelo_inurba_marseille","lat":43.31116,"lon":5.37763,"is_reserved":false,"is_disabled":false,"rental_uris":{"android":"levelo://app?vid=fb19023d-ac35-4d6b-983c-0b4614e496b5","ios":"levelo://app?vid=fb19023d-ac35-4d6b-983c-0b4614e496b5"},"vehicle_type_id":"4","last_reported":1692306360,"current_range_meters":21200,"station_id":"ce4bgt92rcd13ifvqcg0","pricing_plan_id":"free"},{"bike_id":"9c230663-bc18-4865-b011-2fca421069eb","system_id":"levelo_inurba_marseille","lat":43.311131,"lon":5.377651,"is_reserved":false,"is_disabled":false,"rental_uris":{"android":"levelo://app?vid=9c230663-bc18-4865-b011-2fca421069eb","ios":"levelo://app?vid=9c230663-bc18-4865-b011-2fca421069eb"},"vehicle_type_id":"4","last_reported":1692306360,"current_range_meters":29600,"station_id":"ce4bgt92rcd13ifvqcg0","pricing_plan_id":"free"},{"bike_id":"e8b4c4db-8fbf-478e-a99b-98a0a9f28b07","system_id":"levelo_inurba_marseille","lat":43.311131,"lon":5.377651,"is_reserved":false,"is_disabled":false,"rental_uris":{"android":"levelo://app?vid=e8b4c4db-8fbf-478e-a99b-98a0a9f28b07","ios":"levelo://app?vid=e8b4c4db-8fbf-478e-a99b-98a0a9f28b07"},"vehicle_type_id":"4","last_reported":1692306360,"current_range_meters":2000,"station_id":"ce4bgt92rcd13ifvqcg0","pricing_plan_id":"free"},{"bike_id":"e37eabe7-a527-446e-9969-5976a38517fb","system_id":"levelo_inurba_marseille","lat":43.30787,"lon":5.3765,"is_reserved":false,"is_disabled":false,"rental_uris":{"android":"levelo://app?vid=e37eabe7-a527-446e-9969-5976a38517fb","ios":"levelo://app?vid=e37eabe7-a527-446e-9969-5976a38517fb"},"vehicle_type_id":"4","last_reported":1692306360,"current_range_meters":14800,"station_id":"ce4bgv92rcd13ifvqcq0","pricing_plan_id":"free"},{"bike_id":"0fef91fb-03bc-4a4e-af23-b54e2bc052dc","system_id":"levelo_inurba_marseille","lat":43.30777,"lon":5.37651,"is_reserved":false,"is_disabled":false,"rental_uris":{"android":"levelo://app?vid=0fef91fb-03bc-4a4e-af23-b54e2bc052dc","ios":"levelo://app?vid=0fef91fb-03bc-4a4e-af23-b54e2bc052dc"},"vehicle_type_id":"4","last_reported":1692306360,"current_range_meters":0,"station_id":"ce4bgv92rcd13ifvqcq0","pricing_plan_id":"free"},{"bike_id":"352c117f-d5c3-49fa-9fcb-6e4cf9991357","system_id":"levelo_inurba_marseille","lat":43.317075,"lon":5.377367,"is_reserved":false,"is_disabled":false,"rental_uris":{"android":"levelo://app?vid=352c117f-d5c3-49fa-9fcb-6e4cf9991357","ios":"levelo://app?vid=352c117f-d5c3-49fa-9fcb-6e4cf9991357"},"vehicle_type_id":"4","last_reported":1692306360,"current_range_meters":21600,"station_id":"ce4bgth2rcd13ifvqch0","pricing_plan_id":"free"},{"bike_id":"f2185b71-8845-4061-993e-b03cf675a984","system_id":"levelo_inurba_marseille","lat":43.317075,"lon":5.377367,"is_reserved":false,"is_disabled":false,"rental_uris":{"android":"levelo://app?vid=f2185b71-8845-4061-993e-b03cf675a984","ios":"levelo://app?vid=f2185b71-8845-4061-993e-b03cf675a984"},"vehicle_type_id":"4","last_reported":1692306360,"current_range_meters":21200,"station_id":"ce4bgth2rcd13ifvqch0","pricing_plan_id":"free"},{"bike_id":"abe02008-48b9-4a39-a492-745d55fbe8f7","system_id":"levelo_inurba_marseille","lat":43.31712,"lon":5.37771,"is_reserved":false,"is_disabled":false,"rental_uris":{"android":"levelo://app?vid=abe02008-48b9-4a39-a492-745d55fbe8f7","ios":"levelo://app?vid=abe02008-48b9-4a39-a492-745d55fbe8f7"},"vehicle_type_id":"4","last_reported":1692306360,"current_range_meters":18800,"station_id":"ce4bgth2rcd13ifvqch0","pricing_plan_id":"free"},{"bike_id":"e1f0f2d3-8a05-486d-a0fb-b7ce0c01bf5f","system_id":"levelo_inurba_marseille","lat":43.311722,"lon":5.387247,"is_reserved":false,"is_disabled":false,"rental_uris":{"android":"levelo://app?vid=e1f0f2d3-8a05-486d-a0fb-b7ce0c01bf5f","ios":"levelo://app?vid=e1f0f2d3-8a05-486d-a0fb-b7ce0c01bf5f"},"vehicle_type_id":"4","last_reported":1692306360,"current_range_meters":29600,"station_id":"ce4bgv12rcd13ifvqcp0","pricing_plan_id":"free"},{"bike_id":"66ccfd8c-e0ae-4844-87a6-8a7d3652888f","system_id":"levelo_inurba_marseille","lat":43.303046,"lon":5.368981,"is_reserved":false,"is_disabled":false,"rental_uris":{"android":"levelo://app?vid=66ccfd8c-e0ae-4844-87a6-8a7d3652888f","ios":"levelo://app?vid=66ccfd8c-e0ae-4844-87a6-8a7d3652888f"},"vehicle_type_id":"4","last_reported":1692306360,"current_range_meters":5600,"station_id":"ce4bgqh2rcd13ifvqc5g","pricing_plan_id":"free"},{"bike_id":"f11f593b-f726-4d67-941a-59a3a9062f71","system_id":"levelo_inurba_marseille","lat":43.31537,"lon":5.38034,"is_reserved":false,"is_disabled":false,"rental_uris":{"android":"levelo://app?vid=f11f593b-f726-4d67-941a-59a3a9062f71","ios":"levelo://app?vid=f11f593b-f726-4d67-941a-59a3a9062f71"},"vehicle_type_id":"4","last_reported":1692306360,"current_range_meters":29200,"station_id":"ce4bhsp2rcd13ifvqi50","pricing_plan_id":"free"},{"bike_id":"48673fad-3297-46db-bcf6-f957caa10c9c","system_id":"levelo_inurba_marseille","lat":43.31523,"lon":5.38041,"is_reserved":false,"is_disabled":false,"rental_uris":{"android":"levelo://app?vid=48673fad-3297-46db-bcf6-f957caa10c9c","ios":"levelo://app?vid=48673fad-3297-46db-bcf6-f957caa10c9c"},"vehicle_type_id":"4","last_reported":1692306360,"current_range_meters":18800,"station_id":"ce4bhsp2rcd13ifvqi50","pricing_plan_id":"free"},{"bike_id":"5e9c47c2-b4bb-4724-80d3-c9951d0bb789","system_id":"levelo_inurba_marseille","lat":43.308,"lon":5.38147,"is_reserved":false,"is_disabled":false,"rental_uris":{"android":"levelo://app?vid=5e9c47c2-b4bb-4724-80d3-c9951d0bb789","ios":"levelo://app?vid=5e9c47c2-b4bb-4724-80d3-c9951d0bb789"},"vehicle_type_id":"4","last_reported":1692306360,"current_range_meters":400,"station_id":"ce4bgt12rcd13ifvqce0","pricing_plan_id":"free"},{"bike_id":"f8d2090d-49da-47a2-ab32-834f83f2cc1c","system_id":"levelo_inurba_marseille","lat":43.30795,"lon":5.38156,"is_reserved":false,"is_disabled":false,"rental_uris":{"android":"levelo://app?vid=f8d2090d-49da-47a2-ab32-834f83f2cc1c","ios":"levelo://app?vid=f8d2090d-49da-47a2-ab32-834f83f2cc1c"},"vehicle_type_id":"4","last_reported":1692306360,"current_range_meters":13600,"station_id":"ce4bgt12rcd13ifvqce0","pricing_plan_id":"free"},{"bike_id":"622c2250-8455-4765-a97b-aebba6e60d90","system_id":"levelo_inurba_marseille","lat":43.30804,"lon":5.38165,"is_reserved":false,"is_disabled":false,"rental_uris":{"android":"levelo://app?vid=622c2250-8455-4765-a97b-aebba6e60d90","ios":"levelo://app?vid=622c2250-8455-4765-a97b-aebba6e60d90"},"vehicle_type_id":"4","last_reported":1692306360,"current_range_meters":3200,"station_id":"ce4bgt12rcd13ifvqce0","pricing_plan_id":"free"},{"bike_id":"f7627d2f-7d21-4702-b4ff-9aed59bd73c1","system_id":"levelo_inurba_marseille","lat":43.30787,"lon":5.38155,"is_reserved":false,"is_disabled":false,"rental_uris":{"android":"levelo://app?vid=f7627d2f-7d21-4702-b4ff-9aed59bd73c1","ios":"levelo://app?vid=f7627d2f-7d21-4702-b4ff-9aed59bd73c1"},"vehicle_type_id":"4","last_reported":1692306360,"current_range_meters":8000,"station_id":"ce4bgt12rcd13ifvqce0","pricing_plan_id":"free"},{"bike_id":"dea068c3-9f55-443f-a3e8-b89ca5e10582","system_id":"levelo_inurba_marseille","lat":43.304606,"lon":5.379026,"is_reserved":false,"is_disabled":false,"rental_uris":{"android":"levelo://app?vid=dea068c3-9f55-443f-a3e8-b89ca5e10582","ios":"levelo://app?vid=dea068c3-9f55-443f-a3e8-b89ca5e10582"},"vehicle_type_id":"4","last_reported":1692306360,"current_range_meters":31200,"station_id":"ce4bgup2rcd13ifvqcn0","pricing_plan_id":"free"},{"bike_id":"74e30182-e09a-4738-8d6d-3beeb29a8c64","system_id":"levelo_inurba_marseille","lat":43.304606,"lon":5.379026,"is_reserved":false,"is_disabled":false,"rental_uris":{"android":"levelo://app?vid=74e30182-e09a-4738-8d6d-3beeb29a8c64","ios":"levelo://app?vid=74e30182-e09a-4738-8d6d-3beeb29a8c64"},"vehicle_type_id":"4","last_reported":1692306360,"current_range_meters":9600,"station_id":"ce4bgup2rcd13ifvqcn0","pricing_plan_id":"free"},{"bike_id":"9b6261f4-62c6-47cb-995a-f4d5cae8733d","system_id":"levelo_inurba_marseille","lat":43.304606,"lon":5.379026,"is_reserved":false,"is_disabled":false,"rental_uris":{"android":"levelo://app?vid=9b6261f4-62c6-47cb-995a-f4d5cae8733d","ios":"levelo://app?vid=9b6261f4-62c6-47cb-995a-f4d5cae8733d"},"vehicle_type_id":"4","last_reported":1692306360,"current_range_meters":31200,"station_id":"ce4bgup2rcd13ifvqcn0","pricing_plan_id":"free"},{"bike_id":"3ef77a1c-101c-4e7b-bbf2-41a2523f0f8a","system_id":"levelo_inurba_marseille","lat":43.304606,"lon":5.379026,"is_reserved":false,"is_disabled":false,"rental_uris":{"android":"levelo://app?vid=3ef77a1c-101c-4e7b-bbf2-41a2523f0f8a","ios":"levelo://app?vid=3ef77a1c-101c-4e7b-bbf2-41a2523f0f8a"},"vehicle_type_id":"4","last_reported":1692306360,"current_range_meters":29200,"station_id":"ce4bgup2rcd13ifvqcn0","pricing_plan_id":"free"},{"bike_id":"116048b7-452e-491d-98e5-3b3d6cb425c8","system_id":"levelo_inurba_marseille","lat":43.304606,"lon":5.379026,"is_reserved":false,"is_disabled":false,"rental_uris":{"android":"levelo://app?vid=116048b7-452e-491d-98e5-3b3d6cb425c8","ios":"levelo://app?vid=116048b7-452e-491d-98e5-3b3d6cb425c8"},"vehicle_type_id":"4","last_reported":1692306360,"current_range_meters":13200,"station_id":"ce4bgup2rcd13ifvqcn0","pricing_plan_id":"free"},{"bike_id":"2f5d9c43-b91e-4966-a1e2-a5959e340b31","system_id":"levelo_inurba_marseille","lat":43.304606,"lon":5.379026,"is_reserved":false,"is_disabled":false,"rental_uris":{"android":"levelo://app?vid=2f5d9c43-b91e-4966-a1e2-a5959e340b31","ios":"levelo://app?vid=2f5d9c43-b91e-4966-a1e2-a5959e340b31"},"vehicle_type_id":"4","last_reported":1692306360,"current_range_meters":25200,"station_id":"ce4bgup2rcd13ifvqcn0","pricing_plan_id":"free"},{"bike_id":"ddb69c82-11b7-4b93-94ee-a7ac8387e8bb","system_id":"levelo_inurba_marseille","lat":43.304606,"lon":5.379026,"is_reserved":false,"is_disabled":false,"rental_uris":{"android":"levelo://app?vid=ddb69c82-11b7-4b93-94ee-a7ac8387e8bb","ios":"levelo://app?vid=ddb69c82-11b7-4b93-94ee-a7ac8387e8bb"},"vehicle_type_id":"4","last_reported":1692306360,"current_range_meters":19600,"station_id":"ce4bgup2rcd13ifvqcn0","pricing_plan_id":"free"},{"bike_id":"87358efd-e413-491b-a7e7-1beb97a495cb","system_id":"levelo_inurba_marseille","lat":43.304606,"lon":5.379026,"is_reserved":false,"is_disabled":false,"rental_uris":{"android":"levelo://app?vid=87358efd-e413-491b-a7e7-1beb97a495cb","ios":"levelo://app?vid=87358efd-e413-491b-a7e7-1beb97a495cb"},"vehicle_type_id":"4","last_reported":1692306360,"current_range_meters":31200,"station_id":"ce4bgup2rcd13ifvqcn0","pricing_plan_id":"free"},{"bike_id":"ae798491-ab6a-4ef2-a254-d26ad5881df4","system_id":"levelo_inurba_marseille","lat":43.304606,"lon":5.379026,"is_reserved":false,"is_disabled":false,"rental_uris":{"android":"levelo://app?vid=ae798491-ab6a-4ef2-a254-d26ad5881df4","ios":"levelo://app?vid=ae798491-ab6a-4ef2-a254-d26ad5881df4"},"vehicle_type_id":"4","last_reported":1692306360,"current_range_meters":32000,"station_id":"ce4bgup2rcd13ifvqcn0","pricing_plan_id":"free"},{"bike_id":"a07baf60-86e9-4abf-9041-b364e0fd68f7","system_id":"levelo_inurba_marseille","lat":43.30139,"lon":5.37408,"is_reserved":false,"is_disabled":false,"rental_uris":{"android":"levelo://app?vid=a07baf60-86e9-4abf-9041-b364e0fd68f7","ios":"levelo://app?vid=a07baf60-86e9-4abf-9041-b364e0fd68f7"},"vehicle_type_id":"4","last_reported":1692306360,"current_range_meters":1600,"station_id":"ce4bgs92rcd13ifvqcc0","pricing_plan_id":"free"},{"bike_id":"b328d323-4e49-4e11-8d47-6f47f1998c64","system_id":"levelo_inurba_marseille","lat":43.31992,"lon":5.38142,"is_reserved":false,"is_disabled":false,"rental_uris":{"android":"levelo://app?vid=b328d323-4e49-4e11-8d47-6f47f1998c64","ios":"levelo://app?vid=b328d323-4e49-4e11-8d47-6f47f1998c64"},"vehicle_type_id":"4","last_reported":1692306360,"current_range_meters":25200,"station_id":"ce4bhr12rcd13ifvqhpg","pricing_plan_id":"free"},{"bike_id":"88762d40-52ba-436a-b80a-c40414f42fb8","system_id":"levelo_inurba_marseille","lat":43.3199,"lon":5.38148,"is_reserved":false,"is_disabled":false,"rental_uris":{"android":"levelo://app?vid=88762d40-52ba-436a-b80a-c40414f42fb8","ios":"levelo://app?vid=88762d40-52ba-436a-b80a-c40414f42fb8"},"vehicle_type_id":"4","last_reported":1692306360,"current_range_meters":5600,"station_id":"ce4bhr12rcd13ifvqhpg","pricing_plan_id":"free"},{"bike_id":"0199fadd-d0a9-4074-adc4-86b80fffb7d6","system_id":"levelo_inurba_marseille","lat":43.319935,"lon":5.381699,"is_reserved":false,"is_disabled":false,"rental_uris":{"android":"levelo://app?vid=0199fadd-d0a9-4074-adc4-86b80fffb7d6","ios":"levelo://app?vid=0199fadd-d0a9-4074-adc4-86b80fffb7d6"},"vehicle_type_id":"4","last_reported":1692306360,"current_range_meters":30000,"station_id":"ce4bhr12rcd13ifvqhpg","pricing_plan_id":"free"},{"bike_id":"8edc98e9-ff68-4abb-9aed-439fc370eb1d","system_id":"levelo_inurba_marseille","lat":43.31993,"lon":5.38155,"is_reserved":false,"is_disabled":false,"rental_uris":{"android":"levelo://app?vid=8edc98e9-ff68-4abb-9aed-439fc370eb1d","ios":"levelo://app?vid=8edc98e9-ff68-4abb-9aed-439fc370eb1d"},"vehicle_type_id":"4","last_reported":1692306360,"current_range_meters":10000,"station_id":"ce4bhr12rcd13ifvqhpg","pricing_plan_id":"free"},{"bike_id":"453ecfdd-3284-499c-808d-a91757f43e14","system_id":"levelo_inurba_marseille","lat":43.31993,"lon":5.38164,"is_reserved":false,"is_disabled":false,"rental_uris":{"android":"levelo://app?vid=453ecfdd-3284-499c-808d-a91757f43e14","ios":"levelo://app?vid=453ecfdd-3284-499c-808d-a91757f43e14"},"vehicle_type_id":"4","last_reported":1692306360,"current_range_meters":22400,"station_id":"ce4bhr12rcd13ifvqhpg","pricing_plan_id":"free"},{"bike_id":"7b3c0e6e-bbe2-4c88-aaa1-69c07e9b139a","system_id":"levelo_inurba_marseille","lat":43.319935,"lon":5.381699,"is_reserved":false,"is_disabled":false,"rental_uris":{"android":"levelo://app?vid=7b3c0e6e-bbe2-4c88-aaa1-69c07e9b139a","ios":"levelo://app?vid=7b3c0e6e-bbe2-4c88-aaa1-69c07e9b139a"},"vehicle_type_id":"4","last_reported":1692306360,"current_range_meters":17200,"station_id":"ce4bhr12rcd13ifvqhpg","pricing_plan_id":"free"},{"bike_id":"f153ac73-9ab3-442f-8759-d49d5175c475","system_id":"levelo_inurba_marseille","lat":43.313571,"lon":5.384829,"is_reserved":false,"is_disabled":false,"rental_uris":{"android":"levelo://app?vid=f153ac73-9ab3-442f-8759-d49d5175c475","ios":"levelo://app?vid=f153ac73-9ab3-442f-8759-d49d5175c475"},"vehicle_type_id":"4","last_reported":1692306360,"current_range_meters":13600,"station_id":"ce4bgt92rcd13ifvqcf0","pricing_plan_id":"free"},{"bike_id":"edcd4620-0989-48c0-a8b2-f553f618cd83","system_id":"levelo_inurba_marseille","lat":43.313571,"lon":5.384829,"is_reserved":false,"is_disabled":false,"rental_uris":{"android":"levelo://app?vid=edcd4620-0989-48c0-a8b2-f553f618cd83","ios":"levelo://app?vid=edcd4620-0989-48c0-a8b2-f553f618cd83"},"vehicle_type_id":"4","last_reported":1692306360,"current_range_meters":8000,"station_id":"ce4bgt92rcd13ifvqcf0","pricing_plan_id":"free"},{"bike_id":"ad546d87-40f2-4228-adbd-44026f34e658","system_id":"levelo_inurba_marseille","lat":43.313571,"lon":5.384829,"is_reserved":false,"is_disabled":false,"rental_uris":{"android":"levelo://app?vid=ad546d87-40f2-4228-adbd-44026f34e658","ios":"levelo://app?vid=ad546d87-40f2-4228-adbd-44026f34e658"},"vehicle_type_id":"4","last_reported":1692306360,"current_range_meters":14400,"station_id":"ce4bgt92rcd13ifvqcf0","pricing_plan_id":"free"},{"bike_id":"d44fe93f-ae2b-4a88-bff1-45011735cb13","system_id":"levelo_inurba_marseille","lat":43.313571,"lon":5.384829,"is_reserved":false,"is_disabled":false,"rental_uris":{"android":"levelo://app?vid=d44fe93f-ae2b-4a88-bff1-45011735cb13","ios":"levelo://app?vid=d44fe93f-ae2b-4a88-bff1-45011735cb13"},"vehicle_type_id":"4","last_reported":1692306360,"current_range_meters":6800,"station_id":"ce4bgt92rcd13ifvqcf0","pricing_plan_id":"free"},{"bike_id":"de50fa22-9d22-41a3-b8d7-c8214945d33f","system_id":"levelo_inurba_marseille","lat":43.313571,"lon":5.384829,"is_reserved":false,"is_disabled":false,"rental_uris":{"android":"levelo://app?vid=de50fa22-9d22-41a3-b8d7-c8214945d33f","ios":"levelo://app?vid=de50fa22-9d22-41a3-b8d7-c8214945d33f"},"vehicle_type_id":"4","last_reported":1692306360,"current_range_meters":22400,"station_id":"ce4bgt92rcd13ifvqcf0","pricing_plan_id":"free"},{"bike_id":"fb9de164-f97e-478e-9fa7-b6fa3e039409","system_id":"levelo_inurba_marseille","lat":43.313571,"lon":5.384829,"is_reserved":false,"is_disabled":false,"rental_uris":{"android":"levelo://app?vid=fb9de164-f97e-478e-9fa7-b6fa3e039409","ios":"levelo://app?vid=fb9de164-f97e-478e-9fa7-b6fa3e039409"},"vehicle_type_id":"4","last_reported":1692306360,"current_range_meters":12800,"station_id":"ce4bgt92rcd13ifvqcf0","pricing_plan_id":"free"},{"bike_id":"f8506981-5e18-4cfa-9c66-08877592c2e8","system_id":"levelo_inurba_marseille","lat":43.313571,"lon":5.384829,"is_reserved":false,"is_disabled":false,"rental_uris":{"android":"levelo://app?vid=f8506981-5e18-4cfa-9c66-08877592c2e8","ios":"levelo://app?vid=f8506981-5e18-4cfa-9c66-08877592c2e8"},"vehicle_type_id":"4","last_reported":1692306360,"current_range_meters":5600,"station_id":"ce4bgt92rcd13ifvqcf0","pricing_plan_id":"free"},{"bike_id":"4dd5ebda-91ca-4e90-90ef-8cf785d7a644","system_id":"levelo_inurba_marseille","lat":43.313571,"lon":5.384829,"is_reserved":false,"is_disabled":false,"rental_uris":{"android":"levelo://app?vid=4dd5ebda-91ca-4e90-90ef-8cf785d7a644","ios":"levelo://app?vid=4dd5ebda-91ca-4e90-90ef-8cf785d7a644"},"vehicle_type_id":"4","last_reported":1692306360,"current_range_meters":19600,"station_id":"ce4bgt92rcd13ifvqcf0","pricing_plan_id":"free"},{"bike_id":"804c3f64-25ab-4ab9-aa07-fba60f6693dd","system_id":"levelo_inurba_marseille","lat":43.313571,"lon":5.384829,"is_reserved":false,"is_disabled":false,"rental_uris":{"android":"levelo://app?vid=804c3f64-25ab-4ab9-aa07-fba60f6693dd","ios":"levelo://app?vid=804c3f64-25ab-4ab9-aa07-fba60f6693dd"},"vehicle_type_id":"4","last_reported":1692306360,"current_range_meters":6400,"station_id":"ce4bgt92rcd13ifvqcf0","pricing_plan_id":"free"},{"bike_id":"2f64f751-e7b2-43cc-8d61-d93e099f5010","system_id":"levelo_inurba_marseille","lat":43.29982,"lon":5.37176,"is_reserved":false,"is_disabled":false,"rental_uris":{"android":"levelo://app?vid=2f64f751-e7b2-43cc-8d61-d93e099f5010","ios":"levelo://app?vid=2f64f751-e7b2-43cc-8d61-d93e099f5010"},"vehicle_type_id":"4","last_reported":1692306360,"current_range_meters":0,"station_id":"ce4bgr92rcd13ifvqc7g","pricing_plan_id":"free"},{"bike_id":"54871ea6-20ef-461a-9795-00d22c97eedb","system_id":"levelo_inurba_marseille","lat":43.29973,"lon":5.37171,"is_reserved":false,"is_disabled":false,"rental_uris":{"android":"levelo://app?vid=54871ea6-20ef-461a-9795-00d22c97eedb","ios":"levelo://app?vid=54871ea6-20ef-461a-9795-00d22c97eedb"},"vehicle_type_id":"4","last_reported":1692306360,"current_range_meters":1200,"station_id":"ce4bgr92rcd13ifvqc7g","pricing_plan_id":"free"},{"bike_id":"ee93d6d5-5d21-466a-964c-31769f078e44","system_id":"levelo_inurba_marseille","lat":43.30536,"lon":5.38431,"is_reserved":false,"is_disabled":false,"rental_uris":{"android":"levelo://app?vid=ee93d6d5-5d21-466a-964c-31769f078e44","ios":"levelo://app?vid=ee93d6d5-5d21-466a-964c-31769f078e44"},"vehicle_type_id":"4","last_reported":1692306360,"current_range_meters":0,"station_id":"ce4bgg92rcd13ifvqb30","pricing_plan_id":"free"},{"bike_id":"ae131689-f9a9-4853-9d52-e798408005ae","system_id":"levelo_inurba_marseille","lat":43.30537,"lon":5.38432,"is_reserved":false,"is_disabled":false,"rental_uris":{"android":"levelo://app?vid=ae131689-f9a9-4853-9d52-e798408005ae","ios":"levelo://app?vid=ae131689-f9a9-4853-9d52-e798408005ae"},"vehicle_type_id":"4","last_reported":1692306360,"current_range_meters":4000,"station_id":"ce4bgg92rcd13ifvqb30","pricing_plan_id":"free"},{"bike_id":"cb505fc2-0811-40e6-af0a-c6f64ed5e43d","system_id":"levelo_inurba_marseille","lat":43.30536,"lon":5.38435,"is_reserved":false,"is_disabled":false,"rental_uris":{"android":"levelo://app?vid=cb505fc2-0811-40e6-af0a-c6f64ed5e43d","ios":"levelo://app?vid=cb505fc2-0811-40e6-af0a-c6f64ed5e43d"},"vehicle_type_id":"4","last_reported":1692306360,"current_range_meters":2400,"station_id":"ce4bgg92rcd13ifvqb30","pricing_plan_id":"free"},{"bike_id":"23529586-fe08-4d7f-8f82-5de25235c645","system_id":"levelo_inurba_marseille","lat":43.305364,"lon":5.384119,"is_reserved":false,"is_disabled":false,"rental_uris":{"android":"levelo://app?vid=23529586-fe08-4d7f-8f82-5de25235c645","ios":"levelo://app?vid=23529586-fe08-4d7f-8f82-5de25235c645"},"vehicle_type_id":"4","last_reported":1692306360,"current_range_meters":23600,"station_id":"ce4bgg92rcd13ifvqb30","pricing_plan_id":"free"},{"bike_id":"9870f891-344a-4a5e-beee-e6e95e3609de","system_id":"levelo_inurba_marseille","lat":43.305364,"lon":5.384119,"is_reserved":false,"is_disabled":false,"rental_uris":{"android":"levelo://app?vid=9870f891-344a-4a5e-beee-e6e95e3609de","ios":"levelo://app?vid=9870f891-344a-4a5e-beee-e6e95e3609de"},"vehicle_type_id":"4","last_reported":1692306360,"current_range_meters":26400,"station_id":"ce4bgg92rcd13ifvqb30","pricing_plan_id":"free"},{"bike_id":"d2afe736-b706-4c1c-ac48-517d0f070897","system_id":"levelo_inurba_marseille","lat":43.311722,"lon":5.387247,"is_reserved":false,"is_disabled":false,"rental_uris":{"android":"levelo://app?vid=d2afe736-b706-4c1c-ac48-517d0f070897","ios":"levelo://app?vid=d2afe736-b706-4c1c-ac48-517d0f070897"},"vehicle_type_id":"4","last_reported":1692306360,"current_range_meters":15200,"station_id":"ce4bgv12rcd13ifvqcp0","pricing_plan_id":"free"},{"bike_id":"0973c2d2-aba4-4629-b0d3-070e26968a0b","system_id":"levelo_inurba_marseille","lat":43.299243,"lon":5.37481,"is_reserved":false,"is_disabled":false,"rental_uris":{"android":"levelo://app?vid=0973c2d2-aba4-4629-b0d3-070e26968a0b","ios":"levelo://app?vid=0973c2d2-aba4-4629-b0d3-070e26968a0b"},"vehicle_type_id":"4","last_reported":1692306360,"current_range_meters":8400,"station_id":"ce4bgjh2rcd13ifvqbg0","pricing_plan_id":"free"},{"bike_id":"bf1af64b-15ab-4964-913f-a38b47d1ac1b","system_id":"levelo_inurba_marseille","lat":43.311722,"lon":5.387247,"is_reserved":false,"is_disabled":false,"rental_uris":{"android":"levelo://app?vid=bf1af64b-15ab-4964-913f-a38b47d1ac1b","ios":"levelo://app?vid=bf1af64b-15ab-4964-913f-a38b47d1ac1b"},"vehicle_type_id":"4","last_reported":1692306360,"current_range_meters":14800,"station_id":"ce4bgv12rcd13ifvqcp0","pricing_plan_id":"free"},{"bike_id":"2bc33e88-1f92-44a6-9cd2-0c69180c5f54","system_id":"levelo_inurba_marseille","lat":43.311722,"lon":5.387247,"is_reserved":false,"is_disabled":false,"rental_uris":{"android":"levelo://app?vid=2bc33e88-1f92-44a6-9cd2-0c69180c5f54","ios":"levelo://app?vid=2bc33e88-1f92-44a6-9cd2-0c69180c5f54"},"vehicle_type_id":"4","last_reported":1692306360,"current_range_meters":16000,"station_id":"ce4bgv12rcd13ifvqcp0","pricing_plan_id":"free"},{"bike_id":"c6836292-efd6-462a-b8f9-ba5dd78dde20","system_id":"levelo_inurba_marseille","lat":43.311722,"lon":5.387247,"is_reserved":false,"is_disabled":false,"rental_uris":{"android":"levelo://app?vid=c6836292-efd6-462a-b8f9-ba5dd78dde20","ios":"levelo://app?vid=c6836292-efd6-462a-b8f9-ba5dd78dde20"},"vehicle_type_id":"4","last_reported":1692306360,"current_range_meters":5200,"station_id":"ce4bgv12rcd13ifvqcp0","pricing_plan_id":"free"},{"bike_id":"c509a2d5-facc-47f1-8f83-710ff6d57b8a","system_id":"levelo_inurba_marseille","lat":43.31171,"lon":5.38718,"is_reserved":false,"is_disabled":false,"rental_uris":{"android":"levelo://app?vid=c509a2d5-facc-47f1-8f83-710ff6d57b8a","ios":"levelo://app?vid=c509a2d5-facc-47f1-8f83-710ff6d57b8a"},"vehicle_type_id":"4","last_reported":1692306360,"current_range_meters":29600,"station_id":"ce4bgv12rcd13ifvqcp0","pricing_plan_id":"free"},{"bike_id":"4b0f69a5-3597-4e7f-bdeb-a711a2bf1508","system_id":"levelo_inurba_marseille","lat":43.311722,"lon":5.387247,"is_reserved":false,"is_disabled":false,"rental_uris":{"android":"levelo://app?vid=4b0f69a5-3597-4e7f-bdeb-a711a2bf1508","ios":"levelo://app?vid=4b0f69a5-3597-4e7f-bdeb-a711a2bf1508"},"vehicle_type_id":"4","last_reported":1692306360,"current_range_meters":7600,"station_id":"ce4bgv12rcd13ifvqcp0","pricing_plan_id":"free"},{"bike_id":"c4e9721d-460b-4bd9-8d1e-910a64307497","system_id":"levelo_inurba_marseille","lat":43.311722,"lon":5.387247,"is_reserved":false,"is_disabled":false,"rental_uris":{"android":"levelo://app?vid=c4e9721d-460b-4bd9-8d1e-910a64307497","ios":"levelo://app?vid=c4e9721d-460b-4bd9-8d1e-910a64307497"},"vehicle_type_id":"4","last_reported":1692306360,"current_range_meters":10000,"station_id":"ce4bgv12rcd13ifvqcp0","pricing_plan_id":"free"},{"bike_id":"4d490e2d-da3e-4705-8b9c-e66060d2b66c","system_id":"levelo_inurba_marseille","lat":43.31172,"lon":5.38719,"is_reserved":false,"is_disabled":false,"rental_uris":{"android":"levelo://app?vid=4d490e2d-da3e-4705-8b9c-e66060d2b66c","ios":"levelo://app?vid=4d490e2d-da3e-4705-8b9c-e66060d2b66c"},"vehicle_type_id":"4","last_reported":1692306360,"current_range_meters":16400,"station_id":"ce4bgv12rcd13ifvqcp0","pricing_plan_id":"free"},{"bike_id":"53715568-c740-4ac7-b517-651e2914821c","system_id":"levelo_inurba_marseille","lat":43.31167,"lon":5.38719,"is_reserved":false,"is_disabled":false,"rental_uris":{"android":"levelo://app?vid=53715568-c740-4ac7-b517-651e2914821c","ios":"levelo://app?vid=53715568-c740-4ac7-b517-651e2914821c"},"vehicle_type_id":"4","last_reported":1692306360,"current_range_meters":4000,"station_id":"ce4bgv12rcd13ifvqcp0","pricing_plan_id":"free"},{"bike_id":"f79f9b9e-51c1-4755-94a1-bd31ffad7025","system_id":"levelo_inurba_marseille","lat":43.311722,"lon":5.387247,"is_reserved":false,"is_disabled":false,"rental_uris":{"android":"levelo://app?vid=f79f9b9e-51c1-4755-94a1-bd31ffad7025","ios":"levelo://app?vid=f79f9b9e-51c1-4755-94a1-bd31ffad7025"},"vehicle_type_id":"4","last_reported":1692306360,"current_range_meters":31200,"station_id":"ce4bgv12rcd13ifvqcp0","pricing_plan_id":"free"},{"bike_id":"6d18e455-8501-46f7-8d95-2086df1fa7de","system_id":"levelo_inurba_marseille","lat":43.311722,"lon":5.387247,"is_reserved":false,"is_disabled":false,"rental_uris":{"android":"levelo://app?vid=6d18e455-8501-46f7-8d95-2086df1fa7de","ios":"levelo://app?vid=6d18e455-8501-46f7-8d95-2086df1fa7de"},"vehicle_type_id":"4","last_reported":1692306360,"current_range_meters":0,"station_id":"ce4bgv12rcd13ifvqcp0","pricing_plan_id":"free"},{"bike_id":"1c270814-c471-43ba-9ee2-c1970af65df8","system_id":"levelo_inurba_marseille","lat":43.311722,"lon":5.387247,"is_reserved":false,"is_disabled":false,"rental_uris":{"android":"levelo://app?vid=1c270814-c471-43ba-9ee2-c1970af65df8","ios":"levelo://app?vid=1c270814-c471-43ba-9ee2-c1970af65df8"},"vehicle_type_id":"4","last_reported":1692306360,"current_range_meters":14400,"station_id":"ce4bgv12rcd13ifvqcp0","pricing_plan_id":"free"},{"bike_id":"e609e053-0381-4f8c-8c24-16c7fcab9a0d","system_id":"levelo_inurba_marseille","lat":43.311722,"lon":5.387247,"is_reserved":false,"is_disabled":false,"rental_uris":{"android":"levelo://app?vid=e609e053-0381-4f8c-8c24-16c7fcab9a0d","ios":"levelo://app?vid=e609e053-0381-4f8c-8c24-16c7fcab9a0d"},"vehicle_type_id":"4","last_reported":1692306360,"current_range_meters":26800,"station_id":"ce4bgv12rcd13ifvqcp0","pricing_plan_id":"free"},{"bike_id":"1eee4be6-d713-472b-8ca2-ba80f8172c0f","system_id":"levelo_inurba_marseille","lat":43.311722,"lon":5.387247,"is_reserved":false,"is_disabled":false,"rental_uris":{"android":"levelo://app?vid=1eee4be6-d713-472b-8ca2-ba80f8172c0f","ios":"levelo://app?vid=1eee4be6-d713-472b-8ca2-ba80f8172c0f"},"vehicle_type_id":"4","last_reported":1692306360,"current_range_meters":23200,"station_id":"ce4bgv12rcd13ifvqcp0","pricing_plan_id":"free"},{"bike_id":"15120a69-1dc0-488d-b5dc-3813b3f3db2b","system_id":"levelo_inurba_marseille","lat":43.32289,"lon":5.38262,"is_reserved":false,"is_disabled":false,"rental_uris":{"android":"levelo://app?vid=15120a69-1dc0-488d-b5dc-3813b3f3db2b","ios":"levelo://app?vid=15120a69-1dc0-488d-b5dc-3813b3f3db2b"},"vehicle_type_id":"4","last_reported":1692306360,"current_range_meters":6000,"station_id":"ce4bhr12rcd13ifvqhqg","pricing_plan_id":"free"},{"bike_id":"b9784bc4-a1f4-4e7b-a996-3746dcc4c656","system_id":"levelo_inurba_marseille","lat":43.322872,"lon":5.382756,"is_reserved":false,"is_disabled":false,"rental_uris":{"android":"levelo://app?vid=b9784bc4-a1f4-4e7b-a996-3746dcc4c656","ios":"levelo://app?vid=b9784bc4-a1f4-4e7b-a996-3746dcc4c656"},"vehicle_type_id":"4","last_reported":1692306360,"current_range_meters":18400,"station_id":"ce4bhr12rcd13ifvqhqg","pricing_plan_id":"free"},{"bike_id":"5f91fc7d-0833-4a7c-a0d8-21ec0ad5455a","system_id":"levelo_inurba_marseille","lat":43.32286,"lon":5.38269,"is_reserved":false,"is_disabled":false,"rental_uris":{"android":"levelo://app?vid=5f91fc7d-0833-4a7c-a0d8-21ec0ad5455a","ios":"levelo://app?vid=5f91fc7d-0833-4a7c-a0d8-21ec0ad5455a"},"vehicle_type_id":"4","last_reported":1692306360,"current_range_meters":29200,"station_id":"ce4bhr12rcd13ifvqhqg","pricing_plan_id":"free"},{"bike_id":"2655ed25-ff91-44e2-9350-639e39275cf7","system_id":"levelo_inurba_marseille","lat":43.32287,"lon":5.38268,"is_reserved":false,"is_disabled":false,"rental_uris":{"android":"levelo://app?vid=2655ed25-ff91-44e2-9350-639e39275cf7","ios":"levelo://app?vid=2655ed25-ff91-44e2-9350-639e39275cf7"},"vehicle_type_id":"4","last_reported":1692306360,"current_range_meters":30000,"station_id":"ce4bhr12rcd13ifvqhqg","pricing_plan_id":"free"},{"bike_id":"4ea834d1-267f-41ec-b789-6c09255ff5cc","system_id":"levelo_inurba_marseille","lat":43.32288,"lon":5.38269,"is_reserved":false,"is_disabled":false,"rental_uris":{"android":"levelo://app?vid=4ea834d1-267f-41ec-b789-6c09255ff5cc","ios":"levelo://app?vid=4ea834d1-267f-41ec-b789-6c09255ff5cc"},"vehicle_type_id":"4","last_reported":1692306360,"current_range_meters":28000,"station_id":"ce4bhr12rcd13ifvqhqg","pricing_plan_id":"free"},{"bike_id":"20066552-063e-4d3e-9e10-e0e8a6d2c838","system_id":"levelo_inurba_marseille","lat":43.32289,"lon":5.3827,"is_reserved":false,"is_disabled":false,"rental_uris":{"android":"levelo://app?vid=20066552-063e-4d3e-9e10-e0e8a6d2c838","ios":"levelo://app?vid=20066552-063e-4d3e-9e10-e0e8a6d2c838"},"vehicle_type_id":"4","last_reported":1692306360,"current_range_meters":10400,"station_id":"ce4bhr12rcd13ifvqhqg","pricing_plan_id":"free"},{"bike_id":"67c43f86-fcb6-41cc-8957-c0d7033c94b6","system_id":"levelo_inurba_marseille","lat":43.32289,"lon":5.38272,"is_reserved":false,"is_disabled":false,"rental_uris":{"android":"levelo://app?vid=67c43f86-fcb6-41cc-8957-c0d7033c94b6","ios":"levelo://app?vid=67c43f86-fcb6-41cc-8957-c0d7033c94b6"},"vehicle_type_id":"4","last_reported":1692306360,"current_range_meters":26400,"station_id":"ce4bhr12rcd13ifvqhqg","pricing_plan_id":"free"},{"bike_id":"5b5c8cae-b425-4976-9ba8-5ae205664d6b","system_id":"levelo_inurba_marseille","lat":43.322872,"lon":5.382756,"is_reserved":false,"is_disabled":false,"rental_uris":{"android":"levelo://app?vid=5b5c8cae-b425-4976-9ba8-5ae205664d6b","ios":"levelo://app?vid=5b5c8cae-b425-4976-9ba8-5ae205664d6b"},"vehicle_type_id":"4","last_reported":1692306360,"current_range_meters":27200,"station_id":"ce4bhr12rcd13ifvqhqg","pricing_plan_id":"free"},{"bike_id":"dae4f848-b0f8-4754-83f5-8feeef2d9437","system_id":"levelo_inurba_marseille","lat":43.3229,"lon":5.38273,"is_reserved":false,"is_disabled":false,"rental_uris":{"android":"levelo://app?vid=dae4f848-b0f8-4754-83f5-8feeef2d9437","ios":"levelo://app?vid=dae4f848-b0f8-4754-83f5-8feeef2d9437"},"vehicle_type_id":"4","last_reported":1692306360,"current_range_meters":21600,"station_id":"ce4bhr12rcd13ifvqhqg","pricing_plan_id":"free"},{"bike_id":"a1f7b084-f437-4e0c-8b20-334f54c48d59","system_id":"levelo_inurba_marseille","lat":43.322872,"lon":5.382756,"is_reserved":false,"is_disabled":false,"rental_uris":{"android":"levelo://app?vid=a1f7b084-f437-4e0c-8b20-334f54c48d59","ios":"levelo://app?vid=a1f7b084-f437-4e0c-8b20-334f54c48d59"},"vehicle_type_id":"4","last_reported":1692306360,"current_range_meters":26800,"station_id":"ce4bhr12rcd13ifvqhqg","pricing_plan_id":"free"},{"bike_id":"2b488fa5-6690-49f1-8674-7d2969f31eb4","system_id":"levelo_inurba_marseille","lat":43.322872,"lon":5.382756,"is_reserved":false,"is_disabled":false,"rental_uris":{"android":"levelo://app?vid=2b488fa5-6690-49f1-8674-7d2969f31eb4","ios":"levelo://app?vid=2b488fa5-6690-49f1-8674-7d2969f31eb4"},"vehicle_type_id":"4","last_reported":1692306360,"current_range_meters":20400,"station_id":"ce4bhr12rcd13ifvqhqg","pricing_plan_id":"free"},{"bike_id":"673200d6-9c00-4797-bd65-06254571f6fe","system_id":"levelo_inurba_marseille","lat":43.322872,"lon":5.382756,"is_reserved":false,"is_disabled":false,"rental_uris":{"android":"levelo://app?vid=673200d6-9c00-4797-bd65-06254571f6fe","ios":"levelo://app?vid=673200d6-9c00-4797-bd65-06254571f6fe"},"vehicle_type_id":"4","last_reported":1692306360,"current_range_meters":31200,"station_id":"ce4bhr12rcd13ifvqhqg","pricing_plan_id":"free"},{"bike_id":"2cacf4ba-30f0-4f40-92af-cee799fe4c0c","system_id":"levelo_inurba_marseille","lat":43.32819,"lon":5.36671,"is_reserved":false,"is_disabled":false,"rental_uris":{"android":"levelo://app?vid=2cacf4ba-30f0-4f40-92af-cee799fe4c0c","ios":"levelo://app?vid=2cacf4ba-30f0-4f40-92af-cee799fe4c0c"},"vehicle_type_id":"4","last_reported":1692306360,"current_range_meters":21600,"station_id":"ce4bhs92rcd13ifvqi0g","pricing_plan_id":"free"},{"bike_id":"c84822bd-f81b-4f6c-9edf-3a63395bc23a","system_id":"levelo_inurba_marseille","lat":43.32822,"lon":5.36683,"is_reserved":false,"is_disabled":false,"rental_uris":{"android":"levelo://app?vid=c84822bd-f81b-4f6c-9edf-3a63395bc23a","ios":"levelo://app?vid=c84822bd-f81b-4f6c-9edf-3a63395bc23a"},"vehicle_type_id":"4","last_reported":1692306360,"current_range_meters":10000,"station_id":"ce4bhs92rcd13ifvqi0g","pricing_plan_id":"free"},{"bike_id":"3939665d-1aff-4356-9613-1016666cc1ac","system_id":"levelo_inurba_marseille","lat":43.328371,"lon":5.366909,"is_reserved":false,"is_disabled":false,"rental_uris":{"android":"levelo://app?vid=3939665d-1aff-4356-9613-1016666cc1ac","ios":"levelo://app?vid=3939665d-1aff-4356-9613-1016666cc1ac"},"vehicle_type_id":"4","last_reported":1692306360,"current_range_meters":23200,"station_id":"ce4bhs92rcd13ifvqi0g","pricing_plan_id":"free"},{"bike_id":"97698a41-4d72-4778-ae6b-5ff60322f081","system_id":"levelo_inurba_marseille","lat":43.32823,"lon":5.3668,"is_reserved":false,"is_disabled":false,"rental_uris":{"android":"levelo://app?vid=97698a41-4d72-4778-ae6b-5ff60322f081","ios":"levelo://app?vid=97698a41-4d72-4778-ae6b-5ff60322f081"},"vehicle_type_id":"4","last_reported":1692306360,"current_range_meters":16000,"station_id":"ce4bhs92rcd13ifvqi0g","pricing_plan_id":"free"},{"bike_id":"4ed96fad-2e51-49a2-879d-e8c05ef80263","system_id":"levelo_inurba_marseille","lat":43.328371,"lon":5.366909,"is_reserved":false,"is_disabled":false,"rental_uris":{"android":"levelo://app?vid=4ed96fad-2e51-49a2-879d-e8c05ef80263","ios":"levelo://app?vid=4ed96fad-2e51-49a2-879d-e8c05ef80263"},"vehicle_type_id":"4","last_reported":1692306360,"current_range_meters":9200,"station_id":"ce4bhs92rcd13ifvqi0g","pricing_plan_id":"free"},{"bike_id":"3dc8ddfd-e386-4774-938c-dc3a7b25274a","system_id":"levelo_inurba_marseille","lat":43.32826,"lon":5.36679,"is_reserved":false,"is_disabled":false,"rental_uris":{"android":"levelo://app?vid=3dc8ddfd-e386-4774-938c-dc3a7b25274a","ios":"levelo://app?vid=3dc8ddfd-e386-4774-938c-dc3a7b25274a"},"vehicle_type_id":"4","last_reported":1692306360,"current_range_meters":12000,"station_id":"ce4bhs92rcd13ifvqi0g","pricing_plan_id":"free"},{"bike_id":"54004dd5-a87c-4c2d-aec9-93cf55b6de7f","system_id":"levelo_inurba_marseille","lat":43.32829,"lon":5.36679,"is_reserved":false,"is_disabled":false,"rental_uris":{"android":"levelo://app?vid=54004dd5-a87c-4c2d-aec9-93cf55b6de7f","ios":"levelo://app?vid=54004dd5-a87c-4c2d-aec9-93cf55b6de7f"},"vehicle_type_id":"4","last_reported":1692306360,"current_range_meters":15600,"station_id":"ce4bhs92rcd13ifvqi0g","pricing_plan_id":"free"},{"bike_id":"5f8a6ca0-5dfe-4c06-929a-c1030bd48d99","system_id":"levelo_inurba_marseille","lat":43.32837,"lon":5.36683,"is_reserved":false,"is_disabled":false,"rental_uris":{"android":"levelo://app?vid=5f8a6ca0-5dfe-4c06-929a-c1030bd48d99","ios":"levelo://app?vid=5f8a6ca0-5dfe-4c06-929a-c1030bd48d99"},"vehicle_type_id":"4","last_reported":1692306360,"current_range_meters":9200,"station_id":"ce4bhs92rcd13ifvqi0g","pricing_plan_id":"free"},{"bike_id":"dd789220-e7b5-42c1-b9dc-dc4243148021","system_id":"levelo_inurba_marseille","lat":43.297163,"lon":5.365866,"is_reserved":false,"is_disabled":false,"rental_uris":{"android":"levelo://app?vid=dd789220-e7b5-42c1-b9dc-dc4243148021","ios":"levelo://app?vid=dd789220-e7b5-42c1-b9dc-dc4243148021"},"vehicle_type_id":"4","last_reported":1692306360,"current_range_meters":31200,"station_id":"ce4bgn12rcd13ifvqbt0","pricing_plan_id":"free"},{"bike_id":"e053956b-27b1-4581-a5d8-8c500d97b404","system_id":"levelo_inurba_marseille","lat":43.29702,"lon":5.36618,"is_reserved":false,"is_disabled":false,"rental_uris":{"android":"levelo://app?vid=e053956b-27b1-4581-a5d8-8c500d97b404","ios":"levelo://app?vid=e053956b-27b1-4581-a5d8-8c500d97b404"},"vehicle_type_id":"4","last_reported":1692306360,"current_range_meters":0,"station_id":"ce4bgn12rcd13ifvqbt0","pricing_plan_id":"free"},{"bike_id":"29ff98ec-738a-432a-8f53-ebf226097b6f","system_id":"levelo_inurba_marseille","lat":43.29701,"lon":5.36618,"is_reserved":false,"is_disabled":false,"rental_uris":{"android":"levelo://app?vid=29ff98ec-738a-432a-8f53-ebf226097b6f","ios":"levelo://app?vid=29ff98ec-738a-432a-8f53-ebf226097b6f"},"vehicle_type_id":"4","last_reported":1692306360,"current_range_meters":0,"station_id":"ce4bgn12rcd13ifvqbt0","pricing_plan_id":"free"},{"bike_id":"4556d66c-b9a6-4e2d-88cf-d6654220691c","system_id":"levelo_inurba_marseille","lat":43.2968,"lon":5.37291,"is_reserved":false,"is_disabled":false,"rental_uris":{"android":"levelo://app?vid=4556d66c-b9a6-4e2d-88cf-d6654220691c","ios":"levelo://app?vid=4556d66c-b9a6-4e2d-88cf-d6654220691c"},"vehicle_type_id":"4","last_reported":1692306360,"current_range_meters":14800,"station_id":"ce4bgk12rcd13ifvqbj0","pricing_plan_id":"free"},{"bike_id":"bb155e93-116e-494a-9911-2df351c7dae8","system_id":"levelo_inurba_marseille","lat":43.296131,"lon":5.370791,"is_reserved":false,"is_disabled":false,"rental_uris":{"android":"levelo://app?vid=bb155e93-116e-494a-9911-2df351c7dae8","ios":"levelo://app?vid=bb155e93-116e-494a-9911-2df351c7dae8"},"vehicle_type_id":"4","last_reported":1692306360,"current_range_meters":30000,"station_id":"ce4bgnh2rcd13ifvqc0g","pricing_plan_id":"free"},{"bike_id":"d3139180-8ba9-4c91-b6e4-8baae3c22113","system_id":"levelo_inurba_marseille","lat":43.296131,"lon":5.370773,"is_reserved":false,"is_disabled":false,"rental_uris":{"android":"levelo://app?vid=d3139180-8ba9-4c91-b6e4-8baae3c22113","ios":"levelo://app?vid=d3139180-8ba9-4c91-b6e4-8baae3c22113"},"vehicle_type_id":"4","last_reported":1692306360,"current_range_meters":31200,"station_id":"ce4bgnh2rcd13ifvqc0g","pricing_plan_id":"free"},{"bike_id":"afcbca9f-cff1-47af-9d88-4d0488f67f04","system_id":"levelo_inurba_marseille","lat":43.30949,"lon":5.39034,"is_reserved":false,"is_disabled":false,"rental_uris":{"android":"levelo://app?vid=afcbca9f-cff1-47af-9d88-4d0488f67f04","ios":"levelo://app?vid=afcbca9f-cff1-47af-9d88-4d0488f67f04"},"vehicle_type_id":"4","last_reported":1692306360,"current_range_meters":19200,"station_id":"ce4bgup2rcd13ifvqco0","pricing_plan_id":"free"},{"bike_id":"6591cbb4-71a2-4fe6-adeb-303a8eb08819","system_id":"levelo_inurba_marseille","lat":43.299028,"lon":5.381509,"is_reserved":false,"is_disabled":false,"rental_uris":{"android":"levelo://app?vid=6591cbb4-71a2-4fe6-adeb-303a8eb08819","ios":"levelo://app?vid=6591cbb4-71a2-4fe6-adeb-303a8eb08819"},"vehicle_type_id":"4","last_reported":1692306360,"current_range_meters":3600,"station_id":"ce4bgj12rcd13ifvqbc0","pricing_plan_id":"free"},{"bike_id":"d72084d2-ee5c-434c-90ac-2353d8fd43c2","system_id":"levelo_inurba_marseille","lat":43.30948,"lon":5.39038,"is_reserved":false,"is_disabled":false,"rental_uris":{"android":"levelo://app?vid=d72084d2-ee5c-434c-90ac-2353d8fd43c2","ios":"levelo://app?vid=d72084d2-ee5c-434c-90ac-2353d8fd43c2"},"vehicle_type_id":"4","last_reported":1692306360,"current_range_meters":0,"station_id":"ce4bgup2rcd13ifvqco0","pricing_plan_id":"free"},{"bike_id":"91545523-529b-44c7-a404-4fa2f074cd7b","system_id":"levelo_inurba_marseille","lat":43.30948,"lon":5.39039,"is_reserved":false,"is_disabled":false,"rental_uris":{"android":"levelo://app?vid=91545523-529b-44c7-a404-4fa2f074cd7b","ios":"levelo://app?vid=91545523-529b-44c7-a404-4fa2f074cd7b"},"vehicle_type_id":"4","last_reported":1692306360,"current_range_meters":28800,"station_id":"ce4bgup2rcd13ifvqco0","pricing_plan_id":"free"},{"bike_id":"d0e67556-aac7-4b3c-86e3-1e0c46cdcfba","system_id":"levelo_inurba_marseille","lat":43.30946,"lon":5.3904,"is_reserved":false,"is_disabled":false,"rental_uris":{"android":"levelo://app?vid=d0e67556-aac7-4b3c-86e3-1e0c46cdcfba","ios":"levelo://app?vid=d0e67556-aac7-4b3c-86e3-1e0c46cdcfba"},"vehicle_type_id":"4","last_reported":1692306360,"current_range_meters":800,"station_id":"ce4bgup2rcd13ifvqco0","pricing_plan_id":"free"},{"bike_id":"10c67472-bf78-4d56-8839-a3934e6cc335","system_id":"levelo_inurba_marseille","lat":43.30956,"lon":5.39047,"is_reserved":false,"is_disabled":false,"rental_uris":{"android":"levelo://app?vid=10c67472-bf78-4d56-8839-a3934e6cc335","ios":"levelo://app?vid=10c67472-bf78-4d56-8839-a3934e6cc335"},"vehicle_type_id":"4","last_reported":1692306360,"current_range_meters":6400,"station_id":"ce4bgup2rcd13ifvqco0","pricing_plan_id":"free"},{"bike_id":"7a7903f9-d1d4-4102-8c56-158a54e78144","system_id":"levelo_inurba_marseille","lat":43.309589,"lon":5.390258,"is_reserved":false,"is_disabled":false,"rental_uris":{"android":"levelo://app?vid=7a7903f9-d1d4-4102-8c56-158a54e78144","ios":"levelo://app?vid=7a7903f9-d1d4-4102-8c56-158a54e78144"},"vehicle_type_id":"4","last_reported":1692306360,"current_range_meters":18400,"station_id":"ce4bgup2rcd13ifvqco0","pricing_plan_id":"free"},{"bike_id":"b9a855a0-d9d8-4782-943a-840cbcde0bb8","system_id":"levelo_inurba_marseille","lat":43.31751,"lon":5.39011,"is_reserved":false,"is_disabled":false,"rental_uris":{"android":"levelo://app?vid=b9a855a0-d9d8-4782-943a-840cbcde0bb8","ios":"levelo://app?vid=b9a855a0-d9d8-4782-943a-840cbcde0bb8"},"vehicle_type_id":"4","last_reported":1692306360,"current_range_meters":16800,"station_id":"ce4bhqp2rcd13ifvqhng","pricing_plan_id":"free"},{"bike_id":"9432fbfc-3a8c-45d4-9c00-953f792f4463","system_id":"levelo_inurba_marseille","lat":43.31758,"lon":5.39016,"is_reserved":false,"is_disabled":false,"rental_uris":{"android":"levelo://app?vid=9432fbfc-3a8c-45d4-9c00-953f792f4463","ios":"levelo://app?vid=9432fbfc-3a8c-45d4-9c00-953f792f4463"},"vehicle_type_id":"4","last_reported":1692306360,"current_range_meters":6800,"station_id":"ce4bhqp2rcd13ifvqhng","pricing_plan_id":"free"},{"bike_id":"1ff2de43-09ec-4d92-b75e-08b007be86b2","system_id":"levelo_inurba_marseille","lat":43.317557,"lon":5.390173,"is_reserved":false,"is_disabled":false,"rental_uris":{"android":"levelo://app?vid=1ff2de43-09ec-4d92-b75e-08b007be86b2","ios":"levelo://app?vid=1ff2de43-09ec-4d92-b75e-08b007be86b2"},"vehicle_type_id":"4","last_reported":1692306360,"current_range_meters":31200,"station_id":"ce4bhqp2rcd13ifvqhng","pricing_plan_id":"free"},{"bike_id":"c5311833-ec9c-40c9-a99f-ca7d4b35c950","system_id":"levelo_inurba_marseille","lat":43.29806,"lon":5.38092,"is_reserved":false,"is_disabled":false,"rental_uris":{"android":"levelo://app?vid=c5311833-ec9c-40c9-a99f-ca7d4b35c950","ios":"levelo://app?vid=c5311833-ec9c-40c9-a99f-ca7d4b35c950"},"vehicle_type_id":"4","last_reported":1692306360,"current_range_meters":8000,"station_id":"ce4bgip2rcd13ifvqbb0","pricing_plan_id":"free"},{"bike_id":"ff9f87a0-cf62-422f-ad32-f8fc47c82525","system_id":"levelo_inurba_marseille","lat":43.29799,"lon":5.38081,"is_reserved":false,"is_disabled":false,"rental_uris":{"android":"levelo://app?vid=ff9f87a0-cf62-422f-ad32-f8fc47c82525","ios":"levelo://app?vid=ff9f87a0-cf62-422f-ad32-f8fc47c82525"},"vehicle_type_id":"4","last_reported":1692306360,"current_range_meters":24400,"station_id":"ce4bgip2rcd13ifvqbb0","pricing_plan_id":"free"},{"bike_id":"0548bfe3-d4df-4333-99e6-e379849ced26","system_id":"levelo_inurba_marseille","lat":43.29799,"lon":5.38095,"is_reserved":false,"is_disabled":false,"rental_uris":{"android":"levelo://app?vid=0548bfe3-d4df-4333-99e6-e379849ced26","ios":"levelo://app?vid=0548bfe3-d4df-4333-99e6-e379849ced26"},"vehicle_type_id":"4","last_reported":1692306360,"current_range_meters":800,"station_id":"ce4bgip2rcd13ifvqbb0","pricing_plan_id":"free"},{"bike_id":"a4df99ce-0488-49dd-a888-94686f562e88","system_id":"levelo_inurba_marseille","lat":43.295748,"lon":5.37522,"is_reserved":false,"is_disabled":false,"rental_uris":{"android":"levelo://app?vid=a4df99ce-0488-49dd-a888-94686f562e88","ios":"levelo://app?vid=a4df99ce-0488-49dd-a888-94686f562e88"},"vehicle_type_id":"4","last_reported":1692306360,"current_range_meters":29600,"station_id":"ce4bgh92rcd13ifvqb50","pricing_plan_id":"free"},{"bike_id":"e1727e66-30cf-4bf7-8661-85cdc61103da","system_id":"levelo_inurba_marseille","lat":43.30432,"lon":5.38891,"is_reserved":false,"is_disabled":false,"rental_uris":{"android":"levelo://app?vid=e1727e66-30cf-4bf7-8661-85cdc61103da","ios":"levelo://app?vid=e1727e66-30cf-4bf7-8661-85cdc61103da"},"vehicle_type_id":"4","last_reported":1692306360,"current_range_meters":26000,"station_id":"ce4bgk12rcd13ifvqbi0","pricing_plan_id":"free"},{"bike_id":"1c36667a-a771-4a02-964e-b56378d87d33","system_id":"levelo_inurba_marseille","lat":43.304274,"lon":5.388873,"is_reserved":false,"is_disabled":false,"rental_uris":{"android":"levelo://app?vid=1c36667a-a771-4a02-964e-b56378d87d33","ios":"levelo://app?vid=1c36667a-a771-4a02-964e-b56378d87d33"},"vehicle_type_id":"4","last_reported":1692306360,"current_range_meters":24000,"station_id":"ce4bgk12rcd13ifvqbi0","pricing_plan_id":"free"},{"bike_id":"92397e3f-0a52-4a8e-95a7-c68ac4d0544b","system_id":"levelo_inurba_marseille","lat":43.30424,"lon":5.3889,"is_reserved":false,"is_disabled":false,"rental_uris":{"android":"levelo://app?vid=92397e3f-0a52-4a8e-95a7-c68ac4d0544b","ios":"levelo://app?vid=92397e3f-0a52-4a8e-95a7-c68ac4d0544b"},"vehicle_type_id":"4","last_reported":1692306360,"current_range_meters":3600,"station_id":"ce4bgk12rcd13ifvqbi0","pricing_plan_id":"free"},{"bike_id":"df198b03-bc53-48fa-ab38-b6eac4ace5ee","system_id":"levelo_inurba_marseille","lat":43.304278,"lon":5.388868,"is_reserved":false,"is_disabled":false,"rental_uris":{"android":"levelo://app?vid=df198b03-bc53-48fa-ab38-b6eac4ace5ee","ios":"levelo://app?vid=df198b03-bc53-48fa-ab38-b6eac4ace5ee"},"vehicle_type_id":"4","last_reported":1692306360,"current_range_meters":1200,"station_id":"ce4bgk12rcd13ifvqbi0","pricing_plan_id":"free"},{"bike_id":"2d7610d9-7695-4c95-b246-458910fe96d9","system_id":"levelo_inurba_marseille","lat":43.304278,"lon":5.388868,"is_reserved":false,"is_disabled":false,"rental_uris":{"android":"levelo://app?vid=2d7610d9-7695-4c95-b246-458910fe96d9","ios":"levelo://app?vid=2d7610d9-7695-4c95-b246-458910fe96d9"},"vehicle_type_id":"4","last_reported":1692306360,"current_range_meters":18800,"station_id":"ce4bgk12rcd13ifvqbi0","pricing_plan_id":"free"},{"bike_id":"e20a93da-5f5d-4b43-bd1a-ce7c6b9cee28","system_id":"levelo_inurba_marseille","lat":43.30426,"lon":5.38896,"is_reserved":false,"is_disabled":false,"rental_uris":{"android":"levelo://app?vid=e20a93da-5f5d-4b43-bd1a-ce7c6b9cee28","ios":"levelo://app?vid=e20a93da-5f5d-4b43-bd1a-ce7c6b9cee28"},"vehicle_type_id":"4","last_reported":1692306360,"current_range_meters":1600,"station_id":"ce4bgk12rcd13ifvqbi0","pricing_plan_id":"free"},{"bike_id":"54085584-a38f-4661-ac56-9aa66033c779","system_id":"levelo_inurba_marseille","lat":43.30421,"lon":5.38894,"is_reserved":false,"is_disabled":false,"rental_uris":{"android":"levelo://app?vid=54085584-a38f-4661-ac56-9aa66033c779","ios":"levelo://app?vid=54085584-a38f-4661-ac56-9aa66033c779"},"vehicle_type_id":"4","last_reported":1692306360,"current_range_meters":15200,"station_id":"ce4bgk12rcd13ifvqbi0","pricing_plan_id":"free"},{"bike_id":"c4401c65-c33c-4f32-8288-767d69f9ec4c","system_id":"levelo_inurba_marseille","lat":43.304278,"lon":5.388868,"is_reserved":false,"is_disabled":false,"rental_uris":{"android":"levelo://app?vid=c4401c65-c33c-4f32-8288-767d69f9ec4c","ios":"levelo://app?vid=c4401c65-c33c-4f32-8288-767d69f9ec4c"},"vehicle_type_id":"4","last_reported":1692306360,"current_range_meters":0,"station_id":"ce4bgk12rcd13ifvqbi0","pricing_plan_id":"free"},{"bike_id":"231c5378-aaa9-4acb-9139-1afcfd8d3ad7","system_id":"levelo_inurba_marseille","lat":43.295279,"lon":5.375048,"is_reserved":false,"is_disabled":false,"rental_uris":{"android":"levelo://app?vid=231c5378-aaa9-4acb-9139-1afcfd8d3ad7","ios":"levelo://app?vid=231c5378-aaa9-4acb-9139-1afcfd8d3ad7"},"vehicle_type_id":"4","last_reported":1692306360,"current_range_meters":10000,"station_id":"ce4bgkp2rcd13ifvqbmg","pricing_plan_id":"free"},{"bike_id":"473e5066-36cf-4f16-ae0e-7e5aa769d2eb","system_id":"levelo_inurba_marseille","lat":43.299717,"lon":5.384845,"is_reserved":false,"is_disabled":false,"rental_uris":{"android":"levelo://app?vid=473e5066-36cf-4f16-ae0e-7e5aa769d2eb","ios":"levelo://app?vid=473e5066-36cf-4f16-ae0e-7e5aa769d2eb"},"vehicle_type_id":"4","last_reported":1692306360,"current_range_meters":400,"station_id":"ce4bgj92rcd13ifvqbd0","pricing_plan_id":"free"},{"bike_id":"41211202-068a-447a-a6f2-53fd34d5e66b","system_id":"levelo_inurba_marseille","lat":43.30108,"lon":5.38763,"is_reserved":false,"is_disabled":false,"rental_uris":{"android":"levelo://app?vid=41211202-068a-447a-a6f2-53fd34d5e66b","ios":"levelo://app?vid=41211202-068a-447a-a6f2-53fd34d5e66b"},"vehicle_type_id":"4","last_reported":1692306360,"current_range_meters":2400,"station_id":"","pricing_plan_id":"free"},{"bike_id":"493070c9-f70b-4b47-b30c-92320f3520ef","system_id":"levelo_inurba_marseille","lat":43.32363,"lon":5.38879,"is_reserved":false,"is_disabled":false,"rental_uris":{"android":"levelo://app?vid=493070c9-f70b-4b47-b30c-92320f3520ef","ios":"levelo://app?vid=493070c9-f70b-4b47-b30c-92320f3520ef"},"vehicle_type_id":"4","last_reported":1692306360,"current_range_meters":4800,"station_id":"ce4bhqp2rcd13ifvqhog","pricing_plan_id":"free"},{"bike_id":"450b6384-3b45-4695-a86b-848539f6da31","system_id":"levelo_inurba_marseille","lat":43.32362,"lon":5.3888,"is_reserved":false,"is_disabled":false,"rental_uris":{"android":"levelo://app?vid=450b6384-3b45-4695-a86b-848539f6da31","ios":"levelo://app?vid=450b6384-3b45-4695-a86b-848539f6da31"},"vehicle_type_id":"4","last_reported":1692306360,"current_range_meters":17200,"station_id":"ce4bhqp2rcd13ifvqhog","pricing_plan_id":"free"},{"bike_id":"32a579f4-a77e-4089-9137-3fc22c8afa17","system_id":"levelo_inurba_marseille","lat":43.32364,"lon":5.38879,"is_reserved":false,"is_disabled":false,"rental_uris":{"android":"levelo://app?vid=32a579f4-a77e-4089-9137-3fc22c8afa17","ios":"levelo://app?vid=32a579f4-a77e-4089-9137-3fc22c8afa17"},"vehicle_type_id":"4","last_reported":1692306360,"current_range_meters":24800,"station_id":"ce4bhqp2rcd13ifvqhog","pricing_plan_id":"free"},{"bike_id":"55f08f4d-333e-4077-9882-16e72e12ddbf","system_id":"levelo_inurba_marseille","lat":43.32367,"lon":5.38877,"is_reserved":false,"is_disabled":false,"rental_uris":{"android":"levelo://app?vid=55f08f4d-333e-4077-9882-16e72e12ddbf","ios":"levelo://app?vid=55f08f4d-333e-4077-9882-16e72e12ddbf"},"vehicle_type_id":"4","last_reported":1692306360,"current_range_meters":13600,"station_id":"ce4bhqp2rcd13ifvqhog","pricing_plan_id":"free"},{"bike_id":"63396931-3c86-400b-9cfa-e42c81141461","system_id":"levelo_inurba_marseille","lat":43.3236,"lon":5.38885,"is_reserved":false,"is_disabled":false,"rental_uris":{"android":"levelo://app?vid=63396931-3c86-400b-9cfa-e42c81141461","ios":"levelo://app?vid=63396931-3c86-400b-9cfa-e42c81141461"},"vehicle_type_id":"4","last_reported":1692306360,"current_range_meters":18400,"station_id":"ce4bhqp2rcd13ifvqhog","pricing_plan_id":"free"},{"bike_id":"1b5c2691-bd33-46db-b85d-232fc0684773","system_id":"levelo_inurba_marseille","lat":43.32365,"lon":5.38881,"is_reserved":false,"is_disabled":false,"rental_uris":{"android":"levelo://app?vid=1b5c2691-bd33-46db-b85d-232fc0684773","ios":"levelo://app?vid=1b5c2691-bd33-46db-b85d-232fc0684773"},"vehicle_type_id":"4","last_reported":1692306360,"current_range_meters":26800,"station_id":"ce4bhqp2rcd13ifvqhog","pricing_plan_id":"free"},{"bike_id":"6b6cba89-d2b8-44bb-8454-5df08cf65f67","system_id":"levelo_inurba_marseille","lat":43.32368,"lon":5.38879,"is_reserved":false,"is_disabled":false,"rental_uris":{"android":"levelo://app?vid=6b6cba89-d2b8-44bb-8454-5df08cf65f67","ios":"levelo://app?vid=6b6cba89-d2b8-44bb-8454-5df08cf65f67"},"vehicle_type_id":"4","last_reported":1692306360,"current_range_meters":21200,"station_id":"ce4bhqp2rcd13ifvqhog","pricing_plan_id":"free"},{"bike_id":"b8b09e11-edb3-4d3e-80b3-1d2534dcc898","system_id":"levelo_inurba_marseille","lat":43.32363,"lon":5.38884,"is_reserved":false,"is_disabled":false,"rental_uris":{"android":"levelo://app?vid=b8b09e11-edb3-4d3e-80b3-1d2534dcc898","ios":"levelo://app?vid=b8b09e11-edb3-4d3e-80b3-1d2534dcc898"},"vehicle_type_id":"4","last_reported":1692306360,"current_range_meters":21200,"station_id":"ce4bhqp2rcd13ifvqhog","pricing_plan_id":"free"},{"bike_id":"5deca036-ea7a-461b-9966-cca000531f2a","system_id":"levelo_inurba_marseille","lat":43.32367,"lon":5.388836,"is_reserved":false,"is_disabled":false,"rental_uris":{"android":"levelo://app?vid=5deca036-ea7a-461b-9966-cca000531f2a","ios":"levelo://app?vid=5deca036-ea7a-461b-9966-cca000531f2a"},"vehicle_type_id":"4","last_reported":1692306360,"current_range_meters":23600,"station_id":"ce4bhqp2rcd13ifvqhog","pricing_plan_id":"free"},{"bike_id":"cbffe489-c68c-4e68-b63d-cbf52cd3cc48","system_id":"levelo_inurba_marseille","lat":43.32367,"lon":5.388836,"is_reserved":false,"is_disabled":false,"rental_uris":{"android":"levelo://app?vid=cbffe489-c68c-4e68-b63d-cbf52cd3cc48","ios":"levelo://app?vid=cbffe489-c68c-4e68-b63d-cbf52cd3cc48"},"vehicle_type_id":"4","last_reported":1692306360,"current_range_meters":28800,"station_id":"ce4bhqp2rcd13ifvqhog","pricing_plan_id":"free"},{"bike_id":"111350f1-3818-488b-b79c-5d6b1f163a54","system_id":"levelo_inurba_marseille","lat":43.32367,"lon":5.388836,"is_reserved":false,"is_disabled":false,"rental_uris":{"android":"levelo://app?vid=111350f1-3818-488b-b79c-5d6b1f163a54","ios":"levelo://app?vid=111350f1-3818-488b-b79c-5d6b1f163a54"},"vehicle_type_id":"4","last_reported":1692306360,"current_range_meters":4000,"station_id":"ce4bhqp2rcd13ifvqhog","pricing_plan_id":"free"},{"bike_id":"810e5c4e-cfbd-4fb4-b6d8-02289cde4c80","system_id":"levelo_inurba_marseille","lat":43.32367,"lon":5.38887,"is_reserved":false,"is_disabled":false,"rental_uris":{"android":"levelo://app?vid=810e5c4e-cfbd-4fb4-b6d8-02289cde4c80","ios":"levelo://app?vid=810e5c4e-cfbd-4fb4-b6d8-02289cde4c80"},"vehicle_type_id":"4","last_reported":1692306360,"current_range_meters":21200,"station_id":"ce4bhqp2rcd13ifvqhog","pricing_plan_id":"free"},{"bike_id":"4314cd19-09e7-4af1-900a-88512d095e20","system_id":"levelo_inurba_marseille","lat":43.32382,"lon":5.38884,"is_reserved":false,"is_disabled":false,"rental_uris":{"android":"levelo://app?vid=4314cd19-09e7-4af1-900a-88512d095e20","ios":"levelo://app?vid=4314cd19-09e7-4af1-900a-88512d095e20"},"vehicle_type_id":"4","last_reported":1692306360,"current_range_meters":16000,"station_id":"ce4bhqp2rcd13ifvqhog","pricing_plan_id":"free"},{"bike_id":"38fef587-7cc5-4800-b069-87b8f296a10a","system_id":"levelo_inurba_marseille","lat":43.29292,"lon":5.37452,"is_reserved":false,"is_disabled":false,"rental_uris":{"android":"levelo://app?vid=38fef587-7cc5-4800-b069-87b8f296a10a","ios":"levelo://app?vid=38fef587-7cc5-4800-b069-87b8f296a10a"},"vehicle_type_id":"4","last_reported":1692306360,"current_range_meters":31200,"station_id":"ce4bgi12rcd13ifvqb70","pricing_plan_id":"free"},{"bike_id":"a124b46b-fc20-4bd4-9598-4e21a2361672","system_id":"levelo_inurba_marseille","lat":43.30294,"lon":5.39197,"is_reserved":false,"is_disabled":false,"rental_uris":{"android":"levelo://app?vid=a124b46b-fc20-4bd4-9598-4e21a2361672","ios":"levelo://app?vid=a124b46b-fc20-4bd4-9598-4e21a2361672"},"vehicle_type_id":"4","last_reported":1692306360,"current_range_meters":14000,"station_id":"ce4bgkh2rcd13ifvqbk0","pricing_plan_id":"free"},{"bike_id":"b644b098-d45b-4f26-bdc8-ce279da124ec","system_id":"levelo_inurba_marseille","lat":43.30298,"lon":5.39214,"is_reserved":false,"is_disabled":false,"rental_uris":{"android":"levelo://app?vid=b644b098-d45b-4f26-bdc8-ce279da124ec","ios":"levelo://app?vid=b644b098-d45b-4f26-bdc8-ce279da124ec"},"vehicle_type_id":"4","last_reported":1692306360,"current_range_meters":28000,"station_id":"ce4bgkh2rcd13ifvqbk0","pricing_plan_id":"free"},{"bike_id":"eaa81a31-5c12-4214-8fd0-3d17367c729a","system_id":"levelo_inurba_marseille","lat":43.30094,"lon":5.39073,"is_reserved":false,"is_disabled":false,"rental_uris":{"android":"levelo://app?vid=eaa81a31-5c12-4214-8fd0-3d17367c729a","ios":"levelo://app?vid=eaa81a31-5c12-4214-8fd0-3d17367c729a"},"vehicle_type_id":"4","last_reported":1692306360,"current_range_meters":16400,"station_id":"ce4bh192rcd13ifvqdb0","pricing_plan_id":"free"},{"bike_id":"5f68a5dd-0871-455e-a4bb-d7ff4c1a8150","system_id":"levelo_inurba_marseille","lat":43.30093,"lon":5.39076,"is_reserved":false,"is_disabled":false,"rental_uris":{"android":"levelo://app?vid=5f68a5dd-0871-455e-a4bb-d7ff4c1a8150","ios":"levelo://app?vid=5f68a5dd-0871-455e-a4bb-d7ff4c1a8150"},"vehicle_type_id":"4","last_reported":1692306360,"current_range_meters":19600,"station_id":"ce4bh192rcd13ifvqdb0","pricing_plan_id":"free"},{"bike_id":"364dbe8f-5562-4cfb-be6f-2b7db905929d","system_id":"levelo_inurba_marseille","lat":43.29875,"lon":5.38911,"is_reserved":false,"is_disabled":false,"rental_uris":{"android":"levelo://app?vid=364dbe8f-5562-4cfb-be6f-2b7db905929d","ios":"levelo://app?vid=364dbe8f-5562-4cfb-be6f-2b7db905929d"},"vehicle_type_id":"4","last_reported":1692306360,"current_range_meters":25200,"station_id":"ce4bh392rcd13ifvqdl0","pricing_plan_id":"free"},{"bike_id":"be68b347-4345-4ada-80be-5ed3af164036","system_id":"levelo_inurba_marseille","lat":43.3088,"lon":5.39644,"is_reserved":false,"is_disabled":false,"rental_uris":{"android":"levelo://app?vid=be68b347-4345-4ada-80be-5ed3af164036","ios":"levelo://app?vid=be68b347-4345-4ada-80be-5ed3af164036"},"vehicle_type_id":"4","last_reported":1692306360,"current_range_meters":4400,"station_id":"ce4bh012rcd13ifvqcv0","pricing_plan_id":"free"},{"bike_id":"0b137d7c-4cfd-41eb-93d6-5655ae031dd9","system_id":"levelo_inurba_marseille","lat":43.309038,"lon":5.396546,"is_reserved":false,"is_disabled":false,"rental_uris":{"android":"levelo://app?vid=0b137d7c-4cfd-41eb-93d6-5655ae031dd9","ios":"levelo://app?vid=0b137d7c-4cfd-41eb-93d6-5655ae031dd9"},"vehicle_type_id":"4","last_reported":1692306360,"current_range_meters":13600,"station_id":"ce4bh012rcd13ifvqcv0","pricing_plan_id":"free"},{"bike_id":"d5203350-2370-4271-9711-d8d9f05d2552","system_id":"levelo_inurba_marseille","lat":43.31323,"lon":5.39699,"is_reserved":false,"is_disabled":false,"rental_uris":{"android":"levelo://app?vid=d5203350-2370-4271-9711-d8d9f05d2552","ios":"levelo://app?vid=d5203350-2370-4271-9711-d8d9f05d2552"},"vehicle_type_id":"4","last_reported":1692306360,"current_range_meters":0,"station_id":"ce4bgvp2rcd13ifvqcu0","pricing_plan_id":"free"},{"bike_id":"1d7f73c4-b1b9-447e-9662-1d441f2f0f9f","system_id":"levelo_inurba_marseille","lat":43.29529,"lon":5.385581,"is_reserved":false,"is_disabled":false,"rental_uris":{"android":"levelo://app?vid=1d7f73c4-b1b9-447e-9662-1d441f2f0f9f","ios":"levelo://app?vid=1d7f73c4-b1b9-447e-9662-1d441f2f0f9f"},"vehicle_type_id":"4","last_reported":1692306360,"current_range_meters":21200,"station_id":"ce4bgih2rcd13ifvqba0","pricing_plan_id":"free"},{"bike_id":"8f2c5739-01de-44f6-a4cb-9c59d0f2e7ed","system_id":"levelo_inurba_marseille","lat":43.29529,"lon":5.385581,"is_reserved":false,"is_disabled":false,"rental_uris":{"android":"levelo://app?vid=8f2c5739-01de-44f6-a4cb-9c59d0f2e7ed","ios":"levelo://app?vid=8f2c5739-01de-44f6-a4cb-9c59d0f2e7ed"},"vehicle_type_id":"4","last_reported":1692306360,"current_range_meters":14400,"station_id":"ce4bgih2rcd13ifvqba0","pricing_plan_id":"free"},{"bike_id":"52fcff40-16a5-4ad4-b9e7-b0b75e99d204","system_id":"levelo_inurba_marseille","lat":43.29529,"lon":5.385581,"is_reserved":false,"is_disabled":false,"rental_uris":{"android":"levelo://app?vid=52fcff40-16a5-4ad4-b9e7-b0b75e99d204","ios":"levelo://app?vid=52fcff40-16a5-4ad4-b9e7-b0b75e99d204"},"vehicle_type_id":"4","last_reported":1692306360,"current_range_meters":8000,"station_id":"ce4bgih2rcd13ifvqba0","pricing_plan_id":"free"},{"bike_id":"509e0426-7d04-4361-ade8-75525536e29c","system_id":"levelo_inurba_marseille","lat":43.29529,"lon":5.385581,"is_reserved":false,"is_disabled":false,"rental_uris":{"android":"levelo://app?vid=509e0426-7d04-4361-ade8-75525536e29c","ios":"levelo://app?vid=509e0426-7d04-4361-ade8-75525536e29c"},"vehicle_type_id":"4","last_reported":1692306360,"current_range_meters":4800,"station_id":"ce4bgih2rcd13ifvqba0","pricing_plan_id":"free"},{"bike_id":"1b747a2e-cc8d-407a-aab9-890a32e331ef","system_id":"levelo_inurba_marseille","lat":43.29529,"lon":5.385581,"is_reserved":false,"is_disabled":false,"rental_uris":{"android":"levelo://app?vid=1b747a2e-cc8d-407a-aab9-890a32e331ef","ios":"levelo://app?vid=1b747a2e-cc8d-407a-aab9-890a32e331ef"},"vehicle_type_id":"4","last_reported":1692306360,"current_range_meters":29600,"station_id":"ce4bgih2rcd13ifvqba0","pricing_plan_id":"free"},{"bike_id":"ddaeb236-628b-4aab-931b-fd686ed3a715","system_id":"levelo_inurba_marseille","lat":43.29529,"lon":5.385581,"is_reserved":false,"is_disabled":false,"rental_uris":{"android":"levelo://app?vid=ddaeb236-628b-4aab-931b-fd686ed3a715","ios":"levelo://app?vid=ddaeb236-628b-4aab-931b-fd686ed3a715"},"vehicle_type_id":"4","last_reported":1692306360,"current_range_meters":10400,"station_id":"ce4bgih2rcd13ifvqba0","pricing_plan_id":"free"},{"bike_id":"4a1e82b0-ed12-43da-8447-97db9e67f104","system_id":"levelo_inurba_marseille","lat":43.290779,"lon":5.371482,"is_reserved":false,"is_disabled":false,"rental_uris":{"android":"levelo://app?vid=4a1e82b0-ed12-43da-8447-97db9e67f104","ios":"levelo://app?vid=4a1e82b0-ed12-43da-8447-97db9e67f104"},"vehicle_type_id":"4","last_reported":1692306360,"current_range_meters":28000,"station_id":"ce4bh5p2rcd13ifvqe4g","pricing_plan_id":"free"},{"bike_id":"b6951d84-dea0-4b67-a49d-7237178cd0dd","system_id":"levelo_inurba_marseille","lat":43.302008,"lon":5.394694,"is_reserved":false,"is_disabled":false,"rental_uris":{"android":"levelo://app?vid=b6951d84-dea0-4b67-a49d-7237178cd0dd","ios":"levelo://app?vid=b6951d84-dea0-4b67-a49d-7237178cd0dd"},"vehicle_type_id":"4","last_reported":1692306360,"current_range_meters":18800,"station_id":"ce4bh0p2rcd13ifvqd70","pricing_plan_id":"free"},{"bike_id":"a23e3d0f-bef5-40fd-a3d7-46f5923aaf3a","system_id":"levelo_inurba_marseille","lat":43.302008,"lon":5.394694,"is_reserved":false,"is_disabled":false,"rental_uris":{"android":"levelo://app?vid=a23e3d0f-bef5-40fd-a3d7-46f5923aaf3a","ios":"levelo://app?vid=a23e3d0f-bef5-40fd-a3d7-46f5923aaf3a"},"vehicle_type_id":"4","last_reported":1692306360,"current_range_meters":12800,"station_id":"ce4bh0p2rcd13ifvqd70","pricing_plan_id":"free"},{"bike_id":"b35d83d9-2aad-44f6-9c19-8e7f4bb10fbc","system_id":"levelo_inurba_marseille","lat":43.302008,"lon":5.394694,"is_reserved":false,"is_disabled":false,"rental_uris":{"android":"levelo://app?vid=b35d83d9-2aad-44f6-9c19-8e7f4bb10fbc","ios":"levelo://app?vid=b35d83d9-2aad-44f6-9c19-8e7f4bb10fbc"},"vehicle_type_id":"4","last_reported":1692306360,"current_range_meters":31200,"station_id":"ce4bh0p2rcd13ifvqd70","pricing_plan_id":"free"},{"bike_id":"03aa9c20-cf53-455e-bd21-d7c57ec023a5","system_id":"levelo_inurba_marseille","lat":43.290631,"lon":5.359244,"is_reserved":false,"is_disabled":false,"rental_uris":{"android":"levelo://app?vid=03aa9c20-cf53-455e-bd21-d7c57ec023a5","ios":"levelo://app?vid=03aa9c20-cf53-455e-bd21-d7c57ec023a5"},"vehicle_type_id":"4","last_reported":1692306360,"current_range_meters":18400,"station_id":"ce4bha92rcd13ifvqeg0","pricing_plan_id":"free"},{"bike_id":"550fed4d-84b3-4c74-baa0-dac989e00645","system_id":"levelo_inurba_marseille","lat":43.2942,"lon":5.38623,"is_reserved":false,"is_disabled":false,"rental_uris":{"android":"levelo://app?vid=550fed4d-84b3-4c74-baa0-dac989e00645","ios":"levelo://app?vid=550fed4d-84b3-4c74-baa0-dac989e00645"},"vehicle_type_id":"4","last_reported":1692306360,"current_range_meters":18400,"station_id":"ce4bh2h2rcd13ifvqdh0","pricing_plan_id":"free"},{"bike_id":"65e1100f-3e7f-477c-9124-08c82f66e277","system_id":"levelo_inurba_marseille","lat":43.29418,"lon":5.3862,"is_reserved":false,"is_disabled":false,"rental_uris":{"android":"levelo://app?vid=65e1100f-3e7f-477c-9124-08c82f66e277","ios":"levelo://app?vid=65e1100f-3e7f-477c-9124-08c82f66e277"},"vehicle_type_id":"4","last_reported":1692306360,"current_range_meters":11600,"station_id":"ce4bh2h2rcd13ifvqdh0","pricing_plan_id":"free"},{"bike_id":"81d2ed1b-cc22-4a70-a99b-071eaccbc30b","system_id":"levelo_inurba_marseille","lat":43.29416,"lon":5.38621,"is_reserved":false,"is_disabled":false,"rental_uris":{"android":"levelo://app?vid=81d2ed1b-cc22-4a70-a99b-071eaccbc30b","ios":"levelo://app?vid=81d2ed1b-cc22-4a70-a99b-071eaccbc30b"},"vehicle_type_id":"4","last_reported":1692306360,"current_range_meters":22400,"station_id":"ce4bh2h2rcd13ifvqdh0","pricing_plan_id":"free"},{"bike_id":"5ac7f4b0-6cad-4cdb-90d4-f8f6229a91f7","system_id":"levelo_inurba_marseille","lat":43.29416,"lon":5.38623,"is_reserved":false,"is_disabled":false,"rental_uris":{"android":"levelo://app?vid=5ac7f4b0-6cad-4cdb-90d4-f8f6229a91f7","ios":"levelo://app?vid=5ac7f4b0-6cad-4cdb-90d4-f8f6229a91f7"},"vehicle_type_id":"4","last_reported":1692306360,"current_range_meters":1200,"station_id":"ce4bh2h2rcd13ifvqdh0","pricing_plan_id":"free"},{"bike_id":"e0c413e4-116d-4ad0-9e36-a749925110c4","system_id":"levelo_inurba_marseille","lat":43.294153,"lon":5.386305,"is_reserved":false,"is_disabled":false,"rental_uris":{"android":"levelo://app?vid=e0c413e4-116d-4ad0-9e36-a749925110c4","ios":"levelo://app?vid=e0c413e4-116d-4ad0-9e36-a749925110c4"},"vehicle_type_id":"4","last_reported":1692306360,"current_range_meters":9600,"station_id":"ce4bh2h2rcd13ifvqdh0","pricing_plan_id":"free"},{"bike_id":"7ab3be67-2ab6-45c7-aac1-3b2984484666","system_id":"levelo_inurba_marseille","lat":43.29417,"lon":5.38627,"is_reserved":false,"is_disabled":false,"rental_uris":{"android":"levelo://app?vid=7ab3be67-2ab6-45c7-aac1-3b2984484666","ios":"levelo://app?vid=7ab3be67-2ab6-45c7-aac1-3b2984484666"},"vehicle_type_id":"4","last_reported":1692306360,"current_range_meters":24400,"station_id":"ce4bh2h2rcd13ifvqdh0","pricing_plan_id":"free"},{"bike_id":"ef8c2465-c5cf-4e7c-b306-b87d424a5ddb","system_id":"levelo_inurba_marseille","lat":43.29415,"lon":5.38624,"is_reserved":false,"is_disabled":false,"rental_uris":{"android":"levelo://app?vid=ef8c2465-c5cf-4e7c-b306-b87d424a5ddb","ios":"levelo://app?vid=ef8c2465-c5cf-4e7c-b306-b87d424a5ddb"},"vehicle_type_id":"4","last_reported":1692306360,"current_range_meters":28400,"station_id":"ce4bh2h2rcd13ifvqdh0","pricing_plan_id":"free"},{"bike_id":"10c5776f-e0a2-4ca6-95dd-20167b4ec012","system_id":"levelo_inurba_marseille","lat":43.29415,"lon":5.38624,"is_reserved":false,"is_disabled":false,"rental_uris":{"android":"levelo://app?vid=10c5776f-e0a2-4ca6-95dd-20167b4ec012","ios":"levelo://app?vid=10c5776f-e0a2-4ca6-95dd-20167b4ec012"},"vehicle_type_id":"4","last_reported":1692306360,"current_range_meters":18400,"station_id":"ce4bh2h2rcd13ifvqdh0","pricing_plan_id":"free"},{"bike_id":"2ca930ab-fb61-4d87-b915-9bd445cdf580","system_id":"levelo_inurba_marseille","lat":43.29416,"lon":5.38626,"is_reserved":false,"is_disabled":false,"rental_uris":{"android":"levelo://app?vid=2ca930ab-fb61-4d87-b915-9bd445cdf580","ios":"levelo://app?vid=2ca930ab-fb61-4d87-b915-9bd445cdf580"},"vehicle_type_id":"4","last_reported":1692306360,"current_range_meters":16400,"station_id":"ce4bh2h2rcd13ifvqdh0","pricing_plan_id":"free"},{"bike_id":"cdfd6cc2-0354-4bb9-b848-ccbc28528f90","system_id":"levelo_inurba_marseille","lat":43.29413,"lon":5.38622,"is_reserved":false,"is_disabled":false,"rental_uris":{"android":"levelo://app?vid=cdfd6cc2-0354-4bb9-b848-ccbc28528f90","ios":"levelo://app?vid=cdfd6cc2-0354-4bb9-b848-ccbc28528f90"},"vehicle_type_id":"4","last_reported":1692306360,"current_range_meters":23200,"station_id":"ce4bh2h2rcd13ifvqdh0","pricing_plan_id":"free"},{"bike_id":"46025b9a-daa0-47f0-bc33-b395018348e1","system_id":"levelo_inurba_marseille","lat":43.29416,"lon":5.38628,"is_reserved":false,"is_disabled":false,"rental_uris":{"android":"levelo://app?vid=46025b9a-daa0-47f0-bc33-b395018348e1","ios":"levelo://app?vid=46025b9a-daa0-47f0-bc33-b395018348e1"},"vehicle_type_id":"4","last_reported":1692306360,"current_range_meters":12800,"station_id":"ce4bh2h2rcd13ifvqdh0","pricing_plan_id":"free"},{"bike_id":"19706dca-a052-459b-9989-e20b75696631","system_id":"levelo_inurba_marseille","lat":43.29414,"lon":5.38626,"is_reserved":false,"is_disabled":false,"rental_uris":{"android":"levelo://app?vid=19706dca-a052-459b-9989-e20b75696631","ios":"levelo://app?vid=19706dca-a052-459b-9989-e20b75696631"},"vehicle_type_id":"4","last_reported":1692306360,"current_range_meters":23200,"station_id":"ce4bh2h2rcd13ifvqdh0","pricing_plan_id":"free"},{"bike_id":"ed1c19b7-7709-4d55-8e81-b9ed84d94cd8","system_id":"levelo_inurba_marseille","lat":43.29415,"lon":5.3863,"is_reserved":false,"is_disabled":false,"rental_uris":{"android":"levelo://app?vid=ed1c19b7-7709-4d55-8e81-b9ed84d94cd8","ios":"levelo://app?vid=ed1c19b7-7709-4d55-8e81-b9ed84d94cd8"},"vehicle_type_id":"4","last_reported":1692306360,"current_range_meters":14800,"station_id":"ce4bh2h2rcd13ifvqdh0","pricing_plan_id":"free"},{"bike_id":"9a4fea3a-4555-46ee-add2-104c6bd517e2","system_id":"levelo_inurba_marseille","lat":43.294086,"lon":5.386189,"is_reserved":false,"is_disabled":false,"rental_uris":{"android":"levelo://app?vid=9a4fea3a-4555-46ee-add2-104c6bd517e2","ios":"levelo://app?vid=9a4fea3a-4555-46ee-add2-104c6bd517e2"},"vehicle_type_id":"4","last_reported":1692306360,"current_range_meters":24000,"station_id":"ce4bh2h2rcd13ifvqdh0","pricing_plan_id":"free"},{"bike_id":"7bbe6b28-b1a4-46b3-a0fb-7e4c5a3ceb79","system_id":"levelo_inurba_marseille","lat":43.29411,"lon":5.38632,"is_reserved":false,"is_disabled":false,"rental_uris":{"android":"levelo://app?vid=7bbe6b28-b1a4-46b3-a0fb-7e4c5a3ceb79","ios":"levelo://app?vid=7bbe6b28-b1a4-46b3-a0fb-7e4c5a3ceb79"},"vehicle_type_id":"4","last_reported":1692306360,"current_range_meters":27200,"station_id":"ce4bh2h2rcd13ifvqdh0","pricing_plan_id":"free"},{"bike_id":"84b427b5-fd9b-42ea-b474-3336272a10d6","system_id":"levelo_inurba_marseille","lat":43.292644,"lon":5.384257,"is_reserved":false,"is_disabled":false,"rental_uris":{"android":"levelo://app?vid=84b427b5-fd9b-42ea-b474-3336272a10d6","ios":"levelo://app?vid=84b427b5-fd9b-42ea-b474-3336272a10d6"},"vehicle_type_id":"4","last_reported":1692306360,"current_range_meters":22000,"station_id":"ce4bh692rcd13ifvqea0","pricing_plan_id":"free"},{"bike_id":"0ed57182-8c62-431e-bc64-03a7481044a8","system_id":"levelo_inurba_marseille","lat":43.292642,"lon":5.384254,"is_reserved":false,"is_disabled":false,"rental_uris":{"android":"levelo://app?vid=0ed57182-8c62-431e-bc64-03a7481044a8","ios":"levelo://app?vid=0ed57182-8c62-431e-bc64-03a7481044a8"},"vehicle_type_id":"4","last_reported":1692306360,"current_range_meters":800,"station_id":"ce4bh692rcd13ifvqea0","pricing_plan_id":"free"},{"bike_id":"39ba0b08-2d6d-44a5-bc43-e9b8d304ea6e","system_id":"levelo_inurba_marseille","lat":43.292644,"lon":5.384257,"is_reserved":false,"is_disabled":false,"rental_uris":{"android":"levelo://app?vid=39ba0b08-2d6d-44a5-bc43-e9b8d304ea6e","ios":"levelo://app?vid=39ba0b08-2d6d-44a5-bc43-e9b8d304ea6e"},"vehicle_type_id":"4","last_reported":1692306360,"current_range_meters":31200,"station_id":"ce4bh692rcd13ifvqea0","pricing_plan_id":"free"},{"bike_id":"2a16ca68-e3ad-445b-b0e9-381001af9d3b","system_id":"levelo_inurba_marseille","lat":43.292644,"lon":5.384257,"is_reserved":false,"is_disabled":false,"rental_uris":{"android":"levelo://app?vid=2a16ca68-e3ad-445b-b0e9-381001af9d3b","ios":"levelo://app?vid=2a16ca68-e3ad-445b-b0e9-381001af9d3b"},"vehicle_type_id":"4","last_reported":1692306360,"current_range_meters":24000,"station_id":"ce4bh692rcd13ifvqea0","pricing_plan_id":"free"},{"bike_id":"c96162db-82aa-493b-9177-589c94e9f979","system_id":"levelo_inurba_marseille","lat":43.292642,"lon":5.384254,"is_reserved":false,"is_disabled":false,"rental_uris":{"android":"levelo://app?vid=c96162db-82aa-493b-9177-589c94e9f979","ios":"levelo://app?vid=c96162db-82aa-493b-9177-589c94e9f979"},"vehicle_type_id":"4","last_reported":1692306360,"current_range_meters":5600,"station_id":"ce4bh692rcd13ifvqea0","pricing_plan_id":"free"},{"bike_id":"35b6a69c-0a85-4559-a323-8f57b6d0bed9","system_id":"levelo_inurba_marseille","lat":43.292642,"lon":5.384254,"is_reserved":false,"is_disabled":false,"rental_uris":{"android":"levelo://app?vid=35b6a69c-0a85-4559-a323-8f57b6d0bed9","ios":"levelo://app?vid=35b6a69c-0a85-4559-a323-8f57b6d0bed9"},"vehicle_type_id":"4","last_reported":1692306360,"current_range_meters":1600,"station_id":"ce4bh692rcd13ifvqea0","pricing_plan_id":"free"},{"bike_id":"77bb7c0b-52dd-44b0-9660-2f0b55912aeb","system_id":"levelo_inurba_marseille","lat":43.292642,"lon":5.384254,"is_reserved":false,"is_disabled":false,"rental_uris":{"android":"levelo://app?vid=77bb7c0b-52dd-44b0-9660-2f0b55912aeb","ios":"levelo://app?vid=77bb7c0b-52dd-44b0-9660-2f0b55912aeb"},"vehicle_type_id":"4","last_reported":1692306360,"current_range_meters":23600,"station_id":"ce4bh692rcd13ifvqea0","pricing_plan_id":"free"},{"bike_id":"498e292b-3032-412b-8cce-4ad07898ad0c","system_id":"levelo_inurba_marseille","lat":43.292642,"lon":5.384254,"is_reserved":false,"is_disabled":false,"rental_uris":{"android":"levelo://app?vid=498e292b-3032-412b-8cce-4ad07898ad0c","ios":"levelo://app?vid=498e292b-3032-412b-8cce-4ad07898ad0c"},"vehicle_type_id":"4","last_reported":1692306360,"current_range_meters":14000,"station_id":"ce4bh692rcd13ifvqea0","pricing_plan_id":"free"},{"bike_id":"470c771f-3cbd-4a1f-80bb-012c2c22e2fe","system_id":"levelo_inurba_marseille","lat":43.292644,"lon":5.384257,"is_reserved":false,"is_disabled":false,"rental_uris":{"android":"levelo://app?vid=470c771f-3cbd-4a1f-80bb-012c2c22e2fe","ios":"levelo://app?vid=470c771f-3cbd-4a1f-80bb-012c2c22e2fe"},"vehicle_type_id":"4","last_reported":1692306360,"current_range_meters":12800,"station_id":"ce4bh692rcd13ifvqea0","pricing_plan_id":"free"},{"bike_id":"2b2ae933-e1a2-4d60-9d71-ba1d52d1203c","system_id":"levelo_inurba_marseille","lat":43.292642,"lon":5.384254,"is_reserved":false,"is_disabled":false,"rental_uris":{"android":"levelo://app?vid=2b2ae933-e1a2-4d60-9d71-ba1d52d1203c","ios":"levelo://app?vid=2b2ae933-e1a2-4d60-9d71-ba1d52d1203c"},"vehicle_type_id":"4","last_reported":1692306360,"current_range_meters":31200,"station_id":"ce4bh692rcd13ifvqea0","pricing_plan_id":"free"},{"bike_id":"bd4fab83-96b2-4229-b7bd-554bfa2005c4","system_id":"levelo_inurba_marseille","lat":43.304274,"lon":5.397513,"is_reserved":false,"is_disabled":false,"rental_uris":{"android":"levelo://app?vid=bd4fab83-96b2-4229-b7bd-554bfa2005c4","ios":"levelo://app?vid=bd4fab83-96b2-4229-b7bd-554bfa2005c4"},"vehicle_type_id":"4","last_reported":1692306360,"current_range_meters":19600,"station_id":"ce4bh092rcd13ifvqd20","pricing_plan_id":"free"},{"bike_id":"77e22df5-2a29-4011-b0ac-fed7664b52d1","system_id":"levelo_inurba_marseille","lat":43.29248,"lon":5.38443,"is_reserved":false,"is_disabled":false,"rental_uris":{"android":"levelo://app?vid=77e22df5-2a29-4011-b0ac-fed7664b52d1","ios":"levelo://app?vid=77e22df5-2a29-4011-b0ac-fed7664b52d1"},"vehicle_type_id":"4","last_reported":1692306360,"current_range_meters":31200,"station_id":"ce4bh692rcd13ifvqea0","pricing_plan_id":"free"},{"bike_id":"be005e4f-d207-40fd-bd99-241d744b2797","system_id":"levelo_inurba_marseille","lat":43.33039,"lon":5.38915,"is_reserved":false,"is_disabled":false,"rental_uris":{"android":"levelo://app?vid=be005e4f-d207-40fd-bd99-241d744b2797","ios":"levelo://app?vid=be005e4f-d207-40fd-bd99-241d744b2797"},"vehicle_type_id":"4","last_reported":1692306360,"current_range_meters":9600,"station_id":"ce4bhr92rcd13ifvqhrg","pricing_plan_id":"free"},{"bike_id":"fe2d3dd8-8a44-4167-b9d1-3d33ce8128f3","system_id":"levelo_inurba_marseille","lat":43.33042,"lon":5.38914,"is_reserved":false,"is_disabled":false,"rental_uris":{"android":"levelo://app?vid=fe2d3dd8-8a44-4167-b9d1-3d33ce8128f3","ios":"levelo://app?vid=fe2d3dd8-8a44-4167-b9d1-3d33ce8128f3"},"vehicle_type_id":"4","last_reported":1692306360,"current_range_meters":8000,"station_id":"ce4bhr92rcd13ifvqhrg","pricing_plan_id":"free"},{"bike_id":"e17c71d4-fc9a-4ba6-a1eb-e9daef1ac72f","system_id":"levelo_inurba_marseille","lat":43.33039,"lon":5.3892,"is_reserved":false,"is_disabled":false,"rental_uris":{"android":"levelo://app?vid=e17c71d4-fc9a-4ba6-a1eb-e9daef1ac72f","ios":"levelo://app?vid=e17c71d4-fc9a-4ba6-a1eb-e9daef1ac72f"},"vehicle_type_id":"4","last_reported":1692306360,"current_range_meters":800,"station_id":"ce4bhr92rcd13ifvqhrg","pricing_plan_id":"free"},{"bike_id":"d4ad8918-8ab6-4278-b772-6948b5c39e1d","system_id":"levelo_inurba_marseille","lat":43.330442,"lon":5.389148,"is_reserved":false,"is_disabled":false,"rental_uris":{"android":"levelo://app?vid=d4ad8918-8ab6-4278-b772-6948b5c39e1d","ios":"levelo://app?vid=d4ad8918-8ab6-4278-b772-6948b5c39e1d"},"vehicle_type_id":"4","last_reported":1692306360,"current_range_meters":15600,"station_id":"ce4bhr92rcd13ifvqhrg","pricing_plan_id":"free"},{"bike_id":"887fe8db-aa91-4cfe-bbdb-b6f88aa94e15","system_id":"levelo_inurba_marseille","lat":43.33042,"lon":5.38916,"is_reserved":false,"is_disabled":false,"rental_uris":{"android":"levelo://app?vid=887fe8db-aa91-4cfe-bbdb-b6f88aa94e15","ios":"levelo://app?vid=887fe8db-aa91-4cfe-bbdb-b6f88aa94e15"},"vehicle_type_id":"4","last_reported":1692306360,"current_range_meters":10000,"station_id":"ce4bhr92rcd13ifvqhrg","pricing_plan_id":"free"},{"bike_id":"70bf8ae7-a3d1-4160-b88a-65d31f2b1cbc","system_id":"levelo_inurba_marseille","lat":43.33043,"lon":5.38918,"is_reserved":false,"is_disabled":false,"rental_uris":{"android":"levelo://app?vid=70bf8ae7-a3d1-4160-b88a-65d31f2b1cbc","ios":"levelo://app?vid=70bf8ae7-a3d1-4160-b88a-65d31f2b1cbc"},"vehicle_type_id":"4","last_reported":1692306360,"current_range_meters":13600,"station_id":"ce4bhr92rcd13ifvqhrg","pricing_plan_id":"free"},{"bike_id":"859ece1b-eaf2-4429-915d-1d151e169e7f","system_id":"levelo_inurba_marseille","lat":43.33034,"lon":5.38932,"is_reserved":false,"is_disabled":false,"rental_uris":{"android":"levelo://app?vid=859ece1b-eaf2-4429-915d-1d151e169e7f","ios":"levelo://app?vid=859ece1b-eaf2-4429-915d-1d151e169e7f"},"vehicle_type_id":"4","last_reported":1692306360,"current_range_meters":12800,"station_id":"ce4bhr92rcd13ifvqhrg","pricing_plan_id":"free"},{"bike_id":"d2423a45-b27a-4f94-a7f7-409902302210","system_id":"levelo_inurba_marseille","lat":43.33042,"lon":5.38921,"is_reserved":false,"is_disabled":false,"rental_uris":{"android":"levelo://app?vid=d2423a45-b27a-4f94-a7f7-409902302210","ios":"levelo://app?vid=d2423a45-b27a-4f94-a7f7-409902302210"},"vehicle_type_id":"4","last_reported":1692306360,"current_range_meters":17600,"station_id":"ce4bhr92rcd13ifvqhrg","pricing_plan_id":"free"},{"bike_id":"6af087b0-510c-46e1-bc03-dbade140f1ed","system_id":"levelo_inurba_marseille","lat":43.33044,"lon":5.38921,"is_reserved":false,"is_disabled":false,"rental_uris":{"android":"levelo://app?vid=6af087b0-510c-46e1-bc03-dbade140f1ed","ios":"levelo://app?vid=6af087b0-510c-46e1-bc03-dbade140f1ed"},"vehicle_type_id":"4","last_reported":1692306360,"current_range_meters":20000,"station_id":"ce4bhr92rcd13ifvqhrg","pricing_plan_id":"free"},{"bike_id":"965fbeb8-b7a0-4d17-b629-247b8a851294","system_id":"levelo_inurba_marseille","lat":43.29238,"lon":5.38447,"is_reserved":false,"is_disabled":false,"rental_uris":{"android":"levelo://app?vid=965fbeb8-b7a0-4d17-b629-247b8a851294","ios":"levelo://app?vid=965fbeb8-b7a0-4d17-b629-247b8a851294"},"vehicle_type_id":"4","last_reported":1692306360,"current_range_meters":31200,"station_id":"ce4bh692rcd13ifvqea0","pricing_plan_id":"free"},{"bike_id":"78f1a325-e5b4-4a72-bb0e-b29d3285ba24","system_id":"levelo_inurba_marseille","lat":43.290104,"lon":5.356111,"is_reserved":false,"is_disabled":false,"rental_uris":{"android":"levelo://app?vid=78f1a325-e5b4-4a72-bb0e-b29d3285ba24","ios":"levelo://app?vid=78f1a325-e5b4-4a72-bb0e-b29d3285ba24"},"vehicle_type_id":"4","last_reported":1692306360,"current_range_meters":30800,"station_id":"ce4bhb92rcd13ifvqen0","pricing_plan_id":"free"},{"bike_id":"bc553d70-024b-46f6-a37b-92642c8a32d2","system_id":"levelo_inurba_marseille","lat":43.290995,"lon":5.381361,"is_reserved":false,"is_disabled":false,"rental_uris":{"android":"levelo://app?vid=bc553d70-024b-46f6-a37b-92642c8a32d2","ios":"levelo://app?vid=bc553d70-024b-46f6-a37b-92642c8a32d2"},"vehicle_type_id":"4","last_reported":1692306360,"current_range_meters":2800,"station_id":"ce4bh512rcd13ifvqe2g","pricing_plan_id":"free"},{"bike_id":"257eb7e6-ec63-452c-8595-abaf282eaf06","system_id":"levelo_inurba_marseille","lat":43.297846,"lon":5.393393,"is_reserved":false,"is_disabled":false,"rental_uris":{"android":"levelo://app?vid=257eb7e6-ec63-452c-8595-abaf282eaf06","ios":"levelo://app?vid=257eb7e6-ec63-452c-8595-abaf282eaf06"},"vehicle_type_id":"4","last_reported":1692306360,"current_range_meters":27200,"station_id":"chh1huq6cuj3fo74tm60","pricing_plan_id":"free"},{"bike_id":"23fc2263-2c00-4782-8bbe-1bb303b66cae","system_id":"levelo_inurba_marseille","lat":43.2978,"lon":5.39341,"is_reserved":false,"is_disabled":false,"rental_uris":{"android":"levelo://app?vid=23fc2263-2c00-4782-8bbe-1bb303b66cae","ios":"levelo://app?vid=23fc2263-2c00-4782-8bbe-1bb303b66cae"},"vehicle_type_id":"4","last_reported":1692306360,"current_range_meters":18800,"station_id":"chh1huq6cuj3fo74tm60","pricing_plan_id":"free"},{"bike_id":"a3100da2-fda0-49bd-9246-d5b1741cf2e1","system_id":"levelo_inurba_marseille","lat":43.297815,"lon":5.393548,"is_reserved":false,"is_disabled":false,"rental_uris":{"android":"levelo://app?vid=a3100da2-fda0-49bd-9246-d5b1741cf2e1","ios":"levelo://app?vid=a3100da2-fda0-49bd-9246-d5b1741cf2e1"},"vehicle_type_id":"4","last_reported":1692306360,"current_range_meters":400,"station_id":"chh1huq6cuj3fo74tm60","pricing_plan_id":"free"},{"bike_id":"62436536-2834-477c-8499-e498b8550e52","system_id":"levelo_inurba_marseille","lat":43.295169,"lon":5.390426,"is_reserved":false,"is_disabled":false,"rental_uris":{"android":"levelo://app?vid=62436536-2834-477c-8499-e498b8550e52","ios":"levelo://app?vid=62436536-2834-477c-8499-e498b8550e52"},"vehicle_type_id":"4","last_reported":1692306360,"current_range_meters":18800,"station_id":"ce4bh3p2rcd13ifvqdp0","pricing_plan_id":"free"},{"bike_id":"c79463a2-d913-4a63-b16b-a9d5a2b67a83","system_id":"levelo_inurba_marseille","lat":43.295169,"lon":5.390426,"is_reserved":false,"is_disabled":false,"rental_uris":{"android":"levelo://app?vid=c79463a2-d913-4a63-b16b-a9d5a2b67a83","ios":"levelo://app?vid=c79463a2-d913-4a63-b16b-a9d5a2b67a83"},"vehicle_type_id":"4","last_reported":1692306360,"current_range_meters":11600,"station_id":"ce4bh3p2rcd13ifvqdp0","pricing_plan_id":"free"},{"bike_id":"3975b3e9-83c4-4ca7-ae02-31cb1489468c","system_id":"levelo_inurba_marseille","lat":43.289741,"lon":5.378306,"is_reserved":false,"is_disabled":false,"rental_uris":{"android":"levelo://app?vid=3975b3e9-83c4-4ca7-ae02-31cb1489468c","ios":"levelo://app?vid=3975b3e9-83c4-4ca7-ae02-31cb1489468c"},"vehicle_type_id":"4","last_reported":1692306360,"current_range_meters":4000,"station_id":"ce4bh9p2rcd13ifvqed0","pricing_plan_id":"free"},{"bike_id":"184a663d-90df-4d1c-87b7-2289d9df6874","system_id":"levelo_inurba_marseille","lat":43.28856,"lon":5.358371,"is_reserved":false,"is_disabled":false,"rental_uris":{"android":"levelo://app?vid=184a663d-90df-4d1c-87b7-2289d9df6874","ios":"levelo://app?vid=184a663d-90df-4d1c-87b7-2289d9df6874"},"vehicle_type_id":"4","last_reported":1692306360,"current_range_meters":7600,"station_id":"ce4bhb12rcd13ifvqem0","pricing_plan_id":"free"},{"bike_id":"fcbbc945-3203-4081-9bc8-6127e9602b63","system_id":"levelo_inurba_marseille","lat":43.31271,"lon":5.40166,"is_reserved":false,"is_disabled":false,"rental_uris":{"android":"levelo://app?vid=fcbbc945-3203-4081-9bc8-6127e9602b63","ios":"levelo://app?vid=fcbbc945-3203-4081-9bc8-6127e9602b63"},"vehicle_type_id":"4","last_reported":1692306360,"current_range_meters":16000,"station_id":"ce4bh092rcd13ifvqd30","pricing_plan_id":"free"},{"bike_id":"f7089ed9-b76d-48d7-9c95-a026973d85c9","system_id":"levelo_inurba_marseille","lat":43.31276,"lon":5.40168,"is_reserved":false,"is_disabled":false,"rental_uris":{"android":"levelo://app?vid=f7089ed9-b76d-48d7-9c95-a026973d85c9","ios":"levelo://app?vid=f7089ed9-b76d-48d7-9c95-a026973d85c9"},"vehicle_type_id":"4","last_reported":1692306360,"current_range_meters":20000,"station_id":"ce4bh092rcd13ifvqd30","pricing_plan_id":"free"},{"bike_id":"8ba63082-9399-4533-adb6-cc593c87771c","system_id":"levelo_inurba_marseille","lat":43.31267,"lon":5.40168,"is_reserved":false,"is_disabled":false,"rental_uris":{"android":"levelo://app?vid=8ba63082-9399-4533-adb6-cc593c87771c","ios":"levelo://app?vid=8ba63082-9399-4533-adb6-cc593c87771c"},"vehicle_type_id":"4","last_reported":1692306360,"current_range_meters":6800,"station_id":"ce4bh092rcd13ifvqd30","pricing_plan_id":"free"},{"bike_id":"b5712d29-c90e-4242-9daf-729ce50eead3","system_id":"levelo_inurba_marseille","lat":43.31261,"lon":5.40168,"is_reserved":false,"is_disabled":false,"rental_uris":{"android":"levelo://app?vid=b5712d29-c90e-4242-9daf-729ce50eead3","ios":"levelo://app?vid=b5712d29-c90e-4242-9daf-729ce50eead3"},"vehicle_type_id":"4","last_reported":1692306360,"current_range_meters":18800,"station_id":"ce4bh092rcd13ifvqd30","pricing_plan_id":"free"},{"bike_id":"468e976a-8695-4380-af23-af0e4600f85d","system_id":"levelo_inurba_marseille","lat":43.31269,"lon":5.40173,"is_reserved":false,"is_disabled":false,"rental_uris":{"android":"levelo://app?vid=468e976a-8695-4380-af23-af0e4600f85d","ios":"levelo://app?vid=468e976a-8695-4380-af23-af0e4600f85d"},"vehicle_type_id":"4","last_reported":1692306360,"current_range_meters":2000,"station_id":"ce4bh092rcd13ifvqd30","pricing_plan_id":"free"},{"bike_id":"5e5cc962-f84b-4119-b290-bdb44f8edb5a","system_id":"levelo_inurba_marseille","lat":43.31261,"lon":5.40173,"is_reserved":false,"is_disabled":false,"rental_uris":{"android":"levelo://app?vid=5e5cc962-f84b-4119-b290-bdb44f8edb5a","ios":"levelo://app?vid=5e5cc962-f84b-4119-b290-bdb44f8edb5a"},"vehicle_type_id":"4","last_reported":1692306360,"current_range_meters":26000,"station_id":"ce4bh092rcd13ifvqd30","pricing_plan_id":"free"},{"bike_id":"8baa1ae6-e97e-488f-bab2-00e1e58cf2e0","system_id":"levelo_inurba_marseille","lat":43.309371,"lon":5.401449,"is_reserved":false,"is_disabled":false,"rental_uris":{"android":"levelo://app?vid=8baa1ae6-e97e-488f-bab2-00e1e58cf2e0","ios":"levelo://app?vid=8baa1ae6-e97e-488f-bab2-00e1e58cf2e0"},"vehicle_type_id":"4","last_reported":1692306360,"current_range_meters":3600,"station_id":"ce4bgvp2rcd13ifvqct0","pricing_plan_id":"free"},{"bike_id":"86b1c357-8b13-4217-a8cb-559265c177ff","system_id":"levelo_inurba_marseille","lat":43.33748,"lon":5.37474,"is_reserved":false,"is_disabled":false,"rental_uris":{"android":"levelo://app?vid=86b1c357-8b13-4217-a8cb-559265c177ff","ios":"levelo://app?vid=86b1c357-8b13-4217-a8cb-559265c177ff"},"vehicle_type_id":"4","last_reported":1692306360,"current_range_meters":27200,"station_id":"","pricing_plan_id":"free"},{"bike_id":"e7fea78c-44dc-4ca2-8969-e4c0daeda355","system_id":"levelo_inurba_marseille","lat":43.309371,"lon":5.401449,"is_reserved":false,"is_disabled":false,"rental_uris":{"android":"levelo://app?vid=e7fea78c-44dc-4ca2-8969-e4c0daeda355","ios":"levelo://app?vid=e7fea78c-44dc-4ca2-8969-e4c0daeda355"},"vehicle_type_id":"4","last_reported":1692306360,"current_range_meters":15200,"station_id":"ce4bgvp2rcd13ifvqct0","pricing_plan_id":"free"},{"bike_id":"af780357-a8f8-4cbd-a818-396599dd4299","system_id":"levelo_inurba_marseille","lat":43.33756,"lon":5.37446,"is_reserved":false,"is_disabled":false,"rental_uris":{"android":"levelo://app?vid=af780357-a8f8-4cbd-a818-396599dd4299","ios":"levelo://app?vid=af780357-a8f8-4cbd-a818-396599dd4299"},"vehicle_type_id":"4","last_reported":1692306360,"current_range_meters":20000,"station_id":"","pricing_plan_id":"free"},{"bike_id":"aec645da-214f-4be9-a48c-5681919e14f7","system_id":"levelo_inurba_marseille","lat":43.33754,"lon":5.37483,"is_reserved":false,"is_disabled":false,"rental_uris":{"android":"levelo://app?vid=aec645da-214f-4be9-a48c-5681919e14f7","ios":"levelo://app?vid=aec645da-214f-4be9-a48c-5681919e14f7"},"vehicle_type_id":"4","last_reported":1692306360,"current_range_meters":29200,"station_id":"","pricing_plan_id":"free"},{"bike_id":"c8e36187-835d-4ae5-a596-75160776a381","system_id":"levelo_inurba_marseille","lat":43.3376,"lon":5.37486,"is_reserved":false,"is_disabled":false,"rental_uris":{"android":"levelo://app?vid=c8e36187-835d-4ae5-a596-75160776a381","ios":"levelo://app?vid=c8e36187-835d-4ae5-a596-75160776a381"},"vehicle_type_id":"4","last_reported":1692306360,"current_range_meters":28000,"station_id":"","pricing_plan_id":"free"},{"bike_id":"4e223b6f-3c25-48b2-bf29-64fb04ae9c60","system_id":"levelo_inurba_marseille","lat":43.33769,"lon":5.37449,"is_reserved":false,"is_disabled":false,"rental_uris":{"android":"levelo://app?vid=4e223b6f-3c25-48b2-bf29-64fb04ae9c60","ios":"levelo://app?vid=4e223b6f-3c25-48b2-bf29-64fb04ae9c60"},"vehicle_type_id":"4","last_reported":1692306360,"current_range_meters":27600,"station_id":"","pricing_plan_id":"free"},{"bike_id":"e3b6d729-203e-43d6-8e99-dde5b8e03048","system_id":"levelo_inurba_marseille","lat":43.30637,"lon":5.40102,"is_reserved":false,"is_disabled":false,"rental_uris":{"android":"levelo://app?vid=e3b6d729-203e-43d6-8e99-dde5b8e03048","ios":"levelo://app?vid=e3b6d729-203e-43d6-8e99-dde5b8e03048"},"vehicle_type_id":"4","last_reported":1692306360,"current_range_meters":16400,"station_id":"ce4bh112rcd13ifvqda0","pricing_plan_id":"free"},{"bike_id":"c9638b34-df93-4154-ba79-160440a2798f","system_id":"levelo_inurba_marseille","lat":43.304274,"lon":5.397513,"is_reserved":false,"is_disabled":false,"rental_uris":{"android":"levelo://app?vid=c9638b34-df93-4154-ba79-160440a2798f","ios":"levelo://app?vid=c9638b34-df93-4154-ba79-160440a2798f"},"vehicle_type_id":"4","last_reported":1692306360,"current_range_meters":30000,"station_id":"ce4bh092rcd13ifvqd20","pricing_plan_id":"free"},{"bike_id":"d0d853e4-f639-443d-a081-df536a8d915d","system_id":"levelo_inurba_marseille","lat":43.3058,"lon":5.40087,"is_reserved":false,"is_disabled":false,"rental_uris":{"android":"levelo://app?vid=d0d853e4-f639-443d-a081-df536a8d915d","ios":"levelo://app?vid=d0d853e4-f639-443d-a081-df536a8d915d"},"vehicle_type_id":"4","last_reported":1692306360,"current_range_meters":14000,"station_id":"","pricing_plan_id":"free"},{"bike_id":"de23a801-94dd-41b6-bfc7-b6fbfe4692c0","system_id":"levelo_inurba_marseille","lat":43.301117,"lon":5.398795,"is_reserved":false,"is_disabled":false,"rental_uris":{"android":"levelo://app?vid=de23a801-94dd-41b6-bfc7-b6fbfe4692c0","ios":"levelo://app?vid=de23a801-94dd-41b6-bfc7-b6fbfe4692c0"},"vehicle_type_id":"4","last_reported":1692306360,"current_range_meters":14000,"station_id":"ce4bh0h2rcd13ifvqd40","pricing_plan_id":"free"},{"bike_id":"75199276-b705-4ad7-b6a9-49aeaa84628a","system_id":"levelo_inurba_marseille","lat":43.286591,"lon":5.363346,"is_reserved":false,"is_disabled":false,"rental_uris":{"android":"levelo://app?vid=75199276-b705-4ad7-b6a9-49aeaa84628a","ios":"levelo://app?vid=75199276-b705-4ad7-b6a9-49aeaa84628a"},"vehicle_type_id":"4","last_reported":1692306360,"current_range_meters":31200,"station_id":"ce4bhah2rcd13ifvqej0","pricing_plan_id":"free"},{"bike_id":"ca61816e-6d89-4b6a-aa4e-8220379d080b","system_id":"levelo_inurba_marseille","lat":43.298681,"lon":5.397225,"is_reserved":false,"is_disabled":false,"rental_uris":{"android":"levelo://app?vid=ca61816e-6d89-4b6a-aa4e-8220379d080b","ios":"levelo://app?vid=ca61816e-6d89-4b6a-aa4e-8220379d080b"},"vehicle_type_id":"4","last_reported":1692306360,"current_range_meters":10800,"station_id":"ce4bh0h2rcd13ifvqd50","pricing_plan_id":"free"},{"bike_id":"db6666e9-f3db-4a61-bb96-a3482ab5bd94","system_id":"levelo_inurba_marseille","lat":43.295196,"lon":5.39397,"is_reserved":false,"is_disabled":false,"rental_uris":{"android":"levelo://app?vid=db6666e9-f3db-4a61-bb96-a3482ab5bd94","ios":"levelo://app?vid=db6666e9-f3db-4a61-bb96-a3482ab5bd94"},"vehicle_type_id":"4","last_reported":1692306360,"current_range_meters":8800,"station_id":"ce4bh292rcd13ifvqdf0","pricing_plan_id":"free"},{"bike_id":"e2334918-836c-4fa2-8aba-64f1a3021998","system_id":"levelo_inurba_marseille","lat":43.295194,"lon":5.39397,"is_reserved":false,"is_disabled":false,"rental_uris":{"android":"levelo://app?vid=e2334918-836c-4fa2-8aba-64f1a3021998","ios":"levelo://app?vid=e2334918-836c-4fa2-8aba-64f1a3021998"},