{"last_updated":1753596952,"ttl":60,"version":"2.2","data":{"bikes":[{"bike_id":"ddb41611-b336-4121-ad5c-d2ee92e95b9c","system_id":"levelo_inurba_marseille","lat":43.307372,"lon":5.424528,"is_reserved":false,"is_disabled":false,"rental_uris":{"android":"levelo://app?vid=ddb41611-b336-4121-ad5c-d2ee92e95b9c","ios":"levelo://app?vid=ddb41611-b336-4121-ad5c-d2ee92e95b9c"},"vehicle_type_id":"4","last_reported":1753596952,"current_range_meters":3200,"station_id":"st_cvj6ca6bvosntc0bfgr0","pricing_plan_id":"cebpf4jnsgd1na2vs0mg"},{"bike_id":"ff30a5ee-0e9d-4bfa-a593-c7beaf9df463","system_id":"levelo_inurba_marseille","lat":43.335377,"lon":5.362059,"is_reserved":false,"is_disabled":false,"rental_uris":{"android":"levelo://app?vid=ff30a5ee-0e9d-4bfa-a593-c7beaf9df463","ios":"levelo://app?vid=ff30a5ee-0e9d-4bfa-a593-c7beaf9df463"},"vehicle_type_id":"4","last_reported":1753596952,"current_range_meters":3200,"station_id":"","pricing_plan_id":"cebpf4jnsgd1na2vs0mg"},{"bike_id":"6af7a72a-189c-4dbc-9282-a956426542ba","system_id":"levelo_inurba_marseille","lat":43.22512,"lon":5.34779,"is_reserved":false,"is_disabled":false,"rental_uris":{"android":"levelo://app?vid=6af7a72a-189c-4dbc-9282-a956426542ba","ios":"levelo://app?vid=6af7a72a-189c-4dbc-9282-a956426542ba"},"vehicle_type_id":"4","last_reported":1753596952,"current_range_meters":3600,"station_id":"","pricing_plan_id":"cebpf4jnsgd1na2vs0mg"},{"bike_id":"f5baa1e2-d60a-4e51-a277-16960806edac","system_id":"levelo_inurba_marseille","lat":43.28699,"lon":5.38665,"is_reserved":false,"is_disabled":false,"rental_uris":{"android":"levelo://app?vid=f5baa1e2-d60a-4e51-a277-16960806edac","ios":"levelo://app?vid=f5baa1e2-d60a-4e51-a277-16960806edac"},"vehicle_type_id":"4","last_reported":1753596952,"current_range_meters":3600,"station_id":"ce4bh492rcd13ifvqdug","pricing_plan_id":"cebpf4jnsgd1na2vs0mg"},{"bike_id":"659696a2-3854-4019-bdd0-5ad56ba4750d","system_id":"levelo_inurba_marseille","lat":43.28173,"lon":5.42629,"is_reserved":false,"is_disabled":true,"rental_uris":{"android":"levelo://app?vid=659696a2-3854-4019-bdd0-5ad56ba4750d","ios":"levelo://app?vid=659696a2-3854-4019-bdd0-5ad56ba4750d"},"vehicle_type_id":"4","last_reported":1753596952,"current_range_meters":4000,"station_id":"ce4bhnh2rcd13ifvqgug","pricing_plan_id":"cebpf4jnsgd1na2vs0mg"},{"bike_id":"be1f46e1-b208-4477-ac0e-0e8346ce7117","system_id":"levelo_inurba_marseille","lat":43.225,"lon":5.34773,"is_reserved":false,"is_disabled":false,"rental_uris":{"android":"levelo://app?vid=be1f46e1-b208-4477-ac0e-0e8346ce7117","ios":"levelo://app?vid=be1f46e1-b208-4477-ac0e-0e8346ce7117"},"vehicle_type_id":"4","last_reported":1753596952,"current_range_meters":4000,"station_id":"st_cvj5dfep6f1abm77gieg","pricing_plan_id":"cebpf4jnsgd1na2vs0mg"},{"bike_id":"b9d90a33-242e-4108-916f-926fe59baba6","system_id":"levelo_inurba_marseille","lat":43.28614,"lon":5.3834,"is_reserved":false,"is_disabled":false,"rental_uris":{"android":"levelo://app?vid=b9d90a33-242e-4108-916f-926fe59baba6","ios":"levelo://app?vid=b9d90a33-242e-4108-916f-926fe59baba6"},"vehicle_type_id":"4","last_reported":1753596952,"current_range_meters":4400,"station_id":"","pricing_plan_id":"cebpf4jnsgd1na2vs0mg"},{"bike_id":"3880f549-e9a8-4e14-91a6-528ce8b1c22a","system_id":"levelo_inurba_marseille","lat":43.33001,"lon":5.39,"is_reserved":false,"is_disabled":false,"rental_uris":{"android":"levelo://app?vid=3880f549-e9a8-4e14-91a6-528ce8b1c22a","ios":"levelo://app?vid=3880f549-e9a8-4e14-91a6-528ce8b1c22a"},"vehicle_type_id":"4","last_reported":1753596952,"current_range_meters":4800,"station_id":"ce4bhr92rcd13ifvqhrg","pricing_plan_id":"cebpf4jnsgd1na2vs0mg"},{"bike_id":"8b454f8e-a2cc-4f8a-9b75-defe6a01169e","system_id":"levelo_inurba_marseille","lat":43.28719,"lon":5.37489,"is_reserved":false,"is_disabled":false,"rental_uris":{"android":"levelo://app?vid=8b454f8e-a2cc-4f8a-9b75-defe6a01169e","ios":"levelo://app?vid=8b454f8e-a2cc-4f8a-9b75-defe6a01169e"},"vehicle_type_id":"4","last_reported":1753596952,"current_range_meters":4800,"station_id":"","pricing_plan_id":"cebpf4jnsgd1na2vs0mg"},{"bike_id":"f2e73ed9-a948-43ea-ab9d-32368cf8a475","system_id":"levelo_inurba_marseille","lat":43.261961,"lon":5.374423,"is_reserved":false,"is_disabled":true,"rental_uris":{"android":"levelo://app?vid=f2e73ed9-a948-43ea-ab9d-32368cf8a475","ios":"levelo://app?vid=f2e73ed9-a948-43ea-ab9d-32368cf8a475"},"vehicle_type_id":"4","last_reported":1753596952,"current_range_meters":5600,"station_id":"ce4bhgp2rcd13ifvqfc0","pricing_plan_id":"cebpf4jnsgd1na2vs0mg"},{"bike_id":"9f2c2b2f-63ef-43ea-a99e-b086901fbdc7","system_id":"levelo_inurba_marseille","lat":43.28344,"lon":5.38107,"is_reserved":false,"is_disabled":false,"rental_uris":{"android":"levelo://app?vid=9f2c2b2f-63ef-43ea-a99e-b086901fbdc7","ios":"levelo://app?vid=9f2c2b2f-63ef-43ea-a99e-b086901fbdc7"},"vehicle_type_id":"4","last_reported":1753596952,"current_range_meters":5600,"station_id":"ce4bh412rcd13ifvqdr0","pricing_plan_id":"cebpf4jnsgd1na2vs0mg"},{"bike_id":"078febbd-6d49-4abf-8b46-d33f87f8da46","system_id":"levelo_inurba_marseille","lat":43.25452,"lon":5.38007,"is_reserved":false,"is_disabled":false,"rental_uris":{"android":"levelo://app?vid=078febbd-6d49-4abf-8b46-d33f87f8da46","ios":"levelo://app?vid=078febbd-6d49-4abf-8b46-d33f87f8da46"},"vehicle_type_id":"4","last_reported":1753596952,"current_range_meters":6000,"station_id":"","pricing_plan_id":"cebpf4jnsgd1na2vs0mg"},{"bike_id":"cbd3c835-3646-48da-a31a-110bb275e07a","system_id":"levelo_inurba_marseille","lat":43.28615,"lon":5.3705,"is_reserved":false,"is_disabled":false,"rental_uris":{"android":"levelo://app?vid=cbd3c835-3646-48da-a31a-110bb275e07a","ios":"levelo://app?vid=cbd3c835-3646-48da-a31a-110bb275e07a"},"vehicle_type_id":"4","last_reported":1753596952,"current_range_meters":6400,"station_id":"ce4bht12rcd13ifvqi60","pricing_plan_id":"cebpf4jnsgd1na2vs0mg"},{"bike_id":"2325751d-867b-49df-8863-056e8656ae73","system_id":"levelo_inurba_marseille","lat":43.302521,"lon":5.400464,"is_reserved":false,"is_disabled":false,"rental_uris":{"android":"levelo://app?vid=2325751d-867b-49df-8863-056e8656ae73","ios":"levelo://app?vid=2325751d-867b-49df-8863-056e8656ae73"},"vehicle_type_id":"4","last_reported":1753596952,"current_range_meters":6400,"station_id":"ce4bgvh2rcd13ifvqcs0","pricing_plan_id":"cebpf4jnsgd1na2vs0mg"},{"bike_id":"f123af25-f5e1-4535-bf9a-e453fb7322cc","system_id":"levelo_inurba_marseille","lat":43.27494,"lon":5.40973,"is_reserved":false,"is_disabled":true,"rental_uris":{"android":"levelo://app?vid=f123af25-f5e1-4535-bf9a-e453fb7322cc","ios":"levelo://app?vid=f123af25-f5e1-4535-bf9a-e453fb7322cc"},"vehicle_type_id":"4","last_reported":1753596952,"current_range_meters":6400,"station_id":"","pricing_plan_id":"cebpf4jnsgd1na2vs0mg"},{"bike_id":"809b96e7-0b55-471b-a55f-e3ed348af3b1","system_id":"levelo_inurba_marseille","lat":43.2992,"lon":5.37463,"is_reserved":false,"is_disabled":false,"rental_uris":{"android":"levelo://app?vid=809b96e7-0b55-471b-a55f-e3ed348af3b1","ios":"levelo://app?vid=809b96e7-0b55-471b-a55f-e3ed348af3b1"},"vehicle_type_id":"4","last_reported":1753596952,"current_range_meters":6000,"station_id":"ce4bgjh2rcd13ifvqbg0","pricing_plan_id":"cebpf4jnsgd1na2vs0mg"},{"bike_id":"68efc304-0d41-4c98-a023-943580f46380","system_id":"levelo_inurba_marseille","lat":43.22497,"lon":5.34779,"is_reserved":false,"is_disabled":true,"rental_uris":{"android":"levelo://app?vid=68efc304-0d41-4c98-a023-943580f46380","ios":"levelo://app?vid=68efc304-0d41-4c98-a023-943580f46380"},"vehicle_type_id":"4","last_reported":1753596952,"current_range_meters":6400,"station_id":"st_cvj5dfep6f1abm77gieg","pricing_plan_id":"cebpf4jnsgd1na2vs0mg"},{"bike_id":"02ad9c89-0406-4b96-a530-c10fdce1f041","system_id":"levelo_inurba_marseille","lat":43.25463,"lon":5.41599,"is_reserved":false,"is_disabled":false,"rental_uris":{"android":"levelo://app?vid=02ad9c89-0406-4b96-a530-c10fdce1f041","ios":"levelo://app?vid=02ad9c89-0406-4b96-a530-c10fdce1f041"},"vehicle_type_id":"4","last_reported":1753596952,"current_range_meters":6800,"station_id":"","pricing_plan_id":"cebpf4jnsgd1na2vs0mg"},{"bike_id":"acdc15f3-f881-4795-bd43-7b1b297ebaa4","system_id":"levelo_inurba_marseille","lat":43.270696,"lon":5.422901,"is_reserved":false,"is_disabled":true,"rental_uris":{"android":"levelo://app?vid=acdc15f3-f881-4795-bd43-7b1b297ebaa4","ios":"levelo://app?vid=acdc15f3-f881-4795-bd43-7b1b297ebaa4"},"vehicle_type_id":"4","last_reported":1753596952,"current_range_meters":6800,"station_id":"ce4bhk92rcd13ifvqgb0","pricing_plan_id":"cebpf4jnsgd1na2vs0mg"},{"bike_id":"bdf90889-8b28-457b-9b9e-5ceedf5577bf","system_id":"levelo_inurba_marseille","lat":43.29976,"lon":5.38492,"is_reserved":false,"is_disabled":false,"rental_uris":{"android":"levelo://app?vid=bdf90889-8b28-457b-9b9e-5ceedf5577bf","ios":"levelo://app?vid=bdf90889-8b28-457b-9b9e-5ceedf5577bf"},"vehicle_type_id":"4","last_reported":1753596952,"current_range_meters":7200,"station_id":"ce4bgj92rcd13ifvqbd0","pricing_plan_id":"cebpf4jnsgd1na2vs0mg"},{"bike_id":"47dba6f9-a813-46aa-a47e-33063f264a67","system_id":"levelo_inurba_marseille","lat":43.30247,"lon":5.40069,"is_reserved":false,"is_disabled":false,"rental_uris":{"android":"levelo://app?vid=47dba6f9-a813-46aa-a47e-33063f264a67","ios":"levelo://app?vid=47dba6f9-a813-46aa-a47e-33063f264a67"},"vehicle_type_id":"4","last_reported":1753596952,"current_range_meters":7200,"station_id":"ce4bgvh2rcd13ifvqcs0","pricing_plan_id":"cebpf4jnsgd1na2vs0mg"},{"bike_id":"b7ed9571-0d35-4df5-9ba8-fcfa0cd8d52b","system_id":"levelo_inurba_marseille","lat":43.32627,"lon":5.37838,"is_reserved":false,"is_disabled":false,"rental_uris":{"android":"levelo://app?vid=b7ed9571-0d35-4df5-9ba8-fcfa0cd8d52b","ios":"levelo://app?vid=b7ed9571-0d35-4df5-9ba8-fcfa0cd8d52b"},"vehicle_type_id":"4","last_reported":1753596952,"current_range_meters":7200,"station_id":"","pricing_plan_id":"cebpf4jnsgd1na2vs0mg"},{"bike_id":"83a67c65-7f9b-4a81-a80c-c007cd448d24","system_id":"levelo_inurba_marseille","lat":43.292531,"lon":5.384314,"is_reserved":false,"is_disabled":false,"rental_uris":{"android":"levelo://app?vid=83a67c65-7f9b-4a81-a80c-c007cd448d24","ios":"levelo://app?vid=83a67c65-7f9b-4a81-a80c-c007cd448d24"},"vehicle_type_id":"4","last_reported":1753596952,"current_range_meters":7200,"station_id":"","pricing_plan_id":"cebpf4jnsgd1na2vs0mg"},{"bike_id":"0b6e37e1-db39-4d64-9941-7e484c9ea038","system_id":"levelo_inurba_marseille","lat":43.30144,"lon":5.38101,"is_reserved":false,"is_disabled":true,"rental_uris":{"android":"levelo://app?vid=0b6e37e1-db39-4d64-9941-7e484c9ea038","ios":"levelo://app?vid=0b6e37e1-db39-4d64-9941-7e484c9ea038"},"vehicle_type_id":"4","last_reported":1753596952,"current_range_meters":7200,"station_id":"ce4bgjp2rcd13ifvqbh0","pricing_plan_id":"cebpf4jnsgd1na2vs0mg"},{"bike_id":"a0d60e44-246d-4cc0-aef3-dc664879b373","system_id":"levelo_inurba_marseille","lat":43.21758,"lon":5.34582,"is_reserved":false,"is_disabled":true,"rental_uris":{"android":"levelo://app?vid=a0d60e44-246d-4cc0-aef3-dc664879b373","ios":"levelo://app?vid=a0d60e44-246d-4cc0-aef3-dc664879b373"},"vehicle_type_id":"4","last_reported":1753596952,"current_range_meters":8000,"station_id":"st_cvj6r9ubvosntc0bgbag","pricing_plan_id":"cebpf4jnsgd1na2vs0mg"},{"bike_id":"9ecd9ef7-e07c-47cd-a7c3-5ed0d84c5b67","system_id":"levelo_inurba_marseille","lat":43.29143,"lon":5.37449,"is_reserved":false,"is_disabled":false,"rental_uris":{"android":"levelo://app?vid=9ecd9ef7-e07c-47cd-a7c3-5ed0d84c5b67","ios":"levelo://app?vid=9ecd9ef7-e07c-47cd-a7c3-5ed0d84c5b67"},"vehicle_type_id":"4","last_reported":1753596952,"current_range_meters":8000,"station_id":"","pricing_plan_id":"cebpf4jnsgd1na2vs0mg"},{"bike_id":"f907f5fc-1c5d-420e-b462-8023f79ec54a","system_id":"levelo_inurba_marseille","lat":43.28721,"lon":5.39936,"is_reserved":false,"is_disabled":false,"rental_uris":{"android":"levelo://app?vid=f907f5fc-1c5d-420e-b462-8023f79ec54a","ios":"levelo://app?vid=f907f5fc-1c5d-420e-b462-8023f79ec54a"},"vehicle_type_id":"4","last_reported":1753596952,"current_range_meters":8000,"station_id":"","pricing_plan_id":"cebpf4jnsgd1na2vs0mg"},{"bike_id":"ab991371-506a-411d-b1d8-1efc5ac7cde6","system_id":"levelo_inurba_marseille","lat":43.22793,"lon":5.35175,"is_reserved":false,"is_disabled":false,"rental_uris":{"android":"levelo://app?vid=ab991371-506a-411d-b1d8-1efc5ac7cde6","ios":"levelo://app?vid=ab991371-506a-411d-b1d8-1efc5ac7cde6"},"vehicle_type_id":"4","last_reported":1753596952,"current_range_meters":8000,"station_id":"","pricing_plan_id":"cebpf4jnsgd1na2vs0mg"},{"bike_id":"75a52d90-a84e-49e8-9197-7fd3f8d0259a","system_id":"levelo_inurba_marseille","lat":43.26194,"lon":5.374656,"is_reserved":false,"is_disabled":true,"rental_uris":{"android":"levelo://app?vid=75a52d90-a84e-49e8-9197-7fd3f8d0259a","ios":"levelo://app?vid=75a52d90-a84e-49e8-9197-7fd3f8d0259a"},"vehicle_type_id":"4","last_reported":1753596952,"current_range_meters":8000,"station_id":"ce4bhgp2rcd13ifvqfc0","pricing_plan_id":"cebpf4jnsgd1na2vs0mg"},{"bike_id":"d8ede7a6-2370-4585-9b4e-834634539090","system_id":"levelo_inurba_marseille","lat":43.22489,"lon":5.34776,"is_reserved":false,"is_disabled":false,"rental_uris":{"android":"levelo://app?vid=d8ede7a6-2370-4585-9b4e-834634539090","ios":"levelo://app?vid=d8ede7a6-2370-4585-9b4e-834634539090"},"vehicle_type_id":"4","last_reported":1753596952,"current_range_meters":8400,"station_id":"st_cvj5dfep6f1abm77gieg","pricing_plan_id":"cebpf4jnsgd1na2vs0mg"},{"bike_id":"22dca147-1260-44d8-822d-d9d1d50cce31","system_id":"levelo_inurba_marseille","lat":43.27465,"lon":5.39583,"is_reserved":false,"is_disabled":true,"rental_uris":{"android":"levelo://app?vid=22dca147-1260-44d8-822d-d9d1d50cce31","ios":"levelo://app?vid=22dca147-1260-44d8-822d-d9d1d50cce31"},"vehicle_type_id":"4","last_reported":1753596952,"current_range_meters":8400,"station_id":"","pricing_plan_id":"cebpf4jnsgd1na2vs0mg"},{"bike_id":"01919711-51c0-4b9e-863e-584f9a31b4ec","system_id":"levelo_inurba_marseille","lat":43.298818,"lon":5.397444,"is_reserved":false,"is_disabled":true,"rental_uris":{"android":"levelo://app?vid=01919711-51c0-4b9e-863e-584f9a31b4ec","ios":"levelo://app?vid=01919711-51c0-4b9e-863e-584f9a31b4ec"},"vehicle_type_id":"4","last_reported":1753596952,"current_range_meters":8400,"station_id":"ce4bh0h2rcd13ifvqd50","pricing_plan_id":"cebpf4jnsgd1na2vs0mg"},{"bike_id":"dfe47d69-6adb-481f-ab6f-2e7a79e7b948","system_id":"levelo_inurba_marseille","lat":43.30935,"lon":5.40147,"is_reserved":false,"is_disabled":false,"rental_uris":{"android":"levelo://app?vid=dfe47d69-6adb-481f-ab6f-2e7a79e7b948","ios":"levelo://app?vid=dfe47d69-6adb-481f-ab6f-2e7a79e7b948"},"vehicle_type_id":"4","last_reported":1753596952,"current_range_meters":8400,"station_id":"ce4bgvp2rcd13ifvqct0","pricing_plan_id":"cebpf4jnsgd1na2vs0mg"},{"bike_id":"a3fe9995-2e3e-423b-9540-429a92fa997e","system_id":"levelo_inurba_marseille","lat":43.301837,"lon":5.371734,"is_reserved":false,"is_disabled":false,"rental_uris":{"android":"levelo://app?vid=a3fe9995-2e3e-423b-9540-429a92fa997e","ios":"levelo://app?vid=a3fe9995-2e3e-423b-9540-429a92fa997e"},"vehicle_type_id":"4","last_reported":1753596952,"current_range_meters":8400,"station_id":"","pricing_plan_id":"cebpf4jnsgd1na2vs0mg"},{"bike_id":"6ab0b13c-2ff1-417a-acfd-489d6800d4c9","system_id":"levelo_inurba_marseille","lat":43.27362,"lon":5.36227,"is_reserved":false,"is_disabled":true,"rental_uris":{"android":"levelo://app?vid=6ab0b13c-2ff1-417a-acfd-489d6800d4c9","ios":"levelo://app?vid=6ab0b13c-2ff1-417a-acfd-489d6800d4c9"},"vehicle_type_id":"4","last_reported":1753596952,"current_range_meters":8400,"station_id":"ce4bhbh2rcd13ifvqeo0","pricing_plan_id":"cebpf4jnsgd1na2vs0mg"},{"bike_id":"8e878e8f-5d80-490d-b86c-324c23d42717","system_id":"levelo_inurba_marseille","lat":43.29181,"lon":5.40755,"is_reserved":false,"is_disabled":false,"rental_uris":{"android":"levelo://app?vid=8e878e8f-5d80-490d-b86c-324c23d42717","ios":"levelo://app?vid=8e878e8f-5d80-490d-b86c-324c23d42717"},"vehicle_type_id":"4","last_reported":1753596952,"current_range_meters":8800,"station_id":"","pricing_plan_id":"cebpf4jnsgd1na2vs0mg"},{"bike_id":"43829768-16f7-4b76-b43e-664f9da6ef14","system_id":"levelo_inurba_marseille","lat":43.310666,"lon":5.383529,"is_reserved":false,"is_disabled":false,"rental_uris":{"android":"levelo://app?vid=43829768-16f7-4b76-b43e-664f9da6ef14","ios":"levelo://app?vid=43829768-16f7-4b76-b43e-664f9da6ef14"},"vehicle_type_id":"4","last_reported":1753596952,"current_range_meters":8800,"station_id":"ce4bgv92rcd13ifvqcr0","pricing_plan_id":"cebpf4jnsgd1na2vs0mg"},{"bike_id":"a520741a-dcb6-494d-9d43-0ad113907acb","system_id":"levelo_inurba_marseille","lat":43.29208,"lon":5.39998,"is_reserved":false,"is_disabled":false,"rental_uris":{"android":"levelo://app?vid=a520741a-dcb6-494d-9d43-0ad113907acb","ios":"levelo://app?vid=a520741a-dcb6-494d-9d43-0ad113907acb"},"vehicle_type_id":"4","last_reported":1753596952,"current_range_meters":8800,"station_id":"","pricing_plan_id":"cebpf4jnsgd1na2vs0mg"},{"bike_id":"295de28f-5469-421c-873e-076d2fbd1d95","system_id":"levelo_inurba_marseille","lat":43.28606,"lon":5.37037,"is_reserved":false,"is_disabled":false,"rental_uris":{"android":"levelo://app?vid=295de28f-5469-421c-873e-076d2fbd1d95","ios":"levelo://app?vid=295de28f-5469-421c-873e-076d2fbd1d95"},"vehicle_type_id":"4","last_reported":1753596952,"current_range_meters":8800,"station_id":"ce4bht12rcd13ifvqi60","pricing_plan_id":"cebpf4jnsgd1na2vs0mg"},{"bike_id":"8aec49e9-2a7c-473f-936a-01f180d46c56","system_id":"levelo_inurba_marseille","lat":43.225044,"lon":5.347839,"is_reserved":false,"is_disabled":false,"rental_uris":{"android":"levelo://app?vid=8aec49e9-2a7c-473f-936a-01f180d46c56","ios":"levelo://app?vid=8aec49e9-2a7c-473f-936a-01f180d46c56"},"vehicle_type_id":"4","last_reported":1753596952,"current_range_meters":8800,"station_id":"st_cvj5dfep6f1abm77gieg","pricing_plan_id":"cebpf4jnsgd1na2vs0mg"},{"bike_id":"de99b14c-9afd-4bdd-bc56-50354c110c3d","system_id":"levelo_inurba_marseille","lat":43.25467,"lon":5.37687,"is_reserved":false,"is_disabled":false,"rental_uris":{"android":"levelo://app?vid=de99b14c-9afd-4bdd-bc56-50354c110c3d","ios":"levelo://app?vid=de99b14c-9afd-4bdd-bc56-50354c110c3d"},"vehicle_type_id":"4","last_reported":1753596952,"current_range_meters":9200,"station_id":"","pricing_plan_id":"cebpf4jnsgd1na2vs0mg"},{"bike_id":"57755280-973c-4ff3-9c25-8f15e2c5b510","system_id":"levelo_inurba_marseille","lat":43.31872,"lon":5.37373,"is_reserved":false,"is_disabled":true,"rental_uris":{"android":"levelo://app?vid=57755280-973c-4ff3-9c25-8f15e2c5b510","ios":"levelo://app?vid=57755280-973c-4ff3-9c25-8f15e2c5b510"},"vehicle_type_id":"4","last_reported":1753596952,"current_range_meters":9200,"station_id":"","pricing_plan_id":"cebpf4jnsgd1na2vs0mg"},{"bike_id":"1e555c6b-044c-4bd1-a690-5b7bdd1ff5ab","system_id":"levelo_inurba_marseille","lat":43.30956,"lon":5.39041,"is_reserved":false,"is_disabled":true,"rental_uris":{"android":"levelo://app?vid=1e555c6b-044c-4bd1-a690-5b7bdd1ff5ab","ios":"levelo://app?vid=1e555c6b-044c-4bd1-a690-5b7bdd1ff5ab"},"vehicle_type_id":"4","last_reported":1753596952,"current_range_meters":9600,"station_id":"ce4bgup2rcd13ifvqco0","pricing_plan_id":"cebpf4jnsgd1na2vs0mg"},{"bike_id":"f2c0d178-a474-46a0-b002-379a7a30c411","system_id":"levelo_inurba_marseille","lat":43.29428,"lon":5.37603,"is_reserved":false,"is_disabled":false,"rental_uris":{"android":"levelo://app?vid=f2c0d178-a474-46a0-b002-379a7a30c411","ios":"levelo://app?vid=f2c0d178-a474-46a0-b002-379a7a30c411"},"vehicle_type_id":"4","last_reported":1753596952,"current_range_meters":9600,"station_id":"","pricing_plan_id":"cebpf4jnsgd1na2vs0mg"},{"bike_id":"eb858993-163d-414c-b6a6-c5cb7599db23","system_id":"levelo_inurba_marseille","lat":43.27425,"lon":5.394265,"is_reserved":false,"is_disabled":false,"rental_uris":{"android":"levelo://app?vid=eb858993-163d-414c-b6a6-c5cb7599db23","ios":"levelo://app?vid=eb858993-163d-414c-b6a6-c5cb7599db23"},"vehicle_type_id":"4","last_reported":1753596952,"current_range_meters":9200,"station_id":"ce4bhdp2rcd13ifvqf20","pricing_plan_id":"cebpf4jnsgd1na2vs0mg"},{"bike_id":"e12e8492-ebb5-494e-9a26-60742e21ef5e","system_id":"levelo_inurba_marseille","lat":43.28719,"lon":5.39977,"is_reserved":false,"is_disabled":false,"rental_uris":{"android":"levelo://app?vid=e12e8492-ebb5-494e-9a26-60742e21ef5e","ios":"levelo://app?vid=e12e8492-ebb5-494e-9a26-60742e21ef5e"},"vehicle_type_id":"4","last_reported":1753596952,"current_range_meters":9600,"station_id":"ce4bho92rcd13ifvqh3g","pricing_plan_id":"cebpf4jnsgd1na2vs0mg"},{"bike_id":"eb2e5630-7b5e-4fc2-9164-8335c20306ca","system_id":"levelo_inurba_marseille","lat":43.30735,"lon":5.4244,"is_reserved":false,"is_disabled":false,"rental_uris":{"android":"levelo://app?vid=eb2e5630-7b5e-4fc2-9164-8335c20306ca","ios":"levelo://app?vid=eb2e5630-7b5e-4fc2-9164-8335c20306ca"},"vehicle_type_id":"4","last_reported":1753596952,"current_range_meters":9600,"station_id":"st_cvj6ca6bvosntc0bfgr0","pricing_plan_id":"cebpf4jnsgd1na2vs0mg"},{"bike_id":"52859a08-51f2-4403-afb6-16e93cbfb11f","system_id":"levelo_inurba_marseille","lat":43.31668,"lon":5.40482,"is_reserved":false,"is_disabled":false,"rental_uris":{"android":"levelo://app?vid=52859a08-51f2-4403-afb6-16e93cbfb11f","ios":"levelo://app?vid=52859a08-51f2-4403-afb6-16e93cbfb11f"},"vehicle_type_id":"4","last_reported":1753596952,"current_range_meters":9600,"station_id":"ce4bh012rcd13ifvqd00","pricing_plan_id":"cebpf4jnsgd1na2vs0mg"},{"bike_id":"7c6c227b-f9a2-452f-ac0e-10a3ce19d98e","system_id":"levelo_inurba_marseille","lat":43.28458,"lon":5.35893,"is_reserved":false,"is_disabled":false,"rental_uris":{"android":"levelo://app?vid=7c6c227b-f9a2-452f-ac0e-10a3ce19d98e","ios":"levelo://app?vid=7c6c227b-f9a2-452f-ac0e-10a3ce19d98e"},"vehicle_type_id":"4","last_reported":1753596952,"current_range_meters":9600,"station_id":"ce4bhah2rcd13ifvqei0","pricing_plan_id":"cebpf4jnsgd1na2vs0mg"},{"bike_id":"91bce01a-afd4-4344-8169-29d626e55b18","system_id":"levelo_inurba_marseille","lat":43.286913,"lon":5.386597,"is_reserved":false,"is_disabled":false,"rental_uris":{"android":"levelo://app?vid=91bce01a-afd4-4344-8169-29d626e55b18","ios":"levelo://app?vid=91bce01a-afd4-4344-8169-29d626e55b18"},"vehicle_type_id":"4","last_reported":1753596952,"current_range_meters":9600,"station_id":"ce4bh492rcd13ifvqdug","pricing_plan_id":"cebpf4jnsgd1na2vs0mg"},{"bike_id":"3594dc8a-6a93-46ec-afcc-0f2d25f4fa0b","system_id":"levelo_inurba_marseille","lat":43.28741,"lon":5.36053,"is_reserved":false,"is_disabled":false,"rental_uris":{"android":"levelo://app?vid=3594dc8a-6a93-46ec-afcc-0f2d25f4fa0b","ios":"levelo://app?vid=3594dc8a-6a93-46ec-afcc-0f2d25f4fa0b"},"vehicle_type_id":"4","last_reported":1753596952,"current_range_meters":9600,"station_id":"cki0cbj6b192h4jlfktg","pricing_plan_id":"cebpf4jnsgd1na2vs0mg"},{"bike_id":"315d4637-0f05-4e02-ae0b-52e018b5ade9","system_id":"levelo_inurba_marseille","lat":43.28864,"lon":5.39308,"is_reserved":false,"is_disabled":false,"rental_uris":{"android":"levelo://app?vid=315d4637-0f05-4e02-ae0b-52e018b5ade9","ios":"levelo://app?vid=315d4637-0f05-4e02-ae0b-52e018b5ade9"},"vehicle_type_id":"4","last_reported":1753596952,"current_range_meters":10000,"station_id":"ce4bh2p2rcd13ifvqdi0","pricing_plan_id":"cebpf4jnsgd1na2vs0mg"},{"bike_id":"4eb8e6d8-6017-4e84-a7f3-2ace9b6fffab","system_id":"levelo_inurba_marseille","lat":43.312773,"lon":5.401595,"is_reserved":false,"is_disabled":false,"rental_uris":{"android":"levelo://app?vid=4eb8e6d8-6017-4e84-a7f3-2ace9b6fffab","ios":"levelo://app?vid=4eb8e6d8-6017-4e84-a7f3-2ace9b6fffab"},"vehicle_type_id":"4","last_reported":1753596952,"current_range_meters":10000,"station_id":"ce4bh092rcd13ifvqd30","pricing_plan_id":"cebpf4jnsgd1na2vs0mg"},{"bike_id":"80cda384-a0de-4854-88d7-81c5eb0a10d1","system_id":"levelo_inurba_marseille","lat":43.289422,"lon":5.364022,"is_reserved":false,"is_disabled":true,"rental_uris":{"android":"levelo://app?vid=80cda384-a0de-4854-88d7-81c5eb0a10d1","ios":"levelo://app?vid=80cda384-a0de-4854-88d7-81c5eb0a10d1"},"vehicle_type_id":"4","last_reported":1753596952,"current_range_meters":10000,"station_id":"ce4bhc92rcd13ifvqetg","pricing_plan_id":"cebpf4jnsgd1na2vs0mg"},{"bike_id":"53ef8a59-b619-4569-8c4f-4c6ff0b90b29","system_id":"levelo_inurba_marseille","lat":43.28711,"lon":5.39976,"is_reserved":false,"is_disabled":false,"rental_uris":{"android":"levelo://app?vid=53ef8a59-b619-4569-8c4f-4c6ff0b90b29","ios":"levelo://app?vid=53ef8a59-b619-4569-8c4f-4c6ff0b90b29"},"vehicle_type_id":"4","last_reported":1753596952,"current_range_meters":10000,"station_id":"ce4bho92rcd13ifvqh3g","pricing_plan_id":"cebpf4jnsgd1na2vs0mg"},{"bike_id":"76874c93-4196-48c1-b4ce-9dc79e3034f2","system_id":"levelo_inurba_marseille","lat":43.317622,"lon":5.390124,"is_reserved":false,"is_disabled":false,"rental_uris":{"android":"levelo://app?vid=76874c93-4196-48c1-b4ce-9dc79e3034f2","ios":"levelo://app?vid=76874c93-4196-48c1-b4ce-9dc79e3034f2"},"vehicle_type_id":"4","last_reported":1753596952,"current_range_meters":10800,"station_id":"ce4bhqp2rcd13ifvqhng","pricing_plan_id":"cebpf4jnsgd1na2vs0mg"},{"bike_id":"d00b6abc-174d-48a1-8e37-47955a519e3f","system_id":"levelo_inurba_marseille","lat":43.22964,"lon":5.35343,"is_reserved":false,"is_disabled":false,"rental_uris":{"android":"levelo://app?vid=d00b6abc-174d-48a1-8e37-47955a519e3f","ios":"levelo://app?vid=d00b6abc-174d-48a1-8e37-47955a519e3f"},"vehicle_type_id":"4","last_reported":1753596952,"current_range_meters":10800,"station_id":"","pricing_plan_id":"cebpf4jnsgd1na2vs0mg"},{"bike_id":"1b4f060d-024e-4b5b-a67b-2d78d44d6edb","system_id":"levelo_inurba_marseille","lat":43.22505,"lon":5.3477,"is_reserved":false,"is_disabled":true,"rental_uris":{"android":"levelo://app?vid=1b4f060d-024e-4b5b-a67b-2d78d44d6edb","ios":"levelo://app?vid=1b4f060d-024e-4b5b-a67b-2d78d44d6edb"},"vehicle_type_id":"4","last_reported":1753596952,"current_range_meters":10800,"station_id":"st_cvj5dfep6f1abm77gieg","pricing_plan_id":"cebpf4jnsgd1na2vs0mg"},{"bike_id":"9995144f-2085-423c-b0a0-4bd80fdaf928","system_id":"levelo_inurba_marseille","lat":43.295765,"lon":5.399665,"is_reserved":false,"is_disabled":false,"rental_uris":{"android":"levelo://app?vid=9995144f-2085-423c-b0a0-4bd80fdaf928","ios":"levelo://app?vid=9995144f-2085-423c-b0a0-4bd80fdaf928"},"vehicle_type_id":"4","last_reported":1753596952,"current_range_meters":10800,"station_id":"ce4bh312rcd13ifvqdj0","pricing_plan_id":"cebpf4jnsgd1na2vs0mg"},{"bike_id":"7196282a-8e20-4742-a856-025cc2611a9a","system_id":"levelo_inurba_marseille","lat":43.30929,"lon":5.40153,"is_reserved":false,"is_disabled":false,"rental_uris":{"android":"levelo://app?vid=7196282a-8e20-4742-a856-025cc2611a9a","ios":"levelo://app?vid=7196282a-8e20-4742-a856-025cc2611a9a"},"vehicle_type_id":"4","last_reported":1753596952,"current_range_meters":10800,"station_id":"ce4bgvp2rcd13ifvqct0","pricing_plan_id":"cebpf4jnsgd1na2vs0mg"},{"bike_id":"3902dffc-78e7-41a6-acbd-2f993885378c","system_id":"levelo_inurba_marseille","lat":43.312821,"lon":5.401667,"is_reserved":false,"is_disabled":false,"rental_uris":{"android":"levelo://app?vid=3902dffc-78e7-41a6-acbd-2f993885378c","ios":"levelo://app?vid=3902dffc-78e7-41a6-acbd-2f993885378c"},"vehicle_type_id":"4","last_reported":1753596952,"current_range_meters":10800,"station_id":"ce4bh092rcd13ifvqd30","pricing_plan_id":"cebpf4jnsgd1na2vs0mg"},{"bike_id":"ad676354-5f32-402a-ace7-3af7e2297b05","system_id":"levelo_inurba_marseille","lat":43.32345,"lon":5.36742,"is_reserved":false,"is_disabled":false,"rental_uris":{"android":"levelo://app?vid=ad676354-5f32-402a-ace7-3af7e2297b05","ios":"levelo://app?vid=ad676354-5f32-402a-ace7-3af7e2297b05"},"vehicle_type_id":"4","last_reported":1753596952,"current_range_meters":10800,"station_id":"ce4bhsh2rcd13ifvqi2g","pricing_plan_id":"cebpf4jnsgd1na2vs0mg"},{"bike_id":"dd5b3db2-62f9-4716-992d-435138b6493d","system_id":"levelo_inurba_marseille","lat":43.30804,"lon":5.38155,"is_reserved":false,"is_disabled":true,"rental_uris":{"android":"levelo://app?vid=dd5b3db2-62f9-4716-992d-435138b6493d","ios":"levelo://app?vid=dd5b3db2-62f9-4716-992d-435138b6493d"},"vehicle_type_id":"4","last_reported":1753596952,"current_range_meters":10800,"station_id":"ce4bgt12rcd13ifvqce0","pricing_plan_id":"cebpf4jnsgd1na2vs0mg"},{"bike_id":"2fa9dd39-7ea8-42db-9ead-ca5e3675e815","system_id":"levelo_inurba_marseille","lat":43.302122,"lon":5.394593,"is_reserved":false,"is_disabled":true,"rental_uris":{"android":"levelo://app?vid=2fa9dd39-7ea8-42db-9ead-ca5e3675e815","ios":"levelo://app?vid=2fa9dd39-7ea8-42db-9ead-ca5e3675e815"},"vehicle_type_id":"4","last_reported":1753596952,"current_range_meters":10800,"station_id":"ce4bh0p2rcd13ifvqd70","pricing_plan_id":"cebpf4jnsgd1na2vs0mg"},{"bike_id":"c3c2652b-f2d7-4ed4-89ec-9559feb01451","system_id":"levelo_inurba_marseille","lat":43.29226,"lon":5.360481,"is_reserved":false,"is_disabled":true,"rental_uris":{"android":"levelo://app?vid=c3c2652b-f2d7-4ed4-89ec-9559feb01451","ios":"levelo://app?vid=c3c2652b-f2d7-4ed4-89ec-9559feb01451"},"vehicle_type_id":"4","last_reported":1753596952,"current_range_meters":11200,"station_id":"ce4bhbh2rcd13ifvqeqg","pricing_plan_id":"cebpf4jnsgd1na2vs0mg"},{"bike_id":"81fd8889-6d34-4233-b5fb-6df92dc89b48","system_id":"levelo_inurba_marseille","lat":43.30596,"lon":5.37186,"is_reserved":false,"is_disabled":false,"rental_uris":{"android":"levelo://app?vid=81fd8889-6d34-4233-b5fb-6df92dc89b48","ios":"levelo://app?vid=81fd8889-6d34-4233-b5fb-6df92dc89b48"},"vehicle_type_id":"4","last_reported":1753596952,"current_range_meters":11200,"station_id":"ce4bgqh2rcd13ifvqc4g","pricing_plan_id":"cebpf4jnsgd1na2vs0mg"},{"bike_id":"b6751497-a40a-45f8-83f1-ad7426e2abbb","system_id":"levelo_inurba_marseille","lat":43.31117,"lon":5.37774,"is_reserved":false,"is_disabled":false,"rental_uris":{"android":"levelo://app?vid=b6751497-a40a-45f8-83f1-ad7426e2abbb","ios":"levelo://app?vid=b6751497-a40a-45f8-83f1-ad7426e2abbb"},"vehicle_type_id":"4","last_reported":1753596952,"current_range_meters":11200,"station_id":"ce4bgt92rcd13ifvqcg0","pricing_plan_id":"cebpf4jnsgd1na2vs0mg"},{"bike_id":"4f069cb2-e85f-44ab-8659-b3444c19b657","system_id":"levelo_inurba_marseille","lat":43.23177,"lon":5.35555,"is_reserved":false,"is_disabled":false,"rental_uris":{"android":"levelo://app?vid=4f069cb2-e85f-44ab-8659-b3444c19b657","ios":"levelo://app?vid=4f069cb2-e85f-44ab-8659-b3444c19b657"},"vehicle_type_id":"4","last_reported":1753596952,"current_range_meters":11200,"station_id":"ce4bhu92rcd13ifvqi70","pricing_plan_id":"cebpf4jnsgd1na2vs0mg"},{"bike_id":"61cd7fe3-237f-4708-afc7-dd8a81b4454c","system_id":"levelo_inurba_marseille","lat":43.229304,"lon":5.353824,"is_reserved":false,"is_disabled":false,"rental_uris":{"android":"levelo://app?vid=61cd7fe3-237f-4708-afc7-dd8a81b4454c","ios":"levelo://app?vid=61cd7fe3-237f-4708-afc7-dd8a81b4454c"},"vehicle_type_id":"4","last_reported":1753596952,"current_range_meters":11200,"station_id":"cpo3532slgdg3j2ikp40","pricing_plan_id":"cebpf4jnsgd1na2vs0mg"},{"bike_id":"3e7f512d-c1e0-49b1-a237-1dd2b80e25e7","system_id":"levelo_inurba_marseille","lat":43.240629,"lon":5.377537,"is_reserved":false,"is_disabled":false,"rental_uris":{"android":"levelo://app?vid=3e7f512d-c1e0-49b1-a237-1dd2b80e25e7","ios":"levelo://app?vid=3e7f512d-c1e0-49b1-a237-1dd2b80e25e7"},"vehicle_type_id":"4","last_reported":1753596952,"current_range_meters":11200,"station_id":"ce4bhnp2rcd13ifvqgvg","pricing_plan_id":"cebpf4jnsgd1na2vs0mg"},{"bike_id":"4e97a19b-88ac-4646-bb67-c4e1763b513d","system_id":"levelo_inurba_marseille","lat":43.29258,"lon":5.38433,"is_reserved":false,"is_disabled":true,"rental_uris":{"android":"levelo://app?vid=4e97a19b-88ac-4646-bb67-c4e1763b513d","ios":"levelo://app?vid=4e97a19b-88ac-4646-bb67-c4e1763b513d"},"vehicle_type_id":"4","last_reported":1753596952,"current_range_meters":11200,"station_id":"ce4bh692rcd13ifvqea0","pricing_plan_id":"cebpf4jnsgd1na2vs0mg"},{"bike_id":"30133404-7504-46d1-a210-93560b553255","system_id":"levelo_inurba_marseille","lat":43.317098,"lon":5.37777,"is_reserved":false,"is_disabled":false,"rental_uris":{"android":"levelo://app?vid=30133404-7504-46d1-a210-93560b553255","ios":"levelo://app?vid=30133404-7504-46d1-a210-93560b553255"},"vehicle_type_id":"4","last_reported":1753596952,"current_range_meters":11200,"station_id":"ce4bgth2rcd13ifvqch0","pricing_plan_id":"cebpf4jnsgd1na2vs0mg"},{"bike_id":"bb0db1a8-1b0c-444a-bb9a-ea686810084f","system_id":"levelo_inurba_marseille","lat":43.22505,"lon":5.34767,"is_reserved":false,"is_disabled":false,"rental_uris":{"android":"levelo://app?vid=bb0db1a8-1b0c-444a-bb9a-ea686810084f","ios":"levelo://app?vid=bb0db1a8-1b0c-444a-bb9a-ea686810084f"},"vehicle_type_id":"4","last_reported":1753596952,"current_range_meters":11200,"station_id":"st_cvj5dfep6f1abm77gieg","pricing_plan_id":"cebpf4jnsgd1na2vs0mg"},{"bike_id":"0629e191-9bdb-4f9b-b2c7-fbf450dadc9d","system_id":"levelo_inurba_marseille","lat":43.22928,"lon":5.35377,"is_reserved":false,"is_disabled":false,"rental_uris":{"android":"levelo://app?vid=0629e191-9bdb-4f9b-b2c7-fbf450dadc9d","ios":"levelo://app?vid=0629e191-9bdb-4f9b-b2c7-fbf450dadc9d"},"vehicle_type_id":"4","last_reported":1753596952,"current_range_meters":11200,"station_id":"cpo3532slgdg3j2ikp40","pricing_plan_id":"cebpf4jnsgd1na2vs0mg"},{"bike_id":"7e65c5ea-0429-45f5-a396-bd32e67f0744","system_id":"levelo_inurba_marseille","lat":43.33463,"lon":5.40049,"is_reserved":false,"is_disabled":false,"rental_uris":{"android":"levelo://app?vid=7e65c5ea-0429-45f5-a396-bd32e67f0744","ios":"levelo://app?vid=7e65c5ea-0429-45f5-a396-bd32e67f0744"},"vehicle_type_id":"4","last_reported":1753596952,"current_range_meters":11200,"station_id":"","pricing_plan_id":"cebpf4jnsgd1na2vs0mg"},{"bike_id":"9377d52d-7c04-4205-81e5-05265b3eabff","system_id":"levelo_inurba_marseille","lat":43.287091,"lon":5.379342,"is_reserved":false,"is_disabled":true,"rental_uris":{"android":"levelo://app?vid=9377d52d-7c04-4205-81e5-05265b3eabff","ios":"levelo://app?vid=9377d52d-7c04-4205-81e5-05265b3eabff"},"vehicle_type_id":"4","last_reported":1753596952,"current_range_meters":11600,"station_id":"ce4bh9p2rcd13ifvqec0","pricing_plan_id":"cebpf4jnsgd1na2vs0mg"},{"bike_id":"43cf4049-15dd-4e8c-88a8-61cd8dc10bf5","system_id":"levelo_inurba_marseille","lat":43.33251,"lon":5.37999,"is_reserved":false,"is_disabled":true,"rental_uris":{"android":"levelo://app?vid=43cf4049-15dd-4e8c-88a8-61cd8dc10bf5","ios":"levelo://app?vid=43cf4049-15dd-4e8c-88a8-61cd8dc10bf5"},"vehicle_type_id":"4","last_reported":1753596952,"current_range_meters":11600,"station_id":"","pricing_plan_id":"cebpf4jnsgd1na2vs0mg"},{"bike_id":"f3d9f4e3-18e1-46b0-943e-1414afeca2da","system_id":"levelo_inurba_marseille","lat":43.22952,"lon":5.35371,"is_reserved":false,"is_disabled":false,"rental_uris":{"android":"levelo://app?vid=f3d9f4e3-18e1-46b0-943e-1414afeca2da","ios":"levelo://app?vid=f3d9f4e3-18e1-46b0-943e-1414afeca2da"},"vehicle_type_id":"4","last_reported":1753596952,"current_range_meters":11600,"station_id":"cpo3532slgdg3j2ikp40","pricing_plan_id":"cebpf4jnsgd1na2vs0mg"},{"bike_id":"02cab979-ccb2-40ce-bd89-cd624415fc04","system_id":"levelo_inurba_marseille","lat":43.277765,"lon":5.399471,"is_reserved":false,"is_disabled":false,"rental_uris":{"android":"levelo://app?vid=02cab979-ccb2-40ce-bd89-cd624415fc04","ios":"levelo://app?vid=02cab979-ccb2-40ce-bd89-cd624415fc04"},"vehicle_type_id":"4","last_reported":1753596952,"current_range_meters":11600,"station_id":"","pricing_plan_id":"cebpf4jnsgd1na2vs0mg"},{"bike_id":"c5794c7a-bb35-409f-9175-7d8933c8fd68","system_id":"levelo_inurba_marseille","lat":43.31107,"lon":5.39612,"is_reserved":false,"is_disabled":false,"rental_uris":{"android":"levelo://app?vid=c5794c7a-bb35-409f-9175-7d8933c8fd68","ios":"levelo://app?vid=c5794c7a-bb35-409f-9175-7d8933c8fd68"},"vehicle_type_id":"4","last_reported":1753596952,"current_range_meters":11600,"station_id":"","pricing_plan_id":"cebpf4jnsgd1na2vs0mg"},{"bike_id":"1bc45126-5a42-4554-aade-2c8d76493896","system_id":"levelo_inurba_marseille","lat":43.3135,"lon":5.384943,"is_reserved":false,"is_disabled":false,"rental_uris":{"android":"levelo://app?vid=1bc45126-5a42-4554-aade-2c8d76493896","ios":"levelo://app?vid=1bc45126-5a42-4554-aade-2c8d76493896"},"vehicle_type_id":"4","last_reported":1753596952,"current_range_meters":11600,"station_id":"ce4bgt92rcd13ifvqcf0","pricing_plan_id":"cebpf4jnsgd1na2vs0mg"},{"bike_id":"b895b54e-07d8-473e-85aa-63378254c806","system_id":"levelo_inurba_marseille","lat":43.2293,"lon":5.35366,"is_reserved":false,"is_disabled":false,"rental_uris":{"android":"levelo://app?vid=b895b54e-07d8-473e-85aa-63378254c806","ios":"levelo://app?vid=b895b54e-07d8-473e-85aa-63378254c806"},"vehicle_type_id":"4","last_reported":1753596952,"current_range_meters":12000,"station_id":"cpo3532slgdg3j2ikp40","pricing_plan_id":"cebpf4jnsgd1na2vs0mg"},{"bike_id":"d5a63dee-a415-40f6-88a8-f1d25d6ddaa1","system_id":"levelo_inurba_marseille","lat":43.290311,"lon":5.399895,"is_reserved":false,"is_disabled":true,"rental_uris":{"android":"levelo://app?vid=d5a63dee-a415-40f6-88a8-f1d25d6ddaa1","ios":"levelo://app?vid=d5a63dee-a415-40f6-88a8-f1d25d6ddaa1"},"vehicle_type_id":"4","last_reported":1753596952,"current_range_meters":12000,"station_id":"ce4bh392rcd13ifvqdm0","pricing_plan_id":"cebpf4jnsgd1na2vs0mg"},{"bike_id":"1e5c96a6-9d0f-4d5f-85ef-5a5f8ac0317a","system_id":"levelo_inurba_marseille","lat":43.33437,"lon":5.39121,"is_reserved":false,"is_disabled":false,"rental_uris":{"android":"levelo://app?vid=1e5c96a6-9d0f-4d5f-85ef-5a5f8ac0317a","ios":"levelo://app?vid=1e5c96a6-9d0f-4d5f-85ef-5a5f8ac0317a"},"vehicle_type_id":"4","last_reported":1753596952,"current_range_meters":12000,"station_id":"","pricing_plan_id":"cebpf4jnsgd1na2vs0mg"},{"bike_id":"a1d5115b-997f-44a5-8b4b-21cb29757407","system_id":"levelo_inurba_marseille","lat":43.31206,"lon":5.37307,"is_reserved":false,"is_disabled":false,"rental_uris":{"android":"levelo://app?vid=a1d5115b-997f-44a5-8b4b-21cb29757407","ios":"levelo://app?vid=a1d5115b-997f-44a5-8b4b-21cb29757407"},"vehicle_type_id":"4","last_reported":1753596952,"current_range_meters":12000,"station_id":"","pricing_plan_id":"cebpf4jnsgd1na2vs0mg"},{"bike_id":"a7d896f9-ed90-400f-b521-60f094bf2ab7","system_id":"levelo_inurba_marseille","lat":43.212,"lon":5.35048,"is_reserved":false,"is_disabled":false,"rental_uris":{"android":"levelo://app?vid=a7d896f9-ed90-400f-b521-60f094bf2ab7","ios":"levelo://app?vid=a7d896f9-ed90-400f-b521-60f094bf2ab7"},"vehicle_type_id":"4","last_reported":1753596952,"current_range_meters":12400,"station_id":"st_cvj6sg6p6f1abm77japg","pricing_plan_id":"cebpf4jnsgd1na2vs0mg"},{"bike_id":"898d1f8e-e261-4f25-9386-a6825028d102","system_id":"levelo_inurba_marseille","lat":43.290694,"lon":5.473483,"is_reserved":false,"is_disabled":false,"rental_uris":{"android":"levelo://app?vid=898d1f8e-e261-4f25-9386-a6825028d102","ios":"levelo://app?vid=898d1f8e-e261-4f25-9386-a6825028d102"},"vehicle_type_id":"4","last_reported":1753596952,"current_range_meters":12400,"station_id":"","pricing_plan_id":"cebpf4jnsgd1na2vs0mg"},{"bike_id":"690bdb28-ab22-4b3f-846e-0b505f9cd023","system_id":"levelo_inurba_marseille","lat":43.284856,"lon":5.384224,"is_reserved":false,"is_disabled":false,"rental_uris":{"android":"levelo://app?vid=690bdb28-ab22-4b3f-846e-0b505f9cd023","ios":"levelo://app?vid=690bdb28-ab22-4b3f-846e-0b505f9cd023"},"vehicle_type_id":"4","last_reported":1753596952,"current_range_meters":12400,"station_id":"ce4bh512rcd13ifvqe3g","pricing_plan_id":"cebpf4jnsgd1na2vs0mg"},{"bike_id":"54405b04-0f04-4c64-af8f-9ccbb34ae9ba","system_id":"levelo_inurba_marseille","lat":43.280351,"lon":5.369459,"is_reserved":false,"is_disabled":false,"rental_uris":{"android":"levelo://app?vid=54405b04-0f04-4c64-af8f-9ccbb34ae9ba","ios":"levelo://app?vid=54405b04-0f04-4c64-af8f-9ccbb34ae9ba"},"vehicle_type_id":"4","last_reported":1753596952,"current_range_meters":12400,"station_id":"ce4bha12rcd13ifvqef0","pricing_plan_id":"cebpf4jnsgd1na2vs0mg"},{"bike_id":"706555d6-f7d3-481b-bda9-1c4099510dc4","system_id":"levelo_inurba_marseille","lat":43.2293,"lon":5.35382,"is_reserved":false,"is_disabled":false,"rental_uris":{"android":"levelo://app?vid=706555d6-f7d3-481b-bda9-1c4099510dc4","ios":"levelo://app?vid=706555d6-f7d3-481b-bda9-1c4099510dc4"},"vehicle_type_id":"4","last_reported":1753596952,"current_range_meters":12400,"station_id":"cpo3532slgdg3j2ikp40","pricing_plan_id":"cebpf4jnsgd1na2vs0mg"},{"bike_id":"9dfdeb8a-ee13-4931-94b4-ad2b5f23aa4b","system_id":"levelo_inurba_marseille","lat":43.231973,"lon":5.399894,"is_reserved":false,"is_disabled":true,"rental_uris":{"android":"levelo://app?vid=9dfdeb8a-ee13-4931-94b4-ad2b5f23aa4b","ios":"levelo://app?vid=9dfdeb8a-ee13-4931-94b4-ad2b5f23aa4b"},"vehicle_type_id":"4","last_reported":1753596952,"current_range_meters":12400,"station_id":"ce4bhn12rcd13ifvqgqg","pricing_plan_id":"cebpf4jnsgd1na2vs0mg"},{"bike_id":"bdc8ef21-146d-46ff-9c91-249dba0037c7","system_id":"levelo_inurba_marseille","lat":43.22917,"lon":5.35388,"is_reserved":false,"is_disabled":false,"rental_uris":{"android":"levelo://app?vid=bdc8ef21-146d-46ff-9c91-249dba0037c7","ios":"levelo://app?vid=bdc8ef21-146d-46ff-9c91-249dba0037c7"},"vehicle_type_id":"4","last_reported":1753596952,"current_range_meters":12400,"station_id":"cpo3532slgdg3j2ikp40","pricing_plan_id":"cebpf4jnsgd1na2vs0mg"},{"bike_id":"a05343f6-5345-451e-92c9-8d14b4ec04eb","system_id":"levelo_inurba_marseille","lat":43.314919,"lon":5.373082,"is_reserved":false,"is_disabled":false,"rental_uris":{"android":"levelo://app?vid=a05343f6-5345-451e-92c9-8d14b4ec04eb","ios":"levelo://app?vid=a05343f6-5345-451e-92c9-8d14b4ec04eb"},"vehicle_type_id":"4","last_reported":1753596952,"current_range_meters":12400,"station_id":"","pricing_plan_id":"cebpf4jnsgd1na2vs0mg"},{"bike_id":"090d29c5-74ce-4ff9-9bee-d0ebf9b2f589","system_id":"levelo_inurba_marseille","lat":43.29445,"lon":5.39745,"is_reserved":false,"is_disabled":false,"rental_uris":{"android":"levelo://app?vid=090d29c5-74ce-4ff9-9bee-d0ebf9b2f589","ios":"levelo://app?vid=090d29c5-74ce-4ff9-9bee-d0ebf9b2f589"},"vehicle_type_id":"4","last_reported":1753596952,"current_range_meters":12400,"station_id":"ce4bh3h2rcd13ifvqdo0","pricing_plan_id":"cebpf4jnsgd1na2vs0mg"},{"bike_id":"43dbc09e-d0e4-4ddb-bafe-4f55874d23a9","system_id":"levelo_inurba_marseille","lat":43.30233,"lon":5.38204,"is_reserved":false,"is_disabled":false,"rental_uris":{"android":"levelo://app?vid=43dbc09e-d0e4-4ddb-bafe-4f55874d23a9","ios":"levelo://app?vid=43dbc09e-d0e4-4ddb-bafe-4f55874d23a9"},"vehicle_type_id":"4","last_reported":1753596952,"current_range_meters":12400,"station_id":"","pricing_plan_id":"cebpf4jnsgd1na2vs0mg"},{"bike_id":"9188366a-c6a3-4354-b558-553177316347","system_id":"levelo_inurba_marseille","lat":43.26268,"lon":5.37417,"is_reserved":false,"is_disabled":true,"rental_uris":{"android":"levelo://app?vid=9188366a-c6a3-4354-b558-553177316347","ios":"levelo://app?vid=9188366a-c6a3-4354-b558-553177316347"},"vehicle_type_id":"4","last_reported":1753596952,"current_range_meters":12400,"station_id":"","pricing_plan_id":"cebpf4jnsgd1na2vs0mg"},{"bike_id":"bedd5d41-2a79-468d-b057-cdbc0e80362b","system_id":"levelo_inurba_marseille","lat":43.292597,"lon":5.409022,"is_reserved":false,"is_disabled":false,"rental_uris":{"android":"levelo://app?vid=bedd5d41-2a79-468d-b057-cdbc0e80362b","ios":"levelo://app?vid=bedd5d41-2a79-468d-b057-cdbc0e80362b"},"vehicle_type_id":"4","last_reported":1753596952,"current_range_meters":12800,"station_id":"ce4bh192rcd13ifvqdc0","pricing_plan_id":"cebpf4jnsgd1na2vs0mg"},{"bike_id":"1a8dca22-c656-4807-8819-ff03a2da9bf4","system_id":"levelo_inurba_marseille","lat":43.31072,"lon":5.38322,"is_reserved":false,"is_disabled":false,"rental_uris":{"android":"levelo://app?vid=1a8dca22-c656-4807-8819-ff03a2da9bf4","ios":"levelo://app?vid=1a8dca22-c656-4807-8819-ff03a2da9bf4"},"vehicle_type_id":"4","last_reported":1753596952,"current_range_meters":12800,"station_id":"ce4bgv92rcd13ifvqcr0","pricing_plan_id":"cebpf4jnsgd1na2vs0mg"},{"bike_id":"1533361c-c8b0-46c4-bb07-47847e110ffc","system_id":"levelo_inurba_marseille","lat":43.28164,"lon":5.42691,"is_reserved":false,"is_disabled":false,"rental_uris":{"android":"levelo://app?vid=1533361c-c8b0-46c4-bb07-47847e110ffc","ios":"levelo://app?vid=1533361c-c8b0-46c4-bb07-47847e110ffc"},"vehicle_type_id":"4","last_reported":1753596952,"current_range_meters":12800,"station_id":"ce4bhnh2rcd13ifvqgug","pricing_plan_id":"cebpf4jnsgd1na2vs0mg"},{"bike_id":"ec370b31-cc55-499b-a9ad-82a32cff8b80","system_id":"levelo_inurba_marseille","lat":43.30321,"lon":5.40427,"is_reserved":false,"is_disabled":false,"rental_uris":{"android":"levelo://app?vid=ec370b31-cc55-499b-a9ad-82a32cff8b80","ios":"levelo://app?vid=ec370b31-cc55-499b-a9ad-82a32cff8b80"},"vehicle_type_id":"4","last_reported":1753596952,"current_range_meters":13600,"station_id":"ce4bh012rcd13ifvqd10","pricing_plan_id":"cebpf4jnsgd1na2vs0mg"},{"bike_id":"adbc006e-c51d-4434-863c-610344ea30cd","system_id":"levelo_inurba_marseille","lat":43.217219,"lon":5.346059,"is_reserved":false,"is_disabled":true,"rental_uris":{"android":"levelo://app?vid=adbc006e-c51d-4434-863c-610344ea30cd","ios":"levelo://app?vid=adbc006e-c51d-4434-863c-610344ea30cd"},"vehicle_type_id":"4","last_reported":1753596952,"current_range_meters":13600,"station_id":"st_cvj6r9ubvosntc0bgbag","pricing_plan_id":"cebpf4jnsgd1na2vs0mg"},{"bike_id":"6a0157f9-1e4d-4729-8e5d-9ab142c0ff1e","system_id":"levelo_inurba_marseille","lat":43.29866,"lon":5.39731,"is_reserved":false,"is_disabled":false,"rental_uris":{"android":"levelo://app?vid=6a0157f9-1e4d-4729-8e5d-9ab142c0ff1e","ios":"levelo://app?vid=6a0157f9-1e4d-4729-8e5d-9ab142c0ff1e"},"vehicle_type_id":"4","last_reported":1753596952,"current_range_meters":14000,"station_id":"ce4bh0h2rcd13ifvqd50","pricing_plan_id":"cebpf4jnsgd1na2vs0mg"},{"bike_id":"63e1804c-7034-4d3a-b7fd-0a9682fa11f7","system_id":"levelo_inurba_marseille","lat":43.30726,"lon":5.42431,"is_reserved":false,"is_disabled":false,"rental_uris":{"android":"levelo://app?vid=63e1804c-7034-4d3a-b7fd-0a9682fa11f7","ios":"levelo://app?vid=63e1804c-7034-4d3a-b7fd-0a9682fa11f7"},"vehicle_type_id":"4","last_reported":1753596952,"current_range_meters":14000,"station_id":"st_cvj6ca6bvosntc0bfgr0","pricing_plan_id":"cebpf4jnsgd1na2vs0mg"},{"bike_id":"c23df043-d598-4a2a-a0ec-87b67e9647eb","system_id":"levelo_inurba_marseille","lat":43.29098,"lon":5.38147,"is_reserved":false,"is_disabled":true,"rental_uris":{"android":"levelo://app?vid=c23df043-d598-4a2a-a0ec-87b67e9647eb","ios":"levelo://app?vid=c23df043-d598-4a2a-a0ec-87b67e9647eb"},"vehicle_type_id":"4","last_reported":1753596952,"current_range_meters":14000,"station_id":"ce4bh512rcd13ifvqe2g","pricing_plan_id":"cebpf4jnsgd1na2vs0mg"},{"bike_id":"b9539560-62f7-48e2-9b5b-93f2915f3a7b","system_id":"levelo_inurba_marseille","lat":43.287,"lon":5.37622,"is_reserved":false,"is_disabled":false,"rental_uris":{"android":"levelo://app?vid=b9539560-62f7-48e2-9b5b-93f2915f3a7b","ios":"levelo://app?vid=b9539560-62f7-48e2-9b5b-93f2915f3a7b"},"vehicle_type_id":"4","last_reported":1753596952,"current_range_meters":14000,"station_id":"","pricing_plan_id":"cebpf4jnsgd1na2vs0mg"},{"bike_id":"8d801f83-3686-49fa-a7fd-3701c57be20d","system_id":"levelo_inurba_marseille","lat":43.240689,"lon":5.37766,"is_reserved":false,"is_disabled":false,"rental_uris":{"android":"levelo://app?vid=8d801f83-3686-49fa-a7fd-3701c57be20d","ios":"levelo://app?vid=8d801f83-3686-49fa-a7fd-3701c57be20d"},"vehicle_type_id":"4","last_reported":1753596952,"current_range_meters":14000,"station_id":"ce4bhnp2rcd13ifvqgvg","pricing_plan_id":"cebpf4jnsgd1na2vs0mg"},{"bike_id":"f7ffaefc-8ca1-42e5-a045-29bfb6d4a666","system_id":"levelo_inurba_marseille","lat":43.2572,"lon":5.41111,"is_reserved":false,"is_disabled":false,"rental_uris":{"android":"levelo://app?vid=f7ffaefc-8ca1-42e5-a045-29bfb6d4a666","ios":"levelo://app?vid=f7ffaefc-8ca1-42e5-a045-29bfb6d4a666"},"vehicle_type_id":"4","last_reported":1753596952,"current_range_meters":13600,"station_id":"ce4bhkp2rcd13ifvqgd0","pricing_plan_id":"cebpf4jnsgd1na2vs0mg"},{"bike_id":"9931c2f7-cb63-42af-810f-97aa98038f74","system_id":"levelo_inurba_marseille","lat":43.28728,"lon":5.39944,"is_reserved":false,"is_disabled":false,"rental_uris":{"android":"levelo://app?vid=9931c2f7-cb63-42af-810f-97aa98038f74","ios":"levelo://app?vid=9931c2f7-cb63-42af-810f-97aa98038f74"},"vehicle_type_id":"4","last_reported":1753596952,"current_range_meters":14400,"station_id":"ce4bho92rcd13ifvqh3g","pricing_plan_id":"cebpf4jnsgd1na2vs0mg"},{"bike_id":"aebdf431-3b97-428a-a9b4-1e35e4b29383","system_id":"levelo_inurba_marseille","lat":43.317094,"lon":5.404413,"is_reserved":false,"is_disabled":false,"rental_uris":{"android":"levelo://app?vid=aebdf431-3b97-428a-a9b4-1e35e4b29383","ios":"levelo://app?vid=aebdf431-3b97-428a-a9b4-1e35e4b29383"},"vehicle_type_id":"4","last_reported":1753596952,"current_range_meters":14400,"station_id":"ce4bh012rcd13ifvqd00","pricing_plan_id":"cebpf4jnsgd1na2vs0mg"},{"bike_id":"857905f4-fbac-43bd-bfe6-e5e8a2d57bb6","system_id":"levelo_inurba_marseille","lat":43.28704,"lon":5.3997,"is_reserved":false,"is_disabled":false,"rental_uris":{"android":"levelo://app?vid=857905f4-fbac-43bd-bfe6-e5e8a2d57bb6","ios":"levelo://app?vid=857905f4-fbac-43bd-bfe6-e5e8a2d57bb6"},"vehicle_type_id":"4","last_reported":1753596952,"current_range_meters":14400,"station_id":"ce4bho92rcd13ifvqh3g","pricing_plan_id":"cebpf4jnsgd1na2vs0mg"},{"bike_id":"da0dea9a-07a2-4249-aa7c-2489e28d40de","system_id":"levelo_inurba_marseille","lat":43.29664,"lon":5.3624,"is_reserved":false,"is_disabled":false,"rental_uris":{"android":"levelo://app?vid=da0dea9a-07a2-4249-aa7c-2489e28d40de","ios":"levelo://app?vid=da0dea9a-07a2-4249-aa7c-2489e28d40de"},"vehicle_type_id":"4","last_reported":1753596952,"current_range_meters":14800,"station_id":"","pricing_plan_id":"cebpf4jnsgd1na2vs0mg"},{"bike_id":"b3e573da-2e2c-48b3-a491-5f2ef167040c","system_id":"levelo_inurba_marseille","lat":43.29791,"lon":5.39357,"is_reserved":false,"is_disabled":false,"rental_uris":{"android":"levelo://app?vid=b3e573da-2e2c-48b3-a491-5f2ef167040c","ios":"levelo://app?vid=b3e573da-2e2c-48b3-a491-5f2ef167040c"},"vehicle_type_id":"4","last_reported":1753596952,"current_range_meters":14800,"station_id":"chh1huq6cuj3fo74tm60","pricing_plan_id":"cebpf4jnsgd1na2vs0mg"},{"bike_id":"1df40f1d-89fa-4624-8370-4ed9baa7a41a","system_id":"levelo_inurba_marseille","lat":43.24181,"lon":5.39732,"is_reserved":false,"is_disabled":false,"rental_uris":{"android":"levelo://app?vid=1df40f1d-89fa-4624-8370-4ed9baa7a41a","ios":"levelo://app?vid=1df40f1d-89fa-4624-8370-4ed9baa7a41a"},"vehicle_type_id":"4","last_reported":1753596952,"current_range_meters":15200,"station_id":"ce4bhn12rcd13ifvqgpg","pricing_plan_id":"cebpf4jnsgd1na2vs0mg"},{"bike_id":"d3e01782-42fc-4257-a6af-75c9f5127d73","system_id":"levelo_inurba_marseille","lat":43.28416,"lon":5.37502,"is_reserved":false,"is_disabled":false,"rental_uris":{"android":"levelo://app?vid=d3e01782-42fc-4257-a6af-75c9f5127d73","ios":"levelo://app?vid=d3e01782-42fc-4257-a6af-75c9f5127d73"},"vehicle_type_id":"4","last_reported":1753596952,"current_range_meters":15200,"station_id":"ce4bh412rcd13ifvqds0","pricing_plan_id":"cebpf4jnsgd1na2vs0mg"},{"bike_id":"1411ea00-66aa-4e34-8c89-53049e7e8bb5","system_id":"levelo_inurba_marseille","lat":43.26955,"lon":5.38612,"is_reserved":false,"is_disabled":false,"rental_uris":{"android":"levelo://app?vid=1411ea00-66aa-4e34-8c89-53049e7e8bb5","ios":"levelo://app?vid=1411ea00-66aa-4e34-8c89-53049e7e8bb5"},"vehicle_type_id":"4","last_reported":1753596952,"current_range_meters":15200,"station_id":"ce4bhh92rcd13ifvqfh0","pricing_plan_id":"cebpf4jnsgd1na2vs0mg"},{"bike_id":"efe4a6d5-a6b7-4fc7-b144-1bd0e2f02795","system_id":"levelo_inurba_marseille","lat":43.287058,"lon":5.374033,"is_reserved":false,"is_disabled":false,"rental_uris":{"android":"levelo://app?vid=efe4a6d5-a6b7-4fc7-b144-1bd0e2f02795","ios":"levelo://app?vid=efe4a6d5-a6b7-4fc7-b144-1bd0e2f02795"},"vehicle_type_id":"4","last_reported":1753596952,"current_range_meters":15200,"station_id":"ce4bh3p2rcd13ifvqdq0","pricing_plan_id":"cebpf4jnsgd1na2vs0mg"},{"bike_id":"e666153e-0d94-49fc-a285-a6a2347ef6ad","system_id":"levelo_inurba_marseille","lat":43.269514,"lon":5.386243,"is_reserved":false,"is_disabled":true,"rental_uris":{"android":"levelo://app?vid=e666153e-0d94-49fc-a285-a6a2347ef6ad","ios":"levelo://app?vid=e666153e-0d94-49fc-a285-a6a2347ef6ad"},"vehicle_type_id":"4","last_reported":1753596952,"current_range_meters":15200,"station_id":"ce4bhh92rcd13ifvqfh0","pricing_plan_id":"cebpf4jnsgd1na2vs0mg"},{"bike_id":"9f5543b8-8f45-4b07-b495-a9a0f2a356ab","system_id":"levelo_inurba_marseille","lat":43.30137,"lon":5.38109,"is_reserved":false,"is_disabled":false,"rental_uris":{"android":"levelo://app?vid=9f5543b8-8f45-4b07-b495-a9a0f2a356ab","ios":"levelo://app?vid=9f5543b8-8f45-4b07-b495-a9a0f2a356ab"},"vehicle_type_id":"4","last_reported":1753596952,"current_range_meters":15200,"station_id":"ce4bgjp2rcd13ifvqbh0","pricing_plan_id":"cebpf4jnsgd1na2vs0mg"},{"bike_id":"a940fd59-4ef0-4a43-8b6c-6f24c2dd6526","system_id":"levelo_inurba_marseille","lat":43.305498,"lon":5.384383,"is_reserved":false,"is_disabled":false,"rental_uris":{"android":"levelo://app?vid=a940fd59-4ef0-4a43-8b6c-6f24c2dd6526","ios":"levelo://app?vid=a940fd59-4ef0-4a43-8b6c-6f24c2dd6526"},"vehicle_type_id":"4","last_reported":1753596952,"current_range_meters":15200,"station_id":"ce4bgg92rcd13ifvqb30","pricing_plan_id":"cebpf4jnsgd1na2vs0mg"},{"bike_id":"40b50140-57d7-4649-a595-901bc273781b","system_id":"levelo_inurba_marseille","lat":43.30889,"lon":5.39617,"is_reserved":false,"is_disabled":false,"rental_uris":{"android":"levelo://app?vid=40b50140-57d7-4649-a595-901bc273781b","ios":"levelo://app?vid=40b50140-57d7-4649-a595-901bc273781b"},"vehicle_type_id":"4","last_reported":1753596952,"current_range_meters":15200,"station_id":"ce4bh012rcd13ifvqcv0","pricing_plan_id":"cebpf4jnsgd1na2vs0mg"},{"bike_id":"8512b265-75e1-49d7-bb7d-bd988c357d7c","system_id":"levelo_inurba_marseille","lat":43.28721,"lon":5.39966,"is_reserved":false,"is_disabled":true,"rental_uris":{"android":"levelo://app?vid=8512b265-75e1-49d7-bb7d-bd988c357d7c","ios":"levelo://app?vid=8512b265-75e1-49d7-bb7d-bd988c357d7c"},"vehicle_type_id":"4","last_reported":1753596952,"current_range_meters":15200,"station_id":"ce4bho92rcd13ifvqh3g","pricing_plan_id":"cebpf4jnsgd1na2vs0mg"},{"bike_id":"62e4f384-a69f-4285-9553-29178195efe4","system_id":"levelo_inurba_marseille","lat":43.31094,"lon":5.3832,"is_reserved":false,"is_disabled":false,"rental_uris":{"android":"levelo://app?vid=62e4f384-a69f-4285-9553-29178195efe4","ios":"levelo://app?vid=62e4f384-a69f-4285-9553-29178195efe4"},"vehicle_type_id":"4","last_reported":1753596952,"current_range_meters":16000,"station_id":"ce4bgv92rcd13ifvqcr0","pricing_plan_id":"cebpf4jnsgd1na2vs0mg"},{"bike_id":"484ce80f-12be-41fa-9586-784b84db2ffe","system_id":"levelo_inurba_marseille","lat":43.24808,"lon":5.37458,"is_reserved":false,"is_disabled":false,"rental_uris":{"android":"levelo://app?vid=484ce80f-12be-41fa-9586-784b84db2ffe","ios":"levelo://app?vid=484ce80f-12be-41fa-9586-784b84db2ffe"},"vehicle_type_id":"4","last_reported":1753596952,"current_range_meters":16000,"station_id":"ce4bhgh2rcd13ifvqfb0","pricing_plan_id":"cebpf4jnsgd1na2vs0mg"},{"bike_id":"d44de309-2133-47ca-892d-2a318467e55f","system_id":"levelo_inurba_marseille","lat":43.31287,"lon":5.40162,"is_reserved":false,"is_disabled":false,"rental_uris":{"android":"levelo://app?vid=d44de309-2133-47ca-892d-2a318467e55f","ios":"levelo://app?vid=d44de309-2133-47ca-892d-2a318467e55f"},"vehicle_type_id":"4","last_reported":1753596952,"current_range_meters":16000,"station_id":"ce4bh092rcd13ifvqd30","pricing_plan_id":"cebpf4jnsgd1na2vs0mg"},{"bike_id":"55661540-733b-4bd0-ad5d-bb688398f06e","system_id":"levelo_inurba_marseille","lat":43.22511,"lon":5.34783,"is_reserved":false,"is_disabled":false,"rental_uris":{"android":"levelo://app?vid=55661540-733b-4bd0-ad5d-bb688398f06e","ios":"levelo://app?vid=55661540-733b-4bd0-ad5d-bb688398f06e"},"vehicle_type_id":"4","last_reported":1753596952,"current_range_meters":16000,"station_id":"st_cvj5dfep6f1abm77gieg","pricing_plan_id":"cebpf4jnsgd1na2vs0mg"},{"bike_id":"06c069f2-cc3e-41de-9e00-6787f3105285","system_id":"levelo_inurba_marseille","lat":43.2925,"lon":5.40891,"is_reserved":false,"is_disabled":false,"rental_uris":{"android":"levelo://app?vid=06c069f2-cc3e-41de-9e00-6787f3105285","ios":"levelo://app?vid=06c069f2-cc3e-41de-9e00-6787f3105285"},"vehicle_type_id":"4","last_reported":1753596952,"current_range_meters":16000,"station_id":"ce4bh192rcd13ifvqdc0","pricing_plan_id":"cebpf4jnsgd1na2vs0mg"},{"bike_id":"690e58e2-f4a9-4881-b497-ca12c6a89ba5","system_id":"levelo_inurba_marseille","lat":43.30376,"lon":5.42484,"is_reserved":false,"is_disabled":false,"rental_uris":{"android":"levelo://app?vid=690e58e2-f4a9-4881-b497-ca12c6a89ba5","ios":"levelo://app?vid=690e58e2-f4a9-4881-b497-ca12c6a89ba5"},"vehicle_type_id":"4","last_reported":1753596952,"current_range_meters":16000,"station_id":"ce4bhoh2rcd13ifvqh6g","pricing_plan_id":"cebpf4jnsgd1na2vs0mg"},{"bike_id":"8c4ba3d1-fbad-456c-a3ea-f0a55e402980","system_id":"levelo_inurba_marseille","lat":43.28902,"lon":5.35785,"is_reserved":false,"is_disabled":false,"rental_uris":{"android":"levelo://app?vid=8c4ba3d1-fbad-456c-a3ea-f0a55e402980","ios":"levelo://app?vid=8c4ba3d1-fbad-456c-a3ea-f0a55e402980"},"vehicle_type_id":"4","last_reported":1753596952,"current_range_meters":16000,"station_id":"ce4bhb12rcd13ifvqem0","pricing_plan_id":"cebpf4jnsgd1na2vs0mg"},{"bike_id":"687dd01b-2a1d-44cd-9069-917f4f3529ae","system_id":"levelo_inurba_marseille","lat":43.30305,"lon":5.36866,"is_reserved":false,"is_disabled":false,"rental_uris":{"android":"levelo://app?vid=687dd01b-2a1d-44cd-9069-917f4f3529ae","ios":"levelo://app?vid=687dd01b-2a1d-44cd-9069-917f4f3529ae"},"vehicle_type_id":"4","last_reported":1753596952,"current_range_meters":16400,"station_id":"ce4bgqh2rcd13ifvqc5g","pricing_plan_id":"cebpf4jnsgd1na2vs0mg"},{"bike_id":"70381b97-b2ee-4f26-8f16-caf046608e7f","system_id":"levelo_inurba_marseille","lat":43.279972,"lon":5.400103,"is_reserved":false,"is_disabled":true,"rental_uris":{"android":"levelo://app?vid=70381b97-b2ee-4f26-8f16-caf046608e7f","ios":"levelo://app?vid=70381b97-b2ee-4f26-8f16-caf046608e7f"},"vehicle_type_id":"4","last_reported":1753596952,"current_range_meters":16400,"station_id":"ce4bho92rcd13ifvqh4g","pricing_plan_id":"cebpf4jnsgd1na2vs0mg"},{"bike_id":"b64dad25-8e0d-4258-bfd2-304c64c6d313","system_id":"levelo_inurba_marseille","lat":43.317336,"lon":5.377285,"is_reserved":false,"is_disabled":false,"rental_uris":{"android":"levelo://app?vid=b64dad25-8e0d-4258-bfd2-304c64c6d313","ios":"levelo://app?vid=b64dad25-8e0d-4258-bfd2-304c64c6d313"},"vehicle_type_id":"4","last_reported":1753596952,"current_range_meters":16400,"station_id":"ce4bgth2rcd13ifvqch0","pricing_plan_id":"cebpf4jnsgd1na2vs0mg"},{"bike_id":"e1f90c4a-e474-4291-ab67-c5475ee7cabd","system_id":"levelo_inurba_marseille","lat":43.303,"lon":5.39202,"is_reserved":false,"is_disabled":false,"rental_uris":{"android":"levelo://app?vid=e1f90c4a-e474-4291-ab67-c5475ee7cabd","ios":"levelo://app?vid=e1f90c4a-e474-4291-ab67-c5475ee7cabd"},"vehicle_type_id":"4","last_reported":1753596952,"current_range_meters":16400,"station_id":"ce4bgkh2rcd13ifvqbk0","pricing_plan_id":"cebpf4jnsgd1na2vs0mg"},{"bike_id":"37a5c024-c5d2-470a-ba5d-2631f91bf7cf","system_id":"levelo_inurba_marseille","lat":43.31113,"lon":5.3777,"is_reserved":false,"is_disabled":false,"rental_uris":{"android":"levelo://app?vid=37a5c024-c5d2-470a-ba5d-2631f91bf7cf","ios":"levelo://app?vid=37a5c024-c5d2-470a-ba5d-2631f91bf7cf"},"vehicle_type_id":"4","last_reported":1753596952,"current_range_meters":16400,"station_id":"ce4bgt92rcd13ifvqcg0","pricing_plan_id":"cebpf4jnsgd1na2vs0mg"},{"bike_id":"63fbea1b-2b40-4aee-afa7-a9c9dcf79dc3","system_id":"levelo_inurba_marseille","lat":43.23183,"lon":5.39986,"is_reserved":false,"is_disabled":false,"rental_uris":{"android":"levelo://app?vid=63fbea1b-2b40-4aee-afa7-a9c9dcf79dc3","ios":"levelo://app?vid=63fbea1b-2b40-4aee-afa7-a9c9dcf79dc3"},"vehicle_type_id":"4","last_reported":1753596952,"current_range_meters":16800,"station_id":"ce4bhn12rcd13ifvqgqg","pricing_plan_id":"cebpf4jnsgd1na2vs0mg"},{"bike_id":"b708a5f4-02ee-49a4-90bb-e4b574f44083","system_id":"levelo_inurba_marseille","lat":43.28424,"lon":5.37505,"is_reserved":false,"is_disabled":false,"rental_uris":{"android":"levelo://app?vid=b708a5f4-02ee-49a4-90bb-e4b574f44083","ios":"levelo://app?vid=b708a5f4-02ee-49a4-90bb-e4b574f44083"},"vehicle_type_id":"4","last_reported":1753596952,"current_range_meters":16800,"station_id":"ce4bh412rcd13ifvqds0","pricing_plan_id":"cebpf4jnsgd1na2vs0mg"},{"bike_id":"5de4d1ff-47cd-40a5-ad2e-4b1052508ef8","system_id":"levelo_inurba_marseille","lat":43.323403,"lon":5.406178,"is_reserved":false,"is_disabled":false,"rental_uris":{"android":"levelo://app?vid=5de4d1ff-47cd-40a5-ad2e-4b1052508ef8","ios":"levelo://app?vid=5de4d1ff-47cd-40a5-ad2e-4b1052508ef8"},"vehicle_type_id":"4","last_reported":1753596952,"current_range_meters":16800,"station_id":"ce4bhq92rcd13ifvqhjg","pricing_plan_id":"cebpf4jnsgd1na2vs0mg"},{"bike_id":"48538135-5d0a-49ee-9320-155fbd091354","system_id":"levelo_inurba_marseille","lat":43.259251,"lon":5.408814,"is_reserved":false,"is_disabled":false,"rental_uris":{"android":"levelo://app?vid=48538135-5d0a-49ee-9320-155fbd091354","ios":"levelo://app?vid=48538135-5d0a-49ee-9320-155fbd091354"},"vehicle_type_id":"4","last_reported":1753596952,"current_range_meters":16800,"station_id":"ce4bhm92rcd13ifvqglg","pricing_plan_id":"cebpf4jnsgd1na2vs0mg"},{"bike_id":"702fbc69-7ecf-4ef2-935f-2eb604378010","system_id":"levelo_inurba_marseille","lat":43.3032,"lon":5.40437,"is_reserved":false,"is_disabled":false,"rental_uris":{"android":"levelo://app?vid=702fbc69-7ecf-4ef2-935f-2eb604378010","ios":"levelo://app?vid=702fbc69-7ecf-4ef2-935f-2eb604378010"},"vehicle_type_id":"4","last_reported":1753596952,"current_range_meters":16800,"station_id":"ce4bh012rcd13ifvqd10","pricing_plan_id":"cebpf4jnsgd1na2vs0mg"},{"bike_id":"d8cd6055-23c8-4622-a5bf-68f9b9ebfe53","system_id":"levelo_inurba_marseille","lat":43.27077,"lon":5.422711,"is_reserved":false,"is_disabled":true,"rental_uris":{"android":"levelo://app?vid=d8cd6055-23c8-4622-a5bf-68f9b9ebfe53","ios":"levelo://app?vid=d8cd6055-23c8-4622-a5bf-68f9b9ebfe53"},"vehicle_type_id":"4","last_reported":1753596952,"current_range_meters":16800,"station_id":"ce4bhk92rcd13ifvqgb0","pricing_plan_id":"cebpf4jnsgd1na2vs0mg"},{"bike_id":"3378f46c-5d8f-49a4-8e01-65086200052a","system_id":"levelo_inurba_marseille","lat":43.28484,"lon":5.38423,"is_reserved":false,"is_disabled":false,"rental_uris":{"android":"levelo://app?vid=3378f46c-5d8f-49a4-8e01-65086200052a","ios":"levelo://app?vid=3378f46c-5d8f-49a4-8e01-65086200052a"},"vehicle_type_id":"4","last_reported":1753596952,"current_range_meters":16800,"station_id":"ce4bh512rcd13ifvqe3g","pricing_plan_id":"cebpf4jnsgd1na2vs0mg"},{"bike_id":"9306cb98-ff63-47ed-9064-9c9a8b611a79","system_id":"levelo_inurba_marseille","lat":43.29616,"lon":5.37321,"is_reserved":false,"is_disabled":false,"rental_uris":{"android":"levelo://app?vid=9306cb98-ff63-47ed-9064-9c9a8b611a79","ios":"levelo://app?vid=9306cb98-ff63-47ed-9064-9c9a8b611a79"},"vehicle_type_id":"4","last_reported":1753596952,"current_range_meters":16800,"station_id":"","pricing_plan_id":"cebpf4jnsgd1na2vs0mg"},{"bike_id":"bf40b6a7-961a-4734-a48d-9c22b6181bd8","system_id":"levelo_inurba_marseille","lat":43.29257,"lon":5.40895,"is_reserved":false,"is_disabled":false,"rental_uris":{"android":"levelo://app?vid=bf40b6a7-961a-4734-a48d-9c22b6181bd8","ios":"levelo://app?vid=bf40b6a7-961a-4734-a48d-9c22b6181bd8"},"vehicle_type_id":"4","last_reported":1753596952,"current_range_meters":16800,"station_id":"ce4bh192rcd13ifvqdc0","pricing_plan_id":"cebpf4jnsgd1na2vs0mg"},{"bike_id":"a9504c9d-7518-4bac-b2a8-fec9ea3d9cd0","system_id":"levelo_inurba_marseille","lat":43.23075,"lon":5.3547,"is_reserved":false,"is_disabled":false,"rental_uris":{"android":"levelo://app?vid=a9504c9d-7518-4bac-b2a8-fec9ea3d9cd0","ios":"levelo://app?vid=a9504c9d-7518-4bac-b2a8-fec9ea3d9cd0"},"vehicle_type_id":"4","last_reported":1753596952,"current_range_meters":16800,"station_id":"cpo3342slgdg3j2ifvpg","pricing_plan_id":"cebpf4jnsgd1na2vs0mg"},{"bike_id":"6f4f77f3-f698-45c8-b168-3bd095af11b2","system_id":"levelo_inurba_marseille","lat":43.29932,"lon":5.375407,"is_reserved":false,"is_disabled":false,"rental_uris":{"android":"levelo://app?vid=6f4f77f3-f698-45c8-b168-3bd095af11b2","ios":"levelo://app?vid=6f4f77f3-f698-45c8-b168-3bd095af11b2"},"vehicle_type_id":"4","last_reported":1753596952,"current_range_meters":16800,"station_id":"ce4bgjh2rcd13ifvqbg0","pricing_plan_id":"cebpf4jnsgd1na2vs0mg"},{"bike_id":"3152576e-d602-4c3f-980e-717f41aed773","system_id":"levelo_inurba_marseille","lat":43.33737,"lon":5.37465,"is_reserved":false,"is_disabled":false,"rental_uris":{"android":"levelo://app?vid=3152576e-d602-4c3f-980e-717f41aed773","ios":"levelo://app?vid=3152576e-d602-4c3f-980e-717f41aed773"},"vehicle_type_id":"4","last_reported":1753596952,"current_range_meters":16800,"station_id":"","pricing_plan_id":"cebpf4jnsgd1na2vs0mg"},{"bike_id":"a08db877-a69e-46c8-b5c7-592facf74a8b","system_id":"levelo_inurba_marseille","lat":43.30133,"lon":5.38776,"is_reserved":false,"is_disabled":false,"rental_uris":{"android":"levelo://app?vid=a08db877-a69e-46c8-b5c7-592facf74a8b","ios":"levelo://app?vid=a08db877-a69e-46c8-b5c7-592facf74a8b"},"vehicle_type_id":"4","last_reported":1753596952,"current_range_meters":17200,"station_id":"ce4bghh2rcd13ifvqb60","pricing_plan_id":"cebpf4jnsgd1na2vs0mg"},{"bike_id":"7c5dc5f1-6d19-4bae-8e64-f46388fc2cc5","system_id":"levelo_inurba_marseille","lat":43.30251,"lon":5.40069,"is_reserved":false,"is_disabled":false,"rental_uris":{"android":"levelo://app?vid=7c5dc5f1-6d19-4bae-8e64-f46388fc2cc5","ios":"levelo://app?vid=7c5dc5f1-6d19-4bae-8e64-f46388fc2cc5"},"vehicle_type_id":"4","last_reported":1753596952,"current_range_meters":17200,"station_id":"ce4bgvh2rcd13ifvqcs0","pricing_plan_id":"cebpf4jnsgd1na2vs0mg"},{"bike_id":"b65f4e3b-a4f8-4bac-b64a-9a35477c4f80","system_id":"levelo_inurba_marseille","lat":43.262071,"lon":5.3744,"is_reserved":false,"is_disabled":false,"rental_uris":{"android":"levelo://app?vid=b65f4e3b-a4f8-4bac-b64a-9a35477c4f80","ios":"levelo://app?vid=b65f4e3b-a4f8-4bac-b64a-9a35477c4f80"},"vehicle_type_id":"4","last_reported":1753596952,"current_range_meters":17200,"station_id":"ce4bhgp2rcd13ifvqfc0","pricing_plan_id":"cebpf4jnsgd1na2vs0mg"},{"bike_id":"e347e191-2146-4139-b8f3-fb84c59c2ce7","system_id":"levelo_inurba_marseille","lat":43.23109,"lon":5.40087,"is_reserved":false,"is_disabled":false,"rental_uris":{"android":"levelo://app?vid=e347e191-2146-4139-b8f3-fb84c59c2ce7","ios":"levelo://app?vid=e347e191-2146-4139-b8f3-fb84c59c2ce7"},"vehicle_type_id":"4","last_reported":1753596952,"current_range_meters":17200,"station_id":"","pricing_plan_id":"cebpf4jnsgd1na2vs0mg"},{"bike_id":"e38d01e0-1ddf-49b7-9598-f39cc301a401","system_id":"levelo_inurba_marseille","lat":43.287059,"lon":5.39985,"is_reserved":false,"is_disabled":false,"rental_uris":{"android":"levelo://app?vid=e38d01e0-1ddf-49b7-9598-f39cc301a401","ios":"levelo://app?vid=e38d01e0-1ddf-49b7-9598-f39cc301a401"},"vehicle_type_id":"4","last_reported":1753596952,"current_range_meters":17200,"station_id":"ce4bho92rcd13ifvqh3g","pricing_plan_id":"cebpf4jnsgd1na2vs0mg"},{"bike_id":"9e2722f5-8f23-4a0a-8b90-dcc5ca4975f8","system_id":"levelo_inurba_marseille","lat":43.22506,"lon":5.34777,"is_reserved":false,"is_disabled":false,"rental_uris":{"android":"levelo://app?vid=9e2722f5-8f23-4a0a-8b90-dcc5ca4975f8","ios":"levelo://app?vid=9e2722f5-8f23-4a0a-8b90-dcc5ca4975f8"},"vehicle_type_id":"4","last_reported":1753596952,"current_range_meters":17200,"station_id":"st_cvj5dfep6f1abm77gieg","pricing_plan_id":"cebpf4jnsgd1na2vs0mg"},{"bike_id":"56ec8761-dee0-49c1-aba7-a69ac65d386f","system_id":"levelo_inurba_marseille","lat":43.229402,"lon":5.353769,"is_reserved":false,"is_disabled":false,"rental_uris":{"android":"levelo://app?vid=56ec8761-dee0-49c1-aba7-a69ac65d386f","ios":"levelo://app?vid=56ec8761-dee0-49c1-aba7-a69ac65d386f"},"vehicle_type_id":"4","last_reported":1753596952,"current_range_meters":17200,"station_id":"cpo3532slgdg3j2ikp40","pricing_plan_id":"cebpf4jnsgd1na2vs0mg"},{"bike_id":"c3ffa3d6-f44a-4930-b5f0-fc0fbc76b4d1","system_id":"levelo_inurba_marseille","lat":43.25121,"lon":5.40313,"is_reserved":false,"is_disabled":false,"rental_uris":{"android":"levelo://app?vid=c3ffa3d6-f44a-4930-b5f0-fc0fbc76b4d1","ios":"levelo://app?vid=c3ffa3d6-f44a-4930-b5f0-fc0fbc76b4d1"},"vehicle_type_id":"4","last_reported":1753596952,"current_range_meters":17200,"station_id":"ce4bhlh2rcd13ifvqgig","pricing_plan_id":"cebpf4jnsgd1na2vs0mg"},{"bike_id":"6c17f6f6-a8d8-4559-a952-a479db4a8339","system_id":"levelo_inurba_marseille","lat":43.23191,"lon":5.35552,"is_reserved":false,"is_disabled":false,"rental_uris":{"android":"levelo://app?vid=6c17f6f6-a8d8-4559-a952-a479db4a8339","ios":"levelo://app?vid=6c17f6f6-a8d8-4559-a952-a479db4a8339"},"vehicle_type_id":"4","last_reported":1753596952,"current_range_meters":17200,"station_id":"ce4bhu92rcd13ifvqi70","pricing_plan_id":"cebpf4jnsgd1na2vs0mg"},{"bike_id":"918e5c9a-e2be-4cb6-8032-45811f3d77c7","system_id":"levelo_inurba_marseille","lat":43.284635,"lon":5.358884,"is_reserved":false,"is_disabled":false,"rental_uris":{"android":"levelo://app?vid=918e5c9a-e2be-4cb6-8032-45811f3d77c7","ios":"levelo://app?vid=918e5c9a-e2be-4cb6-8032-45811f3d77c7"},"vehicle_type_id":"4","last_reported":1753596952,"current_range_meters":17200,"station_id":"ce4bhah2rcd13ifvqei0","pricing_plan_id":"cebpf4jnsgd1na2vs0mg"},{"bike_id":"d0b0cab5-3a8f-4293-bcca-048c5e48d9cd","system_id":"levelo_inurba_marseille","lat":43.32055,"lon":5.41547,"is_reserved":false,"is_disabled":false,"rental_uris":{"android":"levelo://app?vid=d0b0cab5-3a8f-4293-bcca-048c5e48d9cd","ios":"levelo://app?vid=d0b0cab5-3a8f-4293-bcca-048c5e48d9cd"},"vehicle_type_id":"4","last_reported":1753596952,"current_range_meters":16800,"station_id":"ce4bhq92rcd13ifvqhkg","pricing_plan_id":"cebpf4jnsgd1na2vs0mg"},{"bike_id":"9c7aeaec-5df9-4ed5-9a45-96fac68c60c5","system_id":"levelo_inurba_marseille","lat":43.22504,"lon":5.34767,"is_reserved":false,"is_disabled":false,"rental_uris":{"android":"levelo://app?vid=9c7aeaec-5df9-4ed5-9a45-96fac68c60c5","ios":"levelo://app?vid=9c7aeaec-5df9-4ed5-9a45-96fac68c60c5"},"vehicle_type_id":"4","last_reported":1753596952,"current_range_meters":17600,"station_id":"st_cvj5dfep6f1abm77gieg","pricing_plan_id":"cebpf4jnsgd1na2vs0mg"},{"bike_id":"cefaf313-76a2-46ed-93b0-1824639624fa","system_id":"levelo_inurba_marseille","lat":43.292856,"lon":5.401232,"is_reserved":false,"is_disabled":false,"rental_uris":{"android":"levelo://app?vid=cefaf313-76a2-46ed-93b0-1824639624fa","ios":"levelo://app?vid=cefaf313-76a2-46ed-93b0-1824639624fa"},"vehicle_type_id":"4","last_reported":1753596952,"current_range_meters":17600,"station_id":"ce4bh312rcd13ifvqdk0","pricing_plan_id":"cebpf4jnsgd1na2vs0mg"},{"bike_id":"ffa8a57f-0f4e-4e7c-b4fb-642da32d041d","system_id":"levelo_inurba_marseille","lat":43.287743,"lon":5.362457,"is_reserved":false,"is_disabled":false,"rental_uris":{"android":"levelo://app?vid=ffa8a57f-0f4e-4e7c-b4fb-642da32d041d","ios":"levelo://app?vid=ffa8a57f-0f4e-4e7c-b4fb-642da32d041d"},"vehicle_type_id":"4","last_reported":1753596952,"current_range_meters":17600,"station_id":"ce4bgup2rcd13ifvqco0","pricing_plan_id":"cebpf4jnsgd1na2vs0mg"},{"bike_id":"87a4d710-c859-4883-a056-db27db09862e","system_id":"levelo_inurba_marseille","lat":43.277585,"lon":5.355971,"is_reserved":false,"is_disabled":false,"rental_uris":{"android":"levelo://app?vid=87a4d710-c859-4883-a056-db27db09862e","ios":"levelo://app?vid=87a4d710-c859-4883-a056-db27db09862e"},"vehicle_type_id":"4","last_reported":1753596952,"current_range_meters":17600,"station_id":"","pricing_plan_id":"cebpf4jnsgd1na2vs0mg"},{"bike_id":"4d5f84b7-a55d-420e-b2eb-d786d198c2f5","system_id":"levelo_inurba_marseille","lat":43.265755,"lon":5.390056,"is_reserved":false,"is_disabled":false,"rental_uris":{"android":"levelo://app?vid=4d5f84b7-a55d-420e-b2eb-d786d198c2f5","ios":"levelo://app?vid=4d5f84b7-a55d-420e-b2eb-d786d198c2f5"},"vehicle_type_id":"4","last_reported":1753596952,"current_range_meters":17600,"station_id":"ce4bhe12rcd13ifvqf30","pricing_plan_id":"cebpf4jnsgd1na2vs0mg"},{"bike_id":"0ecb478d-d04e-40c7-83db-4e066b025b54","system_id":"levelo_inurba_marseille","lat":43.286072,"lon":5.370737,"is_reserved":false,"is_disabled":false,"rental_uris":{"android":"levelo://app?vid=0ecb478d-d04e-40c7-83db-4e066b025b54","ios":"levelo://app?vid=0ecb478d-d04e-40c7-83db-4e066b025b54"},"vehicle_type_id":"4","last_reported":1753596952,"current_range_meters":17600,"station_id":"ce4bht12rcd13ifvqi60","pricing_plan_id":"cebpf4jnsgd1na2vs0mg"},{"bike_id":"94cd5104-a952-4e36-b3f4-ab0b998877f1","system_id":"levelo_inurba_marseille","lat":43.31174,"lon":5.38704,"is_reserved":false,"is_disabled":false,"rental_uris":{"android":"levelo://app?vid=94cd5104-a952-4e36-b3f4-ab0b998877f1","ios":"levelo://app?vid=94cd5104-a952-4e36-b3f4-ab0b998877f1"},"vehicle_type_id":"4","last_reported":1753596952,"current_range_meters":17600,"station_id":"ce4bgv12rcd13ifvqcp0","pricing_plan_id":"cebpf4jnsgd1na2vs0mg"},{"bike_id":"7aff84f4-6f03-4e27-8d42-d4f436b18e6d","system_id":"levelo_inurba_marseille","lat":43.284864,"lon":5.384294,"is_reserved":false,"is_disabled":false,"rental_uris":{"android":"levelo://app?vid=7aff84f4-6f03-4e27-8d42-d4f436b18e6d","ios":"levelo://app?vid=7aff84f4-6f03-4e27-8d42-d4f436b18e6d"},"vehicle_type_id":"4","last_reported":1753596952,"current_range_meters":17600,"station_id":"ce4bh512rcd13ifvqe3g","pricing_plan_id":"cebpf4jnsgd1na2vs0mg"},{"bike_id":"e0209ba3-65f5-4bc7-a375-bbd1b6c46383","system_id":"levelo_inurba_marseille","lat":43.26555,"lon":5.37274,"is_reserved":false,"is_disabled":false,"rental_uris":{"android":"levelo://app?vid=e0209ba3-65f5-4bc7-a375-bbd1b6c46383","ios":"levelo://app?vid=e0209ba3-65f5-4bc7-a375-bbd1b6c46383"},"vehicle_type_id":"4","last_reported":1753596952,"current_range_meters":17600,"station_id":"ce4bhg12rcd13ifvqf70","pricing_plan_id":"cebpf4jnsgd1na2vs0mg"},{"bike_id":"220cf17f-9c61-468f-af88-f24ca56003a4","system_id":"levelo_inurba_marseille","lat":43.306018,"lon":5.372072,"is_reserved":false,"is_disabled":false,"rental_uris":{"android":"levelo://app?vid=220cf17f-9c61-468f-af88-f24ca56003a4","ios":"levelo://app?vid=220cf17f-9c61-468f-af88-f24ca56003a4"},"vehicle_type_id":"4","last_reported":1753596952,"current_range_meters":17600,"station_id":"ce4bgqh2rcd13ifvqc4g","pricing_plan_id":"cebpf4jnsgd1na2vs0mg"},{"bike_id":"2edf8151-cb92-46cc-9321-24e397aeed28","system_id":"levelo_inurba_marseille","lat":43.23065,"lon":5.35474,"is_reserved":false,"is_disabled":false,"rental_uris":{"android":"levelo://app?vid=2edf8151-cb92-46cc-9321-24e397aeed28","ios":"levelo://app?vid=2edf8151-cb92-46cc-9321-24e397aeed28"},"vehicle_type_id":"4","last_reported":1753596952,"current_range_meters":18000,"station_id":"cpo3342slgdg3j2ifvpg","pricing_plan_id":"cebpf4jnsgd1na2vs0mg"},{"bike_id":"d6f576dc-ffe7-4ab5-bc96-13103d0759e3","system_id":"levelo_inurba_marseille","lat":43.23955,"lon":5.36653,"is_reserved":false,"is_disabled":false,"rental_uris":{"android":"levelo://app?vid=d6f576dc-ffe7-4ab5-bc96-13103d0759e3","ios":"levelo://app?vid=d6f576dc-ffe7-4ab5-bc96-13103d0759e3"},"vehicle_type_id":"4","last_reported":1753596952,"current_range_meters":18000,"station_id":"ce4bhi12rcd13ifvqfp0","pricing_plan_id":"cebpf4jnsgd1na2vs0mg"},{"bike_id":"ec2a87eb-2de4-4d6d-ac86-7c275a6a8c47","system_id":"levelo_inurba_marseille","lat":43.227995,"lon":5.351864,"is_reserved":false,"is_disabled":false,"rental_uris":{"android":"levelo://app?vid=ec2a87eb-2de4-4d6d-ac86-7c275a6a8c47","ios":"levelo://app?vid=ec2a87eb-2de4-4d6d-ac86-7c275a6a8c47"},"vehicle_type_id":"4","last_reported":1753596952,"current_range_meters":18000,"station_id":"","pricing_plan_id":"cebpf4jnsgd1na2vs0mg"},{"bike_id":"fd128459-f167-4a53-9901-bb33f43a3b00","system_id":"levelo_inurba_marseille","lat":43.28847,"lon":5.39308,"is_reserved":false,"is_disabled":false,"rental_uris":{"android":"levelo://app?vid=fd128459-f167-4a53-9901-bb33f43a3b00","ios":"levelo://app?vid=fd128459-f167-4a53-9901-bb33f43a3b00"},"vehicle_type_id":"4","last_reported":1753596952,"current_range_meters":18000,"station_id":"ce4bh2p2rcd13ifvqdi0","pricing_plan_id":"cebpf4jnsgd1na2vs0mg"},{"bike_id":"96cb9b33-e675-4586-9193-9f0a3309af58","system_id":"levelo_inurba_marseille","lat":43.248124,"lon":5.374567,"is_reserved":false,"is_disabled":true,"rental_uris":{"android":"levelo://app?vid=96cb9b33-e675-4586-9193-9f0a3309af58","ios":"levelo://app?vid=96cb9b33-e675-4586-9193-9f0a3309af58"},"vehicle_type_id":"4","last_reported":1753596952,"current_range_meters":18000,"station_id":"ce4bhgh2rcd13ifvqfb0","pricing_plan_id":"cebpf4jnsgd1na2vs0mg"},{"bike_id":"21119b74-9092-450b-a780-dc3f5e5aa101","system_id":"levelo_inurba_marseille","lat":43.24082,"lon":5.37757,"is_reserved":false,"is_disabled":false,"rental_uris":{"android":"levelo://app?vid=21119b74-9092-450b-a780-dc3f5e5aa101","ios":"levelo://app?vid=21119b74-9092-450b-a780-dc3f5e5aa101"},"vehicle_type_id":"4","last_reported":1753596952,"current_range_meters":18000,"station_id":"ce4bhnp2rcd13ifvqgvg","pricing_plan_id":"cebpf4jnsgd1na2vs0mg"},{"bike_id":"c8b0abd1-7f1c-4392-99c5-bdeb36f3e17e","system_id":"levelo_inurba_marseille","lat":43.217637,"lon":5.345888,"is_reserved":false,"is_disabled":true,"rental_uris":{"android":"levelo://app?vid=c8b0abd1-7f1c-4392-99c5-bdeb36f3e17e","ios":"levelo://app?vid=c8b0abd1-7f1c-4392-99c5-bdeb36f3e17e"},"vehicle_type_id":"4","last_reported":1753596952,"current_range_meters":18000,"station_id":"st_cvj6r9ubvosntc0bgbag","pricing_plan_id":"cebpf4jnsgd1na2vs0mg"},{"bike_id":"7fd76c9e-4d33-4b7e-95bd-222e0d10502e","system_id":"levelo_inurba_marseille","lat":43.30456,"lon":5.39721,"is_reserved":false,"is_disabled":false,"rental_uris":{"android":"levelo://app?vid=7fd76c9e-4d33-4b7e-95bd-222e0d10502e","ios":"levelo://app?vid=7fd76c9e-4d33-4b7e-95bd-222e0d10502e"},"vehicle_type_id":"4","last_reported":1753596952,"current_range_meters":18000,"station_id":"ce4bh092rcd13ifvqd20","pricing_plan_id":"cebpf4jnsgd1na2vs0mg"},{"bike_id":"329681ee-4b7c-4b42-a093-9c4985b10282","system_id":"levelo_inurba_marseille","lat":43.28412,"lon":5.34968,"is_reserved":false,"is_disabled":true,"rental_uris":{"android":"levelo://app?vid=329681ee-4b7c-4b42-a093-9c4985b10282","ios":"levelo://app?vid=329681ee-4b7c-4b42-a093-9c4985b10282"},"vehicle_type_id":"4","last_reported":1753596952,"current_range_meters":18000,"station_id":"ce4bhbh2rcd13ifvqepg","pricing_plan_id":"cebpf4jnsgd1na2vs0mg"},{"bike_id":"4b584daf-aa6b-4cf2-8906-02a8a3281b3d","system_id":"levelo_inurba_marseille","lat":43.30938,"lon":5.4014,"is_reserved":false,"is_disabled":false,"rental_uris":{"android":"levelo://app?vid=4b584daf-aa6b-4cf2-8906-02a8a3281b3d","ios":"levelo://app?vid=4b584daf-aa6b-4cf2-8906-02a8a3281b3d"},"vehicle_type_id":"4","last_reported":1753596952,"current_range_meters":18000,"station_id":"ce4bgvp2rcd13ifvqct0","pricing_plan_id":"cebpf4jnsgd1na2vs0mg"},{"bike_id":"06b37b78-75ad-42cc-bf01-6fceceed78c5","system_id":"levelo_inurba_marseille","lat":43.239552,"lon":5.366357,"is_reserved":false,"is_disabled":false,"rental_uris":{"android":"levelo://app?vid=06b37b78-75ad-42cc-bf01-6fceceed78c5","ios":"levelo://app?vid=06b37b78-75ad-42cc-bf01-6fceceed78c5"},"vehicle_type_id":"4","last_reported":1753596952,"current_range_meters":18800,"station_id":"ce4bhi12rcd13ifvqfp0","pricing_plan_id":"cebpf4jnsgd1na2vs0mg"},{"bike_id":"a395e9fb-25cb-46a1-bf5a-829909009b66","system_id":"levelo_inurba_marseille","lat":43.29261,"lon":5.409041,"is_reserved":false,"is_disabled":false,"rental_uris":{"android":"levelo://app?vid=a395e9fb-25cb-46a1-bf5a-829909009b66","ios":"levelo://app?vid=a395e9fb-25cb-46a1-bf5a-829909009b66"},"vehicle_type_id":"4","last_reported":1753596952,"current_range_meters":18800,"station_id":"ce4bh192rcd13ifvqdc0","pricing_plan_id":"cebpf4jnsgd1na2vs0mg"},{"bike_id":"32dd2ddc-a3dc-4749-b831-b34092911e67","system_id":"levelo_inurba_marseille","lat":43.32365,"lon":5.388885,"is_reserved":false,"is_disabled":false,"rental_uris":{"android":"levelo://app?vid=32dd2ddc-a3dc-4749-b831-b34092911e67","ios":"levelo://app?vid=32dd2ddc-a3dc-4749-b831-b34092911e67"},"vehicle_type_id":"4","last_reported":1753596952,"current_range_meters":18800,"station_id":"ce4bhqp2rcd13ifvqhog","pricing_plan_id":"cebpf4jnsgd1na2vs0mg"},{"bike_id":"15cde3be-4938-4cc3-974d-6a14e8f2bfbc","system_id":"levelo_inurba_marseille","lat":43.29972,"lon":5.38503,"is_reserved":false,"is_disabled":false,"rental_uris":{"android":"levelo://app?vid=15cde3be-4938-4cc3-974d-6a14e8f2bfbc","ios":"levelo://app?vid=15cde3be-4938-4cc3-974d-6a14e8f2bfbc"},"vehicle_type_id":"4","last_reported":1753596952,"current_range_meters":18800,"station_id":"ce4bgj92rcd13ifvqbd0","pricing_plan_id":"cebpf4jnsgd1na2vs0mg"},{"bike_id":"f4a8a670-189b-48a4-9dde-b40858d05778","system_id":"levelo_inurba_marseille","lat":43.31688,"lon":5.40453,"is_reserved":false,"is_disabled":false,"rental_uris":{"android":"levelo://app?vid=f4a8a670-189b-48a4-9dde-b40858d05778","ios":"levelo://app?vid=f4a8a670-189b-48a4-9dde-b40858d05778"},"vehicle_type_id":"4","last_reported":1753596952,"current_range_meters":18800,"station_id":"ce4bh012rcd13ifvqd00","pricing_plan_id":"cebpf4jnsgd1na2vs0mg"},{"bike_id":"8475d067-bb51-4b7e-bcbe-2bf5e79a9257","system_id":"levelo_inurba_marseille","lat":43.25581,"lon":5.38239,"is_reserved":false,"is_disabled":false,"rental_uris":{"android":"levelo://app?vid=8475d067-bb51-4b7e-bcbe-2bf5e79a9257","ios":"levelo://app?vid=8475d067-bb51-4b7e-bcbe-2bf5e79a9257"},"vehicle_type_id":"4","last_reported":1753596952,"current_range_meters":18000,"station_id":"ce4bhih2rcd13ifvqfs0","pricing_plan_id":"cebpf4jnsgd1na2vs0mg"},{"bike_id":"098b018e-2607-4af2-bc10-8758893e88ea","system_id":"levelo_inurba_marseille","lat":43.24072,"lon":5.3775,"is_reserved":false,"is_disabled":false,"rental_uris":{"android":"levelo://app?vid=098b018e-2607-4af2-bc10-8758893e88ea","ios":"levelo://app?vid=098b018e-2607-4af2-bc10-8758893e88ea"},"vehicle_type_id":"4","last_reported":1753596952,"current_range_meters":18800,"station_id":"ce4bhnp2rcd13ifvqgvg","pricing_plan_id":"cebpf4jnsgd1na2vs0mg"},{"bike_id":"e00168b7-a5cc-4782-9fc4-2adde691a41d","system_id":"levelo_inurba_marseille","lat":43.30795,"lon":5.38126,"is_reserved":false,"is_disabled":false,"rental_uris":{"android":"levelo://app?vid=e00168b7-a5cc-4782-9fc4-2adde691a41d","ios":"levelo://app?vid=e00168b7-a5cc-4782-9fc4-2adde691a41d"},"vehicle_type_id":"4","last_reported":1753596952,"current_range_meters":19200,"station_id":"ce4bgt12rcd13ifvqce0","pricing_plan_id":"cebpf4jnsgd1na2vs0mg"},{"bike_id":"768658ed-1084-4cf3-8de4-cf3b64bf976d","system_id":"levelo_inurba_marseille","lat":43.22533,"lon":5.34763,"is_reserved":false,"is_disabled":false,"rental_uris":{"android":"levelo://app?vid=768658ed-1084-4cf3-8de4-cf3b64bf976d","ios":"levelo://app?vid=768658ed-1084-4cf3-8de4-cf3b64bf976d"},"vehicle_type_id":"4","last_reported":1753596952,"current_range_meters":19200,"station_id":"st_cvj5dfep6f1abm77gieg","pricing_plan_id":"cebpf4jnsgd1na2vs0mg"},{"bike_id":"f9999ec6-9371-4e85-b7d5-6a9f0024b861","system_id":"levelo_inurba_marseille","lat":43.31407,"lon":5.3709,"is_reserved":false,"is_disabled":false,"rental_uris":{"android":"levelo://app?vid=f9999ec6-9371-4e85-b7d5-6a9f0024b861","ios":"levelo://app?vid=f9999ec6-9371-4e85-b7d5-6a9f0024b861"},"vehicle_type_id":"4","last_reported":1753596952,"current_range_meters":19200,"station_id":"","pricing_plan_id":"cebpf4jnsgd1na2vs0mg"},{"bike_id":"f0cdf0c8-bc5a-4d40-b028-109d2b47cbb8","system_id":"levelo_inurba_marseille","lat":43.31709,"lon":5.40432,"is_reserved":false,"is_disabled":false,"rental_uris":{"android":"levelo://app?vid=f0cdf0c8-bc5a-4d40-b028-109d2b47cbb8","ios":"levelo://app?vid=f0cdf0c8-bc5a-4d40-b028-109d2b47cbb8"},"vehicle_type_id":"4","last_reported":1753596952,"current_range_meters":19200,"station_id":"ce4bh012rcd13ifvqd00","pricing_plan_id":"cebpf4jnsgd1na2vs0mg"},{"bike_id":"95dd70e4-879c-49e7-b318-a6c71b22a43e","system_id":"levelo_inurba_marseille","lat":43.2703,"lon":5.39295,"is_reserved":false,"is_disabled":false,"rental_uris":{"android":"levelo://app?vid=95dd70e4-879c-49e7-b318-a6c71b22a43e","ios":"levelo://app?vid=95dd70e4-879c-49e7-b318-a6c71b22a43e"},"vehicle_type_id":"4","last_reported":1753596952,"current_range_meters":19200,"station_id":"","pricing_plan_id":"cebpf4jnsgd1na2vs0mg"},{"bike_id":"62f0adcc-1f39-4436-99c8-3e0814d46c2f","system_id":"levelo_inurba_marseille","lat":43.25597,"lon":5.37649,"is_reserved":false,"is_disabled":false,"rental_uris":{"android":"levelo://app?vid=62f0adcc-1f39-4436-99c8-3e0814d46c2f","ios":"levelo://app?vid=62f0adcc-1f39-4436-99c8-3e0814d46c2f"},"vehicle_type_id":"4","last_reported":1753596952,"current_range_meters":19200,"station_id":"","pricing_plan_id":"cebpf4jnsgd1na2vs0mg"},{"bike_id":"149fbe11-3bce-47a0-b584-c7c7bd6bb12f","system_id":"levelo_inurba_marseille","lat":43.2162,"lon":5.34439,"is_reserved":false,"is_disabled":false,"rental_uris":{"android":"levelo://app?vid=149fbe11-3bce-47a0-b584-c7c7bd6bb12f","ios":"levelo://app?vid=149fbe11-3bce-47a0-b584-c7c7bd6bb12f"},"vehicle_type_id":"4","last_reported":1753596952,"current_range_meters":19200,"station_id":"","pricing_plan_id":"cebpf4jnsgd1na2vs0mg"},{"bike_id":"8fb5a2db-da4c-447d-8305-b6ddf41e048a","system_id":"levelo_inurba_marseille","lat":43.30644,"lon":5.40089,"is_reserved":false,"is_disabled":false,"rental_uris":{"android":"levelo://app?vid=8fb5a2db-da4c-447d-8305-b6ddf41e048a","ios":"levelo://app?vid=8fb5a2db-da4c-447d-8305-b6ddf41e048a"},"vehicle_type_id":"4","last_reported":1753596952,"current_range_meters":19200,"station_id":"ce4bh112rcd13ifvqda0","pricing_plan_id":"cebpf4jnsgd1na2vs0mg"},{"bike_id":"209c73e6-1f69-4d13-9fed-77cb46eecd05","system_id":"levelo_inurba_marseille","lat":43.34681,"lon":5.38065,"is_reserved":false,"is_disabled":false,"rental_uris":{"android":"levelo://app?vid=209c73e6-1f69-4d13-9fed-77cb46eecd05","ios":"levelo://app?vid=209c73e6-1f69-4d13-9fed-77cb46eecd05"},"vehicle_type_id":"4","last_reported":1753596952,"current_range_meters":19200,"station_id":"","pricing_plan_id":"cebpf4jnsgd1na2vs0mg"},{"bike_id":"8142408b-84ea-4577-9728-f52c3a5f16f1","system_id":"levelo_inurba_marseille","lat":43.2418,"lon":5.36394,"is_reserved":false,"is_disabled":true,"rental_uris":{"android":"levelo://app?vid=8142408b-84ea-4577-9728-f52c3a5f16f1","ios":"levelo://app?vid=8142408b-84ea-4577-9728-f52c3a5f16f1"},"vehicle_type_id":"4","last_reported":1753596952,"current_range_meters":19600,"station_id":"cpo36qri1sfpv3e86is0","pricing_plan_id":"cebpf4jnsgd1na2vs0mg"},{"bike_id":"47eb4bcd-34cb-4441-8fc0-2fa8b9a9f4b2","system_id":"levelo_inurba_marseille","lat":43.245485,"lon":5.40253,"is_reserved":false,"is_disabled":false,"rental_uris":{"android":"levelo://app?vid=47eb4bcd-34cb-4441-8fc0-2fa8b9a9f4b2","ios":"levelo://app?vid=47eb4bcd-34cb-4441-8fc0-2fa8b9a9f4b2"},"vehicle_type_id":"4","last_reported":1753596952,"current_range_meters":19600,"station_id":"","pricing_plan_id":"cebpf4jnsgd1na2vs0mg"},{"bike_id":"e014be52-533f-408e-8321-de4ff655213a","system_id":"levelo_inurba_marseille","lat":43.28695,"lon":5.39977,"is_reserved":false,"is_disabled":false,"rental_uris":{"android":"levelo://app?vid=e014be52-533f-408e-8321-de4ff655213a","ios":"levelo://app?vid=e014be52-533f-408e-8321-de4ff655213a"},"vehicle_type_id":"4","last_reported":1753596952,"current_range_meters":20000,"station_id":"ce4bho92rcd13ifvqh3g","pricing_plan_id":"cebpf4jnsgd1na2vs0mg"},{"bike_id":"9d6f4d9f-a761-4ae2-9e4b-00f8fda461c4","system_id":"levelo_inurba_marseille","lat":43.28588,"lon":5.39493,"is_reserved":false,"is_disabled":true,"rental_uris":{"android":"levelo://app?vid=9d6f4d9f-a761-4ae2-9e4b-00f8fda461c4","ios":"levelo://app?vid=9d6f4d9f-a761-4ae2-9e4b-00f8fda461c4"},"vehicle_type_id":"4","last_reported":1753596952,"current_range_meters":19600,"station_id":"ce4bh292rcd13ifvqdg0","pricing_plan_id":"cebpf4jnsgd1na2vs0mg"},{"bike_id":"5ecc4fa4-09a9-475d-b21a-4f8174a9957f","system_id":"levelo_inurba_marseille","lat":43.28941,"lon":5.39634,"is_reserved":false,"is_disabled":false,"rental_uris":{"android":"levelo://app?vid=5ecc4fa4-09a9-475d-b21a-4f8174a9957f","ios":"levelo://app?vid=5ecc4fa4-09a9-475d-b21a-4f8174a9957f"},"vehicle_type_id":"4","last_reported":1753596952,"current_range_meters":19600,"station_id":"ce4bh3h2rcd13ifvqdn0","pricing_plan_id":"cebpf4jnsgd1na2vs0mg"},{"bike_id":"32a747e2-27c2-49de-8556-18e76d1bff8f","system_id":"levelo_inurba_marseille","lat":43.31181,"lon":5.38715,"is_reserved":false,"is_disabled":false,"rental_uris":{"android":"levelo://app?vid=32a747e2-27c2-49de-8556-18e76d1bff8f","ios":"levelo://app?vid=32a747e2-27c2-49de-8556-18e76d1bff8f"},"vehicle_type_id":"4","last_reported":1753596952,"current_range_meters":20000,"station_id":"ce4bgv12rcd13ifvqcp0","pricing_plan_id":"cebpf4jnsgd1na2vs0mg"},{"bike_id":"f7331053-00f9-4a82-be77-15a848ac5592","system_id":"levelo_inurba_marseille","lat":43.29265,"lon":5.36854,"is_reserved":false,"is_disabled":false,"rental_uris":{"android":"levelo://app?vid=f7331053-00f9-4a82-be77-15a848ac5592","ios":"levelo://app?vid=f7331053-00f9-4a82-be77-15a848ac5592"},"vehicle_type_id":"4","last_reported":1753596952,"current_range_meters":20000,"station_id":"ce4bhbp2rcd13ifvqesg","pricing_plan_id":"cebpf4jnsgd1na2vs0mg"},{"bike_id":"2ff0dbde-f806-45a0-bc8e-93c1d8652f37","system_id":"levelo_inurba_marseille","lat":43.284151,"lon":5.375143,"is_reserved":false,"is_disabled":false,"rental_uris":{"android":"levelo://app?vid=2ff0dbde-f806-45a0-bc8e-93c1d8652f37","ios":"levelo://app?vid=2ff0dbde-f806-45a0-bc8e-93c1d8652f37"},"vehicle_type_id":"4","last_reported":1753596952,"current_range_meters":20000,"station_id":"ce4bh412rcd13ifvqds0","pricing_plan_id":"cebpf4jnsgd1na2vs0mg"},{"bike_id":"5f5f35e9-d36e-492a-a242-a7d421a7c07e","system_id":"levelo_inurba_marseille","lat":43.30245,"lon":5.40085,"is_reserved":false,"is_disabled":false,"rental_uris":{"android":"levelo://app?vid=5f5f35e9-d36e-492a-a242-a7d421a7c07e","ios":"levelo://app?vid=5f5f35e9-d36e-492a-a242-a7d421a7c07e"},"vehicle_type_id":"4","last_reported":1753596952,"current_range_meters":20000,"station_id":"ce4bgvh2rcd13ifvqcs0","pricing_plan_id":"cebpf4jnsgd1na2vs0mg"},{"bike_id":"3ea0d71c-6a33-435d-83f3-4896a9bfd722","system_id":"levelo_inurba_marseille","lat":43.312859,"lon":5.405013,"is_reserved":false,"is_disabled":false,"rental_uris":{"android":"levelo://app?vid=3ea0d71c-6a33-435d-83f3-4896a9bfd722","ios":"levelo://app?vid=3ea0d71c-6a33-435d-83f3-4896a9bfd722"},"vehicle_type_id":"4","last_reported":1753596952,"current_range_meters":20000,"station_id":"","pricing_plan_id":"cebpf4jnsgd1na2vs0mg"},{"bike_id":"308bf59a-da62-48e3-ae19-11fff609b68f","system_id":"levelo_inurba_marseille","lat":43.27995,"lon":5.41651,"is_reserved":false,"is_disabled":false,"rental_uris":{"android":"levelo://app?vid=308bf59a-da62-48e3-ae19-11fff609b68f","ios":"levelo://app?vid=308bf59a-da62-48e3-ae19-11fff609b68f"},"vehicle_type_id":"4","last_reported":1753596952,"current_range_meters":20000,"station_id":"ce4bho12rcd13ifvqh1g","pricing_plan_id":"cebpf4jnsgd1na2vs0mg"},{"bike_id":"fa32029e-18e3-47e5-afac-9692972eb580","system_id":"levelo_inurba_marseille","lat":43.29049,"lon":5.39935,"is_reserved":false,"is_disabled":false,"rental_uris":{"android":"levelo://app?vid=fa32029e-18e3-47e5-afac-9692972eb580","ios":"levelo://app?vid=fa32029e-18e3-47e5-afac-9692972eb580"},"vehicle_type_id":"4","last_reported":1753596952,"current_range_meters":20000,"station_id":"ce4bh392rcd13ifvqdm0","pricing_plan_id":"cebpf4jnsgd1na2vs0mg"},{"bike_id":"37cbb8bc-1e07-42d2-aacd-df0cfc9b0489","system_id":"levelo_inurba_marseille","lat":43.23193,"lon":5.35556,"is_reserved":false,"is_disabled":false,"rental_uris":{"android":"levelo://app?vid=37cbb8bc-1e07-42d2-aacd-df0cfc9b0489","ios":"levelo://app?vid=37cbb8bc-1e07-42d2-aacd-df0cfc9b0489"},"vehicle_type_id":"4","last_reported":1753596952,"current_range_meters":20000,"station_id":"ce4bhu92rcd13ifvqi70","pricing_plan_id":"cebpf4jnsgd1na2vs0mg"},{"bike_id":"ff60fd53-3fb6-47e2-bd2c-9d5e53fa6383","system_id":"levelo_inurba_marseille","lat":43.240745,"lon":5.377543,"is_reserved":false,"is_disabled":false,"rental_uris":{"android":"levelo://app?vid=ff60fd53-3fb6-47e2-bd2c-9d5e53fa6383","ios":"levelo://app?vid=ff60fd53-3fb6-47e2-bd2c-9d5e53fa6383"},"vehicle_type_id":"4","last_reported":1753596952,"current_range_meters":20000,"station_id":"ce4bhnp2rcd13ifvqgvg","pricing_plan_id":"cebpf4jnsgd1na2vs0mg"},{"bike_id":"cd6ebbf8-e30b-4e8b-8f41-cfbcf6fe3260","system_id":"levelo_inurba_marseille","lat":43.28273,"lon":5.35075,"is_reserved":false,"is_disabled":false,"rental_uris":{"android":"levelo://app?vid=cd6ebbf8-e30b-4e8b-8f41-cfbcf6fe3260","ios":"levelo://app?vid=cd6ebbf8-e30b-4e8b-8f41-cfbcf6fe3260"},"vehicle_type_id":"4","last_reported":1753596952,"current_range_meters":20000,"station_id":"ce4bhbp2rcd13ifvqerg","pricing_plan_id":"cebpf4jnsgd1na2vs0mg"},{"bike_id":"69af1056-d53f-49ab-8c7a-36818e893230","system_id":"levelo_inurba_marseille","lat":43.323584,"lon":5.367617,"is_reserved":false,"is_disabled":false,"rental_uris":{"android":"levelo://app?vid=69af1056-d53f-49ab-8c7a-36818e893230","ios":"levelo://app?vid=69af1056-d53f-49ab-8c7a-36818e893230"},"vehicle_type_id":"4","last_reported":1753596952,"current_range_meters":20000,"station_id":"ce4bhsh2rcd13ifvqi2g","pricing_plan_id":"cebpf4jnsgd1na2vs0mg"},{"bike_id":"47e2491f-adeb-40eb-8e20-cffb91682761","system_id":"levelo_inurba_marseille","lat":43.248114,"lon":5.374553,"is_reserved":false,"is_disabled":false,"rental_uris":{"android":"levelo://app?vid=47e2491f-adeb-40eb-8e20-cffb91682761","ios":"levelo://app?vid=47e2491f-adeb-40eb-8e20-cffb91682761"},"vehicle_type_id":"4","last_reported":1753596952,"current_range_meters":20000,"station_id":"ce4bhgh2rcd13ifvqfb0","pricing_plan_id":"cebpf4jnsgd1na2vs0mg"},{"bike_id":"c5d6c16c-667e-4c61-9e09-b5efae6e86bc","system_id":"levelo_inurba_marseille","lat":43.298993,"lon":5.436693,"is_reserved":false,"is_disabled":false,"rental_uris":{"android":"levelo://app?vid=c5d6c16c-667e-4c61-9e09-b5efae6e86bc","ios":"levelo://app?vid=c5d6c16c-667e-4c61-9e09-b5efae6e86bc"},"vehicle_type_id":"4","last_reported":1753596952,"current_range_meters":20000,"station_id":"ce4bhpp2rcd13ifvqhfg","pricing_plan_id":"cebpf4jnsgd1na2vs0mg"},{"bike_id":"1e05dfc2-1b36-4f7b-87b6-0e3d00941d07","system_id":"levelo_inurba_marseille","lat":43.30633,"lon":5.40084,"is_reserved":false,"is_disabled":false,"rental_uris":{"android":"levelo://app?vid=1e05dfc2-1b36-4f7b-87b6-0e3d00941d07","ios":"levelo://app?vid=1e05dfc2-1b36-4f7b-87b6-0e3d00941d07"},"vehicle_type_id":"4","last_reported":1753596952,"current_range_meters":20000,"station_id":"ce4bh112rcd13ifvqda0","pricing_plan_id":"cebpf4jnsgd1na2vs0mg"},{"bike_id":"e52d8005-6321-424e-b866-9424defdc722","system_id":"levelo_inurba_marseille","lat":43.28033,"lon":5.369335,"is_reserved":false,"is_disabled":false,"rental_uris":{"android":"levelo://app?vid=e52d8005-6321-424e-b866-9424defdc722","ios":"levelo://app?vid=e52d8005-6321-424e-b866-9424defdc722"},"vehicle_type_id":"4","last_reported":1753596952,"current_range_meters":20000,"station_id":"ce4bha12rcd13ifvqef0","pricing_plan_id":"cebpf4jnsgd1na2vs0mg"},{"bike_id":"ecaeca81-f41e-42d9-9bea-01c875315b83","system_id":"levelo_inurba_marseille","lat":43.280365,"lon":5.369299,"is_reserved":false,"is_disabled":false,"rental_uris":{"android":"levelo://app?vid=ecaeca81-f41e-42d9-9bea-01c875315b83","ios":"levelo://app?vid=ecaeca81-f41e-42d9-9bea-01c875315b83"},"vehicle_type_id":"4","last_reported":1753596952,"current_range_meters":20400,"station_id":"ce4bha12rcd13ifvqef0","pricing_plan_id":"cebpf4jnsgd1na2vs0mg"},{"bike_id":"c06c7596-f106-4568-98be-7fc68ff46ba6","system_id":"levelo_inurba_marseille","lat":43.29288,"lon":5.3745,"is_reserved":false,"is_disabled":false,"rental_uris":{"android":"levelo://app?vid=c06c7596-f106-4568-98be-7fc68ff46ba6","ios":"levelo://app?vid=c06c7596-f106-4568-98be-7fc68ff46ba6"},"vehicle_type_id":"4","last_reported":1753596952,"current_range_meters":20000,"station_id":"ce4bgi12rcd13ifvqb70","pricing_plan_id":"cebpf4jnsgd1na2vs0mg"},{"bike_id":"2d9628be-7dc2-417c-ac77-0359bae99825","system_id":"levelo_inurba_marseille","lat":43.31072,"lon":5.38351,"is_reserved":false,"is_disabled":false,"rental_uris":{"android":"levelo://app?vid=2d9628be-7dc2-417c-ac77-0359bae99825","ios":"levelo://app?vid=2d9628be-7dc2-417c-ac77-0359bae99825"},"vehicle_type_id":"4","last_reported":1753596952,"current_range_meters":20400,"station_id":"","pricing_plan_id":"cebpf4jnsgd1na2vs0mg"},{"bike_id":"93c33c47-0b37-4bbf-a053-490efa24e020","system_id":"levelo_inurba_marseille","lat":43.281589,"lon":5.426364,"is_reserved":false,"is_disabled":false,"rental_uris":{"android":"levelo://app?vid=93c33c47-0b37-4bbf-a053-490efa24e020","ios":"levelo://app?vid=93c33c47-0b37-4bbf-a053-490efa24e020"},"vehicle_type_id":"4","last_reported":1753596952,"current_range_meters":20800,"station_id":"ce4bhnh2rcd13ifvqgug","pricing_plan_id":"cebpf4jnsgd1na2vs0mg"},{"bike_id":"aff8db83-dedf-41d9-b166-b70a5209e3fb","system_id":"levelo_inurba_marseille","lat":43.30155,"lon":5.38084,"is_reserved":false,"is_disabled":false,"rental_uris":{"android":"levelo://app?vid=aff8db83-dedf-41d9-b166-b70a5209e3fb","ios":"levelo://app?vid=aff8db83-dedf-41d9-b166-b70a5209e3fb"},"vehicle_type_id":"4","last_reported":1753596952,"current_range_meters":20800,"station_id":"ce4bgjp2rcd13ifvqbh0","pricing_plan_id":"cebpf4jnsgd1na2vs0mg"},{"bike_id":"f608082a-2cef-4882-be67-f112efebf3c0","system_id":"levelo_inurba_marseille","lat":43.29448,"lon":5.39726,"is_reserved":false,"is_disabled":false,"rental_uris":{"android":"levelo://app?vid=f608082a-2cef-4882-be67-f112efebf3c0","ios":"levelo://app?vid=f608082a-2cef-4882-be67-f112efebf3c0"},"vehicle_type_id":"4","last_reported":1753596952,"current_range_meters":20800,"station_id":"ce4bh3h2rcd13ifvqdo0","pricing_plan_id":"cebpf4jnsgd1na2vs0mg"},{"bike_id":"c6354dbe-7447-447b-a791-963bc788f093","system_id":"levelo_inurba_marseille","lat":43.239601,"lon":5.366219,"is_reserved":false,"is_disabled":false,"rental_uris":{"android":"levelo://app?vid=c6354dbe-7447-447b-a791-963bc788f093","ios":"levelo://app?vid=c6354dbe-7447-447b-a791-963bc788f093"},"vehicle_type_id":"4","last_reported":1753596952,"current_range_meters":20800,"station_id":"ce4bhi12rcd13ifvqfp0","pricing_plan_id":"cebpf4jnsgd1na2vs0mg"},{"bike_id":"72e9581e-243c-489b-ac72-946b1381353f","system_id":"levelo_inurba_marseille","lat":43.30629,"lon":5.37628,"is_reserved":false,"is_disabled":false,"rental_uris":{"android":"levelo://app?vid=72e9581e-243c-489b-ac72-946b1381353f","ios":"levelo://app?vid=72e9581e-243c-489b-ac72-946b1381353f"},"vehicle_type_id":"4","last_reported":1753596952,"current_range_meters":20800,"station_id":"","pricing_plan_id":"cebpf4jnsgd1na2vs0mg"},