{"last_updated":1740413507,"ttl":60,"version":"2.2","data":{"bikes":[{"bike_id":"40af75d5-f0a6-4e0f-8411-672444f94865","system_id":"levelo_inurba_marseille","lat":43.29497,"lon":5.42243,"is_reserved":false,"is_disabled":false,"rental_uris":{"android":"levelo://app?vid=40af75d5-f0a6-4e0f-8411-672444f94865","ios":"levelo://app?vid=40af75d5-f0a6-4e0f-8411-672444f94865"},"vehicle_type_id":"4","last_reported":1740413507,"current_range_meters":2800,"station_id":"","pricing_plan_id":"cebpf4jnsgd1na2vs0mg"},{"bike_id":"05ae7224-544d-40ec-9adc-a8a4a05b41c5","system_id":"levelo_inurba_marseille","lat":43.28931,"lon":5.38397,"is_reserved":false,"is_disabled":false,"rental_uris":{"android":"levelo://app?vid=05ae7224-544d-40ec-9adc-a8a4a05b41c5","ios":"levelo://app?vid=05ae7224-544d-40ec-9adc-a8a4a05b41c5"},"vehicle_type_id":"4","last_reported":1740413507,"current_range_meters":2800,"station_id":"ce4bh612rcd13ifvqe6g","pricing_plan_id":"cebpf4jnsgd1na2vs0mg"},{"bike_id":"af969683-a016-4709-8396-c21b4c632833","system_id":"levelo_inurba_marseille","lat":43.23154,"lon":5.43725,"is_reserved":false,"is_disabled":false,"rental_uris":{"android":"levelo://app?vid=af969683-a016-4709-8396-c21b4c632833","ios":"levelo://app?vid=af969683-a016-4709-8396-c21b4c632833"},"vehicle_type_id":"4","last_reported":1740413507,"current_range_meters":2800,"station_id":"ce4bhmp2rcd13ifvqgog","pricing_plan_id":"cebpf4jnsgd1na2vs0mg"},{"bike_id":"5d0fbd14-732b-4a0b-8ca8-1bdba98a9c8c","system_id":"levelo_inurba_marseille","lat":43.29574,"lon":5.39976,"is_reserved":false,"is_disabled":false,"rental_uris":{"android":"levelo://app?vid=5d0fbd14-732b-4a0b-8ca8-1bdba98a9c8c","ios":"levelo://app?vid=5d0fbd14-732b-4a0b-8ca8-1bdba98a9c8c"},"vehicle_type_id":"4","last_reported":1740413507,"current_range_meters":4000,"station_id":"ce4bh312rcd13ifvqdj0","pricing_plan_id":"cebpf4jnsgd1na2vs0mg"},{"bike_id":"c5c69430-b770-4fe1-859a-438ee0b78d59","system_id":"levelo_inurba_marseille","lat":43.30929,"lon":5.40142,"is_reserved":false,"is_disabled":false,"rental_uris":{"android":"levelo://app?vid=c5c69430-b770-4fe1-859a-438ee0b78d59","ios":"levelo://app?vid=c5c69430-b770-4fe1-859a-438ee0b78d59"},"vehicle_type_id":"4","last_reported":1740413507,"current_range_meters":4800,"station_id":"ce4bgvp2rcd13ifvqct0","pricing_plan_id":"cebpf4jnsgd1na2vs0mg"},{"bike_id":"50a03b29-b76f-4fb2-91d7-00d2a75d785c","system_id":"levelo_inurba_marseille","lat":43.29257,"lon":5.37622,"is_reserved":false,"is_disabled":true,"rental_uris":{"android":"levelo://app?vid=50a03b29-b76f-4fb2-91d7-00d2a75d785c","ios":"levelo://app?vid=50a03b29-b76f-4fb2-91d7-00d2a75d785c"},"vehicle_type_id":"4","last_reported":1740413507,"current_range_meters":4400,"station_id":"ce4bgi12rcd13ifvqb80","pricing_plan_id":"cebpf4jnsgd1na2vs0mg"},{"bike_id":"413dc171-4546-4050-9354-c607ae4433bf","system_id":"levelo_inurba_marseille","lat":43.30168,"lon":5.39602,"is_reserved":false,"is_disabled":true,"rental_uris":{"android":"levelo://app?vid=413dc171-4546-4050-9354-c607ae4433bf","ios":"levelo://app?vid=413dc171-4546-4050-9354-c607ae4433bf"},"vehicle_type_id":"4","last_reported":1740413507,"current_range_meters":4800,"station_id":"","pricing_plan_id":"cebpf4jnsgd1na2vs0mg"},{"bike_id":"25d011f9-7e45-49a9-a4db-7831e86625a8","system_id":"levelo_inurba_marseille","lat":43.28085,"lon":5.39665,"is_reserved":false,"is_disabled":false,"rental_uris":{"android":"levelo://app?vid=25d011f9-7e45-49a9-a4db-7831e86625a8","ios":"levelo://app?vid=25d011f9-7e45-49a9-a4db-7831e86625a8"},"vehicle_type_id":"4","last_reported":1740413507,"current_range_meters":6000,"station_id":"ce4bho12rcd13ifvqh2g","pricing_plan_id":"cebpf4jnsgd1na2vs0mg"},{"bike_id":"68293ac2-13d4-43d4-93f3-b4730d6a9f2f","system_id":"levelo_inurba_marseille","lat":43.31078,"lon":5.38333,"is_reserved":false,"is_disabled":false,"rental_uris":{"android":"levelo://app?vid=68293ac2-13d4-43d4-93f3-b4730d6a9f2f","ios":"levelo://app?vid=68293ac2-13d4-43d4-93f3-b4730d6a9f2f"},"vehicle_type_id":"4","last_reported":1740413507,"current_range_meters":6000,"station_id":"ce4bgv92rcd13ifvqcr0","pricing_plan_id":"cebpf4jnsgd1na2vs0mg"},{"bike_id":"51df35be-9dc7-4822-b405-d81fb53e29c0","system_id":"levelo_inurba_marseille","lat":43.29566,"lon":5.37538,"is_reserved":false,"is_disabled":false,"rental_uris":{"android":"levelo://app?vid=51df35be-9dc7-4822-b405-d81fb53e29c0","ios":"levelo://app?vid=51df35be-9dc7-4822-b405-d81fb53e29c0"},"vehicle_type_id":"4","last_reported":1740413507,"current_range_meters":4400,"station_id":"ce4bgh92rcd13ifvqb50","pricing_plan_id":"cebpf4jnsgd1na2vs0mg"},{"bike_id":"90df2f38-669c-48e4-aa95-258b0a030130","system_id":"levelo_inurba_marseille","lat":43.31241,"lon":5.36902,"is_reserved":false,"is_disabled":false,"rental_uris":{"android":"levelo://app?vid=90df2f38-669c-48e4-aa95-258b0a030130","ios":"levelo://app?vid=90df2f38-669c-48e4-aa95-258b0a030130"},"vehicle_type_id":"4","last_reported":1740413507,"current_range_meters":6400,"station_id":"ce4bgl92rcd13ifvqbq0","pricing_plan_id":"cebpf4jnsgd1na2vs0mg"},{"bike_id":"0d9c9838-a20d-4f8c-83e7-36714cc90cc2","system_id":"levelo_inurba_marseille","lat":43.25718,"lon":5.41115,"is_reserved":false,"is_disabled":false,"rental_uris":{"android":"levelo://app?vid=0d9c9838-a20d-4f8c-83e7-36714cc90cc2","ios":"levelo://app?vid=0d9c9838-a20d-4f8c-83e7-36714cc90cc2"},"vehicle_type_id":"4","last_reported":1740413507,"current_range_meters":2000,"station_id":"ce4bhkp2rcd13ifvqgd0","pricing_plan_id":"cebpf4jnsgd1na2vs0mg"},{"bike_id":"eec006dc-8c6e-4e91-bb38-0cbea1583e3b","system_id":"levelo_inurba_marseille","lat":43.28157,"lon":5.42653,"is_reserved":false,"is_disabled":false,"rental_uris":{"android":"levelo://app?vid=eec006dc-8c6e-4e91-bb38-0cbea1583e3b","ios":"levelo://app?vid=eec006dc-8c6e-4e91-bb38-0cbea1583e3b"},"vehicle_type_id":"4","last_reported":1740413507,"current_range_meters":6400,"station_id":"ce4bhnh2rcd13ifvqgug","pricing_plan_id":"cebpf4jnsgd1na2vs0mg"},{"bike_id":"3095385b-d4a0-4cfe-b50e-c3aacbb0c915","system_id":"levelo_inurba_marseille","lat":43.26034,"lon":5.37553,"is_reserved":false,"is_disabled":false,"rental_uris":{"android":"levelo://app?vid=3095385b-d4a0-4cfe-b50e-c3aacbb0c915","ios":"levelo://app?vid=3095385b-d4a0-4cfe-b50e-c3aacbb0c915"},"vehicle_type_id":"4","last_reported":1740413507,"current_range_meters":7200,"station_id":"ce4bhgh2rcd13ifvqfa0","pricing_plan_id":"cebpf4jnsgd1na2vs0mg"},{"bike_id":"c1a7b9fc-f9d9-43fe-a6d2-2df1526ca53b","system_id":"levelo_inurba_marseille","lat":43.25577,"lon":5.38231,"is_reserved":false,"is_disabled":false,"rental_uris":{"android":"levelo://app?vid=c1a7b9fc-f9d9-43fe-a6d2-2df1526ca53b","ios":"levelo://app?vid=c1a7b9fc-f9d9-43fe-a6d2-2df1526ca53b"},"vehicle_type_id":"4","last_reported":1740413507,"current_range_meters":7200,"station_id":"ce4bhih2rcd13ifvqfs0","pricing_plan_id":"cebpf4jnsgd1na2vs0mg"},{"bike_id":"0b7060c3-9f42-421c-8a78-337d401a7630","system_id":"levelo_inurba_marseille","lat":43.25869,"lon":5.39901,"is_reserved":false,"is_disabled":false,"rental_uris":{"android":"levelo://app?vid=0b7060c3-9f42-421c-8a78-337d401a7630","ios":"levelo://app?vid=0b7060c3-9f42-421c-8a78-337d401a7630"},"vehicle_type_id":"4","last_reported":1740413507,"current_range_meters":7200,"station_id":"ce4bhl92rcd13ifvqghg","pricing_plan_id":"cebpf4jnsgd1na2vs0mg"},{"bike_id":"f9c404b5-1c0f-4dcd-903f-06fac5aeaeeb","system_id":"levelo_inurba_marseille","lat":43.28667,"lon":5.36353,"is_reserved":false,"is_disabled":false,"rental_uris":{"android":"levelo://app?vid=f9c404b5-1c0f-4dcd-903f-06fac5aeaeeb","ios":"levelo://app?vid=f9c404b5-1c0f-4dcd-903f-06fac5aeaeeb"},"vehicle_type_id":"4","last_reported":1740413507,"current_range_meters":7200,"station_id":"ce4bhah2rcd13ifvqej0","pricing_plan_id":"cebpf4jnsgd1na2vs0mg"},{"bike_id":"7f511d4c-3679-4649-9e3c-08f174d59879","system_id":"levelo_inurba_marseille","lat":43.3042,"lon":5.41279,"is_reserved":false,"is_disabled":false,"rental_uris":{"android":"levelo://app?vid=7f511d4c-3679-4649-9e3c-08f174d59879","ios":"levelo://app?vid=7f511d4c-3679-4649-9e3c-08f174d59879"},"vehicle_type_id":"4","last_reported":1740413507,"current_range_meters":8000,"station_id":"ce4bhop2rcd13ifvqh8g","pricing_plan_id":"cebpf4jnsgd1na2vs0mg"},{"bike_id":"0ba98a8b-7ff8-4e17-9165-7d6384d47ac2","system_id":"levelo_inurba_marseille","lat":43.29889,"lon":5.38904,"is_reserved":false,"is_disabled":false,"rental_uris":{"android":"levelo://app?vid=0ba98a8b-7ff8-4e17-9165-7d6384d47ac2","ios":"levelo://app?vid=0ba98a8b-7ff8-4e17-9165-7d6384d47ac2"},"vehicle_type_id":"4","last_reported":1740413507,"current_range_meters":6800,"station_id":"ce4bh392rcd13ifvqdl0","pricing_plan_id":"cebpf4jnsgd1na2vs0mg"},{"bike_id":"f824cb01-8026-4b65-b32f-b9b53c92d523","system_id":"levelo_inurba_marseille","lat":43.25017,"lon":5.38935,"is_reserved":false,"is_disabled":false,"rental_uris":{"android":"levelo://app?vid=f824cb01-8026-4b65-b32f-b9b53c92d523","ios":"levelo://app?vid=f824cb01-8026-4b65-b32f-b9b53c92d523"},"vehicle_type_id":"4","last_reported":1740413507,"current_range_meters":8000,"station_id":"ce4bhgp2rcd13ifvqfd0","pricing_plan_id":"cebpf4jnsgd1na2vs0mg"},{"bike_id":"5bca1cb7-97f3-4e81-8b33-3927b81c3f6d","system_id":"levelo_inurba_marseille","lat":43.29162,"lon":5.38009,"is_reserved":false,"is_disabled":false,"rental_uris":{"android":"levelo://app?vid=5bca1cb7-97f3-4e81-8b33-3927b81c3f6d","ios":"levelo://app?vid=5bca1cb7-97f3-4e81-8b33-3927b81c3f6d"},"vehicle_type_id":"4","last_reported":1740413507,"current_range_meters":8400,"station_id":"","pricing_plan_id":"cebpf4jnsgd1na2vs0mg"},{"bike_id":"eff61a99-6127-45ed-8860-3ba2fb161486","system_id":"levelo_inurba_marseille","lat":43.29556,"lon":5.42296,"is_reserved":false,"is_disabled":false,"rental_uris":{"android":"levelo://app?vid=eff61a99-6127-45ed-8860-3ba2fb161486","ios":"levelo://app?vid=eff61a99-6127-45ed-8860-3ba2fb161486"},"vehicle_type_id":"4","last_reported":1740413507,"current_range_meters":8800,"station_id":"ce4bhph2rcd13ifvqhdg","pricing_plan_id":"cebpf4jnsgd1na2vs0mg"},{"bike_id":"fefc2d87-ff8f-484e-a628-494e3d19af1a","system_id":"levelo_inurba_marseille","lat":43.29259,"lon":5.40902,"is_reserved":false,"is_disabled":false,"rental_uris":{"android":"levelo://app?vid=fefc2d87-ff8f-484e-a628-494e3d19af1a","ios":"levelo://app?vid=fefc2d87-ff8f-484e-a628-494e3d19af1a"},"vehicle_type_id":"4","last_reported":1740413507,"current_range_meters":8400,"station_id":"ce4bh192rcd13ifvqdc0","pricing_plan_id":"cebpf4jnsgd1na2vs0mg"},{"bike_id":"7d8463d5-571b-43ca-8acc-b8faedf9bfa6","system_id":"levelo_inurba_marseille","lat":43.30617,"lon":5.37203,"is_reserved":false,"is_disabled":false,"rental_uris":{"android":"levelo://app?vid=7d8463d5-571b-43ca-8acc-b8faedf9bfa6","ios":"levelo://app?vid=7d8463d5-571b-43ca-8acc-b8faedf9bfa6"},"vehicle_type_id":"4","last_reported":1740413507,"current_range_meters":8400,"station_id":"ce4bgqh2rcd13ifvqc4g","pricing_plan_id":"cebpf4jnsgd1na2vs0mg"},{"bike_id":"7fe43458-9539-4fcf-b3bd-bb8f2a233eae","system_id":"levelo_inurba_marseille","lat":43.29915,"lon":5.37486,"is_reserved":false,"is_disabled":false,"rental_uris":{"android":"levelo://app?vid=7fe43458-9539-4fcf-b3bd-bb8f2a233eae","ios":"levelo://app?vid=7fe43458-9539-4fcf-b3bd-bb8f2a233eae"},"vehicle_type_id":"4","last_reported":1740413507,"current_range_meters":8400,"station_id":"ce4bgjh2rcd13ifvqbg0","pricing_plan_id":"cebpf4jnsgd1na2vs0mg"},{"bike_id":"162ee7a2-576f-4bd3-b9cd-0ce8555a55b3","system_id":"levelo_inurba_marseille","lat":43.27072,"lon":5.42282,"is_reserved":false,"is_disabled":false,"rental_uris":{"android":"levelo://app?vid=162ee7a2-576f-4bd3-b9cd-0ce8555a55b3","ios":"levelo://app?vid=162ee7a2-576f-4bd3-b9cd-0ce8555a55b3"},"vehicle_type_id":"4","last_reported":1740413507,"current_range_meters":8800,"station_id":"ce4bhk92rcd13ifvqgb0","pricing_plan_id":"cebpf4jnsgd1na2vs0mg"},{"bike_id":"43ec5f8f-e8c0-4c5e-a127-a63c06c7f7ff","system_id":"levelo_inurba_marseille","lat":43.31755,"lon":5.39017,"is_reserved":false,"is_disabled":false,"rental_uris":{"android":"levelo://app?vid=43ec5f8f-e8c0-4c5e-a127-a63c06c7f7ff","ios":"levelo://app?vid=43ec5f8f-e8c0-4c5e-a127-a63c06c7f7ff"},"vehicle_type_id":"4","last_reported":1740413507,"current_range_meters":8400,"station_id":"ce4bhqp2rcd13ifvqhng","pricing_plan_id":"cebpf4jnsgd1na2vs0mg"},{"bike_id":"bd1c9204-109d-453d-a655-cc2878aad0c5","system_id":"levelo_inurba_marseille","lat":43.29905,"lon":5.43668,"is_reserved":false,"is_disabled":false,"rental_uris":{"android":"levelo://app?vid=bd1c9204-109d-453d-a655-cc2878aad0c5","ios":"levelo://app?vid=bd1c9204-109d-453d-a655-cc2878aad0c5"},"vehicle_type_id":"4","last_reported":1740413507,"current_range_meters":8800,"station_id":"ce4bhpp2rcd13ifvqhfg","pricing_plan_id":"cebpf4jnsgd1na2vs0mg"},{"bike_id":"9b6a0522-2769-4b7c-8364-81f01bc2f19e","system_id":"levelo_inurba_marseille","lat":43.24985,"lon":5.38948,"is_reserved":false,"is_disabled":false,"rental_uris":{"android":"levelo://app?vid=9b6a0522-2769-4b7c-8364-81f01bc2f19e","ios":"levelo://app?vid=9b6a0522-2769-4b7c-8364-81f01bc2f19e"},"vehicle_type_id":"4","last_reported":1740413507,"current_range_meters":8400,"station_id":"ce4bhgp2rcd13ifvqfd0","pricing_plan_id":"cebpf4jnsgd1na2vs0mg"},{"bike_id":"92612a50-ca9d-4f20-9e47-88f08b7e6808","system_id":"levelo_inurba_marseille","lat":43.28146,"lon":5.42633,"is_reserved":false,"is_disabled":false,"rental_uris":{"android":"levelo://app?vid=92612a50-ca9d-4f20-9e47-88f08b7e6808","ios":"levelo://app?vid=92612a50-ca9d-4f20-9e47-88f08b7e6808"},"vehicle_type_id":"4","last_reported":1740413507,"current_range_meters":8800,"station_id":"ce4bhnh2rcd13ifvqgug","pricing_plan_id":"cebpf4jnsgd1na2vs0mg"},{"bike_id":"b21c77a5-e540-4cda-8ea5-f87eb6cea310","system_id":"levelo_inurba_marseille","lat":43.29305,"lon":5.37464,"is_reserved":false,"is_disabled":true,"rental_uris":{"android":"levelo://app?vid=b21c77a5-e540-4cda-8ea5-f87eb6cea310","ios":"levelo://app?vid=b21c77a5-e540-4cda-8ea5-f87eb6cea310"},"vehicle_type_id":"4","last_reported":1740413507,"current_range_meters":8800,"station_id":"ce4bgi12rcd13ifvqb70","pricing_plan_id":"cebpf4jnsgd1na2vs0mg"},{"bike_id":"bee5503d-ca42-49de-a6f1-b74f14dc79e7","system_id":"levelo_inurba_marseille","lat":43.28932,"lon":5.36404,"is_reserved":false,"is_disabled":false,"rental_uris":{"android":"levelo://app?vid=bee5503d-ca42-49de-a6f1-b74f14dc79e7","ios":"levelo://app?vid=bee5503d-ca42-49de-a6f1-b74f14dc79e7"},"vehicle_type_id":"4","last_reported":1740413507,"current_range_meters":8400,"station_id":"ce4bhc92rcd13ifvqetg","pricing_plan_id":"cebpf4jnsgd1na2vs0mg"},{"bike_id":"7764cb33-5426-4b94-909c-ac480986db17","system_id":"levelo_inurba_marseille","lat":43.29334,"lon":5.37258,"is_reserved":false,"is_disabled":false,"rental_uris":{"android":"levelo://app?vid=7764cb33-5426-4b94-909c-ac480986db17","ios":"levelo://app?vid=7764cb33-5426-4b94-909c-ac480986db17"},"vehicle_type_id":"4","last_reported":1740413507,"current_range_meters":8800,"station_id":"","pricing_plan_id":"cebpf4jnsgd1na2vs0mg"},{"bike_id":"7e26a3e9-4c57-4918-aa17-698a0ce4ac78","system_id":"levelo_inurba_marseille","lat":43.30682,"lon":5.37519,"is_reserved":false,"is_disabled":false,"rental_uris":{"android":"levelo://app?vid=7e26a3e9-4c57-4918-aa17-698a0ce4ac78","ios":"levelo://app?vid=7e26a3e9-4c57-4918-aa17-698a0ce4ac78"},"vehicle_type_id":"4","last_reported":1740413507,"current_range_meters":8800,"station_id":"","pricing_plan_id":"cebpf4jnsgd1na2vs0mg"},{"bike_id":"87bbda1f-0db0-4d79-a046-a87b5e94995a","system_id":"levelo_inurba_marseille","lat":43.24172,"lon":5.36394,"is_reserved":false,"is_disabled":false,"rental_uris":{"android":"levelo://app?vid=87bbda1f-0db0-4d79-a046-a87b5e94995a","ios":"levelo://app?vid=87bbda1f-0db0-4d79-a046-a87b5e94995a"},"vehicle_type_id":"4","last_reported":1740413507,"current_range_meters":9200,"station_id":"cpo36qri1sfpv3e86is0","pricing_plan_id":"cebpf4jnsgd1na2vs0mg"},{"bike_id":"f80a79d6-1c74-4e76-8ed2-23203ade1d35","system_id":"levelo_inurba_marseille","lat":43.27815,"lon":5.40717,"is_reserved":false,"is_disabled":false,"rental_uris":{"android":"levelo://app?vid=f80a79d6-1c74-4e76-8ed2-23203ade1d35","ios":"levelo://app?vid=f80a79d6-1c74-4e76-8ed2-23203ade1d35"},"vehicle_type_id":"4","last_reported":1740413507,"current_range_meters":9200,"station_id":"ce4bhnh2rcd13ifvqgtg","pricing_plan_id":"cebpf4jnsgd1na2vs0mg"},{"bike_id":"4c676afd-aabb-48c7-9c62-f89205cd3f4a","system_id":"levelo_inurba_marseille","lat":43.27819,"lon":5.40727,"is_reserved":false,"is_disabled":false,"rental_uris":{"android":"levelo://app?vid=4c676afd-aabb-48c7-9c62-f89205cd3f4a","ios":"levelo://app?vid=4c676afd-aabb-48c7-9c62-f89205cd3f4a"},"vehicle_type_id":"4","last_reported":1740413507,"current_range_meters":9200,"station_id":"ce4bhnh2rcd13ifvqgtg","pricing_plan_id":"cebpf4jnsgd1na2vs0mg"},{"bike_id":"6c829d7b-7a32-4077-9672-b2f991848b16","system_id":"levelo_inurba_marseille","lat":43.29198,"lon":5.39305,"is_reserved":false,"is_disabled":false,"rental_uris":{"android":"levelo://app?vid=6c829d7b-7a32-4077-9672-b2f991848b16","ios":"levelo://app?vid=6c829d7b-7a32-4077-9672-b2f991848b16"},"vehicle_type_id":"4","last_reported":1740413507,"current_range_meters":9600,"station_id":"ce4bh192rcd13ifvqdd0","pricing_plan_id":"cebpf4jnsgd1na2vs0mg"},{"bike_id":"6cc141a8-20f9-4872-b8d7-3cb09ed2e777","system_id":"levelo_inurba_marseille","lat":43.28078,"lon":5.39661,"is_reserved":false,"is_disabled":false,"rental_uris":{"android":"levelo://app?vid=6cc141a8-20f9-4872-b8d7-3cb09ed2e777","ios":"levelo://app?vid=6cc141a8-20f9-4872-b8d7-3cb09ed2e777"},"vehicle_type_id":"4","last_reported":1740413507,"current_range_meters":5600,"station_id":"ce4bho12rcd13ifvqh2g","pricing_plan_id":"cebpf4jnsgd1na2vs0mg"},{"bike_id":"ea7cda33-7405-4dec-b9d6-80932379fb0e","system_id":"levelo_inurba_marseille","lat":43.29622,"lon":5.40592,"is_reserved":false,"is_disabled":false,"rental_uris":{"android":"levelo://app?vid=ea7cda33-7405-4dec-b9d6-80932379fb0e","ios":"levelo://app?vid=ea7cda33-7405-4dec-b9d6-80932379fb0e"},"vehicle_type_id":"4","last_reported":1740413507,"current_range_meters":9200,"station_id":"ce4bh0h2rcd13ifvqd60","pricing_plan_id":"cebpf4jnsgd1na2vs0mg"},{"bike_id":"093bad16-c53f-4efc-be57-343014e613d4","system_id":"levelo_inurba_marseille","lat":43.25493,"lon":5.37649,"is_reserved":false,"is_disabled":false,"rental_uris":{"android":"levelo://app?vid=093bad16-c53f-4efc-be57-343014e613d4","ios":"levelo://app?vid=093bad16-c53f-4efc-be57-343014e613d4"},"vehicle_type_id":"4","last_reported":1740413507,"current_range_meters":9600,"station_id":"ce4bhh12rcd13ifvqff0","pricing_plan_id":"cebpf4jnsgd1na2vs0mg"},{"bike_id":"90a4b0fe-884e-47af-97b2-969332744042","system_id":"levelo_inurba_marseille","lat":43.28665,"lon":5.36364,"is_reserved":false,"is_disabled":false,"rental_uris":{"android":"levelo://app?vid=90a4b0fe-884e-47af-97b2-969332744042","ios":"levelo://app?vid=90a4b0fe-884e-47af-97b2-969332744042"},"vehicle_type_id":"4","last_reported":1740413507,"current_range_meters":9600,"station_id":"ce4bhah2rcd13ifvqej0","pricing_plan_id":"cebpf4jnsgd1na2vs0mg"},{"bike_id":"97a5c3a1-1830-44a3-ac8e-9b867ba51aae","system_id":"levelo_inurba_marseille","lat":43.29098,"lon":5.38092,"is_reserved":false,"is_disabled":false,"rental_uris":{"android":"levelo://app?vid=97a5c3a1-1830-44a3-ac8e-9b867ba51aae","ios":"levelo://app?vid=97a5c3a1-1830-44a3-ac8e-9b867ba51aae"},"vehicle_type_id":"4","last_reported":1740413507,"current_range_meters":9200,"station_id":"ce4bh4p2rcd13ifvqe1g","pricing_plan_id":"cebpf4jnsgd1na2vs0mg"},{"bike_id":"2f27be1b-5998-425e-bfe3-7c34ec43118e","system_id":"levelo_inurba_marseille","lat":43.30517,"lon":5.36523,"is_reserved":false,"is_disabled":false,"rental_uris":{"android":"levelo://app?vid=2f27be1b-5998-425e-bfe3-7c34ec43118e","ios":"levelo://app?vid=2f27be1b-5998-425e-bfe3-7c34ec43118e"},"vehicle_type_id":"4","last_reported":1740413507,"current_range_meters":9600,"station_id":"ce4bgs12rcd13ifvqcag","pricing_plan_id":"cebpf4jnsgd1na2vs0mg"},{"bike_id":"216bb77f-c769-4011-8970-e66d63254aa2","system_id":"levelo_inurba_marseille","lat":43.2991,"lon":5.37868,"is_reserved":false,"is_disabled":false,"rental_uris":{"android":"levelo://app?vid=216bb77f-c769-4011-8970-e66d63254aa2","ios":"levelo://app?vid=216bb77f-c769-4011-8970-e66d63254aa2"},"vehicle_type_id":"4","last_reported":1740413507,"current_range_meters":9600,"station_id":"","pricing_plan_id":"cebpf4jnsgd1na2vs0mg"},{"bike_id":"308f3394-035d-46e5-b2fe-f11b933d9b55","system_id":"levelo_inurba_marseille","lat":43.26059,"lon":5.39398,"is_reserved":false,"is_disabled":false,"rental_uris":{"android":"levelo://app?vid=308f3394-035d-46e5-b2fe-f11b933d9b55","ios":"levelo://app?vid=308f3394-035d-46e5-b2fe-f11b933d9b55"},"vehicle_type_id":"4","last_reported":1740413507,"current_range_meters":6400,"station_id":"ce4bhh92rcd13ifvqfj0","pricing_plan_id":"cebpf4jnsgd1na2vs0mg"},{"bike_id":"5b59a4bc-b28e-4ca0-b490-9361b75beff5","system_id":"levelo_inurba_marseille","lat":43.28704,"lon":5.374,"is_reserved":false,"is_disabled":false,"rental_uris":{"android":"levelo://app?vid=5b59a4bc-b28e-4ca0-b490-9361b75beff5","ios":"levelo://app?vid=5b59a4bc-b28e-4ca0-b490-9361b75beff5"},"vehicle_type_id":"4","last_reported":1740413507,"current_range_meters":9600,"station_id":"ce4bh3p2rcd13ifvqdq0","pricing_plan_id":"cebpf4jnsgd1na2vs0mg"},{"bike_id":"73f98104-d216-4e82-b499-5ee1d7648ac2","system_id":"levelo_inurba_marseille","lat":43.30356,"lon":5.41874,"is_reserved":false,"is_disabled":false,"rental_uris":{"android":"levelo://app?vid=73f98104-d216-4e82-b499-5ee1d7648ac2","ios":"levelo://app?vid=73f98104-d216-4e82-b499-5ee1d7648ac2"},"vehicle_type_id":"4","last_reported":1740413507,"current_range_meters":9600,"station_id":"ce4bhop2rcd13ifvqh7g","pricing_plan_id":"cebpf4jnsgd1na2vs0mg"},{"bike_id":"1b933f88-2f4a-4165-911f-13512b086693","system_id":"levelo_inurba_marseille","lat":43.29972,"lon":5.37177,"is_reserved":false,"is_disabled":false,"rental_uris":{"android":"levelo://app?vid=1b933f88-2f4a-4165-911f-13512b086693","ios":"levelo://app?vid=1b933f88-2f4a-4165-911f-13512b086693"},"vehicle_type_id":"4","last_reported":1740413507,"current_range_meters":10800,"station_id":"ce4bgr92rcd13ifvqc7g","pricing_plan_id":"cebpf4jnsgd1na2vs0mg"},{"bike_id":"e86a4350-a787-45fa-844d-329e7fcf828a","system_id":"levelo_inurba_marseille","lat":43.30199,"lon":5.39857,"is_reserved":false,"is_disabled":false,"rental_uris":{"android":"levelo://app?vid=e86a4350-a787-45fa-844d-329e7fcf828a","ios":"levelo://app?vid=e86a4350-a787-45fa-844d-329e7fcf828a"},"vehicle_type_id":"4","last_reported":1740413507,"current_range_meters":10000,"station_id":"","pricing_plan_id":"cebpf4jnsgd1na2vs0mg"},{"bike_id":"ed1bd3a7-f49b-42b5-99cf-9a4fb3dc4539","system_id":"levelo_inurba_marseille","lat":43.28617,"lon":5.35107,"is_reserved":false,"is_disabled":false,"rental_uris":{"android":"levelo://app?vid=ed1bd3a7-f49b-42b5-99cf-9a4fb3dc4539","ios":"levelo://app?vid=ed1bd3a7-f49b-42b5-99cf-9a4fb3dc4539"},"vehicle_type_id":"4","last_reported":1740413507,"current_range_meters":10800,"station_id":"ce4bhch2rcd13ifvqeug","pricing_plan_id":"cebpf4jnsgd1na2vs0mg"},{"bike_id":"734f28fb-4a9a-40a3-9d66-f28f686ab40d","system_id":"levelo_inurba_marseille","lat":43.27945,"lon":5.41058,"is_reserved":false,"is_disabled":false,"rental_uris":{"android":"levelo://app?vid=734f28fb-4a9a-40a3-9d66-f28f686ab40d","ios":"levelo://app?vid=734f28fb-4a9a-40a3-9d66-f28f686ab40d"},"vehicle_type_id":"4","last_reported":1740413507,"current_range_meters":10800,"station_id":"ce4bhnp2rcd13ifvqh0g","pricing_plan_id":"cebpf4jnsgd1na2vs0mg"},{"bike_id":"a12f4e57-f8a5-463b-8328-bb48722cffef","system_id":"levelo_inurba_marseille","lat":43.28669,"lon":5.36357,"is_reserved":false,"is_disabled":false,"rental_uris":{"android":"levelo://app?vid=a12f4e57-f8a5-463b-8328-bb48722cffef","ios":"levelo://app?vid=a12f4e57-f8a5-463b-8328-bb48722cffef"},"vehicle_type_id":"4","last_reported":1740413507,"current_range_meters":10800,"station_id":"ce4bhah2rcd13ifvqej0","pricing_plan_id":"cebpf4jnsgd1na2vs0mg"},{"bike_id":"7e22f3bb-e407-4f0e-b3df-23aab89a7408","system_id":"levelo_inurba_marseille","lat":43.2991,"lon":5.38144,"is_reserved":false,"is_disabled":false,"rental_uris":{"android":"levelo://app?vid=7e22f3bb-e407-4f0e-b3df-23aab89a7408","ios":"levelo://app?vid=7e22f3bb-e407-4f0e-b3df-23aab89a7408"},"vehicle_type_id":"4","last_reported":1740413507,"current_range_meters":11200,"station_id":"ce4bgj12rcd13ifvqbc0","pricing_plan_id":"cebpf4jnsgd1na2vs0mg"},{"bike_id":"8b40fb2a-2c24-41f9-9d9e-3e4e5ac83b21","system_id":"levelo_inurba_marseille","lat":43.29962,"lon":5.37154,"is_reserved":false,"is_disabled":false,"rental_uris":{"android":"levelo://app?vid=8b40fb2a-2c24-41f9-9d9e-3e4e5ac83b21","ios":"levelo://app?vid=8b40fb2a-2c24-41f9-9d9e-3e4e5ac83b21"},"vehicle_type_id":"4","last_reported":1740413507,"current_range_meters":11200,"station_id":"ce4bgr92rcd13ifvqc7g","pricing_plan_id":"cebpf4jnsgd1na2vs0mg"},{"bike_id":"7000190f-afea-4b0e-aa68-d035dc361428","system_id":"levelo_inurba_marseille","lat":43.29227,"lon":5.36072,"is_reserved":false,"is_disabled":false,"rental_uris":{"android":"levelo://app?vid=7000190f-afea-4b0e-aa68-d035dc361428","ios":"levelo://app?vid=7000190f-afea-4b0e-aa68-d035dc361428"},"vehicle_type_id":"4","last_reported":1740413507,"current_range_meters":11200,"station_id":"ce4bhbh2rcd13ifvqeqg","pricing_plan_id":"cebpf4jnsgd1na2vs0mg"},{"bike_id":"f09798be-b611-43eb-84c9-dd3b15ff8cb2","system_id":"levelo_inurba_marseille","lat":43.29971,"lon":5.38498,"is_reserved":false,"is_disabled":false,"rental_uris":{"android":"levelo://app?vid=f09798be-b611-43eb-84c9-dd3b15ff8cb2","ios":"levelo://app?vid=f09798be-b611-43eb-84c9-dd3b15ff8cb2"},"vehicle_type_id":"4","last_reported":1740413507,"current_range_meters":10800,"station_id":"ce4bgj92rcd13ifvqbd0","pricing_plan_id":"cebpf4jnsgd1na2vs0mg"},{"bike_id":"f1aa2dee-3109-48cd-b82b-6046517afff9","system_id":"levelo_inurba_marseille","lat":43.30928,"lon":5.39037,"is_reserved":false,"is_disabled":false,"rental_uris":{"android":"levelo://app?vid=f1aa2dee-3109-48cd-b82b-6046517afff9","ios":"levelo://app?vid=f1aa2dee-3109-48cd-b82b-6046517afff9"},"vehicle_type_id":"4","last_reported":1740413507,"current_range_meters":11600,"station_id":"ce4bgup2rcd13ifvqco0","pricing_plan_id":"cebpf4jnsgd1na2vs0mg"},{"bike_id":"3e9d06c0-1ad0-4f98-bf7f-104d6c0ac478","system_id":"levelo_inurba_marseille","lat":43.26807,"lon":5.40275,"is_reserved":false,"is_disabled":false,"rental_uris":{"android":"levelo://app?vid=3e9d06c0-1ad0-4f98-bf7f-104d6c0ac478","ios":"levelo://app?vid=3e9d06c0-1ad0-4f98-bf7f-104d6c0ac478"},"vehicle_type_id":"4","last_reported":1740413507,"current_range_meters":11600,"station_id":"ce501612rcd8frsf0b60","pricing_plan_id":"cebpf4jnsgd1na2vs0mg"},{"bike_id":"1a0b050f-f33f-48d2-9894-613d93a341cc","system_id":"levelo_inurba_marseille","lat":43.2319,"lon":5.39987,"is_reserved":false,"is_disabled":false,"rental_uris":{"android":"levelo://app?vid=1a0b050f-f33f-48d2-9894-613d93a341cc","ios":"levelo://app?vid=1a0b050f-f33f-48d2-9894-613d93a341cc"},"vehicle_type_id":"4","last_reported":1740413507,"current_range_meters":12000,"station_id":"ce4bhn12rcd13ifvqgqg","pricing_plan_id":"cebpf4jnsgd1na2vs0mg"},{"bike_id":"567ad133-3d0e-4713-8f36-d0088cde95d1","system_id":"levelo_inurba_marseille","lat":43.2908,"lon":5.37181,"is_reserved":false,"is_disabled":false,"rental_uris":{"android":"levelo://app?vid=567ad133-3d0e-4713-8f36-d0088cde95d1","ios":"levelo://app?vid=567ad133-3d0e-4713-8f36-d0088cde95d1"},"vehicle_type_id":"4","last_reported":1740413507,"current_range_meters":12000,"station_id":"ce4bh5p2rcd13ifvqe4g","pricing_plan_id":"cebpf4jnsgd1na2vs0mg"},{"bike_id":"79d400e1-2408-4791-91ed-b92b16f32e6d","system_id":"levelo_inurba_marseille","lat":43.3087,"lon":5.37817,"is_reserved":false,"is_disabled":false,"rental_uris":{"android":"levelo://app?vid=79d400e1-2408-4791-91ed-b92b16f32e6d","ios":"levelo://app?vid=79d400e1-2408-4791-91ed-b92b16f32e6d"},"vehicle_type_id":"4","last_reported":1740413507,"current_range_meters":14400,"station_id":"","pricing_plan_id":"cebpf4jnsgd1na2vs0mg"},{"bike_id":"23fc6e55-08da-4408-8baa-6f40b581359b","system_id":"levelo_inurba_marseille","lat":43.273225,"lon":5.390858,"is_reserved":false,"is_disabled":false,"rental_uris":{"android":"levelo://app?vid=23fc6e55-08da-4408-8baa-6f40b581359b","ios":"levelo://app?vid=23fc6e55-08da-4408-8baa-6f40b581359b"},"vehicle_type_id":"4","last_reported":1740413507,"current_range_meters":12000,"station_id":"ce4bhl92rcd13ifvqghg","pricing_plan_id":"cebpf4jnsgd1na2vs0mg"},{"bike_id":"6a3cee7a-9214-486d-a9c7-3a70d605130c","system_id":"levelo_inurba_marseille","lat":43.30184,"lon":5.36618,"is_reserved":false,"is_disabled":false,"rental_uris":{"android":"levelo://app?vid=6a3cee7a-9214-486d-a9c7-3a70d605130c","ios":"levelo://app?vid=6a3cee7a-9214-486d-a9c7-3a70d605130c"},"vehicle_type_id":"4","last_reported":1740413507,"current_range_meters":12000,"station_id":"ce4bgrh2rcd13ifvqc8g","pricing_plan_id":"cebpf4jnsgd1na2vs0mg"},{"bike_id":"b13a9490-6243-4d74-9b5f-c96af1134c66","system_id":"levelo_inurba_marseille","lat":43.28461,"lon":5.34984,"is_reserved":false,"is_disabled":false,"rental_uris":{"android":"levelo://app?vid=b13a9490-6243-4d74-9b5f-c96af1134c66","ios":"levelo://app?vid=b13a9490-6243-4d74-9b5f-c96af1134c66"},"vehicle_type_id":"4","last_reported":1740413507,"current_range_meters":14800,"station_id":"ce4bhbh2rcd13ifvqepg","pricing_plan_id":"cebpf4jnsgd1na2vs0mg"},{"bike_id":"054a8c13-e003-4a19-8213-3d429c22f36e","system_id":"levelo_inurba_marseille","lat":43.24164,"lon":5.36402,"is_reserved":false,"is_disabled":false,"rental_uris":{"android":"levelo://app?vid=054a8c13-e003-4a19-8213-3d429c22f36e","ios":"levelo://app?vid=054a8c13-e003-4a19-8213-3d429c22f36e"},"vehicle_type_id":"4","last_reported":1740413507,"current_range_meters":12800,"station_id":"cpo36qri1sfpv3e86is0","pricing_plan_id":"cebpf4jnsgd1na2vs0mg"},{"bike_id":"643fc280-ca54-48e7-a137-f1a059dd085c","system_id":"levelo_inurba_marseille","lat":43.2418,"lon":5.39733,"is_reserved":false,"is_disabled":false,"rental_uris":{"android":"levelo://app?vid=643fc280-ca54-48e7-a137-f1a059dd085c","ios":"levelo://app?vid=643fc280-ca54-48e7-a137-f1a059dd085c"},"vehicle_type_id":"4","last_reported":1740413507,"current_range_meters":12800,"station_id":"ce4bhn12rcd13ifvqgpg","pricing_plan_id":"cebpf4jnsgd1na2vs0mg"},{"bike_id":"0144e2c5-911f-4fc6-8fb2-704879b2a0b0","system_id":"levelo_inurba_marseille","lat":43.29342,"lon":5.41158,"is_reserved":false,"is_disabled":false,"rental_uris":{"android":"levelo://app?vid=0144e2c5-911f-4fc6-8fb2-704879b2a0b0","ios":"levelo://app?vid=0144e2c5-911f-4fc6-8fb2-704879b2a0b0"},"vehicle_type_id":"4","last_reported":1740413507,"current_range_meters":8400,"station_id":"","pricing_plan_id":"cebpf4jnsgd1na2vs0mg"},{"bike_id":"d90fc6d7-871e-4fc4-950b-c963063affa1","system_id":"levelo_inurba_marseille","lat":43.25088,"lon":5.39527,"is_reserved":false,"is_disabled":false,"rental_uris":{"android":"levelo://app?vid=d90fc6d7-871e-4fc4-950b-c963063affa1","ios":"levelo://app?vid=d90fc6d7-871e-4fc4-950b-c963063affa1"},"vehicle_type_id":"4","last_reported":1740413507,"current_range_meters":12800,"station_id":"ce4bhm12rcd13ifvqgkg","pricing_plan_id":"cebpf4jnsgd1na2vs0mg"},{"bike_id":"626497fa-b953-43f7-b445-794864241cf5","system_id":"levelo_inurba_marseille","lat":43.24171,"lon":5.36394,"is_reserved":false,"is_disabled":false,"rental_uris":{"android":"levelo://app?vid=626497fa-b953-43f7-b445-794864241cf5","ios":"levelo://app?vid=626497fa-b953-43f7-b445-794864241cf5"},"vehicle_type_id":"4","last_reported":1740413507,"current_range_meters":14000,"station_id":"cpo36qri1sfpv3e86is0","pricing_plan_id":"cebpf4jnsgd1na2vs0mg"},{"bike_id":"674cb057-5d42-4512-ae8c-448c1f63016b","system_id":"levelo_inurba_marseille","lat":43.30362,"lon":5.39443,"is_reserved":false,"is_disabled":false,"rental_uris":{"android":"levelo://app?vid=674cb057-5d42-4512-ae8c-448c1f63016b","ios":"levelo://app?vid=674cb057-5d42-4512-ae8c-448c1f63016b"},"vehicle_type_id":"4","last_reported":1740413507,"current_range_meters":13600,"station_id":"","pricing_plan_id":"cebpf4jnsgd1na2vs0mg"},{"bike_id":"2faea67b-00b9-44f4-86a5-ccca349622da","system_id":"levelo_inurba_marseille","lat":43.2594,"lon":5.40895,"is_reserved":false,"is_disabled":false,"rental_uris":{"android":"levelo://app?vid=2faea67b-00b9-44f4-86a5-ccca349622da","ios":"levelo://app?vid=2faea67b-00b9-44f4-86a5-ccca349622da"},"vehicle_type_id":"4","last_reported":1740413507,"current_range_meters":13600,"station_id":"ce4bhm92rcd13ifvqglg","pricing_plan_id":"cebpf4jnsgd1na2vs0mg"},{"bike_id":"4536875f-604a-454e-9383-c4f436e97a01","system_id":"levelo_inurba_marseille","lat":43.28086,"lon":5.39651,"is_reserved":false,"is_disabled":false,"rental_uris":{"android":"levelo://app?vid=4536875f-604a-454e-9383-c4f436e97a01","ios":"levelo://app?vid=4536875f-604a-454e-9383-c4f436e97a01"},"vehicle_type_id":"4","last_reported":1740413507,"current_range_meters":14000,"station_id":"ce4bho12rcd13ifvqh2g","pricing_plan_id":"cebpf4jnsgd1na2vs0mg"},{"bike_id":"24cb2891-7b3c-402c-862f-2f7fe7a58354","system_id":"levelo_inurba_marseille","lat":43.2885,"lon":5.3933,"is_reserved":false,"is_disabled":false,"rental_uris":{"android":"levelo://app?vid=24cb2891-7b3c-402c-862f-2f7fe7a58354","ios":"levelo://app?vid=24cb2891-7b3c-402c-862f-2f7fe7a58354"},"vehicle_type_id":"4","last_reported":1740413507,"current_range_meters":12800,"station_id":"ce4bh2p2rcd13ifvqdi0","pricing_plan_id":"cebpf4jnsgd1na2vs0mg"},{"bike_id":"6afc941a-1cb8-4c0a-b7a6-d29cbb0943f3","system_id":"levelo_inurba_marseille","lat":43.27808,"lon":5.40708,"is_reserved":false,"is_disabled":false,"rental_uris":{"android":"levelo://app?vid=6afc941a-1cb8-4c0a-b7a6-d29cbb0943f3","ios":"levelo://app?vid=6afc941a-1cb8-4c0a-b7a6-d29cbb0943f3"},"vehicle_type_id":"4","last_reported":1740413507,"current_range_meters":14000,"station_id":"ce4bhnh2rcd13ifvqgtg","pricing_plan_id":"cebpf4jnsgd1na2vs0mg"},{"bike_id":"130ab319-f673-4e36-9717-343d196c6cce","system_id":"levelo_inurba_marseille","lat":43.23197,"lon":5.39992,"is_reserved":false,"is_disabled":false,"rental_uris":{"android":"levelo://app?vid=130ab319-f673-4e36-9717-343d196c6cce","ios":"levelo://app?vid=130ab319-f673-4e36-9717-343d196c6cce"},"vehicle_type_id":"4","last_reported":1740413507,"current_range_meters":14000,"station_id":"ce4bhn12rcd13ifvqgqg","pricing_plan_id":"cebpf4jnsgd1na2vs0mg"},{"bike_id":"b5862bc0-79eb-4fb4-ae2c-11b8561d5bac","system_id":"levelo_inurba_marseille","lat":43.25829,"lon":5.39434,"is_reserved":false,"is_disabled":false,"rental_uris":{"android":"levelo://app?vid=b5862bc0-79eb-4fb4-ae2c-11b8561d5bac","ios":"levelo://app?vid=b5862bc0-79eb-4fb4-ae2c-11b8561d5bac"},"vehicle_type_id":"4","last_reported":1740413507,"current_range_meters":14000,"station_id":"ce4bhip2rcd13ifvqft0","pricing_plan_id":"cebpf4jnsgd1na2vs0mg"},{"bike_id":"9ccf2f2f-2110-4ea6-95f8-f743d4913161","system_id":"levelo_inurba_marseille","lat":43.29171,"lon":5.37177,"is_reserved":false,"is_disabled":false,"rental_uris":{"android":"levelo://app?vid=9ccf2f2f-2110-4ea6-95f8-f743d4913161","ios":"levelo://app?vid=9ccf2f2f-2110-4ea6-95f8-f743d4913161"},"vehicle_type_id":"4","last_reported":1740413507,"current_range_meters":13600,"station_id":"ce4bha92rcd13ifvqeh0","pricing_plan_id":"cebpf4jnsgd1na2vs0mg"},{"bike_id":"2c79d0e9-b47c-4e9e-90d0-9d0bb000588f","system_id":"levelo_inurba_marseille","lat":43.295227,"lon":5.394063,"is_reserved":false,"is_disabled":false,"rental_uris":{"android":"levelo://app?vid=2c79d0e9-b47c-4e9e-90d0-9d0bb000588f","ios":"levelo://app?vid=2c79d0e9-b47c-4e9e-90d0-9d0bb000588f"},"vehicle_type_id":"4","last_reported":1740413507,"current_range_meters":14000,"station_id":"ce4bh3p2rcd13ifvqdq0","pricing_plan_id":"cebpf4jnsgd1na2vs0mg"},{"bike_id":"d73c3964-ce51-40e1-ae4f-0fd05117f610","system_id":"levelo_inurba_marseille","lat":43.29199,"lon":5.35826,"is_reserved":false,"is_disabled":false,"rental_uris":{"android":"levelo://app?vid=d73c3964-ce51-40e1-ae4f-0fd05117f610","ios":"levelo://app?vid=d73c3964-ce51-40e1-ae4f-0fd05117f610"},"vehicle_type_id":"4","last_reported":1740413507,"current_range_meters":14400,"station_id":"ce4bhb12rcd13ifvqel0","pricing_plan_id":"cebpf4jnsgd1na2vs0mg"},{"bike_id":"4728b1e9-f83c-4a54-88c3-20fd09e94853","system_id":"levelo_inurba_marseille","lat":43.29199,"lon":5.39326,"is_reserved":false,"is_disabled":false,"rental_uris":{"android":"levelo://app?vid=4728b1e9-f83c-4a54-88c3-20fd09e94853","ios":"levelo://app?vid=4728b1e9-f83c-4a54-88c3-20fd09e94853"},"vehicle_type_id":"4","last_reported":1740413507,"current_range_meters":14800,"station_id":"ce4bh192rcd13ifvqdd0","pricing_plan_id":"cebpf4jnsgd1na2vs0mg"},{"bike_id":"8b096942-1a38-4348-9d83-7347fde701cd","system_id":"levelo_inurba_marseille","lat":43.26789,"lon":5.39416,"is_reserved":false,"is_disabled":false,"rental_uris":{"android":"levelo://app?vid=8b096942-1a38-4348-9d83-7347fde701cd","ios":"levelo://app?vid=8b096942-1a38-4348-9d83-7347fde701cd"},"vehicle_type_id":"4","last_reported":1740413507,"current_range_meters":14000,"station_id":"ce4bhh12rcd13ifvqfg0","pricing_plan_id":"cebpf4jnsgd1na2vs0mg"},{"bike_id":"8fb1c064-9ac3-4e16-ac2b-207a76b01221","system_id":"levelo_inurba_marseille","lat":43.30912,"lon":5.3685,"is_reserved":false,"is_disabled":false,"rental_uris":{"android":"levelo://app?vid=8fb1c064-9ac3-4e16-ac2b-207a76b01221","ios":"levelo://app?vid=8fb1c064-9ac3-4e16-ac2b-207a76b01221"},"vehicle_type_id":"4","last_reported":1740413507,"current_range_meters":14000,"station_id":"ce4bgn92rcd13ifvqbvg","pricing_plan_id":"cebpf4jnsgd1na2vs0mg"},{"bike_id":"dc86b0d3-3360-49b4-9f3f-5c2f2e8eb085","system_id":"levelo_inurba_marseille","lat":43.23959,"lon":5.3665,"is_reserved":false,"is_disabled":false,"rental_uris":{"android":"levelo://app?vid=dc86b0d3-3360-49b4-9f3f-5c2f2e8eb085","ios":"levelo://app?vid=dc86b0d3-3360-49b4-9f3f-5c2f2e8eb085"},"vehicle_type_id":"4","last_reported":1740413507,"current_range_meters":14400,"station_id":"ce4bhi12rcd13ifvqfp0","pricing_plan_id":"cebpf4jnsgd1na2vs0mg"},{"bike_id":"78c0b459-2249-40b3-8bed-1fc251ed5dca","system_id":"levelo_inurba_marseille","lat":43.27213,"lon":5.39188,"is_reserved":false,"is_disabled":false,"rental_uris":{"android":"levelo://app?vid=78c0b459-2249-40b3-8bed-1fc251ed5dca","ios":"levelo://app?vid=78c0b459-2249-40b3-8bed-1fc251ed5dca"},"vehicle_type_id":"4","last_reported":1740413507,"current_range_meters":14800,"station_id":"ce4bhhp2rcd13ifvqfm0","pricing_plan_id":"cebpf4jnsgd1na2vs0mg"},{"bike_id":"de1fca4c-3b86-495b-a11f-77751a415a53","system_id":"levelo_inurba_marseille","lat":43.2846,"lon":5.35884,"is_reserved":false,"is_disabled":false,"rental_uris":{"android":"levelo://app?vid=de1fca4c-3b86-495b-a11f-77751a415a53","ios":"levelo://app?vid=de1fca4c-3b86-495b-a11f-77751a415a53"},"vehicle_type_id":"4","last_reported":1740413507,"current_range_meters":13600,"station_id":"ce4bhah2rcd13ifvqei0","pricing_plan_id":"cebpf4jnsgd1na2vs0mg"},{"bike_id":"9251fc8e-19ac-4664-8872-73e7eeae3548","system_id":"levelo_inurba_marseille","lat":43.29262,"lon":5.37649,"is_reserved":false,"is_disabled":false,"rental_uris":{"android":"levelo://app?vid=9251fc8e-19ac-4664-8872-73e7eeae3548","ios":"levelo://app?vid=9251fc8e-19ac-4664-8872-73e7eeae3548"},"vehicle_type_id":"4","last_reported":1740413507,"current_range_meters":16000,"station_id":"ce4bgi12rcd13ifvqb80","pricing_plan_id":"cebpf4jnsgd1na2vs0mg"},{"bike_id":"d2610799-3b25-4010-8a8a-a9ba4108f5fb","system_id":"levelo_inurba_marseille","lat":43.25013,"lon":5.38923,"is_reserved":false,"is_disabled":false,"rental_uris":{"android":"levelo://app?vid=d2610799-3b25-4010-8a8a-a9ba4108f5fb","ios":"levelo://app?vid=d2610799-3b25-4010-8a8a-a9ba4108f5fb"},"vehicle_type_id":"4","last_reported":1740413507,"current_range_meters":16000,"station_id":"ce4bhgp2rcd13ifvqfd0","pricing_plan_id":"cebpf4jnsgd1na2vs0mg"},{"bike_id":"8e3e6f13-2d9f-4b9c-9895-8df836891ed8","system_id":"levelo_inurba_marseille","lat":43.30539,"lon":5.36721,"is_reserved":false,"is_disabled":false,"rental_uris":{"android":"levelo://app?vid=8e3e6f13-2d9f-4b9c-9895-8df836891ed8","ios":"levelo://app?vid=8e3e6f13-2d9f-4b9c-9895-8df836891ed8"},"vehicle_type_id":"4","last_reported":1740413507,"current_range_meters":15200,"station_id":"ce4bgrp2rcd13ifvqc9g","pricing_plan_id":"cebpf4jnsgd1na2vs0mg"},{"bike_id":"a9f238df-8d0d-4ea2-9e32-72272684dc3f","system_id":"levelo_inurba_marseille","lat":43.32371,"lon":5.3889,"is_reserved":false,"is_disabled":false,"rental_uris":{"android":"levelo://app?vid=a9f238df-8d0d-4ea2-9e32-72272684dc3f","ios":"levelo://app?vid=a9f238df-8d0d-4ea2-9e32-72272684dc3f"},"vehicle_type_id":"4","last_reported":1740413507,"current_range_meters":15200,"station_id":"ce4bhqp2rcd13ifvqhog","pricing_plan_id":"cebpf4jnsgd1na2vs0mg"},{"bike_id":"c3557dd8-877a-4804-b95c-715073eb678c","system_id":"levelo_inurba_marseille","lat":43.30536,"lon":5.36547,"is_reserved":false,"is_disabled":false,"rental_uris":{"android":"levelo://app?vid=c3557dd8-877a-4804-b95c-715073eb678c","ios":"levelo://app?vid=c3557dd8-877a-4804-b95c-715073eb678c"},"vehicle_type_id":"4","last_reported":1740413507,"current_range_meters":15200,"station_id":"ce4bgs12rcd13ifvqcag","pricing_plan_id":"cebpf4jnsgd1na2vs0mg"},{"bike_id":"8d086e6e-94cf-4ca9-9341-81bb3e7cc22f","system_id":"levelo_inurba_marseille","lat":43.28672,"lon":5.36354,"is_reserved":false,"is_disabled":false,"rental_uris":{"android":"levelo://app?vid=8d086e6e-94cf-4ca9-9341-81bb3e7cc22f","ios":"levelo://app?vid=8d086e6e-94cf-4ca9-9341-81bb3e7cc22f"},"vehicle_type_id":"4","last_reported":1740413507,"current_range_meters":15200,"station_id":"ce4bhah2rcd13ifvqej0","pricing_plan_id":"cebpf4jnsgd1na2vs0mg"},{"bike_id":"e37489bc-03d1-4632-a37c-332b03559c35","system_id":"levelo_inurba_marseille","lat":43.30528,"lon":5.3654,"is_reserved":false,"is_disabled":false,"rental_uris":{"android":"levelo://app?vid=e37489bc-03d1-4632-a37c-332b03559c35","ios":"levelo://app?vid=e37489bc-03d1-4632-a37c-332b03559c35"},"vehicle_type_id":"4","last_reported":1740413507,"current_range_meters":16000,"station_id":"ce4bgs12rcd13ifvqcag","pricing_plan_id":"cebpf4jnsgd1na2vs0mg"},{"bike_id":"6f9eb619-ce1a-440a-9085-673242f78425","system_id":"levelo_inurba_marseille","lat":43.29496,"lon":5.37529,"is_reserved":false,"is_disabled":true,"rental_uris":{"android":"levelo://app?vid=6f9eb619-ce1a-440a-9085-673242f78425","ios":"levelo://app?vid=6f9eb619-ce1a-440a-9085-673242f78425"},"vehicle_type_id":"4","last_reported":1740413507,"current_range_meters":16000,"station_id":"","pricing_plan_id":"cebpf4jnsgd1na2vs0mg"},{"bike_id":"dc85ce98-eb1c-45cf-b1e6-4ed1cbdc0fe6","system_id":"levelo_inurba_marseille","lat":43.30781,"lon":5.37654,"is_reserved":false,"is_disabled":false,"rental_uris":{"android":"levelo://app?vid=dc85ce98-eb1c-45cf-b1e6-4ed1cbdc0fe6","ios":"levelo://app?vid=dc85ce98-eb1c-45cf-b1e6-4ed1cbdc0fe6"},"vehicle_type_id":"4","last_reported":1740413507,"current_range_meters":16000,"station_id":"ce4bgv92rcd13ifvqcq0","pricing_plan_id":"cebpf4jnsgd1na2vs0mg"},{"bike_id":"763a38cd-b50b-4187-a9a7-e0318d9aae60","system_id":"levelo_inurba_marseille","lat":43.25009,"lon":5.38914,"is_reserved":false,"is_disabled":false,"rental_uris":{"android":"levelo://app?vid=763a38cd-b50b-4187-a9a7-e0318d9aae60","ios":"levelo://app?vid=763a38cd-b50b-4187-a9a7-e0318d9aae60"},"vehicle_type_id":"4","last_reported":1740413507,"current_range_meters":16000,"station_id":"ce4bhgp2rcd13ifvqfd0","pricing_plan_id":"cebpf4jnsgd1na2vs0mg"},{"bike_id":"abef7188-d18a-451c-9be1-a5cb1a90671b","system_id":"levelo_inurba_marseille","lat":43.23052,"lon":5.35491,"is_reserved":false,"is_disabled":false,"rental_uris":{"android":"levelo://app?vid=abef7188-d18a-451c-9be1-a5cb1a90671b","ios":"levelo://app?vid=abef7188-d18a-451c-9be1-a5cb1a90671b"},"vehicle_type_id":"4","last_reported":1740413507,"current_range_meters":16400,"station_id":"","pricing_plan_id":"cebpf4jnsgd1na2vs0mg"},{"bike_id":"fd405a56-1809-4899-a7ce-6ad769e43fee","system_id":"levelo_inurba_marseille","lat":43.29846,"lon":5.36278,"is_reserved":false,"is_disabled":false,"rental_uris":{"android":"levelo://app?vid=fd405a56-1809-4899-a7ce-6ad769e43fee","ios":"levelo://app?vid=fd405a56-1809-4899-a7ce-6ad769e43fee"},"vehicle_type_id":"4","last_reported":1740413507,"current_range_meters":16400,"station_id":"ce4bgpp2rcd13ifvqc3g","pricing_plan_id":"cebpf4jnsgd1na2vs0mg"},{"bike_id":"857c6d7d-b13c-43c4-80a3-1c3fc70cc702","system_id":"levelo_inurba_marseille","lat":43.28275,"lon":5.35065,"is_reserved":false,"is_disabled":false,"rental_uris":{"android":"levelo://app?vid=857c6d7d-b13c-43c4-80a3-1c3fc70cc702","ios":"levelo://app?vid=857c6d7d-b13c-43c4-80a3-1c3fc70cc702"},"vehicle_type_id":"4","last_reported":1740413507,"current_range_meters":16400,"station_id":"ce4bhbp2rcd13ifvqerg","pricing_plan_id":"cebpf4jnsgd1na2vs0mg"},{"bike_id":"490e0b2f-1cb1-49dd-90c6-d8ed026aeda8","system_id":"levelo_inurba_marseille","lat":43.30537,"lon":5.36712,"is_reserved":false,"is_disabled":false,"rental_uris":{"android":"levelo://app?vid=490e0b2f-1cb1-49dd-90c6-d8ed026aeda8","ios":"levelo://app?vid=490e0b2f-1cb1-49dd-90c6-d8ed026aeda8"},"vehicle_type_id":"4","last_reported":1740413507,"current_range_meters":16400,"station_id":"ce4bgrp2rcd13ifvqc9g","pricing_plan_id":"cebpf4jnsgd1na2vs0mg"},{"bike_id":"640ff477-5588-401a-94bb-c360084ee7b4","system_id":"levelo_inurba_marseille","lat":43.33018,"lon":5.39057,"is_reserved":false,"is_disabled":false,"rental_uris":{"android":"levelo://app?vid=640ff477-5588-401a-94bb-c360084ee7b4","ios":"levelo://app?vid=640ff477-5588-401a-94bb-c360084ee7b4"},"vehicle_type_id":"4","last_reported":1740413507,"current_range_meters":16400,"station_id":"ce4bhr92rcd13ifvqhrg","pricing_plan_id":"cebpf4jnsgd1na2vs0mg"},{"bike_id":"56424b08-9dd3-4b84-b936-e24216b6530e","system_id":"levelo_inurba_marseille","lat":43.306003,"lon":5.372257,"is_reserved":false,"is_disabled":false,"rental_uris":{"android":"levelo://app?vid=56424b08-9dd3-4b84-b936-e24216b6530e","ios":"levelo://app?vid=56424b08-9dd3-4b84-b936-e24216b6530e"},"vehicle_type_id":"4","last_reported":1740413507,"current_range_meters":16000,"station_id":"ce4bgqh2rcd13ifvqc4g","pricing_plan_id":"cebpf4jnsgd1na2vs0mg"},{"bike_id":"6678664d-b75f-4087-89d3-c9bd87594ad9","system_id":"levelo_inurba_marseille","lat":43.2931,"lon":5.3717,"is_reserved":false,"is_disabled":false,"rental_uris":{"android":"levelo://app?vid=6678664d-b75f-4087-89d3-c9bd87594ad9","ios":"levelo://app?vid=6678664d-b75f-4087-89d3-c9bd87594ad9"},"vehicle_type_id":"4","last_reported":1740413507,"current_range_meters":16400,"station_id":"ce4bgh92rcd13ifvqb40","pricing_plan_id":"cebpf4jnsgd1na2vs0mg"},{"bike_id":"05f51bd6-bf8c-4b6c-ba2f-d7bf7cec3006","system_id":"levelo_inurba_marseille","lat":43.23191,"lon":5.35561,"is_reserved":false,"is_disabled":false,"rental_uris":{"android":"levelo://app?vid=05f51bd6-bf8c-4b6c-ba2f-d7bf7cec3006","ios":"levelo://app?vid=05f51bd6-bf8c-4b6c-ba2f-d7bf7cec3006"},"vehicle_type_id":"4","last_reported":1740413507,"current_range_meters":16800,"station_id":"ce4bhu92rcd13ifvqi70","pricing_plan_id":"cebpf4jnsgd1na2vs0mg"},{"bike_id":"f4ed9aeb-3aab-4349-b887-1f6a03e1904d","system_id":"levelo_inurba_marseille","lat":43.28571,"lon":5.39497,"is_reserved":false,"is_disabled":false,"rental_uris":{"android":"levelo://app?vid=f4ed9aeb-3aab-4349-b887-1f6a03e1904d","ios":"levelo://app?vid=f4ed9aeb-3aab-4349-b887-1f6a03e1904d"},"vehicle_type_id":"4","last_reported":1740413507,"current_range_meters":16400,"station_id":"ce4bh292rcd13ifvqdg0","pricing_plan_id":"cebpf4jnsgd1na2vs0mg"},{"bike_id":"722b563c-c7c3-4076-842b-7d64cbc0b7de","system_id":"levelo_inurba_marseille","lat":43.27067,"lon":5.42278,"is_reserved":false,"is_disabled":false,"rental_uris":{"android":"levelo://app?vid=722b563c-c7c3-4076-842b-7d64cbc0b7de","ios":"levelo://app?vid=722b563c-c7c3-4076-842b-7d64cbc0b7de"},"vehicle_type_id":"4","last_reported":1740413507,"current_range_meters":16800,"station_id":"ce4bhk92rcd13ifvqgb0","pricing_plan_id":"cebpf4jnsgd1na2vs0mg"},{"bike_id":"1c2f3bdc-68fa-40a8-b99e-fcf41f32f9e4","system_id":"levelo_inurba_marseille","lat":43.29214,"lon":5.40517,"is_reserved":false,"is_disabled":false,"rental_uris":{"android":"levelo://app?vid=1c2f3bdc-68fa-40a8-b99e-fcf41f32f9e4","ios":"levelo://app?vid=1c2f3bdc-68fa-40a8-b99e-fcf41f32f9e4"},"vehicle_type_id":"4","last_reported":1740413507,"current_range_meters":17200,"station_id":"","pricing_plan_id":"cebpf4jnsgd1na2vs0mg"},{"bike_id":"0d9afd84-ee42-411e-bf98-e79f1fb0aeb4","system_id":"levelo_inurba_marseille","lat":43.28929,"lon":5.38401,"is_reserved":false,"is_disabled":false,"rental_uris":{"android":"levelo://app?vid=0d9afd84-ee42-411e-bf98-e79f1fb0aeb4","ios":"levelo://app?vid=0d9afd84-ee42-411e-bf98-e79f1fb0aeb4"},"vehicle_type_id":"4","last_reported":1740413507,"current_range_meters":16800,"station_id":"ce4bh612rcd13ifvqe6g","pricing_plan_id":"cebpf4jnsgd1na2vs0mg"},{"bike_id":"5435865c-3120-44b2-a6c3-b3611ddd99d3","system_id":"levelo_inurba_marseille","lat":43.32367,"lon":5.38895,"is_reserved":false,"is_disabled":false,"rental_uris":{"android":"levelo://app?vid=5435865c-3120-44b2-a6c3-b3611ddd99d3","ios":"levelo://app?vid=5435865c-3120-44b2-a6c3-b3611ddd99d3"},"vehicle_type_id":"4","last_reported":1740413507,"current_range_meters":16800,"station_id":"ce4bhqp2rcd13ifvqhog","pricing_plan_id":"cebpf4jnsgd1na2vs0mg"},{"bike_id":"f6f8c3a5-484e-4733-89b4-8125aa6e5bb6","system_id":"levelo_inurba_marseille","lat":43.26206,"lon":5.37936,"is_reserved":false,"is_disabled":false,"rental_uris":{"android":"levelo://app?vid=f6f8c3a5-484e-4733-89b4-8125aa6e5bb6","ios":"levelo://app?vid=f6f8c3a5-484e-4733-89b4-8125aa6e5bb6"},"vehicle_type_id":"4","last_reported":1740413507,"current_range_meters":16800,"station_id":"ce4bhjp2rcd13ifvqg90","pricing_plan_id":"cebpf4jnsgd1na2vs0mg"},{"bike_id":"4016d7d0-f59e-4e02-8fba-ce4ac34cb9dc","system_id":"levelo_inurba_marseille","lat":43.30193,"lon":5.3663,"is_reserved":false,"is_disabled":false,"rental_uris":{"android":"levelo://app?vid=4016d7d0-f59e-4e02-8fba-ce4ac34cb9dc","ios":"levelo://app?vid=4016d7d0-f59e-4e02-8fba-ce4ac34cb9dc"},"vehicle_type_id":"4","last_reported":1740413507,"current_range_meters":17200,"station_id":"ce4bgrh2rcd13ifvqc8g","pricing_plan_id":"cebpf4jnsgd1na2vs0mg"},{"bike_id":"254b67b1-580a-4ebb-b883-ef27f702d657","system_id":"levelo_inurba_marseille","lat":43.28154,"lon":5.4265,"is_reserved":false,"is_disabled":false,"rental_uris":{"android":"levelo://app?vid=254b67b1-580a-4ebb-b883-ef27f702d657","ios":"levelo://app?vid=254b67b1-580a-4ebb-b883-ef27f702d657"},"vehicle_type_id":"4","last_reported":1740413507,"current_range_meters":17200,"station_id":"ce4bhnh2rcd13ifvqgug","pricing_plan_id":"cebpf4jnsgd1na2vs0mg"},{"bike_id":"91346ddc-2654-41d8-a340-a319013dacd6","system_id":"levelo_inurba_marseille","lat":43.24105,"lon":5.37839,"is_reserved":false,"is_disabled":false,"rental_uris":{"android":"levelo://app?vid=91346ddc-2654-41d8-a340-a319013dacd6","ios":"levelo://app?vid=91346ddc-2654-41d8-a340-a319013dacd6"},"vehicle_type_id":"4","last_reported":1740413507,"current_range_meters":16800,"station_id":"ce4bhnp2rcd13ifvqgvg","pricing_plan_id":"cebpf4jnsgd1na2vs0mg"},{"bike_id":"fe4de00a-07c7-429f-a0d4-7b4f4668f2ce","system_id":"levelo_inurba_marseille","lat":43.32986,"lon":5.39045,"is_reserved":false,"is_disabled":false,"rental_uris":{"android":"levelo://app?vid=fe4de00a-07c7-429f-a0d4-7b4f4668f2ce","ios":"levelo://app?vid=fe4de00a-07c7-429f-a0d4-7b4f4668f2ce"},"vehicle_type_id":"4","last_reported":1740413507,"current_range_meters":17200,"station_id":"ce4bhr92rcd13ifvqhrg","pricing_plan_id":"cebpf4jnsgd1na2vs0mg"},{"bike_id":"fab6cc47-5821-4645-807b-1923690364e1","system_id":"levelo_inurba_marseille","lat":43.31175,"lon":5.38722,"is_reserved":false,"is_disabled":false,"rental_uris":{"android":"levelo://app?vid=fab6cc47-5821-4645-807b-1923690364e1","ios":"levelo://app?vid=fab6cc47-5821-4645-807b-1923690364e1"},"vehicle_type_id":"4","last_reported":1740413507,"current_range_meters":18000,"station_id":"ce4bgv12rcd13ifvqcp0","pricing_plan_id":"cebpf4jnsgd1na2vs0mg"},{"bike_id":"6f20dd05-a602-49b3-9fbf-ad37e307aa3c","system_id":"levelo_inurba_marseille","lat":43.27673,"lon":5.38918,"is_reserved":false,"is_disabled":false,"rental_uris":{"android":"levelo://app?vid=6f20dd05-a602-49b3-9fbf-ad37e307aa3c","ios":"levelo://app?vid=6f20dd05-a602-49b3-9fbf-ad37e307aa3c"},"vehicle_type_id":"4","last_reported":1740413507,"current_range_meters":17200,"station_id":"ce4bhi12rcd13ifvqfo0","pricing_plan_id":"cebpf4jnsgd1na2vs0mg"},{"bike_id":"de54b84e-d754-4cf9-97ed-7d6cd44576a6","system_id":"levelo_inurba_marseille","lat":43.2782,"lon":5.40723,"is_reserved":false,"is_disabled":false,"rental_uris":{"android":"levelo://app?vid=de54b84e-d754-4cf9-97ed-7d6cd44576a6","ios":"levelo://app?vid=de54b84e-d754-4cf9-97ed-7d6cd44576a6"},"vehicle_type_id":"4","last_reported":1740413507,"current_range_meters":17200,"station_id":"ce4bhnh2rcd13ifvqgtg","pricing_plan_id":"cebpf4jnsgd1na2vs0mg"},{"bike_id":"41710a41-7105-420e-ae80-edb2947c06a9","system_id":"levelo_inurba_marseille","lat":43.29166,"lon":5.37157,"is_reserved":false,"is_disabled":false,"rental_uris":{"android":"levelo://app?vid=41710a41-7105-420e-ae80-edb2947c06a9","ios":"levelo://app?vid=41710a41-7105-420e-ae80-edb2947c06a9"},"vehicle_type_id":"4","last_reported":1740413507,"current_range_meters":16800,"station_id":"ce4bh612rcd13ifvqe6g","pricing_plan_id":"cebpf4jnsgd1na2vs0mg"},{"bike_id":"c9a1858d-786d-4197-a639-046d237805f3","system_id":"levelo_inurba_marseille","lat":43.28431,"lon":5.37522,"is_reserved":false,"is_disabled":false,"rental_uris":{"android":"levelo://app?vid=c9a1858d-786d-4197-a639-046d237805f3","ios":"levelo://app?vid=c9a1858d-786d-4197-a639-046d237805f3"},"vehicle_type_id":"4","last_reported":1740413507,"current_range_meters":17200,"station_id":"ce4bh412rcd13ifvqds0","pricing_plan_id":"cebpf4jnsgd1na2vs0mg"},{"bike_id":"0fd6113a-a8fd-457e-b33b-d38ca7cc5daa","system_id":"levelo_inurba_marseille","lat":43.3031,"lon":5.3689,"is_reserved":false,"is_disabled":false,"rental_uris":{"android":"levelo://app?vid=0fd6113a-a8fd-457e-b33b-d38ca7cc5daa","ios":"levelo://app?vid=0fd6113a-a8fd-457e-b33b-d38ca7cc5daa"},"vehicle_type_id":"4","last_reported":1740413507,"current_range_meters":17200,"station_id":"ce4bgqh2rcd13ifvqc5g","pricing_plan_id":"cebpf4jnsgd1na2vs0mg"},{"bike_id":"6d671fa3-b1ce-4470-905e-4421960aae20","system_id":"levelo_inurba_marseille","lat":43.25898,"lon":5.40862,"is_reserved":false,"is_disabled":false,"rental_uris":{"android":"levelo://app?vid=6d671fa3-b1ce-4470-905e-4421960aae20","ios":"levelo://app?vid=6d671fa3-b1ce-4470-905e-4421960aae20"},"vehicle_type_id":"4","last_reported":1740413507,"current_range_meters":17600,"station_id":"ce4bhm92rcd13ifvqglg","pricing_plan_id":"cebpf4jnsgd1na2vs0mg"},{"bike_id":"2036f24d-841d-4656-8ff6-76ae435303b7","system_id":"levelo_inurba_marseille","lat":43.29617,"lon":5.3715,"is_reserved":false,"is_disabled":false,"rental_uris":{"android":"levelo://app?vid=2036f24d-841d-4656-8ff6-76ae435303b7","ios":"levelo://app?vid=2036f24d-841d-4656-8ff6-76ae435303b7"},"vehicle_type_id":"4","last_reported":1740413507,"current_range_meters":17200,"station_id":"ce4bgnh2rcd13ifvqc0g","pricing_plan_id":"cebpf4jnsgd1na2vs0mg"},{"bike_id":"0e39be1b-9946-4d0a-a116-f9bade62be59","system_id":"levelo_inurba_marseille","lat":43.2942,"lon":5.38627,"is_reserved":false,"is_disabled":false,"rental_uris":{"android":"levelo://app?vid=0e39be1b-9946-4d0a-a116-f9bade62be59","ios":"levelo://app?vid=0e39be1b-9946-4d0a-a116-f9bade62be59"},"vehicle_type_id":"4","last_reported":1740413507,"current_range_meters":17200,"station_id":"ce4bh2h2rcd13ifvqdh0","pricing_plan_id":"cebpf4jnsgd1na2vs0mg"},{"bike_id":"1f718ee3-5066-4785-a393-dd7e28390f5c","system_id":"levelo_inurba_marseille","lat":43.29525,"lon":5.39041,"is_reserved":false,"is_disabled":false,"rental_uris":{"android":"levelo://app?vid=1f718ee3-5066-4785-a393-dd7e28390f5c","ios":"levelo://app?vid=1f718ee3-5066-4785-a393-dd7e28390f5c"},"vehicle_type_id":"4","last_reported":1740413507,"current_range_meters":17200,"station_id":"ce4bh3p2rcd13ifvqdp0","pricing_plan_id":"cebpf4jnsgd1na2vs0mg"},{"bike_id":"9eb6e4e2-e3be-4354-8bec-9312b61b3777","system_id":"levelo_inurba_marseille","lat":43.29333,"lon":5.41166,"is_reserved":false,"is_disabled":false,"rental_uris":{"android":"levelo://app?vid=9eb6e4e2-e3be-4354-8bec-9312b61b3777","ios":"levelo://app?vid=9eb6e4e2-e3be-4354-8bec-9312b61b3777"},"vehicle_type_id":"4","last_reported":1740413507,"current_range_meters":17200,"station_id":"","pricing_plan_id":"cebpf4jnsgd1na2vs0mg"},{"bike_id":"db61d5ff-f584-4fa1-aedd-6bbf4e5e52f9","system_id":"levelo_inurba_marseille","lat":43.30312,"lon":5.36903,"is_reserved":false,"is_disabled":false,"rental_uris":{"android":"levelo://app?vid=db61d5ff-f584-4fa1-aedd-6bbf4e5e52f9","ios":"levelo://app?vid=db61d5ff-f584-4fa1-aedd-6bbf4e5e52f9"},"vehicle_type_id":"4","last_reported":1740413507,"current_range_meters":17600,"station_id":"ce4bgqh2rcd13ifvqc5g","pricing_plan_id":"cebpf4jnsgd1na2vs0mg"},{"bike_id":"1e8204d6-9c2d-49d2-a3e4-b9b5a368d21f","system_id":"levelo_inurba_marseille","lat":43.30354,"lon":5.41877,"is_reserved":false,"is_disabled":false,"rental_uris":{"android":"levelo://app?vid=1e8204d6-9c2d-49d2-a3e4-b9b5a368d21f","ios":"levelo://app?vid=1e8204d6-9c2d-49d2-a3e4-b9b5a368d21f"},"vehicle_type_id":"4","last_reported":1740413507,"current_range_meters":17600,"station_id":"ce4bhop2rcd13ifvqh7g","pricing_plan_id":"cebpf4jnsgd1na2vs0mg"},{"bike_id":"e9450d61-7e12-49ac-9e64-6fdcd904c3ba","system_id":"levelo_inurba_marseille","lat":43.30322,"lon":5.36897,"is_reserved":false,"is_disabled":false,"rental_uris":{"android":"levelo://app?vid=e9450d61-7e12-49ac-9e64-6fdcd904c3ba","ios":"levelo://app?vid=e9450d61-7e12-49ac-9e64-6fdcd904c3ba"},"vehicle_type_id":"4","last_reported":1740413507,"current_range_meters":17600,"station_id":"ce4bgqh2rcd13ifvqc5g","pricing_plan_id":"cebpf4jnsgd1na2vs0mg"},{"bike_id":"9062f7b6-9c81-49b8-a1bd-5df58202afcd","system_id":"levelo_inurba_marseille","lat":43.3171,"lon":5.43714,"is_reserved":false,"is_disabled":false,"rental_uris":{"android":"levelo://app?vid=9062f7b6-9c81-49b8-a1bd-5df58202afcd","ios":"levelo://app?vid=9062f7b6-9c81-49b8-a1bd-5df58202afcd"},"vehicle_type_id":"4","last_reported":1740413507,"current_range_meters":17600,"station_id":"ce4bhp92rcd13ifvqhcg","pricing_plan_id":"cebpf4jnsgd1na2vs0mg"},{"bike_id":"a1f423f9-dad5-4e4f-8b5c-48069a32f8bb","system_id":"levelo_inurba_marseille","lat":43.31218,"lon":5.36866,"is_reserved":false,"is_disabled":false,"rental_uris":{"android":"levelo://app?vid=a1f423f9-dad5-4e4f-8b5c-48069a32f8bb","ios":"levelo://app?vid=a1f423f9-dad5-4e4f-8b5c-48069a32f8bb"},"vehicle_type_id":"4","last_reported":1740413507,"current_range_meters":17600,"station_id":"ce4bgl92rcd13ifvqbq0","pricing_plan_id":"cebpf4jnsgd1na2vs0mg"},{"bike_id":"89c94fcd-a8c7-4ce9-8a55-c429c3f4adf9","system_id":"levelo_inurba_marseille","lat":43.29528,"lon":5.38549,"is_reserved":false,"is_disabled":false,"rental_uris":{"android":"levelo://app?vid=89c94fcd-a8c7-4ce9-8a55-c429c3f4adf9","ios":"levelo://app?vid=89c94fcd-a8c7-4ce9-8a55-c429c3f4adf9"},"vehicle_type_id":"4","last_reported":1740413507,"current_range_meters":17600,"station_id":"ce4bgih2rcd13ifvqba0","pricing_plan_id":"cebpf4jnsgd1na2vs0mg"},{"bike_id":"846e1578-1f04-4c98-bc6c-9950f2a1d347","system_id":"levelo_inurba_marseille","lat":43.27065,"lon":5.42285,"is_reserved":false,"is_disabled":false,"rental_uris":{"android":"levelo://app?vid=846e1578-1f04-4c98-bc6c-9950f2a1d347","ios":"levelo://app?vid=846e1578-1f04-4c98-bc6c-9950f2a1d347"},"vehicle_type_id":"4","last_reported":1740413507,"current_range_meters":17600,"station_id":"ce4bhk92rcd13ifvqgb0","pricing_plan_id":"cebpf4jnsgd1na2vs0mg"},{"bike_id":"c3d0fefa-5db4-49bd-a964-1a22da440d36","system_id":"levelo_inurba_marseille","lat":43.269559,"lon":5.386313,"is_reserved":false,"is_disabled":false,"rental_uris":{"android":"levelo://app?vid=c3d0fefa-5db4-49bd-a964-1a22da440d36","ios":"levelo://app?vid=c3d0fefa-5db4-49bd-a964-1a22da440d36"},"vehicle_type_id":"4","last_reported":1740413507,"current_range_meters":17600,"station_id":"","pricing_plan_id":"cebpf4jnsgd1na2vs0mg"},{"bike_id":"48c9d238-ef44-4ccb-9d08-e828ced5223d","system_id":"levelo_inurba_marseille","lat":43.29021,"lon":5.37553,"is_reserved":false,"is_disabled":false,"rental_uris":{"android":"levelo://app?vid=48c9d238-ef44-4ccb-9d08-e828ced5223d","ios":"levelo://app?vid=48c9d238-ef44-4ccb-9d08-e828ced5223d"},"vehicle_type_id":"4","last_reported":1740413507,"current_range_meters":17600,"station_id":"ce4bh692rcd13ifvqe90","pricing_plan_id":"cebpf4jnsgd1na2vs0mg"},{"bike_id":"d32ac81e-09b5-4cda-b202-7389b0cb1ace","system_id":"levelo_inurba_marseille","lat":43.29799,"lon":5.38107,"is_reserved":false,"is_disabled":false,"rental_uris":{"android":"levelo://app?vid=d32ac81e-09b5-4cda-b202-7389b0cb1ace","ios":"levelo://app?vid=d32ac81e-09b5-4cda-b202-7389b0cb1ace"},"vehicle_type_id":"4","last_reported":1740413507,"current_range_meters":18000,"station_id":"ce4bgip2rcd13ifvqbb0","pricing_plan_id":"cebpf4jnsgd1na2vs0mg"},{"bike_id":"9ee9511f-1b35-4344-a8ca-4da7255ff51b","system_id":"levelo_inurba_marseille","lat":43.23156,"lon":5.43696,"is_reserved":false,"is_disabled":false,"rental_uris":{"android":"levelo://app?vid=9ee9511f-1b35-4344-a8ca-4da7255ff51b","ios":"levelo://app?vid=9ee9511f-1b35-4344-a8ca-4da7255ff51b"},"vehicle_type_id":"4","last_reported":1740413507,"current_range_meters":18000,"station_id":"ce4bhmp2rcd13ifvqgog","pricing_plan_id":"cebpf4jnsgd1na2vs0mg"},{"bike_id":"46814d2f-dec0-460c-883a-bfd2811fc0e2","system_id":"levelo_inurba_marseille","lat":43.29581,"lon":5.36738,"is_reserved":false,"is_disabled":false,"rental_uris":{"android":"levelo://app?vid=46814d2f-dec0-460c-883a-bfd2811fc0e2","ios":"levelo://app?vid=46814d2f-dec0-460c-883a-bfd2811fc0e2"},"vehicle_type_id":"4","last_reported":1740413507,"current_range_meters":18000,"station_id":"ce4bgph2rcd13ifvqc2g","pricing_plan_id":"cebpf4jnsgd1na2vs0mg"},{"bike_id":"eeeb2674-36e2-489d-9e85-77d270a88c6d","system_id":"levelo_inurba_marseille","lat":43.25124,"lon":5.40311,"is_reserved":false,"is_disabled":false,"rental_uris":{"android":"levelo://app?vid=eeeb2674-36e2-489d-9e85-77d270a88c6d","ios":"levelo://app?vid=eeeb2674-36e2-489d-9e85-77d270a88c6d"},"vehicle_type_id":"4","last_reported":1740413507,"current_range_meters":18000,"station_id":"ce4bhlh2rcd13ifvqgig","pricing_plan_id":"cebpf4jnsgd1na2vs0mg"},{"bike_id":"2d056d3e-837d-4fd5-9b05-bd38c6107b01","system_id":"levelo_inurba_marseille","lat":43.28471,"lon":5.35898,"is_reserved":false,"is_disabled":false,"rental_uris":{"android":"levelo://app?vid=2d056d3e-837d-4fd5-9b05-bd38c6107b01","ios":"levelo://app?vid=2d056d3e-837d-4fd5-9b05-bd38c6107b01"},"vehicle_type_id":"4","last_reported":1740413507,"current_range_meters":18000,"station_id":"ce4bhah2rcd13ifvqei0","pricing_plan_id":"cebpf4jnsgd1na2vs0mg"},{"bike_id":"bb6466cf-5a8a-4f63-bc04-400062957a10","system_id":"levelo_inurba_marseille","lat":43.26213,"lon":5.37443,"is_reserved":false,"is_disabled":false,"rental_uris":{"android":"levelo://app?vid=bb6466cf-5a8a-4f63-bc04-400062957a10","ios":"levelo://app?vid=bb6466cf-5a8a-4f63-bc04-400062957a10"},"vehicle_type_id":"4","last_reported":1740413507,"current_range_meters":18000,"station_id":"ce4bhgp2rcd13ifvqfc0","pricing_plan_id":"cebpf4jnsgd1na2vs0mg"},{"bike_id":"7089b9b0-ba0d-4770-b2cc-0d8f74a53890","system_id":"levelo_inurba_marseille","lat":43.30548,"lon":5.36718,"is_reserved":false,"is_disabled":false,"rental_uris":{"android":"levelo://app?vid=7089b9b0-ba0d-4770-b2cc-0d8f74a53890","ios":"levelo://app?vid=7089b9b0-ba0d-4770-b2cc-0d8f74a53890"},"vehicle_type_id":"4","last_reported":1740413507,"current_range_meters":18000,"station_id":"ce4bgrp2rcd13ifvqc9g","pricing_plan_id":"cebpf4jnsgd1na2vs0mg"},{"bike_id":"303f5834-4b0b-4222-95cc-7cbe4362e149","system_id":"levelo_inurba_marseille","lat":43.28699,"lon":5.37383,"is_reserved":false,"is_disabled":false,"rental_uris":{"android":"levelo://app?vid=303f5834-4b0b-4222-95cc-7cbe4362e149","ios":"levelo://app?vid=303f5834-4b0b-4222-95cc-7cbe4362e149"},"vehicle_type_id":"4","last_reported":1740413507,"current_range_meters":18800,"station_id":"ce4bh3p2rcd13ifvqdq0","pricing_plan_id":"cebpf4jnsgd1na2vs0mg"},{"bike_id":"d3a624d3-140c-4015-8254-af12ae2df535","system_id":"levelo_inurba_marseille","lat":43.295235,"lon":5.394008,"is_reserved":false,"is_disabled":false,"rental_uris":{"android":"levelo://app?vid=d3a624d3-140c-4015-8254-af12ae2df535","ios":"levelo://app?vid=d3a624d3-140c-4015-8254-af12ae2df535"},"vehicle_type_id":"4","last_reported":1740413507,"current_range_meters":18800,"station_id":"ce4bh0h2rcd13ifvqd50","pricing_plan_id":"cebpf4jnsgd1na2vs0mg"},{"bike_id":"7c45866a-bd99-4c12-9747-66203f12a96e","system_id":"levelo_inurba_marseille","lat":43.231404,"lon":5.355136,"is_reserved":false,"is_disabled":false,"rental_uris":{"android":"levelo://app?vid=7c45866a-bd99-4c12-9747-66203f12a96e","ios":"levelo://app?vid=7c45866a-bd99-4c12-9747-66203f12a96e"},"vehicle_type_id":"4","last_reported":1740413507,"current_range_meters":18800,"station_id":"","pricing_plan_id":"cebpf4jnsgd1na2vs0mg"},{"bike_id":"29337d22-1a09-4901-a9a5-65a64cb4e2dc","system_id":"levelo_inurba_marseille","lat":43.28708,"lon":5.37404,"is_reserved":false,"is_disabled":false,"rental_uris":{"android":"levelo://app?vid=29337d22-1a09-4901-a9a5-65a64cb4e2dc","ios":"levelo://app?vid=29337d22-1a09-4901-a9a5-65a64cb4e2dc"},"vehicle_type_id":"4","last_reported":1740413507,"current_range_meters":17600,"station_id":"ce4bh3p2rcd13ifvqdq0","pricing_plan_id":"cebpf4jnsgd1na2vs0mg"},{"bike_id":"120752d8-bcaa-492c-90ec-a5cdda0d91b0","system_id":"levelo_inurba_marseille","lat":43.30139,"lon":5.39866,"is_reserved":false,"is_disabled":false,"rental_uris":{"android":"levelo://app?vid=120752d8-bcaa-492c-90ec-a5cdda0d91b0","ios":"levelo://app?vid=120752d8-bcaa-492c-90ec-a5cdda0d91b0"},"vehicle_type_id":"4","last_reported":1740413507,"current_range_meters":18000,"station_id":"ce4bh0h2rcd13ifvqd40","pricing_plan_id":"cebpf4jnsgd1na2vs0mg"},{"bike_id":"09df8f0f-7840-4df1-9882-456df7cac3d0","system_id":"levelo_inurba_marseille","lat":43.29572,"lon":5.3752,"is_reserved":false,"is_disabled":false,"rental_uris":{"android":"levelo://app?vid=09df8f0f-7840-4df1-9882-456df7cac3d0","ios":"levelo://app?vid=09df8f0f-7840-4df1-9882-456df7cac3d0"},"vehicle_type_id":"4","last_reported":1740413507,"current_range_meters":19200,"station_id":"ce4bgh92rcd13ifvqb50","pricing_plan_id":"cebpf4jnsgd1na2vs0mg"},{"bike_id":"cb939ff9-3a2c-4231-8fc3-f09886222d89","system_id":"levelo_inurba_marseille","lat":43.28924,"lon":5.38403,"is_reserved":false,"is_disabled":false,"rental_uris":{"android":"levelo://app?vid=cb939ff9-3a2c-4231-8fc3-f09886222d89","ios":"levelo://app?vid=cb939ff9-3a2c-4231-8fc3-f09886222d89"},"vehicle_type_id":"4","last_reported":1740413507,"current_range_meters":18800,"station_id":"ce4bh612rcd13ifvqe6g","pricing_plan_id":"cebpf4jnsgd1na2vs0mg"},{"bike_id":"5c610b69-6ff8-4c2b-80df-0a297a5dab39","system_id":"levelo_inurba_marseille","lat":43.2318,"lon":5.39987,"is_reserved":false,"is_disabled":false,"rental_uris":{"android":"levelo://app?vid=5c610b69-6ff8-4c2b-80df-0a297a5dab39","ios":"levelo://app?vid=5c610b69-6ff8-4c2b-80df-0a297a5dab39"},"vehicle_type_id":"4","last_reported":1740413507,"current_range_meters":19600,"station_id":"ce4bhn12rcd13ifvqgqg","pricing_plan_id":"cebpf4jnsgd1na2vs0mg"},{"bike_id":"4e07a012-c91b-47bb-ade0-3caa279dc7bc","system_id":"levelo_inurba_marseille","lat":43.2952,"lon":5.39058,"is_reserved":false,"is_disabled":false,"rental_uris":{"android":"levelo://app?vid=4e07a012-c91b-47bb-ade0-3caa279dc7bc","ios":"levelo://app?vid=4e07a012-c91b-47bb-ade0-3caa279dc7bc"},"vehicle_type_id":"4","last_reported":1740413507,"current_range_meters":19200,"station_id":"ce4bh3p2rcd13ifvqdp0","pricing_plan_id":"cebpf4jnsgd1na2vs0mg"},{"bike_id":"2c5b41d8-2247-4fb1-8662-067a63dc29af","system_id":"levelo_inurba_marseille","lat":43.29927,"lon":5.36542,"is_reserved":false,"is_disabled":false,"rental_uris":{"android":"levelo://app?vid=2c5b41d8-2247-4fb1-8662-067a63dc29af","ios":"levelo://app?vid=2c5b41d8-2247-4fb1-8662-067a63dc29af"},"vehicle_type_id":"4","last_reported":1740413507,"current_range_meters":20000,"station_id":"ce4bgm92rcd13ifvqbr0","pricing_plan_id":"cebpf4jnsgd1na2vs0mg"},{"bike_id":"9675f734-7b95-4ce4-9519-0e1c02c819ea","system_id":"levelo_inurba_marseille","lat":43.31885,"lon":5.40731,"is_reserved":false,"is_disabled":false,"rental_uris":{"android":"levelo://app?vid=9675f734-7b95-4ce4-9519-0e1c02c819ea","ios":"levelo://app?vid=9675f734-7b95-4ce4-9519-0e1c02c819ea"},"vehicle_type_id":"4","last_reported":1740413507,"current_range_meters":19600,"station_id":"ce4bhq12rcd13ifvqhig","pricing_plan_id":"cebpf4jnsgd1na2vs0mg"},{"bike_id":"f6030db6-f455-4c29-ad3c-9000b0975602","system_id":"levelo_inurba_marseille","lat":43.26033,"lon":5.37552,"is_reserved":false,"is_disabled":false,"rental_uris":{"android":"levelo://app?vid=f6030db6-f455-4c29-ad3c-9000b0975602","ios":"levelo://app?vid=f6030db6-f455-4c29-ad3c-9000b0975602"},"vehicle_type_id":"4","last_reported":1740413507,"current_range_meters":19600,"station_id":"ce4bhgh2rcd13ifvqfa0","pricing_plan_id":"cebpf4jnsgd1na2vs0mg"},{"bike_id":"0d9dabad-2f42-4397-9580-47238a62d005","system_id":"levelo_inurba_marseille","lat":43.30575,"lon":5.36623,"is_reserved":false,"is_disabled":false,"rental_uris":{"android":"levelo://app?vid=0d9dabad-2f42-4397-9580-47238a62d005","ios":"levelo://app?vid=0d9dabad-2f42-4397-9580-47238a62d005"},"vehicle_type_id":"4","last_reported":1740413507,"current_range_meters":21600,"station_id":"ce4bgs12rcd13ifvqcag","pricing_plan_id":"cebpf4jnsgd1na2vs0mg"},{"bike_id":"7399d62d-9109-47d8-b359-4509fa06baec","system_id":"levelo_inurba_marseille","lat":43.271759,"lon":5.409995,"is_reserved":false,"is_disabled":false,"rental_uris":{"android":"levelo://app?vid=7399d62d-9109-47d8-b359-4509fa06baec","ios":"levelo://app?vid=7399d62d-9109-47d8-b359-4509fa06baec"},"vehicle_type_id":"4","last_reported":1740413507,"current_range_meters":20000,"station_id":"ce4bhah2rcd13ifvqei0","pricing_plan_id":"cebpf4jnsgd1na2vs0mg"},{"bike_id":"13932e86-213a-4ac7-91a2-22f0916d205f","system_id":"levelo_inurba_marseille","lat":43.2901,"lon":5.38138,"is_reserved":false,"is_disabled":false,"rental_uris":{"android":"levelo://app?vid=13932e86-213a-4ac7-91a2-22f0916d205f","ios":"levelo://app?vid=13932e86-213a-4ac7-91a2-22f0916d205f"},"vehicle_type_id":"4","last_reported":1740413507,"current_range_meters":20400,"station_id":"ce4bh4p2rcd13ifvqe1g","pricing_plan_id":"cebpf4jnsgd1na2vs0mg"},{"bike_id":"97f04c5a-7acb-49a0-90f5-8cb7871b7af0","system_id":"levelo_inurba_marseille","lat":43.25945,"lon":5.40909,"is_reserved":false,"is_disabled":false,"rental_uris":{"android":"levelo://app?vid=97f04c5a-7acb-49a0-90f5-8cb7871b7af0","ios":"levelo://app?vid=97f04c5a-7acb-49a0-90f5-8cb7871b7af0"},"vehicle_type_id":"4","last_reported":1740413507,"current_range_meters":20400,"station_id":"ce4bhm92rcd13ifvqglg","pricing_plan_id":"cebpf4jnsgd1na2vs0mg"},{"bike_id":"1d0bdac4-4ffa-47e9-a8fa-7b4fcfc4a524","system_id":"levelo_inurba_marseille","lat":43.27844,"lon":5.39217,"is_reserved":false,"is_disabled":false,"rental_uris":{"android":"levelo://app?vid=1d0bdac4-4ffa-47e9-a8fa-7b4fcfc4a524","ios":"levelo://app?vid=1d0bdac4-4ffa-47e9-a8fa-7b4fcfc4a524"},"vehicle_type_id":"4","last_reported":1740413507,"current_range_meters":20400,"station_id":"ce4bhjp2rcd13ifvqga0","pricing_plan_id":"cebpf4jnsgd1na2vs0mg"},{"bike_id":"49c40405-9d53-4d57-9a03-2ddd568d4e63","system_id":"levelo_inurba_marseille","lat":43.29952,"lon":5.38507,"is_reserved":false,"is_disabled":false,"rental_uris":{"android":"levelo://app?vid=49c40405-9d53-4d57-9a03-2ddd568d4e63","ios":"levelo://app?vid=49c40405-9d53-4d57-9a03-2ddd568d4e63"},"vehicle_type_id":"4","last_reported":1740413507,"current_range_meters":20000,"station_id":"ce4bh392rcd13ifvqdl0","pricing_plan_id":"cebpf4jnsgd1na2vs0mg"},{"bike_id":"99a6215f-6506-4f6e-9c5e-ddad7f4be2a5","system_id":"levelo_inurba_marseille","lat":43.29902,"lon":5.4366,"is_reserved":false,"is_disabled":false,"rental_uris":{"android":"levelo://app?vid=99a6215f-6506-4f6e-9c5e-ddad7f4be2a5","ios":"levelo://app?vid=99a6215f-6506-4f6e-9c5e-ddad7f4be2a5"},"vehicle_type_id":"4","last_reported":1740413507,"current_range_meters":20400,"station_id":"ce4bhpp2rcd13ifvqhfg","pricing_plan_id":"cebpf4jnsgd1na2vs0mg"},{"bike_id":"7d361e77-6dc9-4315-94d3-35ad274050a5","system_id":"levelo_inurba_marseille","lat":43.29531,"lon":5.39404,"is_reserved":false,"is_disabled":false,"rental_uris":{"android":"levelo://app?vid=7d361e77-6dc9-4315-94d3-35ad274050a5","ios":"levelo://app?vid=7d361e77-6dc9-4315-94d3-35ad274050a5"},"vehicle_type_id":"4","last_reported":1740413507,"current_range_meters":20000,"station_id":"ce4bh292rcd13ifvqdf0","pricing_plan_id":"cebpf4jnsgd1na2vs0mg"},{"bike_id":"c3eaf577-384f-49be-90a6-7d88e2904d90","system_id":"levelo_inurba_marseille","lat":43.33616,"lon":5.40963,"is_reserved":false,"is_disabled":true,"rental_uris":{"android":"levelo://app?vid=c3eaf577-384f-49be-90a6-7d88e2904d90","ios":"levelo://app?vid=c3eaf577-384f-49be-90a6-7d88e2904d90"},"vehicle_type_id":"4","last_reported":1740413507,"current_range_meters":20800,"station_id":"ce4bhqh2rcd13ifvqhmg","pricing_plan_id":"cebpf4jnsgd1na2vs0mg"},{"bike_id":"45f00bac-7a50-483a-a22f-f8ad468a2768","system_id":"levelo_inurba_marseille","lat":43.29574,"lon":5.37525,"is_reserved":false,"is_disabled":false,"rental_uris":{"android":"levelo://app?vid=45f00bac-7a50-483a-a22f-f8ad468a2768","ios":"levelo://app?vid=45f00bac-7a50-483a-a22f-f8ad468a2768"},"vehicle_type_id":"4","last_reported":1740413507,"current_range_meters":20400,"station_id":"ce4bgh92rcd13ifvqb50","pricing_plan_id":"cebpf4jnsgd1na2vs0mg"},{"bike_id":"c5a8f92c-b818-4364-a3a7-a4f8ce34b9e0","system_id":"levelo_inurba_marseille","lat":43.29974,"lon":5.38497,"is_reserved":false,"is_disabled":false,"rental_uris":{"android":"levelo://app?vid=c5a8f92c-b818-4364-a3a7-a4f8ce34b9e0","ios":"levelo://app?vid=c5a8f92c-b818-4364-a3a7-a4f8ce34b9e0"},"vehicle_type_id":"4","last_reported":1740413507,"current_range_meters":20400,"station_id":"ce4bgj92rcd13ifvqbd0","pricing_plan_id":"cebpf4jnsgd1na2vs0mg"},{"bike_id":"9576f82c-2dea-4cd8-b077-f0e24f9bd76b","system_id":"levelo_inurba_marseille","lat":43.28468,"lon":5.35896,"is_reserved":false,"is_disabled":false,"rental_uris":{"android":"levelo://app?vid=9576f82c-2dea-4cd8-b077-f0e24f9bd76b","ios":"levelo://app?vid=9576f82c-2dea-4cd8-b077-f0e24f9bd76b"},"vehicle_type_id":"4","last_reported":1740413507,"current_range_meters":20800,"station_id":"ce4bhah2rcd13ifvqei0","pricing_plan_id":"cebpf4jnsgd1na2vs0mg"},{"bike_id":"e2bbe779-9d2d-4987-ba23-70de0030ffcb","system_id":"levelo_inurba_marseille","lat":43.25727,"lon":5.41096,"is_reserved":false,"is_disabled":false,"rental_uris":{"android":"levelo://app?vid=e2bbe779-9d2d-4987-ba23-70de0030ffcb","ios":"levelo://app?vid=e2bbe779-9d2d-4987-ba23-70de0030ffcb"},"vehicle_type_id":"4","last_reported":1740413507,"current_range_meters":22000,"station_id":"ce4bhkp2rcd13ifvqgd0","pricing_plan_id":"cebpf4jnsgd1na2vs0mg"},{"bike_id":"9472de56-8cba-43e3-a3d6-2ddfd0e5ea12","system_id":"levelo_inurba_marseille","lat":43.29231,"lon":5.36074,"is_reserved":false,"is_disabled":false,"rental_uris":{"android":"levelo://app?vid=9472de56-8cba-43e3-a3d6-2ddfd0e5ea12","ios":"levelo://app?vid=9472de56-8cba-43e3-a3d6-2ddfd0e5ea12"},"vehicle_type_id":"4","last_reported":1740413507,"current_range_meters":20800,"station_id":"ce4bhbh2rcd13ifvqeqg","pricing_plan_id":"cebpf4jnsgd1na2vs0mg"},{"bike_id":"4c7f9784-a0df-416c-8083-daf481a7f498","system_id":"levelo_inurba_marseille","lat":43.29936,"lon":5.36543,"is_reserved":false,"is_disabled":false,"rental_uris":{"android":"levelo://app?vid=4c7f9784-a0df-416c-8083-daf481a7f498","ios":"levelo://app?vid=4c7f9784-a0df-416c-8083-daf481a7f498"},"vehicle_type_id":"4","last_reported":1740413507,"current_range_meters":20800,"station_id":"ce4bgm92rcd13ifvqbr0","pricing_plan_id":"cebpf4jnsgd1na2vs0mg"},{"bike_id":"e09d909b-9c3c-4b69-9aa6-2fc59a225aef","system_id":"levelo_inurba_marseille","lat":43.2481,"lon":5.37459,"is_reserved":false,"is_disabled":false,"rental_uris":{"android":"levelo://app?vid=e09d909b-9c3c-4b69-9aa6-2fc59a225aef","ios":"levelo://app?vid=e09d909b-9c3c-4b69-9aa6-2fc59a225aef"},"vehicle_type_id":"4","last_reported":1740413507,"current_range_meters":20800,"station_id":"ce4bhgh2rcd13ifvqfb0","pricing_plan_id":"cebpf4jnsgd1na2vs0mg"},{"bike_id":"aaf50d3c-f51b-44ff-b17a-3bcbc3a95941","system_id":"levelo_inurba_marseille","lat":43.30891,"lon":5.3719,"is_reserved":false,"is_disabled":false,"rental_uris":{"android":"levelo://app?vid=aaf50d3c-f51b-44ff-b17a-3bcbc3a95941","ios":"levelo://app?vid=aaf50d3c-f51b-44ff-b17a-3bcbc3a95941"},"vehicle_type_id":"4","last_reported":1740413507,"current_range_meters":21600,"station_id":"ce4bguh2rcd13ifvqckg","pricing_plan_id":"cebpf4jnsgd1na2vs0mg"},{"bike_id":"29f5c50d-d6b5-4d97-a2d3-640a0fc989ed","system_id":"levelo_inurba_marseille","lat":43.2997,"lon":5.38499,"is_reserved":false,"is_disabled":true,"rental_uris":{"android":"levelo://app?vid=29f5c50d-d6b5-4d97-a2d3-640a0fc989ed","ios":"levelo://app?vid=29f5c50d-d6b5-4d97-a2d3-640a0fc989ed"},"vehicle_type_id":"4","last_reported":1740413507,"current_range_meters":21600,"station_id":"ce4bgj92rcd13ifvqbd0","pricing_plan_id":"cebpf4jnsgd1na2vs0mg"},{"bike_id":"46d93f9d-8df9-4253-ae37-efb0674aedab","system_id":"levelo_inurba_marseille","lat":43.28092,"lon":5.39652,"is_reserved":false,"is_disabled":false,"rental_uris":{"android":"levelo://app?vid=46d93f9d-8df9-4253-ae37-efb0674aedab","ios":"levelo://app?vid=46d93f9d-8df9-4253-ae37-efb0674aedab"},"vehicle_type_id":"4","last_reported":1740413507,"current_range_meters":21600,"station_id":"ce4bho12rcd13ifvqh2g","pricing_plan_id":"cebpf4jnsgd1na2vs0mg"},{"bike_id":"dc78f583-4432-451b-a8a6-16b223bf0bd7","system_id":"levelo_inurba_marseille","lat":43.32367,"lon":5.38891,"is_reserved":false,"is_disabled":false,"rental_uris":{"android":"levelo://app?vid=dc78f583-4432-451b-a8a6-16b223bf0bd7","ios":"levelo://app?vid=dc78f583-4432-451b-a8a6-16b223bf0bd7"},"vehicle_type_id":"4","last_reported":1740413507,"current_range_meters":22000,"station_id":"ce4bhqp2rcd13ifvqhog","pricing_plan_id":"cebpf4jnsgd1na2vs0mg"},{"bike_id":"db7f877c-9b28-42c7-aefa-26277d869801","system_id":"levelo_inurba_marseille","lat":43.26566,"lon":5.39015,"is_reserved":false,"is_disabled":false,"rental_uris":{"android":"levelo://app?vid=db7f877c-9b28-42c7-aefa-26277d869801","ios":"levelo://app?vid=db7f877c-9b28-42c7-aefa-26277d869801"},"vehicle_type_id":"4","last_reported":1740413507,"current_range_meters":22400,"station_id":"ce4bhe12rcd13ifvqf30","pricing_plan_id":"cebpf4jnsgd1na2vs0mg"},{"bike_id":"2faae750-dda8-417d-97af-6e8757dc7501","system_id":"levelo_inurba_marseille","lat":43.24176,"lon":5.39743,"is_reserved":false,"is_disabled":false,"rental_uris":{"android":"levelo://app?vid=2faae750-dda8-417d-97af-6e8757dc7501","ios":"levelo://app?vid=2faae750-dda8-417d-97af-6e8757dc7501"},"vehicle_type_id":"4","last_reported":1740413507,"current_range_meters":22400,"station_id":"ce4bhn12rcd13ifvqgpg","pricing_plan_id":"cebpf4jnsgd1na2vs0mg"},{"bike_id":"08b558ae-f5c2-4f30-808a-f8a57fad3fc7","system_id":"levelo_inurba_marseille","lat":43.25081,"lon":5.395,"is_reserved":false,"is_disabled":false,"rental_uris":{"android":"levelo://app?vid=08b558ae-f5c2-4f30-808a-f8a57fad3fc7","ios":"levelo://app?vid=08b558ae-f5c2-4f30-808a-f8a57fad3fc7"},"vehicle_type_id":"4","last_reported":1740413507,"current_range_meters":22800,"station_id":"ce4bhm12rcd13ifvqgkg","pricing_plan_id":"cebpf4jnsgd1na2vs0mg"},{"bike_id":"d51cccca-ec60-4e42-9c5c-858b00dfc305","system_id":"levelo_inurba_marseille","lat":43.23152,"lon":5.43721,"is_reserved":false,"is_disabled":false,"rental_uris":{"android":"levelo://app?vid=d51cccca-ec60-4e42-9c5c-858b00dfc305","ios":"levelo://app?vid=d51cccca-ec60-4e42-9c5c-858b00dfc305"},"vehicle_type_id":"4","last_reported":1740413507,"current_range_meters":22400,"station_id":"ce4bhmp2rcd13ifvqgog","pricing_plan_id":"cebpf4jnsgd1na2vs0mg"},{"bike_id":"5fb763fb-3de3-4593-aa31-12c7a3e83d7e","system_id":"levelo_inurba_marseille","lat":43.29529,"lon":5.38535,"is_reserved":false,"is_disabled":false,"rental_uris":{"android":"levelo://app?vid=5fb763fb-3de3-4593-aa31-12c7a3e83d7e","ios":"levelo://app?vid=5fb763fb-3de3-4593-aa31-12c7a3e83d7e"},"vehicle_type_id":"4","last_reported":1740413507,"current_range_meters":22400,"station_id":"ce4bgih2rcd13ifvqba0","pricing_plan_id":"cebpf4jnsgd1na2vs0mg"},{"bike_id":"451ee27c-3053-4dad-97f9-30aa721d9def","system_id":"levelo_inurba_marseille","lat":43.27989,"lon":5.40022,"is_reserved":false,"is_disabled":false,"rental_uris":{"android":"levelo://app?vid=451ee27c-3053-4dad-97f9-30aa721d9def","ios":"levelo://app?vid=451ee27c-3053-4dad-97f9-30aa721d9def"},"vehicle_type_id":"4","last_reported":1740413507,"current_range_meters":22400,"station_id":"ce4bho92rcd13ifvqh4g","pricing_plan_id":"cebpf4jnsgd1na2vs0mg"},{"bike_id":"26cf961b-62d1-4c17-a9b6-5ebe4a45141f","system_id":"levelo_inurba_marseille","lat":43.24658,"lon":5.38162,"is_reserved":false,"is_disabled":false,"rental_uris":{"android":"levelo://app?vid=26cf961b-62d1-4c17-a9b6-5ebe4a45141f","ios":"levelo://app?vid=26cf961b-62d1-4c17-a9b6-5ebe4a45141f"},"vehicle_type_id":"4","last_reported":1740413507,"current_range_meters":22400,"station_id":"ce4bhih2rcd13ifvqfr0","pricing_plan_id":"cebpf4jnsgd1na2vs0mg"},{"bike_id":"79486965-c088-498f-8f45-61ea909d33f7","system_id":"levelo_inurba_marseille","lat":43.31116,"lon":5.3778,"is_reserved":false,"is_disabled":true,"rental_uris":{"android":"levelo://app?vid=79486965-c088-498f-8f45-61ea909d33f7","ios":"levelo://app?vid=79486965-c088-498f-8f45-61ea909d33f7"},"vehicle_type_id":"4","last_reported":1740413507,"current_range_meters":22400,"station_id":"ce4bgt92rcd13ifvqcg0","pricing_plan_id":"cebpf4jnsgd1na2vs0mg"},{"bike_id":"f28d4bbd-cd53-4203-91ac-78724cd26adf","system_id":"levelo_inurba_marseille","lat":43.25912,"lon":5.40876,"is_reserved":false,"is_disabled":false,"rental_uris":{"android":"levelo://app?vid=f28d4bbd-cd53-4203-91ac-78724cd26adf","ios":"levelo://app?vid=f28d4bbd-cd53-4203-91ac-78724cd26adf"},"vehicle_type_id":"4","last_reported":1740413507,"current_range_meters":22400,"station_id":"ce4bhm92rcd13ifvqglg","pricing_plan_id":"cebpf4jnsgd1na2vs0mg"},{"bike_id":"aa6eb337-cce2-4186-a2d2-8fa816c72e22","system_id":"levelo_inurba_marseille","lat":43.29033,"lon":5.37564,"is_reserved":false,"is_disabled":false,"rental_uris":{"android":"levelo://app?vid=aa6eb337-cce2-4186-a2d2-8fa816c72e22","ios":"levelo://app?vid=aa6eb337-cce2-4186-a2d2-8fa816c72e22"},"vehicle_type_id":"4","last_reported":1740413507,"current_range_meters":22800,"station_id":"ce4bh692rcd13ifvqe90","pricing_plan_id":"cebpf4jnsgd1na2vs0mg"},{"bike_id":"03ec4269-e2f8-4f67-9ed0-3920a7b3f0fc","system_id":"levelo_inurba_marseille","lat":43.31176,"lon":5.38711,"is_reserved":false,"is_disabled":false,"rental_uris":{"android":"levelo://app?vid=03ec4269-e2f8-4f67-9ed0-3920a7b3f0fc","ios":"levelo://app?vid=03ec4269-e2f8-4f67-9ed0-3920a7b3f0fc"},"vehicle_type_id":"4","last_reported":1740413507,"current_range_meters":22800,"station_id":"ce4bgv12rcd13ifvqcp0","pricing_plan_id":"cebpf4jnsgd1na2vs0mg"},{"bike_id":"9bcb6e74-9384-4520-a191-6ca3da24e600","system_id":"levelo_inurba_marseille","lat":43.24167,"lon":5.36402,"is_reserved":false,"is_disabled":false,"rental_uris":{"android":"levelo://app?vid=9bcb6e74-9384-4520-a191-6ca3da24e600","ios":"levelo://app?vid=9bcb6e74-9384-4520-a191-6ca3da24e600"},"vehicle_type_id":"4","last_reported":1740413507,"current_range_meters":22800,"station_id":"cpo36qri1sfpv3e86is0","pricing_plan_id":"cebpf4jnsgd1na2vs0mg"},{"bike_id":"1efbf045-da09-41fb-be85-5f97db02ce3c","system_id":"levelo_inurba_marseille","lat":43.28709,"lon":5.39993,"is_reserved":false,"is_disabled":false,"rental_uris":{"android":"levelo://app?vid=1efbf045-da09-41fb-be85-5f97db02ce3c","ios":"levelo://app?vid=1efbf045-da09-41fb-be85-5f97db02ce3c"},"vehicle_type_id":"4","last_reported":1740413507,"current_range_meters":22400,"station_id":"ce4bho92rcd13ifvqh3g","pricing_plan_id":"cebpf4jnsgd1na2vs0mg"},{"bike_id":"2612543a-5126-450d-848e-f9f59dcdd96b","system_id":"levelo_inurba_marseille","lat":43.251272,"lon":5.403667,"is_reserved":false,"is_disabled":false,"rental_uris":{"android":"levelo://app?vid=2612543a-5126-450d-848e-f9f59dcdd96b","ios":"levelo://app?vid=2612543a-5126-450d-848e-f9f59dcdd96b"},"vehicle_type_id":"4","last_reported":1740413507,"current_range_meters":22800,"station_id":"ce4bhlh2rcd13ifvqgig","pricing_plan_id":"cebpf4jnsgd1na2vs0mg"},{"bike_id":"af63a542-9e3a-4800-868e-7f5dcf1d32e1","system_id":"levelo_inurba_marseille","lat":43.31044,"lon":5.38333,"is_reserved":false,"is_disabled":false,"rental_uris":{"android":"levelo://app?vid=af63a542-9e3a-4800-868e-7f5dcf1d32e1","ios":"levelo://app?vid=af63a542-9e3a-4800-868e-7f5dcf1d32e1"},"vehicle_type_id":"4","last_reported":1740413507,"current_range_meters":22800,"station_id":"ce4bgv92rcd13ifvqcr0","pricing_plan_id":"cebpf4jnsgd1na2vs0mg"},{"bike_id":"0062820e-15e2-4edf-8baa-83ebfef8cec5","system_id":"levelo_inurba_marseille","lat":43.25115,"lon":5.40324,"is_reserved":false,"is_disabled":false,"rental_uris":{"android":"levelo://app?vid=0062820e-15e2-4edf-8baa-83ebfef8cec5","ios":"levelo://app?vid=0062820e-15e2-4edf-8baa-83ebfef8cec5"},"vehicle_type_id":"4","last_reported":1740413507,"current_range_meters":22800,"station_id":"ce4bhlh2rcd13ifvqgig","pricing_plan_id":"cebpf4jnsgd1na2vs0mg"},{"bike_id":"73d6d41a-2f28-448d-b425-8e592a5c8a02","system_id":"levelo_inurba_marseille","lat":43.25883,"lon":5.409187,"is_reserved":false,"is_disabled":false,"rental_uris":{"android":"levelo://app?vid=73d6d41a-2f28-448d-b425-8e592a5c8a02","ios":"levelo://app?vid=73d6d41a-2f28-448d-b425-8e592a5c8a02"},"vehicle_type_id":"4","last_reported":1740413507,"current_range_meters":23200,"station_id":"ce4bhkp2rcd13ifvqgd0","pricing_plan_id":"cebpf4jnsgd1na2vs0mg"},{"bike_id":"8cb63968-066a-41e1-b587-77130f043314","system_id":"levelo_inurba_marseille","lat":43.28159,"lon":5.42641,"is_reserved":false,"is_disabled":false,"rental_uris":{"android":"levelo://app?vid=8cb63968-066a-41e1-b587-77130f043314","ios":"levelo://app?vid=8cb63968-066a-41e1-b587-77130f043314"},"vehicle_type_id":"4","last_reported":1740413507,"current_range_meters":23200,"station_id":"ce4bhnh2rcd13ifvqgug","pricing_plan_id":"cebpf4jnsgd1na2vs0mg"},{"bike_id":"822a41c9-3616-47d4-9d84-56a239562559","system_id":"levelo_inurba_marseille","lat":43.25868,"lon":5.39897,"is_reserved":false,"is_disabled":false,"rental_uris":{"android":"levelo://app?vid=822a41c9-3616-47d4-9d84-56a239562559","ios":"levelo://app?vid=822a41c9-3616-47d4-9d84-56a239562559"},"vehicle_type_id":"4","last_reported":1740413507,"current_range_meters":23200,"station_id":"ce4bhl92rcd13ifvqghg","pricing_plan_id":"cebpf4jnsgd1na2vs0mg"},{"bike_id":"dca8e26a-9d49-4a87-b701-4b573188f699","system_id":"levelo_inurba_marseille","lat":43.33598,"lon":5.41027,"is_reserved":false,"is_disabled":false,"rental_uris":{"android":"levelo://app?vid=dca8e26a-9d49-4a87-b701-4b573188f699","ios":"levelo://app?vid=dca8e26a-9d49-4a87-b701-4b573188f699"},"vehicle_type_id":"4","last_reported":1740413507,"current_range_meters":22000,"station_id":"ce4bhqh2rcd13ifvqhmg","pricing_plan_id":"cebpf4jnsgd1na2vs0mg"},{"bike_id":"03f8ecf4-f41c-40ac-83df-fdda1fdc2f2e","system_id":"levelo_inurba_marseille","lat":43.32375,"lon":5.38886,"is_reserved":false,"is_disabled":false,"rental_uris":{"android":"levelo://app?vid=03f8ecf4-f41c-40ac-83df-fdda1fdc2f2e","ios":"levelo://app?vid=03f8ecf4-f41c-40ac-83df-fdda1fdc2f2e"},"vehicle_type_id":"4","last_reported":1740413507,"current_range_meters":23200,"station_id":"ce4bhqp2rcd13ifvqhog","pricing_plan_id":"cebpf4jnsgd1na2vs0mg"},{"bike_id":"3b237e88-a2ee-495d-b7c7-cba624a0f886","system_id":"levelo_inurba_marseille","lat":43.29464,"lon":5.41667,"is_reserved":false,"is_disabled":false,"rental_uris":{"android":"levelo://app?vid=3b237e88-a2ee-495d-b7c7-cba624a0f886","ios":"levelo://app?vid=3b237e88-a2ee-495d-b7c7-cba624a0f886"},"vehicle_type_id":"4","last_reported":1740413507,"current_range_meters":21600,"station_id":"ce4bhph2rcd13ifvqhdg","pricing_plan_id":"cebpf4jnsgd1na2vs0mg"},{"bike_id":"e479e736-0c1f-4f9f-821a-26347515d163","system_id":"levelo_inurba_marseille","lat":43.28927,"lon":5.38389,"is_reserved":false,"is_disabled":false,"rental_uris":{"android":"levelo://app?vid=e479e736-0c1f-4f9f-821a-26347515d163","ios":"levelo://app?vid=e479e736-0c1f-4f9f-821a-26347515d163"},"vehicle_type_id":"4","last_reported":1740413507,"current_range_meters":22400,"station_id":"ce4bh612rcd13ifvqe6g","pricing_plan_id":"cebpf4jnsgd1na2vs0mg"},{"bike_id":"1df32ffb-b6d0-42f0-8856-8dbb268b7110","system_id":"levelo_inurba_marseille","lat":43.31713,"lon":5.43712,"is_reserved":false,"is_disabled":false,"rental_uris":{"android":"levelo://app?vid=1df32ffb-b6d0-42f0-8856-8dbb268b7110","ios":"levelo://app?vid=1df32ffb-b6d0-42f0-8856-8dbb268b7110"},"vehicle_type_id":"4","last_reported":1740413507,"current_range_meters":23200,"station_id":"ce4bhp92rcd13ifvqhcg","pricing_plan_id":"cebpf4jnsgd1na2vs0mg"},{"bike_id":"a1174a1b-fcaa-4c8b-a4a8-f7d6631fad82","system_id":"levelo_inurba_marseille","lat":43.28364,"lon":5.3864,"is_reserved":false,"is_disabled":false,"rental_uris":{"android":"levelo://app?vid=a1174a1b-fcaa-4c8b-a4a8-f7d6631fad82","ios":"levelo://app?vid=a1174a1b-fcaa-4c8b-a4a8-f7d6631fad82"},"vehicle_type_id":"4","last_reported":1740413507,"current_range_meters":23200,"station_id":"ce4bh492rcd13ifvqdvg","pricing_plan_id":"cebpf4jnsgd1na2vs0mg"},{"bike_id":"696f9de6-550b-4b35-8aeb-90ce944910b6","system_id":"levelo_inurba_marseille","lat":43.312264,"lon":5.368651,"is_reserved":false,"is_disabled":false,"rental_uris":{"android":"levelo://app?vid=696f9de6-550b-4b35-8aeb-90ce944910b6","ios":"levelo://app?vid=696f9de6-550b-4b35-8aeb-90ce944910b6"},"vehicle_type_id":"4","last_reported":1740413507,"current_range_meters":23200,"station_id":"ce4bgl92rcd13ifvqbq0","pricing_plan_id":"cebpf4jnsgd1na2vs0mg"},{"bike_id":"c9fab9d1-01a4-4cb8-b2a1-69af237befe4","system_id":"levelo_inurba_marseille","lat":43.28042,"lon":5.36949,"is_reserved":false,"is_disabled":false,"rental_uris":{"android":"levelo://app?vid=c9fab9d1-01a4-4cb8-b2a1-69af237befe4","ios":"levelo://app?vid=c9fab9d1-01a4-4cb8-b2a1-69af237befe4"},"vehicle_type_id":"4","last_reported":1740413507,"current_range_meters":24000,"station_id":"ce4bha12rcd13ifvqef0","pricing_plan_id":"cebpf4jnsgd1na2vs0mg"},{"bike_id":"6e01d6f3-96e3-4a37-bc26-b87983a2dedf","system_id":"levelo_inurba_marseille","lat":43.25721,"lon":5.41113,"is_reserved":false,"is_disabled":false,"rental_uris":{"android":"levelo://app?vid=6e01d6f3-96e3-4a37-bc26-b87983a2dedf","ios":"levelo://app?vid=6e01d6f3-96e3-4a37-bc26-b87983a2dedf"},"vehicle_type_id":"4","last_reported":1740413507,"current_range_meters":23200,"station_id":"ce4bhkp2rcd13ifvqgd0","pricing_plan_id":"cebpf4jnsgd1na2vs0mg"},{"bike_id":"220837e6-44d1-411a-aaca-6e3d59340904","system_id":"levelo_inurba_marseille","lat":43.301318,"lon":5.387765,"is_reserved":false,"is_disabled":true,"rental_uris":{"android":"levelo://app?vid=220837e6-44d1-411a-aaca-6e3d59340904","ios":"levelo://app?vid=220837e6-44d1-411a-aaca-6e3d59340904"},"vehicle_type_id":"4","last_reported":1740413507,"current_range_meters":24000,"station_id":"","pricing_plan_id":"cebpf4jnsgd1na2vs0mg"},{"bike_id":"add34a4c-19b9-4fd0-8e49-745093d6e079","system_id":"levelo_inurba_marseille","lat":43.30302,"lon":5.3688,"is_reserved":false,"is_disabled":false,"rental_uris":{"android":"levelo://app?vid=add34a4c-19b9-4fd0-8e49-745093d6e079","ios":"levelo://app?vid=add34a4c-19b9-4fd0-8e49-745093d6e079"},"vehicle_type_id":"4","last_reported":1740413507,"current_range_meters":24000,"station_id":"ce4bgqh2rcd13ifvqc5g","pricing_plan_id":"cebpf4jnsgd1na2vs0mg"},{"bike_id":"5e690515-972a-43f1-a979-1799b3edb7ef","system_id":"levelo_inurba_marseille","lat":43.298455,"lon":5.362778,"is_reserved":false,"is_disabled":false,"rental_uris":{"android":"levelo://app?vid=5e690515-972a-43f1-a979-1799b3edb7ef","ios":"levelo://app?vid=5e690515-972a-43f1-a979-1799b3edb7ef"},"vehicle_type_id":"4","last_reported":1740413507,"current_range_meters":24000,"station_id":"ce4bh3p2rcd13ifvqdp0","pricing_plan_id":"cebpf4jnsgd1na2vs0mg"},{"bike_id":"3b8f6814-f3f4-400d-87a5-47a615cab967","system_id":"levelo_inurba_marseille","lat":43.24542,"lon":5.3953,"is_reserved":false,"is_disabled":false,"rental_uris":{"android":"levelo://app?vid=3b8f6814-f3f4-400d-87a5-47a615cab967","ios":"levelo://app?vid=3b8f6814-f3f4-400d-87a5-47a615cab967"},"vehicle_type_id":"4","last_reported":1740413507,"current_range_meters":24400,"station_id":"ce4bhlp2rcd13ifvqgjg","pricing_plan_id":"cebpf4jnsgd1na2vs0mg"},{"bike_id":"d6d78c69-7507-4efb-b7bb-a758ae6abe41","system_id":"levelo_inurba_marseille","lat":43.27057,"lon":5.40265,"is_reserved":false,"is_disabled":false,"rental_uris":{"android":"levelo://app?vid=d6d78c69-7507-4efb-b7bb-a758ae6abe41","ios":"levelo://app?vid=d6d78c69-7507-4efb-b7bb-a758ae6abe41"},"vehicle_type_id":"4","last_reported":1740413507,"current_range_meters":22400,"station_id":"ce4bhk92rcd13ifvqgc0","pricing_plan_id":"cebpf4jnsgd1na2vs0mg"},{"bike_id":"debdedcb-da2a-4d0a-8a9c-1642c466f23b","system_id":"levelo_inurba_marseille","lat":43.29572,"lon":5.37505,"is_reserved":false,"is_disabled":false,"rental_uris":{"android":"levelo://app?vid=debdedcb-da2a-4d0a-8a9c-1642c466f23b","ios":"levelo://app?vid=debdedcb-da2a-4d0a-8a9c-1642c466f23b"},"vehicle_type_id":"4","last_reported":1740413507,"current_range_meters":23200,"station_id":"ce4bgh92rcd13ifvqb50","pricing_plan_id":"cebpf4jnsgd1na2vs0mg"},{"bike_id":"be0060b5-c077-4c33-97b4-ede30a7b084d","system_id":"levelo_inurba_marseille","lat":43.29277,"lon":5.40129,"is_reserved":false,"is_disabled":false,"rental_uris":{"android":"levelo://app?vid=be0060b5-c077-4c33-97b4-ede30a7b084d","ios":"levelo://app?vid=be0060b5-c077-4c33-97b4-ede30a7b084d"},"vehicle_type_id":"4","last_reported":1740413507,"current_range_meters":24000,"station_id":"ce4bh312rcd13ifvqdk0","pricing_plan_id":"cebpf4jnsgd1na2vs0mg"},{"bike_id":"4744b235-ac45-45d0-b74f-f220a48b7085","system_id":"levelo_inurba_marseille","lat":43.29784,"lon":5.38113,"is_reserved":false,"is_disabled":false,"rental_uris":{"android":"levelo://app?vid=4744b235-ac45-45d0-b74f-f220a48b7085","ios":"levelo://app?vid=4744b235-ac45-45d0-b74f-f220a48b7085"},"vehicle_type_id":"4","last_reported":1740413507,"current_range_meters":23200,"station_id":"ce4bgip2rcd13ifvqbb0","pricing_plan_id":"cebpf4jnsgd1na2vs0mg"},{"bike_id":"b608d779-ea7a-4322-b456-384ed56ef53f","system_id":"levelo_inurba_marseille","lat":43.30317,"lon":5.36903,"is_reserved":false,"is_disabled":false,"rental_uris":{"android":"levelo://app?vid=b608d779-ea7a-4322-b456-384ed56ef53f","ios":"levelo://app?vid=b608d779-ea7a-4322-b456-384ed56ef53f"},"vehicle_type_id":"4","last_reported":1740413507,"current_range_meters":24000,"station_id":"ce4bgqh2rcd13ifvqc5g","pricing_plan_id":"cebpf4jnsgd1na2vs0mg"},{"bike_id":"f12f16ad-854c-4baa-9d4e-6cd423c43e66","system_id":"levelo_inurba_marseille","lat":43.28272,"lon":5.35081,"is_reserved":false,"is_disabled":false,"rental_uris":{"android":"levelo://app?vid=f12f16ad-854c-4baa-9d4e-6cd423c43e66","ios":"levelo://app?vid=f12f16ad-854c-4baa-9d4e-6cd423c43e66"},"vehicle_type_id":"4","last_reported":1740413507,"current_range_meters":24400,"station_id":"ce4bhbp2rcd13ifvqerg","pricing_plan_id":"cebpf4jnsgd1na2vs0mg"},{"bike_id":"81af523e-0d1e-462c-8c2e-83450071bf90","system_id":"levelo_inurba_marseille","lat":43.28442,"lon":5.39204,"is_reserved":false,"is_disabled":false,"rental_uris":{"android":"levelo://app?vid=81af523e-0d1e-462c-8c2e-83450071bf90","ios":"levelo://app?vid=81af523e-0d1e-462c-8c2e-83450071bf90"},"vehicle_type_id":"4","last_reported":1740413507,"current_range_meters":25600,"station_id":"ce4bhoh2rcd13ifvqh5g","pricing_plan_id":"cebpf4jnsgd1na2vs0mg"},{"bike_id":"c3558330-f1af-4e0e-a458-4e1e21bac14b","system_id":"levelo_inurba_marseille","lat":43.25196,"lon":5.37433,"is_reserved":false,"is_disabled":false,"rental_uris":{"android":"levelo://app?vid=c3558330-f1af-4e0e-a458-4e1e21bac14b","ios":"levelo://app?vid=c3558330-f1af-4e0e-a458-4e1e21bac14b"},"vehicle_type_id":"4","last_reported":1740413507,"current_range_meters":24800,"station_id":"","pricing_plan_id":"cebpf4jnsgd1na2vs0mg"},{"bike_id":"c67a83b4-7e49-4d16-a7ad-f0076b094632","system_id":"levelo_inurba_marseille","lat":43.29909,"lon":5.4369,"is_reserved":false,"is_disabled":false,"rental_uris":{"android":"levelo://app?vid=c67a83b4-7e49-4d16-a7ad-f0076b094632","ios":"levelo://app?vid=c67a83b4-7e49-4d16-a7ad-f0076b094632"},"vehicle_type_id":"4","last_reported":1740413507,"current_range_meters":24400,"station_id":"","pricing_plan_id":"cebpf4jnsgd1na2vs0mg"},{"bike_id":"b3626b59-5e99-4f9e-a3ed-b436a4d1bb68","system_id":"levelo_inurba_marseille","lat":43.30416,"lon":5.41293,"is_reserved":false,"is_disabled":false,"rental_uris":{"android":"levelo://app?vid=b3626b59-5e99-4f9e-a3ed-b436a4d1bb68","ios":"levelo://app?vid=b3626b59-5e99-4f9e-a3ed-b436a4d1bb68"},"vehicle_type_id":"4","last_reported":1740413507,"current_range_meters":24000,"station_id":"ce4bhop2rcd13ifvqh8g","pricing_plan_id":"cebpf4jnsgd1na2vs0mg"},{"bike_id":"effa5900-97ce-4e5e-aafe-c9c337ac1740","system_id":"levelo_inurba_marseille","lat":43.28151,"lon":5.42654,"is_reserved":false,"is_disabled":false,"rental_uris":{"android":"levelo://app?vid=effa5900-97ce-4e5e-aafe-c9c337ac1740","ios":"levelo://app?vid=effa5900-97ce-4e5e-aafe-c9c337ac1740"},"vehicle_type_id":"4","last_reported":1740413507,"current_range_meters":27200,"station_id":"ce4bhnh2rcd13ifvqgug","pricing_plan_id":"cebpf4jnsgd1na2vs0mg"},{"bike_id":"a0ec1010-9033-43d0-85f7-d58a9f5112d0","system_id":"levelo_inurba_marseille","lat":43.323729,"lon":5.388963,"is_reserved":false,"is_disabled":false,"rental_uris":{"android":"levelo://app?vid=a0ec1010-9033-43d0-85f7-d58a9f5112d0","ios":"levelo://app?vid=a0ec1010-9033-43d0-85f7-d58a9f5112d0"},"vehicle_type_id":"4","last_reported":1740413507,"current_range_meters":24400,"station_id":"","pricing_plan_id":"cebpf4jnsgd1na2vs0mg"},{"bike_id":"fdabd570-1780-4b55-88e8-4a3bf254dd1e","system_id":"levelo_inurba_marseille","lat":43.29897,"lon":5.43671,"is_reserved":false,"is_disabled":false,"rental_uris":{"android":"levelo://app?vid=fdabd570-1780-4b55-88e8-4a3bf254dd1e","ios":"levelo://app?vid=fdabd570-1780-4b55-88e8-4a3bf254dd1e"},"vehicle_type_id":"4","last_reported":1740413507,"current_range_meters":24000,"station_id":"ce4bhpp2rcd13ifvqhfg","pricing_plan_id":"cebpf4jnsgd1na2vs0mg"},{"bike_id":"774877d7-5e56-4442-9bb6-b3f1bd9f5b7b","system_id":"levelo_inurba_marseille","lat":43.2511,"lon":5.40331,"is_reserved":false,"is_disabled":false,"rental_uris":{"android":"levelo://app?vid=774877d7-5e56-4442-9bb6-b3f1bd9f5b7b","ios":"levelo://app?vid=774877d7-5e56-4442-9bb6-b3f1bd9f5b7b"},"vehicle_type_id":"4","last_reported":1740413507,"current_range_meters":24400,"station_id":"ce4bhlh2rcd13ifvqgig","pricing_plan_id":"cebpf4jnsgd1na2vs0mg"},{"bike_id":"efde7bab-4a21-4da8-bc94-8a99e8bfcf17","system_id":"levelo_inurba_marseille","lat":43.30599,"lon":5.37214,"is_reserved":false,"is_disabled":false,"rental_uris":{"android":"levelo://app?vid=efde7bab-4a21-4da8-bc94-8a99e8bfcf17","ios":"levelo://app?vid=efde7bab-4a21-4da8-bc94-8a99e8bfcf17"},