{"last_updated":1741162397,"ttl":60,"version":"2.2","data":{"bikes":[{"bike_id":"905da3b5-ffda-4093-b252-634c59f7dd89","system_id":"levelo_inurba_marseille","lat":43.28608,"lon":5.35112,"is_reserved":false,"is_disabled":false,"rental_uris":{"android":"levelo://app?vid=905da3b5-ffda-4093-b252-634c59f7dd89","ios":"levelo://app?vid=905da3b5-ffda-4093-b252-634c59f7dd89"},"vehicle_type_id":"4","last_reported":1741162398,"current_range_meters":2800,"station_id":"ce4bhch2rcd13ifvqeug","pricing_plan_id":"cebpf4jnsgd1na2vs0mg"},{"bike_id":"771552a7-ab8d-491e-9bd8-ee533f6ca525","system_id":"levelo_inurba_marseille","lat":43.23152,"lon":5.43721,"is_reserved":false,"is_disabled":false,"rental_uris":{"android":"levelo://app?vid=771552a7-ab8d-491e-9bd8-ee533f6ca525","ios":"levelo://app?vid=771552a7-ab8d-491e-9bd8-ee533f6ca525"},"vehicle_type_id":"4","last_reported":1741162398,"current_range_meters":2800,"station_id":"ce4bhmp2rcd13ifvqgog","pricing_plan_id":"cebpf4jnsgd1na2vs0mg"},{"bike_id":"31aec9b4-bd9e-4231-8539-8388c16cb157","system_id":"levelo_inurba_marseille","lat":43.24179,"lon":5.39731,"is_reserved":false,"is_disabled":false,"rental_uris":{"android":"levelo://app?vid=31aec9b4-bd9e-4231-8539-8388c16cb157","ios":"levelo://app?vid=31aec9b4-bd9e-4231-8539-8388c16cb157"},"vehicle_type_id":"4","last_reported":1741162398,"current_range_meters":2800,"station_id":"ce4bhn12rcd13ifvqgpg","pricing_plan_id":"cebpf4jnsgd1na2vs0mg"},{"bike_id":"e65082d6-5529-479d-9979-0976e546b0b6","system_id":"levelo_inurba_marseille","lat":43.255771,"lon":5.382332,"is_reserved":false,"is_disabled":false,"rental_uris":{"android":"levelo://app?vid=e65082d6-5529-479d-9979-0976e546b0b6","ios":"levelo://app?vid=e65082d6-5529-479d-9979-0976e546b0b6"},"vehicle_type_id":"4","last_reported":1741162398,"current_range_meters":2800,"station_id":"ce4bhih2rcd13ifvqfs0","pricing_plan_id":"cebpf4jnsgd1na2vs0mg"},{"bike_id":"81837559-78cb-4a14-a847-89a84b64c16b","system_id":"levelo_inurba_marseille","lat":43.25021,"lon":5.38921,"is_reserved":false,"is_disabled":false,"rental_uris":{"android":"levelo://app?vid=81837559-78cb-4a14-a847-89a84b64c16b","ios":"levelo://app?vid=81837559-78cb-4a14-a847-89a84b64c16b"},"vehicle_type_id":"4","last_reported":1741162398,"current_range_meters":2800,"station_id":"ce4bhgp2rcd13ifvqfd0","pricing_plan_id":"cebpf4jnsgd1na2vs0mg"},{"bike_id":"c6326bc7-27fe-4fdb-afef-41c8b3cf8d61","system_id":"levelo_inurba_marseille","lat":43.29189,"lon":5.35791,"is_reserved":false,"is_disabled":false,"rental_uris":{"android":"levelo://app?vid=c6326bc7-27fe-4fdb-afef-41c8b3cf8d61","ios":"levelo://app?vid=c6326bc7-27fe-4fdb-afef-41c8b3cf8d61"},"vehicle_type_id":"4","last_reported":1741162398,"current_range_meters":2800,"station_id":"ce4bhb12rcd13ifvqel0","pricing_plan_id":"cebpf4jnsgd1na2vs0mg"},{"bike_id":"b0806cb3-c04d-4b6e-9222-a91573a6c6af","system_id":"levelo_inurba_marseille","lat":43.2985,"lon":5.36292,"is_reserved":false,"is_disabled":false,"rental_uris":{"android":"levelo://app?vid=b0806cb3-c04d-4b6e-9222-a91573a6c6af","ios":"levelo://app?vid=b0806cb3-c04d-4b6e-9222-a91573a6c6af"},"vehicle_type_id":"4","last_reported":1741162398,"current_range_meters":2800,"station_id":"ce4bgpp2rcd13ifvqc3g","pricing_plan_id":"cebpf4jnsgd1na2vs0mg"},{"bike_id":"f4694439-b2d0-43c7-994f-e3cb4bc36365","system_id":"levelo_inurba_marseille","lat":43.29008,"lon":5.37269,"is_reserved":false,"is_disabled":true,"rental_uris":{"android":"levelo://app?vid=f4694439-b2d0-43c7-994f-e3cb4bc36365","ios":"levelo://app?vid=f4694439-b2d0-43c7-994f-e3cb4bc36365"},"vehicle_type_id":"4","last_reported":1741162398,"current_range_meters":2800,"station_id":"","pricing_plan_id":"cebpf4jnsgd1na2vs0mg"},{"bike_id":"b50544a5-c87a-4ed6-a37b-99f233cd01c5","system_id":"levelo_inurba_marseille","lat":43.29204,"lon":5.39325,"is_reserved":false,"is_disabled":false,"rental_uris":{"android":"levelo://app?vid=b50544a5-c87a-4ed6-a37b-99f233cd01c5","ios":"levelo://app?vid=b50544a5-c87a-4ed6-a37b-99f233cd01c5"},"vehicle_type_id":"4","last_reported":1741162398,"current_range_meters":2800,"station_id":"ce4bh192rcd13ifvqdd0","pricing_plan_id":"cebpf4jnsgd1na2vs0mg"},{"bike_id":"ce8ef3d2-07e3-4512-8813-bcde53a01429","system_id":"levelo_inurba_marseille","lat":43.24164,"lon":5.3639,"is_reserved":false,"is_disabled":false,"rental_uris":{"android":"levelo://app?vid=ce8ef3d2-07e3-4512-8813-bcde53a01429","ios":"levelo://app?vid=ce8ef3d2-07e3-4512-8813-bcde53a01429"},"vehicle_type_id":"4","last_reported":1741162398,"current_range_meters":3200,"station_id":"cpo36qri1sfpv3e86is0","pricing_plan_id":"cebpf4jnsgd1na2vs0mg"},{"bike_id":"9a6312e8-bce6-4da6-ad7b-6bd49dd0e180","system_id":"levelo_inurba_marseille","lat":43.24072,"lon":5.37769,"is_reserved":false,"is_disabled":false,"rental_uris":{"android":"levelo://app?vid=9a6312e8-bce6-4da6-ad7b-6bd49dd0e180","ios":"levelo://app?vid=9a6312e8-bce6-4da6-ad7b-6bd49dd0e180"},"vehicle_type_id":"4","last_reported":1741162398,"current_range_meters":3200,"station_id":"ce4bhnp2rcd13ifvqgvg","pricing_plan_id":"cebpf4jnsgd1na2vs0mg"},{"bike_id":"761fbd85-ec62-44db-a821-106355c3ffb7","system_id":"levelo_inurba_marseille","lat":43.25002,"lon":5.38926,"is_reserved":false,"is_disabled":false,"rental_uris":{"android":"levelo://app?vid=761fbd85-ec62-44db-a821-106355c3ffb7","ios":"levelo://app?vid=761fbd85-ec62-44db-a821-106355c3ffb7"},"vehicle_type_id":"4","last_reported":1741162398,"current_range_meters":3200,"station_id":"ce4bhgp2rcd13ifvqfd0","pricing_plan_id":"cebpf4jnsgd1na2vs0mg"},{"bike_id":"d3817148-450f-4d72-9fbc-7d3826a40d51","system_id":"levelo_inurba_marseille","lat":43.24078,"lon":5.37745,"is_reserved":false,"is_disabled":false,"rental_uris":{"android":"levelo://app?vid=d3817148-450f-4d72-9fbc-7d3826a40d51","ios":"levelo://app?vid=d3817148-450f-4d72-9fbc-7d3826a40d51"},"vehicle_type_id":"4","last_reported":1741162398,"current_range_meters":3200,"station_id":"ce4bhnp2rcd13ifvqgvg","pricing_plan_id":"cebpf4jnsgd1na2vs0mg"},{"bike_id":"cdfb91ec-7ee7-41b1-b614-7969d8e9230c","system_id":"levelo_inurba_marseille","lat":43.27902,"lon":5.40509,"is_reserved":false,"is_disabled":true,"rental_uris":{"android":"levelo://app?vid=cdfb91ec-7ee7-41b1-b614-7969d8e9230c","ios":"levelo://app?vid=cdfb91ec-7ee7-41b1-b614-7969d8e9230c"},"vehicle_type_id":"4","last_reported":1741162398,"current_range_meters":3200,"station_id":"","pricing_plan_id":"cebpf4jnsgd1na2vs0mg"},{"bike_id":"9ad26554-438a-404b-bf07-398354747d47","system_id":"levelo_inurba_marseille","lat":43.25919,"lon":5.40892,"is_reserved":false,"is_disabled":false,"rental_uris":{"android":"levelo://app?vid=9ad26554-438a-404b-bf07-398354747d47","ios":"levelo://app?vid=9ad26554-438a-404b-bf07-398354747d47"},"vehicle_type_id":"4","last_reported":1741162398,"current_range_meters":3200,"station_id":"ce4bhm92rcd13ifvqglg","pricing_plan_id":"cebpf4jnsgd1na2vs0mg"},{"bike_id":"79687e17-5ece-4f9c-9252-898196d1c2cb","system_id":"levelo_inurba_marseille","lat":43.29892,"lon":5.38506,"is_reserved":false,"is_disabled":true,"rental_uris":{"android":"levelo://app?vid=79687e17-5ece-4f9c-9252-898196d1c2cb","ios":"levelo://app?vid=79687e17-5ece-4f9c-9252-898196d1c2cb"},"vehicle_type_id":"4","last_reported":1741162398,"current_range_meters":3600,"station_id":"","pricing_plan_id":"cebpf4jnsgd1na2vs0mg"},{"bike_id":"2f15507f-58dc-4e0f-9221-c36c1cb10d79","system_id":"levelo_inurba_marseille","lat":43.25932,"lon":5.4091,"is_reserved":false,"is_disabled":false,"rental_uris":{"android":"levelo://app?vid=2f15507f-58dc-4e0f-9221-c36c1cb10d79","ios":"levelo://app?vid=2f15507f-58dc-4e0f-9221-c36c1cb10d79"},"vehicle_type_id":"4","last_reported":1741162398,"current_range_meters":3600,"station_id":"ce4bhm92rcd13ifvqglg","pricing_plan_id":"cebpf4jnsgd1na2vs0mg"},{"bike_id":"2a727ccc-e7aa-420d-a349-4e24c75381d7","system_id":"levelo_inurba_marseille","lat":43.258991,"lon":5.398947,"is_reserved":false,"is_disabled":false,"rental_uris":{"android":"levelo://app?vid=2a727ccc-e7aa-420d-a349-4e24c75381d7","ios":"levelo://app?vid=2a727ccc-e7aa-420d-a349-4e24c75381d7"},"vehicle_type_id":"4","last_reported":1741162398,"current_range_meters":3600,"station_id":"ce4bhah2rcd13ifvqei0","pricing_plan_id":"cebpf4jnsgd1na2vs0mg"},{"bike_id":"c1fc374e-9788-4744-b476-9c2c2283eed8","system_id":"levelo_inurba_marseille","lat":43.31264,"lon":5.36869,"is_reserved":false,"is_disabled":false,"rental_uris":{"android":"levelo://app?vid=c1fc374e-9788-4744-b476-9c2c2283eed8","ios":"levelo://app?vid=c1fc374e-9788-4744-b476-9c2c2283eed8"},"vehicle_type_id":"4","last_reported":1741162398,"current_range_meters":3600,"station_id":"ce4bgl92rcd13ifvqbq0","pricing_plan_id":"cebpf4jnsgd1na2vs0mg"},{"bike_id":"13c44e5e-5463-4505-ba1b-c0544af7d8ca","system_id":"levelo_inurba_marseille","lat":43.231906,"lon":5.355639,"is_reserved":false,"is_disabled":false,"rental_uris":{"android":"levelo://app?vid=13c44e5e-5463-4505-ba1b-c0544af7d8ca","ios":"levelo://app?vid=13c44e5e-5463-4505-ba1b-c0544af7d8ca"},"vehicle_type_id":"4","last_reported":1741162398,"current_range_meters":3600,"station_id":"ce4bhu92rcd13ifvqi70","pricing_plan_id":"cebpf4jnsgd1na2vs0mg"},{"bike_id":"dc7f228c-f690-47dd-84d3-3353a33e8cda","system_id":"levelo_inurba_marseille","lat":43.24627,"lon":5.43156,"is_reserved":false,"is_disabled":false,"rental_uris":{"android":"levelo://app?vid=dc7f228c-f690-47dd-84d3-3353a33e8cda","ios":"levelo://app?vid=dc7f228c-f690-47dd-84d3-3353a33e8cda"},"vehicle_type_id":"4","last_reported":1741162398,"current_range_meters":3600,"station_id":"","pricing_plan_id":"cebpf4jnsgd1na2vs0mg"},{"bike_id":"5e8d3286-811b-47d2-96af-944997a8b7f4","system_id":"levelo_inurba_marseille","lat":43.30946,"lon":5.39045,"is_reserved":false,"is_disabled":false,"rental_uris":{"android":"levelo://app?vid=5e8d3286-811b-47d2-96af-944997a8b7f4","ios":"levelo://app?vid=5e8d3286-811b-47d2-96af-944997a8b7f4"},"vehicle_type_id":"4","last_reported":1741162398,"current_range_meters":3600,"station_id":"ce4bgup2rcd13ifvqco0","pricing_plan_id":"cebpf4jnsgd1na2vs0mg"},{"bike_id":"b4055064-44c6-499f-bdaa-65df7700920d","system_id":"levelo_inurba_marseille","lat":43.25909,"lon":5.40876,"is_reserved":false,"is_disabled":false,"rental_uris":{"android":"levelo://app?vid=b4055064-44c6-499f-bdaa-65df7700920d","ios":"levelo://app?vid=b4055064-44c6-499f-bdaa-65df7700920d"},"vehicle_type_id":"4","last_reported":1741162398,"current_range_meters":4000,"station_id":"ce4bhm92rcd13ifvqglg","pricing_plan_id":"cebpf4jnsgd1na2vs0mg"},{"bike_id":"f563e8d8-7714-425c-a36f-a02e2ea50b41","system_id":"levelo_inurba_marseille","lat":43.26947,"lon":5.38627,"is_reserved":false,"is_disabled":false,"rental_uris":{"android":"levelo://app?vid=f563e8d8-7714-425c-a36f-a02e2ea50b41","ios":"levelo://app?vid=f563e8d8-7714-425c-a36f-a02e2ea50b41"},"vehicle_type_id":"4","last_reported":1741162398,"current_range_meters":4000,"station_id":"ce4bhh92rcd13ifvqfh0","pricing_plan_id":"cebpf4jnsgd1na2vs0mg"},{"bike_id":"56b861b8-5315-4ddc-9ba4-4b7d6d0340bb","system_id":"levelo_inurba_marseille","lat":43.29055,"lon":5.39978,"is_reserved":false,"is_disabled":false,"rental_uris":{"android":"levelo://app?vid=56b861b8-5315-4ddc-9ba4-4b7d6d0340bb","ios":"levelo://app?vid=56b861b8-5315-4ddc-9ba4-4b7d6d0340bb"},"vehicle_type_id":"4","last_reported":1741162398,"current_range_meters":4400,"station_id":"ce4bh392rcd13ifvqdm0","pricing_plan_id":"cebpf4jnsgd1na2vs0mg"},{"bike_id":"c2595706-1edd-435e-9487-c094a955ec40","system_id":"levelo_inurba_marseille","lat":43.31229,"lon":5.3686,"is_reserved":false,"is_disabled":false,"rental_uris":{"android":"levelo://app?vid=c2595706-1edd-435e-9487-c094a955ec40","ios":"levelo://app?vid=c2595706-1edd-435e-9487-c094a955ec40"},"vehicle_type_id":"4","last_reported":1741162398,"current_range_meters":4400,"station_id":"ce4bgl92rcd13ifvqbq0","pricing_plan_id":"cebpf4jnsgd1na2vs0mg"},{"bike_id":"12aa08f8-9390-48ed-8042-5dfc7ff6b71f","system_id":"levelo_inurba_marseille","lat":43.292011,"lon":5.393241,"is_reserved":false,"is_disabled":false,"rental_uris":{"android":"levelo://app?vid=12aa08f8-9390-48ed-8042-5dfc7ff6b71f","ios":"levelo://app?vid=12aa08f8-9390-48ed-8042-5dfc7ff6b71f"},"vehicle_type_id":"4","last_reported":1741162398,"current_range_meters":4400,"station_id":"ce4bh192rcd13ifvqdd0","pricing_plan_id":"cebpf4jnsgd1na2vs0mg"},{"bike_id":"9eb85d8c-1e1f-4d5a-b146-a000073ba63a","system_id":"levelo_inurba_marseille","lat":43.29877,"lon":5.39727,"is_reserved":false,"is_disabled":false,"rental_uris":{"android":"levelo://app?vid=9eb85d8c-1e1f-4d5a-b146-a000073ba63a","ios":"levelo://app?vid=9eb85d8c-1e1f-4d5a-b146-a000073ba63a"},"vehicle_type_id":"4","last_reported":1741162398,"current_range_meters":4400,"station_id":"ce4bh0h2rcd13ifvqd50","pricing_plan_id":"cebpf4jnsgd1na2vs0mg"},{"bike_id":"0b818497-4d97-451b-b637-cef3d02b5c9d","system_id":"levelo_inurba_marseille","lat":43.31774,"lon":5.43656,"is_reserved":false,"is_disabled":false,"rental_uris":{"android":"levelo://app?vid=0b818497-4d97-451b-b637-cef3d02b5c9d","ios":"levelo://app?vid=0b818497-4d97-451b-b637-cef3d02b5c9d"},"vehicle_type_id":"4","last_reported":1741162398,"current_range_meters":4800,"station_id":"ce4bhp92rcd13ifvqhcg","pricing_plan_id":"cebpf4jnsgd1na2vs0mg"},{"bike_id":"4953908e-c12d-41ee-881a-cce039598782","system_id":"levelo_inurba_marseille","lat":43.30833,"lon":5.43488,"is_reserved":false,"is_disabled":false,"rental_uris":{"android":"levelo://app?vid=4953908e-c12d-41ee-881a-cce039598782","ios":"levelo://app?vid=4953908e-c12d-41ee-881a-cce039598782"},"vehicle_type_id":"4","last_reported":1741162398,"current_range_meters":4800,"station_id":"ce4bhph2rcd13ifvqheg","pricing_plan_id":"cebpf4jnsgd1na2vs0mg"},{"bike_id":"4870617a-136d-4b04-9a85-78014d75d2e1","system_id":"levelo_inurba_marseille","lat":43.26673,"lon":5.38271,"is_reserved":false,"is_disabled":false,"rental_uris":{"android":"levelo://app?vid=4870617a-136d-4b04-9a85-78014d75d2e1","ios":"levelo://app?vid=4870617a-136d-4b04-9a85-78014d75d2e1"},"vehicle_type_id":"4","last_reported":1741162398,"current_range_meters":4800,"station_id":"ce4bhg92rcd13ifvqf90","pricing_plan_id":"cebpf4jnsgd1na2vs0mg"},{"bike_id":"76027ae4-4048-4904-8cb5-494cd6994707","system_id":"levelo_inurba_marseille","lat":43.27514,"lon":5.42414,"is_reserved":false,"is_disabled":false,"rental_uris":{"android":"levelo://app?vid=76027ae4-4048-4904-8cb5-494cd6994707","ios":"levelo://app?vid=76027ae4-4048-4904-8cb5-494cd6994707"},"vehicle_type_id":"4","last_reported":1741162398,"current_range_meters":5600,"station_id":"ce4bhn92rcd13ifvqgrg","pricing_plan_id":"cebpf4jnsgd1na2vs0mg"},{"bike_id":"4611464e-5811-4fd2-93d3-24d080933981","system_id":"levelo_inurba_marseille","lat":43.25002,"lon":5.38925,"is_reserved":false,"is_disabled":false,"rental_uris":{"android":"levelo://app?vid=4611464e-5811-4fd2-93d3-24d080933981","ios":"levelo://app?vid=4611464e-5811-4fd2-93d3-24d080933981"},"vehicle_type_id":"4","last_reported":1741162398,"current_range_meters":5600,"station_id":"ce4bhgp2rcd13ifvqfd0","pricing_plan_id":"cebpf4jnsgd1na2vs0mg"},{"bike_id":"8a7a2607-988e-4f1a-8b1e-c47cb37473b4","system_id":"levelo_inurba_marseille","lat":43.3091,"lon":5.36844,"is_reserved":false,"is_disabled":false,"rental_uris":{"android":"levelo://app?vid=8a7a2607-988e-4f1a-8b1e-c47cb37473b4","ios":"levelo://app?vid=8a7a2607-988e-4f1a-8b1e-c47cb37473b4"},"vehicle_type_id":"4","last_reported":1741162398,"current_range_meters":5600,"station_id":"ce4bgn92rcd13ifvqbvg","pricing_plan_id":"cebpf4jnsgd1na2vs0mg"},{"bike_id":"03925591-2ef4-4411-8de1-518eb2194504","system_id":"levelo_inurba_marseille","lat":43.28319,"lon":5.38105,"is_reserved":false,"is_disabled":false,"rental_uris":{"android":"levelo://app?vid=03925591-2ef4-4411-8de1-518eb2194504","ios":"levelo://app?vid=03925591-2ef4-4411-8de1-518eb2194504"},"vehicle_type_id":"4","last_reported":1741162398,"current_range_meters":5600,"station_id":"ce4bh412rcd13ifvqdr0","pricing_plan_id":"cebpf4jnsgd1na2vs0mg"},{"bike_id":"89721c29-6bac-4f2b-8a58-9e1a16f55fe3","system_id":"levelo_inurba_marseille","lat":43.24696,"lon":5.37701,"is_reserved":false,"is_disabled":false,"rental_uris":{"android":"levelo://app?vid=89721c29-6bac-4f2b-8a58-9e1a16f55fe3","ios":"levelo://app?vid=89721c29-6bac-4f2b-8a58-9e1a16f55fe3"},"vehicle_type_id":"4","last_reported":1741162398,"current_range_meters":6000,"station_id":"","pricing_plan_id":"cebpf4jnsgd1na2vs0mg"},{"bike_id":"d812a867-33d9-46a6-96f3-9074eef2894f","system_id":"levelo_inurba_marseille","lat":43.30953,"lon":5.39052,"is_reserved":false,"is_disabled":false,"rental_uris":{"android":"levelo://app?vid=d812a867-33d9-46a6-96f3-9074eef2894f","ios":"levelo://app?vid=d812a867-33d9-46a6-96f3-9074eef2894f"},"vehicle_type_id":"4","last_reported":1741162398,"current_range_meters":6000,"station_id":"ce4bgup2rcd13ifvqco0","pricing_plan_id":"cebpf4jnsgd1na2vs0mg"},{"bike_id":"74c65937-894e-4f4f-8f77-bff3b3be6162","system_id":"levelo_inurba_marseille","lat":43.26233,"lon":5.40454,"is_reserved":false,"is_disabled":false,"rental_uris":{"android":"levelo://app?vid=74c65937-894e-4f4f-8f77-bff3b3be6162","ios":"levelo://app?vid=74c65937-894e-4f4f-8f77-bff3b3be6162"},"vehicle_type_id":"4","last_reported":1741162398,"current_range_meters":6000,"station_id":"ce4bhmh2rcd13ifvqgmg","pricing_plan_id":"cebpf4jnsgd1na2vs0mg"},{"bike_id":"64953142-7637-42b4-b0d1-c449e63f1db7","system_id":"levelo_inurba_marseille","lat":43.29654,"lon":5.36003,"is_reserved":false,"is_disabled":false,"rental_uris":{"android":"levelo://app?vid=64953142-7637-42b4-b0d1-c449e63f1db7","ios":"levelo://app?vid=64953142-7637-42b4-b0d1-c449e63f1db7"},"vehicle_type_id":"4","last_reported":1741162398,"current_range_meters":6000,"station_id":"","pricing_plan_id":"cebpf4jnsgd1na2vs0mg"},{"bike_id":"48ca4e95-acb4-400e-8208-1e7b736cce43","system_id":"levelo_inurba_marseille","lat":43.24181,"lon":5.39731,"is_reserved":false,"is_disabled":false,"rental_uris":{"android":"levelo://app?vid=48ca4e95-acb4-400e-8208-1e7b736cce43","ios":"levelo://app?vid=48ca4e95-acb4-400e-8208-1e7b736cce43"},"vehicle_type_id":"4","last_reported":1741162398,"current_range_meters":6000,"station_id":"ce4bhn12rcd13ifvqgpg","pricing_plan_id":"cebpf4jnsgd1na2vs0mg"},{"bike_id":"016036b3-3cc0-4b9b-9b5a-da2d4a19e33e","system_id":"levelo_inurba_marseille","lat":43.30958,"lon":5.39039,"is_reserved":false,"is_disabled":false,"rental_uris":{"android":"levelo://app?vid=016036b3-3cc0-4b9b-9b5a-da2d4a19e33e","ios":"levelo://app?vid=016036b3-3cc0-4b9b-9b5a-da2d4a19e33e"},"vehicle_type_id":"4","last_reported":1741162398,"current_range_meters":6000,"station_id":"ce4bgup2rcd13ifvqco0","pricing_plan_id":"cebpf4jnsgd1na2vs0mg"},{"bike_id":"d05c5f59-8850-4213-9a92-918c308c666b","system_id":"levelo_inurba_marseille","lat":43.29263,"lon":5.40898,"is_reserved":false,"is_disabled":false,"rental_uris":{"android":"levelo://app?vid=d05c5f59-8850-4213-9a92-918c308c666b","ios":"levelo://app?vid=d05c5f59-8850-4213-9a92-918c308c666b"},"vehicle_type_id":"4","last_reported":1741162398,"current_range_meters":6400,"station_id":"ce4bh192rcd13ifvqdc0","pricing_plan_id":"cebpf4jnsgd1na2vs0mg"},{"bike_id":"3fe738ce-4d27-4f45-acc1-cc5f130546f4","system_id":"levelo_inurba_marseille","lat":43.241863,"lon":5.3951,"is_reserved":false,"is_disabled":false,"rental_uris":{"android":"levelo://app?vid=3fe738ce-4d27-4f45-acc1-cc5f130546f4","ios":"levelo://app?vid=3fe738ce-4d27-4f45-acc1-cc5f130546f4"},"vehicle_type_id":"4","last_reported":1741162398,"current_range_meters":6400,"station_id":"ce4bhn12rcd13ifvqgpg","pricing_plan_id":"cebpf4jnsgd1na2vs0mg"},{"bike_id":"5e97bca3-b4ed-4d16-995c-ca66033a0e31","system_id":"levelo_inurba_marseille","lat":43.2803,"lon":5.36941,"is_reserved":false,"is_disabled":false,"rental_uris":{"android":"levelo://app?vid=5e97bca3-b4ed-4d16-995c-ca66033a0e31","ios":"levelo://app?vid=5e97bca3-b4ed-4d16-995c-ca66033a0e31"},"vehicle_type_id":"4","last_reported":1741162398,"current_range_meters":6400,"station_id":"ce4bha12rcd13ifvqef0","pricing_plan_id":"cebpf4jnsgd1na2vs0mg"},{"bike_id":"0477b4fd-6a39-4934-a460-ca4248dfdc3e","system_id":"levelo_inurba_marseille","lat":43.32542,"lon":5.41431,"is_reserved":false,"is_disabled":false,"rental_uris":{"android":"levelo://app?vid=0477b4fd-6a39-4934-a460-ca4248dfdc3e","ios":"levelo://app?vid=0477b4fd-6a39-4934-a460-ca4248dfdc3e"},"vehicle_type_id":"4","last_reported":1741162398,"current_range_meters":6400,"station_id":"ce4bhq12rcd13ifvqhhg","pricing_plan_id":"cebpf4jnsgd1na2vs0mg"},{"bike_id":"3b336de7-f142-49c0-9eca-1aacc9a41df6","system_id":"levelo_inurba_marseille","lat":43.30925,"lon":5.36855,"is_reserved":false,"is_disabled":false,"rental_uris":{"android":"levelo://app?vid=3b336de7-f142-49c0-9eca-1aacc9a41df6","ios":"levelo://app?vid=3b336de7-f142-49c0-9eca-1aacc9a41df6"},"vehicle_type_id":"4","last_reported":1741162398,"current_range_meters":6400,"station_id":"ce4bgn92rcd13ifvqbvg","pricing_plan_id":"cebpf4jnsgd1na2vs0mg"},{"bike_id":"1c793e9c-5baf-4d91-8335-ab5933646313","system_id":"levelo_inurba_marseille","lat":43.2622,"lon":5.37444,"is_reserved":false,"is_disabled":false,"rental_uris":{"android":"levelo://app?vid=1c793e9c-5baf-4d91-8335-ab5933646313","ios":"levelo://app?vid=1c793e9c-5baf-4d91-8335-ab5933646313"},"vehicle_type_id":"4","last_reported":1741162398,"current_range_meters":6400,"station_id":"ce4bhgp2rcd13ifvqfc0","pricing_plan_id":"cebpf4jnsgd1na2vs0mg"},{"bike_id":"4d031821-b90c-420c-be9f-756d9af38822","system_id":"levelo_inurba_marseille","lat":43.27716,"lon":5.40748,"is_reserved":false,"is_disabled":false,"rental_uris":{"android":"levelo://app?vid=4d031821-b90c-420c-be9f-756d9af38822","ios":"levelo://app?vid=4d031821-b90c-420c-be9f-756d9af38822"},"vehicle_type_id":"4","last_reported":1741162398,"current_range_meters":6800,"station_id":"","pricing_plan_id":"cebpf4jnsgd1na2vs0mg"},{"bike_id":"8e83f4d3-dd65-4542-8785-b15b9a5e7357","system_id":"levelo_inurba_marseille","lat":43.25938,"lon":5.40903,"is_reserved":false,"is_disabled":false,"rental_uris":{"android":"levelo://app?vid=8e83f4d3-dd65-4542-8785-b15b9a5e7357","ios":"levelo://app?vid=8e83f4d3-dd65-4542-8785-b15b9a5e7357"},"vehicle_type_id":"4","last_reported":1741162398,"current_range_meters":6800,"station_id":"ce4bhm92rcd13ifvqglg","pricing_plan_id":"cebpf4jnsgd1na2vs0mg"},{"bike_id":"8a41fa9b-5e16-4238-9659-a23b1216d147","system_id":"levelo_inurba_marseille","lat":43.26681,"lon":5.38283,"is_reserved":false,"is_disabled":true,"rental_uris":{"android":"levelo://app?vid=8a41fa9b-5e16-4238-9659-a23b1216d147","ios":"levelo://app?vid=8a41fa9b-5e16-4238-9659-a23b1216d147"},"vehicle_type_id":"4","last_reported":1741162398,"current_range_meters":6800,"station_id":"ce4bhg92rcd13ifvqf90","pricing_plan_id":"cebpf4jnsgd1na2vs0mg"},{"bike_id":"2d3b3c09-42a9-4d38-ad3f-30c0062d2ff1","system_id":"levelo_inurba_marseille","lat":43.25837,"lon":5.39426,"is_reserved":false,"is_disabled":false,"rental_uris":{"android":"levelo://app?vid=2d3b3c09-42a9-4d38-ad3f-30c0062d2ff1","ios":"levelo://app?vid=2d3b3c09-42a9-4d38-ad3f-30c0062d2ff1"},"vehicle_type_id":"4","last_reported":1741162398,"current_range_meters":6800,"station_id":"ce4bhip2rcd13ifvqft0","pricing_plan_id":"cebpf4jnsgd1na2vs0mg"},{"bike_id":"917bdb19-12b7-45b7-b489-4fc4b0770a58","system_id":"levelo_inurba_marseille","lat":43.30538,"lon":5.36554,"is_reserved":false,"is_disabled":false,"rental_uris":{"android":"levelo://app?vid=917bdb19-12b7-45b7-b489-4fc4b0770a58","ios":"levelo://app?vid=917bdb19-12b7-45b7-b489-4fc4b0770a58"},"vehicle_type_id":"4","last_reported":1741162398,"current_range_meters":6800,"station_id":"ce4bgs12rcd13ifvqcag","pricing_plan_id":"cebpf4jnsgd1na2vs0mg"},{"bike_id":"997217d4-9110-4f1d-bb92-525e0e2d4061","system_id":"levelo_inurba_marseille","lat":43.23151,"lon":5.43708,"is_reserved":false,"is_disabled":false,"rental_uris":{"android":"levelo://app?vid=997217d4-9110-4f1d-bb92-525e0e2d4061","ios":"levelo://app?vid=997217d4-9110-4f1d-bb92-525e0e2d4061"},"vehicle_type_id":"4","last_reported":1741162398,"current_range_meters":6800,"station_id":"ce4bhmp2rcd13ifvqgog","pricing_plan_id":"cebpf4jnsgd1na2vs0mg"},{"bike_id":"098e1208-3091-42bd-9bb4-612148ea4ada","system_id":"levelo_inurba_marseille","lat":43.23354,"lon":5.36011,"is_reserved":false,"is_disabled":false,"rental_uris":{"android":"levelo://app?vid=098e1208-3091-42bd-9bb4-612148ea4ada","ios":"levelo://app?vid=098e1208-3091-42bd-9bb4-612148ea4ada"},"vehicle_type_id":"4","last_reported":1741162398,"current_range_meters":6800,"station_id":"","pricing_plan_id":"cebpf4jnsgd1na2vs0mg"},{"bike_id":"90637203-948d-4c63-8efc-9933b6919ad6","system_id":"levelo_inurba_marseille","lat":43.31414,"lon":5.36672,"is_reserved":false,"is_disabled":false,"rental_uris":{"android":"levelo://app?vid=90637203-948d-4c63-8efc-9933b6919ad6","ios":"levelo://app?vid=90637203-948d-4c63-8efc-9933b6919ad6"},"vehicle_type_id":"4","last_reported":1741162398,"current_range_meters":6800,"station_id":"","pricing_plan_id":"cebpf4jnsgd1na2vs0mg"},{"bike_id":"e4e84677-1fb4-45e7-b420-d4694e58bf2c","system_id":"levelo_inurba_marseille","lat":43.314431,"lon":5.37996,"is_reserved":false,"is_disabled":false,"rental_uris":{"android":"levelo://app?vid=e4e84677-1fb4-45e7-b420-d4694e58bf2c","ios":"levelo://app?vid=e4e84677-1fb4-45e7-b420-d4694e58bf2c"},"vehicle_type_id":"4","last_reported":1741162398,"current_range_meters":8000,"station_id":"ce4bhsp2rcd13ifvqi50","pricing_plan_id":"cebpf4jnsgd1na2vs0mg"},{"bike_id":"a88c142e-d928-4561-88fe-ca6968b4c6c1","system_id":"levelo_inurba_marseille","lat":43.26229,"lon":5.40489,"is_reserved":false,"is_disabled":false,"rental_uris":{"android":"levelo://app?vid=a88c142e-d928-4561-88fe-ca6968b4c6c1","ios":"levelo://app?vid=a88c142e-d928-4561-88fe-ca6968b4c6c1"},"vehicle_type_id":"4","last_reported":1741162398,"current_range_meters":7200,"station_id":"ce4bhmh2rcd13ifvqgmg","pricing_plan_id":"cebpf4jnsgd1na2vs0mg"},{"bike_id":"de229040-7623-4948-b2bf-79c7c7034c5c","system_id":"levelo_inurba_marseille","lat":43.2653,"lon":5.39072,"is_reserved":false,"is_disabled":false,"rental_uris":{"android":"levelo://app?vid=de229040-7623-4948-b2bf-79c7c7034c5c","ios":"levelo://app?vid=de229040-7623-4948-b2bf-79c7c7034c5c"},"vehicle_type_id":"4","last_reported":1741162398,"current_range_meters":7200,"station_id":"","pricing_plan_id":"cebpf4jnsgd1na2vs0mg"},{"bike_id":"13cc4aae-49e8-44f7-bfab-719bb6820256","system_id":"levelo_inurba_marseille","lat":43.27815,"lon":5.40718,"is_reserved":false,"is_disabled":true,"rental_uris":{"android":"levelo://app?vid=13cc4aae-49e8-44f7-bfab-719bb6820256","ios":"levelo://app?vid=13cc4aae-49e8-44f7-bfab-719bb6820256"},"vehicle_type_id":"4","last_reported":1741162398,"current_range_meters":7200,"station_id":"ce4bhnh2rcd13ifvqgtg","pricing_plan_id":"cebpf4jnsgd1na2vs0mg"},{"bike_id":"119408e4-7624-4320-bf5e-e4f029d82dc4","system_id":"levelo_inurba_marseille","lat":43.28723,"lon":5.39987,"is_reserved":false,"is_disabled":true,"rental_uris":{"android":"levelo://app?vid=119408e4-7624-4320-bf5e-e4f029d82dc4","ios":"levelo://app?vid=119408e4-7624-4320-bf5e-e4f029d82dc4"},"vehicle_type_id":"4","last_reported":1741162398,"current_range_meters":7200,"station_id":"ce4bho92rcd13ifvqh3g","pricing_plan_id":"cebpf4jnsgd1na2vs0mg"},{"bike_id":"00b6801f-5a8f-4166-b167-c45d693b875f","system_id":"levelo_inurba_marseille","lat":43.26957,"lon":5.38625,"is_reserved":false,"is_disabled":false,"rental_uris":{"android":"levelo://app?vid=00b6801f-5a8f-4166-b167-c45d693b875f","ios":"levelo://app?vid=00b6801f-5a8f-4166-b167-c45d693b875f"},"vehicle_type_id":"4","last_reported":1741162398,"current_range_meters":7200,"station_id":"ce4bhh92rcd13ifvqfh0","pricing_plan_id":"cebpf4jnsgd1na2vs0mg"},{"bike_id":"3a596ab9-9103-4f48-9700-a5a62e1fc109","system_id":"levelo_inurba_marseille","lat":43.33611,"lon":5.41032,"is_reserved":false,"is_disabled":false,"rental_uris":{"android":"levelo://app?vid=3a596ab9-9103-4f48-9700-a5a62e1fc109","ios":"levelo://app?vid=3a596ab9-9103-4f48-9700-a5a62e1fc109"},"vehicle_type_id":"4","last_reported":1741162398,"current_range_meters":7200,"station_id":"ce4bhqh2rcd13ifvqhmg","pricing_plan_id":"cebpf4jnsgd1na2vs0mg"},{"bike_id":"f1e711a2-20ce-418f-afd6-39db0d1e0ffb","system_id":"levelo_inurba_marseille","lat":43.28438,"lon":5.39204,"is_reserved":false,"is_disabled":false,"rental_uris":{"android":"levelo://app?vid=f1e711a2-20ce-418f-afd6-39db0d1e0ffb","ios":"levelo://app?vid=f1e711a2-20ce-418f-afd6-39db0d1e0ffb"},"vehicle_type_id":"4","last_reported":1741162398,"current_range_meters":7200,"station_id":"ce4bhoh2rcd13ifvqh5g","pricing_plan_id":"cebpf4jnsgd1na2vs0mg"},{"bike_id":"ee1d2ad1-36ca-49dd-a328-f2a9a9994ecb","system_id":"levelo_inurba_marseille","lat":43.31069,"lon":5.38148,"is_reserved":false,"is_disabled":false,"rental_uris":{"android":"levelo://app?vid=ee1d2ad1-36ca-49dd-a328-f2a9a9994ecb","ios":"levelo://app?vid=ee1d2ad1-36ca-49dd-a328-f2a9a9994ecb"},"vehicle_type_id":"4","last_reported":1741162398,"current_range_meters":8000,"station_id":"","pricing_plan_id":"cebpf4jnsgd1na2vs0mg"},{"bike_id":"f3f8a075-f2ce-49cf-993f-cd20f2d76af8","system_id":"levelo_inurba_marseille","lat":43.26056,"lon":5.39405,"is_reserved":false,"is_disabled":false,"rental_uris":{"android":"levelo://app?vid=f3f8a075-f2ce-49cf-993f-cd20f2d76af8","ios":"levelo://app?vid=f3f8a075-f2ce-49cf-993f-cd20f2d76af8"},"vehicle_type_id":"4","last_reported":1741162398,"current_range_meters":8000,"station_id":"ce4bhh92rcd13ifvqfj0","pricing_plan_id":"cebpf4jnsgd1na2vs0mg"},{"bike_id":"44bb5256-c100-45de-9f8e-817fbbf9c26b","system_id":"levelo_inurba_marseille","lat":43.31484,"lon":5.37308,"is_reserved":false,"is_disabled":false,"rental_uris":{"android":"levelo://app?vid=44bb5256-c100-45de-9f8e-817fbbf9c26b","ios":"levelo://app?vid=44bb5256-c100-45de-9f8e-817fbbf9c26b"},"vehicle_type_id":"4","last_reported":1741162398,"current_range_meters":8000,"station_id":"ce4bgt12rcd13ifvqcd0","pricing_plan_id":"cebpf4jnsgd1na2vs0mg"},{"bike_id":"b721d3d4-585c-48ef-ad9a-0699fc63e094","system_id":"levelo_inurba_marseille","lat":43.30952,"lon":5.39042,"is_reserved":false,"is_disabled":false,"rental_uris":{"android":"levelo://app?vid=b721d3d4-585c-48ef-ad9a-0699fc63e094","ios":"levelo://app?vid=b721d3d4-585c-48ef-ad9a-0699fc63e094"},"vehicle_type_id":"4","last_reported":1741162398,"current_range_meters":8000,"station_id":"ce4bgup2rcd13ifvqco0","pricing_plan_id":"cebpf4jnsgd1na2vs0mg"},{"bike_id":"477307a5-c12d-45eb-8418-fc3e5eea8437","system_id":"levelo_inurba_marseille","lat":43.301434,"lon":5.380807,"is_reserved":false,"is_disabled":false,"rental_uris":{"android":"levelo://app?vid=477307a5-c12d-45eb-8418-fc3e5eea8437","ios":"levelo://app?vid=477307a5-c12d-45eb-8418-fc3e5eea8437"},"vehicle_type_id":"4","last_reported":1741162398,"current_range_meters":8000,"station_id":"ce4bhi12rcd13ifvqfo0","pricing_plan_id":"cebpf4jnsgd1na2vs0mg"},{"bike_id":"f1fddba8-c699-4550-a5cb-237eb0b1ba5d","system_id":"levelo_inurba_marseille","lat":43.29285,"lon":5.37454,"is_reserved":false,"is_disabled":false,"rental_uris":{"android":"levelo://app?vid=f1fddba8-c699-4550-a5cb-237eb0b1ba5d","ios":"levelo://app?vid=f1fddba8-c699-4550-a5cb-237eb0b1ba5d"},"vehicle_type_id":"4","last_reported":1741162398,"current_range_meters":8000,"station_id":"ce4bgi12rcd13ifvqb70","pricing_plan_id":"cebpf4jnsgd1na2vs0mg"},{"bike_id":"4bc22bc8-57d9-4e3e-bbf9-5bb2e57875a0","system_id":"levelo_inurba_marseille","lat":43.27814,"lon":5.40718,"is_reserved":false,"is_disabled":false,"rental_uris":{"android":"levelo://app?vid=4bc22bc8-57d9-4e3e-bbf9-5bb2e57875a0","ios":"levelo://app?vid=4bc22bc8-57d9-4e3e-bbf9-5bb2e57875a0"},"vehicle_type_id":"4","last_reported":1741162398,"current_range_meters":8000,"station_id":"ce4bhnh2rcd13ifvqgtg","pricing_plan_id":"cebpf4jnsgd1na2vs0mg"},{"bike_id":"b8dacfd7-6aa1-4cb2-ac25-dfdf82e53218","system_id":"levelo_inurba_marseille","lat":43.32265,"lon":5.38961,"is_reserved":false,"is_disabled":false,"rental_uris":{"android":"levelo://app?vid=b8dacfd7-6aa1-4cb2-ac25-dfdf82e53218","ios":"levelo://app?vid=b8dacfd7-6aa1-4cb2-ac25-dfdf82e53218"},"vehicle_type_id":"4","last_reported":1741162398,"current_range_meters":8000,"station_id":"","pricing_plan_id":"cebpf4jnsgd1na2vs0mg"},{"bike_id":"9b540801-2fb4-4668-80c9-cb399c571c1a","system_id":"levelo_inurba_marseille","lat":43.26592,"lon":5.39031,"is_reserved":false,"is_disabled":false,"rental_uris":{"android":"levelo://app?vid=9b540801-2fb4-4668-80c9-cb399c571c1a","ios":"levelo://app?vid=9b540801-2fb4-4668-80c9-cb399c571c1a"},"vehicle_type_id":"4","last_reported":1741162398,"current_range_meters":8000,"station_id":"ce4bhe12rcd13ifvqf30","pricing_plan_id":"cebpf4jnsgd1na2vs0mg"},{"bike_id":"641a5b08-86ef-4d02-a208-992a6eb55a4d","system_id":"levelo_inurba_marseille","lat":43.25935,"lon":5.40912,"is_reserved":false,"is_disabled":false,"rental_uris":{"android":"levelo://app?vid=641a5b08-86ef-4d02-a208-992a6eb55a4d","ios":"levelo://app?vid=641a5b08-86ef-4d02-a208-992a6eb55a4d"},"vehicle_type_id":"4","last_reported":1741162398,"current_range_meters":7200,"station_id":"ce4bhm92rcd13ifvqglg","pricing_plan_id":"cebpf4jnsgd1na2vs0mg"},{"bike_id":"7e757512-bae9-4ad0-aec5-105ded7bdfd8","system_id":"levelo_inurba_marseille","lat":43.304622,"lon":5.379167,"is_reserved":false,"is_disabled":false,"rental_uris":{"android":"levelo://app?vid=7e757512-bae9-4ad0-aec5-105ded7bdfd8","ios":"levelo://app?vid=7e757512-bae9-4ad0-aec5-105ded7bdfd8"},"vehicle_type_id":"4","last_reported":1741162398,"current_range_meters":8000,"station_id":"ce4bgup2rcd13ifvqcn0","pricing_plan_id":"cebpf4jnsgd1na2vs0mg"},{"bike_id":"21b19842-9ad9-4db0-bc46-3d2827c0069e","system_id":"levelo_inurba_marseille","lat":43.2314,"lon":5.35672,"is_reserved":false,"is_disabled":false,"rental_uris":{"android":"levelo://app?vid=21b19842-9ad9-4db0-bc46-3d2827c0069e","ios":"levelo://app?vid=21b19842-9ad9-4db0-bc46-3d2827c0069e"},"vehicle_type_id":"4","last_reported":1741162398,"current_range_meters":8000,"station_id":"","pricing_plan_id":"cebpf4jnsgd1na2vs0mg"},{"bike_id":"acc909e7-3836-42b3-b51d-082940d4d9ec","system_id":"levelo_inurba_marseille","lat":43.26226,"lon":5.40432,"is_reserved":false,"is_disabled":false,"rental_uris":{"android":"levelo://app?vid=acc909e7-3836-42b3-b51d-082940d4d9ec","ios":"levelo://app?vid=acc909e7-3836-42b3-b51d-082940d4d9ec"},"vehicle_type_id":"4","last_reported":1741162398,"current_range_meters":8000,"station_id":"ce4bhmh2rcd13ifvqgmg","pricing_plan_id":"cebpf4jnsgd1na2vs0mg"},{"bike_id":"b58a6e2d-1523-4019-8984-984a85bdeca3","system_id":"levelo_inurba_marseille","lat":43.30146,"lon":5.37428,"is_reserved":false,"is_disabled":false,"rental_uris":{"android":"levelo://app?vid=b58a6e2d-1523-4019-8984-984a85bdeca3","ios":"levelo://app?vid=b58a6e2d-1523-4019-8984-984a85bdeca3"},"vehicle_type_id":"4","last_reported":1741162398,"current_range_meters":8400,"station_id":"ce4bgs92rcd13ifvqcc0","pricing_plan_id":"cebpf4jnsgd1na2vs0mg"},{"bike_id":"d0ca81a9-e00f-4db3-8736-356c22988b10","system_id":"levelo_inurba_marseille","lat":43.30802,"lon":5.43539,"is_reserved":false,"is_disabled":false,"rental_uris":{"android":"levelo://app?vid=d0ca81a9-e00f-4db3-8736-356c22988b10","ios":"levelo://app?vid=d0ca81a9-e00f-4db3-8736-356c22988b10"},"vehicle_type_id":"4","last_reported":1741162398,"current_range_meters":8400,"station_id":"ce4bhph2rcd13ifvqheg","pricing_plan_id":"cebpf4jnsgd1na2vs0mg"},{"bike_id":"42c50afb-4c05-4a6d-962c-72d5ba749e40","system_id":"levelo_inurba_marseille","lat":43.28928,"lon":5.39651,"is_reserved":false,"is_disabled":false,"rental_uris":{"android":"levelo://app?vid=42c50afb-4c05-4a6d-962c-72d5ba749e40","ios":"levelo://app?vid=42c50afb-4c05-4a6d-962c-72d5ba749e40"},"vehicle_type_id":"4","last_reported":1741162398,"current_range_meters":8400,"station_id":"ce4bh3h2rcd13ifvqdn0","pricing_plan_id":"cebpf4jnsgd1na2vs0mg"},{"bike_id":"cab745ed-6953-4518-b0b1-18455061c795","system_id":"levelo_inurba_marseille","lat":43.295717,"lon":5.399647,"is_reserved":false,"is_disabled":false,"rental_uris":{"android":"levelo://app?vid=cab745ed-6953-4518-b0b1-18455061c795","ios":"levelo://app?vid=cab745ed-6953-4518-b0b1-18455061c795"},"vehicle_type_id":"4","last_reported":1741162398,"current_range_meters":8400,"station_id":"ce4bh012rcd13ifvqd00","pricing_plan_id":"cebpf4jnsgd1na2vs0mg"},{"bike_id":"e6a4f953-5895-4fa8-ac31-a0a59838afae","system_id":"levelo_inurba_marseille","lat":43.25925,"lon":5.409,"is_reserved":false,"is_disabled":false,"rental_uris":{"android":"levelo://app?vid=e6a4f953-5895-4fa8-ac31-a0a59838afae","ios":"levelo://app?vid=e6a4f953-5895-4fa8-ac31-a0a59838afae"},"vehicle_type_id":"4","last_reported":1741162398,"current_range_meters":8400,"station_id":"ce4bhm92rcd13ifvqglg","pricing_plan_id":"cebpf4jnsgd1na2vs0mg"},{"bike_id":"18df62d8-8796-4792-a0ff-c530baddde1e","system_id":"levelo_inurba_marseille","lat":43.2407,"lon":5.37764,"is_reserved":false,"is_disabled":false,"rental_uris":{"android":"levelo://app?vid=18df62d8-8796-4792-a0ff-c530baddde1e","ios":"levelo://app?vid=18df62d8-8796-4792-a0ff-c530baddde1e"},"vehicle_type_id":"4","last_reported":1741162398,"current_range_meters":8400,"station_id":"ce4bhnp2rcd13ifvqgvg","pricing_plan_id":"cebpf4jnsgd1na2vs0mg"},{"bike_id":"41da4b56-604c-4398-a7b9-104be2ad83f3","system_id":"levelo_inurba_marseille","lat":43.23151,"lon":5.43716,"is_reserved":false,"is_disabled":false,"rental_uris":{"android":"levelo://app?vid=41da4b56-604c-4398-a7b9-104be2ad83f3","ios":"levelo://app?vid=41da4b56-604c-4398-a7b9-104be2ad83f3"},"vehicle_type_id":"4","last_reported":1741162398,"current_range_meters":8400,"station_id":"ce4bhmp2rcd13ifvqgog","pricing_plan_id":"cebpf4jnsgd1na2vs0mg"},{"bike_id":"f89caf14-7c2c-447f-b5e6-d86f458c364e","system_id":"levelo_inurba_marseille","lat":43.24047,"lon":5.37767,"is_reserved":false,"is_disabled":false,"rental_uris":{"android":"levelo://app?vid=f89caf14-7c2c-447f-b5e6-d86f458c364e","ios":"levelo://app?vid=f89caf14-7c2c-447f-b5e6-d86f458c364e"},"vehicle_type_id":"4","last_reported":1741162398,"current_range_meters":8400,"station_id":"ce4bhnp2rcd13ifvqgvg","pricing_plan_id":"cebpf4jnsgd1na2vs0mg"},{"bike_id":"bf284b86-4ac3-4366-b668-6c33ec16b817","system_id":"levelo_inurba_marseille","lat":43.31756,"lon":5.39014,"is_reserved":false,"is_disabled":false,"rental_uris":{"android":"levelo://app?vid=bf284b86-4ac3-4366-b668-6c33ec16b817","ios":"levelo://app?vid=bf284b86-4ac3-4366-b668-6c33ec16b817"},"vehicle_type_id":"4","last_reported":1741162398,"current_range_meters":8400,"station_id":"ce4bhqp2rcd13ifvqhng","pricing_plan_id":"cebpf4jnsgd1na2vs0mg"},{"bike_id":"b8c19084-4418-4ab3-ba7c-139e0f9ac3cc","system_id":"levelo_inurba_marseille","lat":43.27521,"lon":5.42425,"is_reserved":false,"is_disabled":false,"rental_uris":{"android":"levelo://app?vid=b8c19084-4418-4ab3-ba7c-139e0f9ac3cc","ios":"levelo://app?vid=b8c19084-4418-4ab3-ba7c-139e0f9ac3cc"},"vehicle_type_id":"4","last_reported":1741162398,"current_range_meters":8400,"station_id":"ce4bhn92rcd13ifvqgrg","pricing_plan_id":"cebpf4jnsgd1na2vs0mg"},{"bike_id":"da26748f-c9b8-406a-97da-4e2614f8590a","system_id":"levelo_inurba_marseille","lat":43.282551,"lon":5.350792,"is_reserved":false,"is_disabled":false,"rental_uris":{"android":"levelo://app?vid=da26748f-c9b8-406a-97da-4e2614f8590a","ios":"levelo://app?vid=da26748f-c9b8-406a-97da-4e2614f8590a"},"vehicle_type_id":"4","last_reported":1741162398,"current_range_meters":8400,"station_id":"ce4bhbp2rcd13ifvqerg","pricing_plan_id":"cebpf4jnsgd1na2vs0mg"},{"bike_id":"06ca74fd-0a6d-41e4-a2dc-0fabbd89f2f1","system_id":"levelo_inurba_marseille","lat":43.28989,"lon":5.37824,"is_reserved":false,"is_disabled":false,"rental_uris":{"android":"levelo://app?vid=06ca74fd-0a6d-41e4-a2dc-0fabbd89f2f1","ios":"levelo://app?vid=06ca74fd-0a6d-41e4-a2dc-0fabbd89f2f1"},"vehicle_type_id":"4","last_reported":1741162398,"current_range_meters":8400,"station_id":"ce4bh9p2rcd13ifvqed0","pricing_plan_id":"cebpf4jnsgd1na2vs0mg"},{"bike_id":"d0297490-db8c-4c8f-93d8-ca976c117f19","system_id":"levelo_inurba_marseille","lat":43.24071,"lon":5.37765,"is_reserved":false,"is_disabled":false,"rental_uris":{"android":"levelo://app?vid=d0297490-db8c-4c8f-93d8-ca976c117f19","ios":"levelo://app?vid=d0297490-db8c-4c8f-93d8-ca976c117f19"},"vehicle_type_id":"4","last_reported":1741162398,"current_range_meters":8400,"station_id":"ce4bhnp2rcd13ifvqgvg","pricing_plan_id":"cebpf4jnsgd1na2vs0mg"},{"bike_id":"a6e5d009-7b30-4770-933d-1d4d8abeb595","system_id":"levelo_inurba_marseille","lat":43.26685,"lon":5.38277,"is_reserved":false,"is_disabled":false,"rental_uris":{"android":"levelo://app?vid=a6e5d009-7b30-4770-933d-1d4d8abeb595","ios":"levelo://app?vid=a6e5d009-7b30-4770-933d-1d4d8abeb595"},"vehicle_type_id":"4","last_reported":1741162398,"current_range_meters":8400,"station_id":"ce4bhg92rcd13ifvqf90","pricing_plan_id":"cebpf4jnsgd1na2vs0mg"},{"bike_id":"e89e2431-4828-4dd3-b871-651d5ceb703c","system_id":"levelo_inurba_marseille","lat":43.34126,"lon":5.40953,"is_reserved":false,"is_disabled":false,"rental_uris":{"android":"levelo://app?vid=e89e2431-4828-4dd3-b871-651d5ceb703c","ios":"levelo://app?vid=e89e2431-4828-4dd3-b871-651d5ceb703c"},"vehicle_type_id":"4","last_reported":1741162398,"current_range_meters":8400,"station_id":"ce4bhqh2rcd13ifvqhlg","pricing_plan_id":"cebpf4jnsgd1na2vs0mg"},{"bike_id":"b0479589-1011-43d8-ba32-9007c5d086cd","system_id":"levelo_inurba_marseille","lat":43.27499,"lon":5.42472,"is_reserved":false,"is_disabled":false,"rental_uris":{"android":"levelo://app?vid=b0479589-1011-43d8-ba32-9007c5d086cd","ios":"levelo://app?vid=b0479589-1011-43d8-ba32-9007c5d086cd"},"vehicle_type_id":"4","last_reported":1741162398,"current_range_meters":8400,"station_id":"ce4bhn92rcd13ifvqgrg","pricing_plan_id":"cebpf4jnsgd1na2vs0mg"},{"bike_id":"44a7153b-0fd7-4509-836b-676bbf84fb06","system_id":"levelo_inurba_marseille","lat":43.23189,"lon":5.35552,"is_reserved":false,"is_disabled":false,"rental_uris":{"android":"levelo://app?vid=44a7153b-0fd7-4509-836b-676bbf84fb06","ios":"levelo://app?vid=44a7153b-0fd7-4509-836b-676bbf84fb06"},"vehicle_type_id":"4","last_reported":1741162398,"current_range_meters":8400,"station_id":"ce4bhu92rcd13ifvqi70","pricing_plan_id":"cebpf4jnsgd1na2vs0mg"},{"bike_id":"0112cf09-ab87-4433-9d60-77fc15ab9126","system_id":"levelo_inurba_marseille","lat":43.27054,"lon":5.40266,"is_reserved":false,"is_disabled":true,"rental_uris":{"android":"levelo://app?vid=0112cf09-ab87-4433-9d60-77fc15ab9126","ios":"levelo://app?vid=0112cf09-ab87-4433-9d60-77fc15ab9126"},"vehicle_type_id":"4","last_reported":1741162398,"current_range_meters":8800,"station_id":"ce4bhk92rcd13ifvqgc0","pricing_plan_id":"cebpf4jnsgd1na2vs0mg"},{"bike_id":"7931055e-ce3e-4de0-8243-8e204e703db9","system_id":"levelo_inurba_marseille","lat":43.27802,"lon":5.38333,"is_reserved":false,"is_disabled":false,"rental_uris":{"android":"levelo://app?vid=7931055e-ce3e-4de0-8243-8e204e703db9","ios":"levelo://app?vid=7931055e-ce3e-4de0-8243-8e204e703db9"},"vehicle_type_id":"4","last_reported":1741162398,"current_range_meters":8800,"station_id":"ce4bhh92rcd13ifvqfi0","pricing_plan_id":"cebpf4jnsgd1na2vs0mg"},{"bike_id":"0596970d-6eb4-4331-8d1d-96c25a649f4a","system_id":"levelo_inurba_marseille","lat":43.286676,"lon":5.363416,"is_reserved":false,"is_disabled":true,"rental_uris":{"android":"levelo://app?vid=0596970d-6eb4-4331-8d1d-96c25a649f4a","ios":"levelo://app?vid=0596970d-6eb4-4331-8d1d-96c25a649f4a"},"vehicle_type_id":"4","last_reported":1741162398,"current_range_meters":8800,"station_id":"ce4bhah2rcd13ifvqej0","pricing_plan_id":"cebpf4jnsgd1na2vs0mg"},{"bike_id":"d5846449-7219-4265-90f9-a2ede6b6465f","system_id":"levelo_inurba_marseille","lat":43.2418,"lon":5.39722,"is_reserved":false,"is_disabled":false,"rental_uris":{"android":"levelo://app?vid=d5846449-7219-4265-90f9-a2ede6b6465f","ios":"levelo://app?vid=d5846449-7219-4265-90f9-a2ede6b6465f"},"vehicle_type_id":"4","last_reported":1741162398,"current_range_meters":8800,"station_id":"ce4bhn12rcd13ifvqgpg","pricing_plan_id":"cebpf4jnsgd1na2vs0mg"},{"bike_id":"913bb55b-2edb-4434-9d82-fe796f8d08f1","system_id":"levelo_inurba_marseille","lat":43.28621,"lon":5.35098,"is_reserved":false,"is_disabled":false,"rental_uris":{"android":"levelo://app?vid=913bb55b-2edb-4434-9d82-fe796f8d08f1","ios":"levelo://app?vid=913bb55b-2edb-4434-9d82-fe796f8d08f1"},"vehicle_type_id":"4","last_reported":1741162398,"current_range_meters":8800,"station_id":"ce4bhch2rcd13ifvqeug","pricing_plan_id":"cebpf4jnsgd1na2vs0mg"},{"bike_id":"255619fa-dd78-4fdb-8982-2ee0fd77d4b7","system_id":"levelo_inurba_marseille","lat":43.28252,"lon":5.35051,"is_reserved":false,"is_disabled":false,"rental_uris":{"android":"levelo://app?vid=255619fa-dd78-4fdb-8982-2ee0fd77d4b7","ios":"levelo://app?vid=255619fa-dd78-4fdb-8982-2ee0fd77d4b7"},"vehicle_type_id":"4","last_reported":1741162398,"current_range_meters":8800,"station_id":"ce4bhbp2rcd13ifvqerg","pricing_plan_id":"cebpf4jnsgd1na2vs0mg"},{"bike_id":"332abda5-2296-4955-8d29-1593f717e1c9","system_id":"levelo_inurba_marseille","lat":43.279634,"lon":5.415758,"is_reserved":false,"is_disabled":false,"rental_uris":{"android":"levelo://app?vid=332abda5-2296-4955-8d29-1593f717e1c9","ios":"levelo://app?vid=332abda5-2296-4955-8d29-1593f717e1c9"},"vehicle_type_id":"4","last_reported":1741162398,"current_range_meters":9200,"station_id":"","pricing_plan_id":"cebpf4jnsgd1na2vs0mg"},{"bike_id":"a26f8e38-8766-479b-a87d-011b8d056927","system_id":"levelo_inurba_marseille","lat":43.262094,"lon":5.387684,"is_reserved":false,"is_disabled":false,"rental_uris":{"android":"levelo://app?vid=a26f8e38-8766-479b-a87d-011b8d056927","ios":"levelo://app?vid=a26f8e38-8766-479b-a87d-011b8d056927"},"vehicle_type_id":"4","last_reported":1741162398,"current_range_meters":9200,"station_id":"ce4bhih2rcd13ifvqfs0","pricing_plan_id":"cebpf4jnsgd1na2vs0mg"},{"bike_id":"88a49e92-76f3-4e81-8502-3812c06f00bb","system_id":"levelo_inurba_marseille","lat":43.29053,"lon":5.39934,"is_reserved":false,"is_disabled":false,"rental_uris":{"android":"levelo://app?vid=88a49e92-76f3-4e81-8502-3812c06f00bb","ios":"levelo://app?vid=88a49e92-76f3-4e81-8502-3812c06f00bb"},"vehicle_type_id":"4","last_reported":1741162398,"current_range_meters":9200,"station_id":"ce4bh392rcd13ifvqdm0","pricing_plan_id":"cebpf4jnsgd1na2vs0mg"},{"bike_id":"1c02c01c-e597-42e5-af4c-0cf39c16b236","system_id":"levelo_inurba_marseille","lat":43.25108,"lon":5.40324,"is_reserved":false,"is_disabled":false,"rental_uris":{"android":"levelo://app?vid=1c02c01c-e597-42e5-af4c-0cf39c16b236","ios":"levelo://app?vid=1c02c01c-e597-42e5-af4c-0cf39c16b236"},"vehicle_type_id":"4","last_reported":1741162398,"current_range_meters":9200,"station_id":"ce4bhlh2rcd13ifvqgig","pricing_plan_id":"cebpf4jnsgd1na2vs0mg"},{"bike_id":"ce3066fc-fe77-4f42-8db5-a9b2b2180ce2","system_id":"levelo_inurba_marseille","lat":43.29053,"lon":5.39947,"is_reserved":false,"is_disabled":false,"rental_uris":{"android":"levelo://app?vid=ce3066fc-fe77-4f42-8db5-a9b2b2180ce2","ios":"levelo://app?vid=ce3066fc-fe77-4f42-8db5-a9b2b2180ce2"},"vehicle_type_id":"4","last_reported":1741162398,"current_range_meters":9200,"station_id":"ce4bh392rcd13ifvqdm0","pricing_plan_id":"cebpf4jnsgd1na2vs0mg"},{"bike_id":"38a92449-9007-4fba-852b-85b3baf64375","system_id":"levelo_inurba_marseille","lat":43.30806,"lon":5.43531,"is_reserved":false,"is_disabled":false,"rental_uris":{"android":"levelo://app?vid=38a92449-9007-4fba-852b-85b3baf64375","ios":"levelo://app?vid=38a92449-9007-4fba-852b-85b3baf64375"},"vehicle_type_id":"4","last_reported":1741162398,"current_range_meters":9200,"station_id":"ce4bhph2rcd13ifvqheg","pricing_plan_id":"cebpf4jnsgd1na2vs0mg"},{"bike_id":"de44d09a-d4db-4ce3-a2dd-62f4dc2e96ab","system_id":"levelo_inurba_marseille","lat":43.27499,"lon":5.42441,"is_reserved":false,"is_disabled":false,"rental_uris":{"android":"levelo://app?vid=de44d09a-d4db-4ce3-a2dd-62f4dc2e96ab","ios":"levelo://app?vid=de44d09a-d4db-4ce3-a2dd-62f4dc2e96ab"},"vehicle_type_id":"4","last_reported":1741162398,"current_range_meters":9200,"station_id":"ce4bhn92rcd13ifvqgrg","pricing_plan_id":"cebpf4jnsgd1na2vs0mg"},{"bike_id":"c743212a-653d-4524-b33a-31000cc2ce7a","system_id":"levelo_inurba_marseille","lat":43.30954,"lon":5.3904,"is_reserved":false,"is_disabled":false,"rental_uris":{"android":"levelo://app?vid=c743212a-653d-4524-b33a-31000cc2ce7a","ios":"levelo://app?vid=c743212a-653d-4524-b33a-31000cc2ce7a"},"vehicle_type_id":"4","last_reported":1741162398,"current_range_meters":9200,"station_id":"ce4bgup2rcd13ifvqco0","pricing_plan_id":"cebpf4jnsgd1na2vs0mg"},{"bike_id":"53f986b5-b4ac-4e4d-bde6-b88e844ffa37","system_id":"levelo_inurba_marseille","lat":43.24071,"lon":5.37772,"is_reserved":false,"is_disabled":false,"rental_uris":{"android":"levelo://app?vid=53f986b5-b4ac-4e4d-bde6-b88e844ffa37","ios":"levelo://app?vid=53f986b5-b4ac-4e4d-bde6-b88e844ffa37"},"vehicle_type_id":"4","last_reported":1741162398,"current_range_meters":9200,"station_id":"ce4bhnp2rcd13ifvqgvg","pricing_plan_id":"cebpf4jnsgd1na2vs0mg"},{"bike_id":"c69e1cc5-0899-4738-ab9b-d12f1eee9335","system_id":"levelo_inurba_marseille","lat":43.26562,"lon":5.39043,"is_reserved":false,"is_disabled":false,"rental_uris":{"android":"levelo://app?vid=c69e1cc5-0899-4738-ab9b-d12f1eee9335","ios":"levelo://app?vid=c69e1cc5-0899-4738-ab9b-d12f1eee9335"},"vehicle_type_id":"4","last_reported":1741162398,"current_range_meters":9200,"station_id":"ce4bhe12rcd13ifvqf30","pricing_plan_id":"cebpf4jnsgd1na2vs0mg"},{"bike_id":"ec1930f4-7944-4e1a-8967-bad6e440e5c9","system_id":"levelo_inurba_marseille","lat":43.246703,"lon":5.381523,"is_reserved":false,"is_disabled":false,"rental_uris":{"android":"levelo://app?vid=ec1930f4-7944-4e1a-8967-bad6e440e5c9","ios":"levelo://app?vid=ec1930f4-7944-4e1a-8967-bad6e440e5c9"},"vehicle_type_id":"4","last_reported":1741162398,"current_range_meters":9200,"station_id":"ce4bhih2rcd13ifvqfr0","pricing_plan_id":"cebpf4jnsgd1na2vs0mg"},{"bike_id":"ad84434d-20fb-4dcc-8def-077a9f6fa45b","system_id":"levelo_inurba_marseille","lat":43.284076,"lon":5.374998,"is_reserved":false,"is_disabled":true,"rental_uris":{"android":"levelo://app?vid=ad84434d-20fb-4dcc-8def-077a9f6fa45b","ios":"levelo://app?vid=ad84434d-20fb-4dcc-8def-077a9f6fa45b"},"vehicle_type_id":"4","last_reported":1741162398,"current_range_meters":9600,"station_id":"ce4bh412rcd13ifvqds0","pricing_plan_id":"cebpf4jnsgd1na2vs0mg"},{"bike_id":"d1077dd9-5721-4996-a26f-7d0d2022f564","system_id":"levelo_inurba_marseille","lat":43.30529,"lon":5.38423,"is_reserved":false,"is_disabled":false,"rental_uris":{"android":"levelo://app?vid=d1077dd9-5721-4996-a26f-7d0d2022f564","ios":"levelo://app?vid=d1077dd9-5721-4996-a26f-7d0d2022f564"},"vehicle_type_id":"4","last_reported":1741162398,"current_range_meters":9200,"station_id":"ce4bgg92rcd13ifvqb30","pricing_plan_id":"cebpf4jnsgd1na2vs0mg"},{"bike_id":"c4545528-4b14-4956-8f84-da0302ced2af","system_id":"levelo_inurba_marseille","lat":43.25935,"lon":5.4091,"is_reserved":false,"is_disabled":false,"rental_uris":{"android":"levelo://app?vid=c4545528-4b14-4956-8f84-da0302ced2af","ios":"levelo://app?vid=c4545528-4b14-4956-8f84-da0302ced2af"},"vehicle_type_id":"4","last_reported":1741162398,"current_range_meters":9600,"station_id":"ce4bhm92rcd13ifvqglg","pricing_plan_id":"cebpf4jnsgd1na2vs0mg"},{"bike_id":"8e2d32d4-d868-46d5-86a0-1ff3fdd4ed25","system_id":"levelo_inurba_marseille","lat":43.28732,"lon":5.385145,"is_reserved":false,"is_disabled":false,"rental_uris":{"android":"levelo://app?vid=8e2d32d4-d868-46d5-86a0-1ff3fdd4ed25","ios":"levelo://app?vid=8e2d32d4-d868-46d5-86a0-1ff3fdd4ed25"},"vehicle_type_id":"4","last_reported":1741162398,"current_range_meters":9600,"station_id":"ce4bgjh2rcd13ifvqbg0","pricing_plan_id":"cebpf4jnsgd1na2vs0mg"},{"bike_id":"57dad606-5303-40e6-a508-2cac5b13a4b0","system_id":"levelo_inurba_marseille","lat":43.29027,"lon":5.39973,"is_reserved":false,"is_disabled":false,"rental_uris":{"android":"levelo://app?vid=57dad606-5303-40e6-a508-2cac5b13a4b0","ios":"levelo://app?vid=57dad606-5303-40e6-a508-2cac5b13a4b0"},"vehicle_type_id":"4","last_reported":1741162398,"current_range_meters":9600,"station_id":"ce4bh392rcd13ifvqdm0","pricing_plan_id":"cebpf4jnsgd1na2vs0mg"},{"bike_id":"51f6f578-8898-487a-9da7-ff3d6d379d1b","system_id":"levelo_inurba_marseille","lat":43.32102,"lon":5.3677,"is_reserved":false,"is_disabled":false,"rental_uris":{"android":"levelo://app?vid=51f6f578-8898-487a-9da7-ff3d6d379d1b","ios":"levelo://app?vid=51f6f578-8898-487a-9da7-ff3d6d379d1b"},"vehicle_type_id":"4","last_reported":1741162398,"current_range_meters":9600,"station_id":"ce4bhrh2rcd13ifvqhug","pricing_plan_id":"cebpf4jnsgd1na2vs0mg"},{"bike_id":"a07d6e57-6aef-4f35-8256-63a230f68089","system_id":"levelo_inurba_marseille","lat":43.27208,"lon":5.39203,"is_reserved":false,"is_disabled":false,"rental_uris":{"android":"levelo://app?vid=a07d6e57-6aef-4f35-8256-63a230f68089","ios":"levelo://app?vid=a07d6e57-6aef-4f35-8256-63a230f68089"},"vehicle_type_id":"4","last_reported":1741162398,"current_range_meters":9600,"station_id":"ce4bhhp2rcd13ifvqfm0","pricing_plan_id":"cebpf4jnsgd1na2vs0mg"},{"bike_id":"4c0e314a-87e2-48f0-a7b0-ec6605046de8","system_id":"levelo_inurba_marseille","lat":43.321,"lon":5.36777,"is_reserved":false,"is_disabled":false,"rental_uris":{"android":"levelo://app?vid=4c0e314a-87e2-48f0-a7b0-ec6605046de8","ios":"levelo://app?vid=4c0e314a-87e2-48f0-a7b0-ec6605046de8"},"vehicle_type_id":"4","last_reported":1741162398,"current_range_meters":9600,"station_id":"ce4bhrh2rcd13ifvqhug","pricing_plan_id":"cebpf4jnsgd1na2vs0mg"},{"bike_id":"0eb9fef3-83c8-47c8-ad9e-cfe2998c47d1","system_id":"levelo_inurba_marseille","lat":43.31097,"lon":5.37508,"is_reserved":false,"is_disabled":false,"rental_uris":{"android":"levelo://app?vid=0eb9fef3-83c8-47c8-ad9e-cfe2998c47d1","ios":"levelo://app?vid=0eb9fef3-83c8-47c8-ad9e-cfe2998c47d1"},"vehicle_type_id":"4","last_reported":1741162398,"current_range_meters":10000,"station_id":"","pricing_plan_id":"cebpf4jnsgd1na2vs0mg"},{"bike_id":"9250a28a-9289-4df0-ba18-f9b6050fcdec","system_id":"levelo_inurba_marseille","lat":43.29922,"lon":5.39251,"is_reserved":false,"is_disabled":false,"rental_uris":{"android":"levelo://app?vid=9250a28a-9289-4df0-ba18-f9b6050fcdec","ios":"levelo://app?vid=9250a28a-9289-4df0-ba18-f9b6050fcdec"},"vehicle_type_id":"4","last_reported":1741162398,"current_range_meters":10000,"station_id":"","pricing_plan_id":"cebpf4jnsgd1na2vs0mg"},{"bike_id":"895f4c40-8d49-47ad-ac3d-54bc4b80d81c","system_id":"levelo_inurba_marseille","lat":43.2439,"lon":5.37065,"is_reserved":false,"is_disabled":false,"rental_uris":{"android":"levelo://app?vid=895f4c40-8d49-47ad-ac3d-54bc4b80d81c","ios":"levelo://app?vid=895f4c40-8d49-47ad-ac3d-54bc4b80d81c"},"vehicle_type_id":"4","last_reported":1741162398,"current_range_meters":10000,"station_id":"ce4bhhh2rcd13ifvqfk0","pricing_plan_id":"cebpf4jnsgd1na2vs0mg"},{"bike_id":"9b1dfee1-5ea2-4d25-80a7-158011f69abc","system_id":"levelo_inurba_marseille","lat":43.27498,"lon":5.42448,"is_reserved":false,"is_disabled":false,"rental_uris":{"android":"levelo://app?vid=9b1dfee1-5ea2-4d25-80a7-158011f69abc","ios":"levelo://app?vid=9b1dfee1-5ea2-4d25-80a7-158011f69abc"},"vehicle_type_id":"4","last_reported":1741162398,"current_range_meters":10000,"station_id":"ce4bhn92rcd13ifvqgrg","pricing_plan_id":"cebpf4jnsgd1na2vs0mg"},{"bike_id":"9daac21b-c453-4fe8-b994-9fff0791a7eb","system_id":"levelo_inurba_marseille","lat":43.27677,"lon":5.38901,"is_reserved":false,"is_disabled":false,"rental_uris":{"android":"levelo://app?vid=9daac21b-c453-4fe8-b994-9fff0791a7eb","ios":"levelo://app?vid=9daac21b-c453-4fe8-b994-9fff0791a7eb"},"vehicle_type_id":"4","last_reported":1741162398,"current_range_meters":9600,"station_id":"ce4bhi12rcd13ifvqfo0","pricing_plan_id":"cebpf4jnsgd1na2vs0mg"},{"bike_id":"6ea8ab5c-65c2-4db6-8cb6-dfdbe5b30189","system_id":"levelo_inurba_marseille","lat":43.3236,"lon":5.38902,"is_reserved":false,"is_disabled":false,"rental_uris":{"android":"levelo://app?vid=6ea8ab5c-65c2-4db6-8cb6-dfdbe5b30189","ios":"levelo://app?vid=6ea8ab5c-65c2-4db6-8cb6-dfdbe5b30189"},"vehicle_type_id":"4","last_reported":1741162398,"current_range_meters":10000,"station_id":"ce4bhqp2rcd13ifvqhog","pricing_plan_id":"cebpf4jnsgd1na2vs0mg"},{"bike_id":"e24b58cd-1c8e-4e08-8a60-cc65b8817bf3","system_id":"levelo_inurba_marseille","lat":43.30919,"lon":5.36859,"is_reserved":false,"is_disabled":false,"rental_uris":{"android":"levelo://app?vid=e24b58cd-1c8e-4e08-8a60-cc65b8817bf3","ios":"levelo://app?vid=e24b58cd-1c8e-4e08-8a60-cc65b8817bf3"},"vehicle_type_id":"4","last_reported":1741162398,"current_range_meters":10000,"station_id":"ce4bgn92rcd13ifvqbvg","pricing_plan_id":"cebpf4jnsgd1na2vs0mg"},{"bike_id":"da012e55-56aa-4836-97eb-401c7578f569","system_id":"levelo_inurba_marseille","lat":43.25922,"lon":5.40909,"is_reserved":false,"is_disabled":false,"rental_uris":{"android":"levelo://app?vid=da012e55-56aa-4836-97eb-401c7578f569","ios":"levelo://app?vid=da012e55-56aa-4836-97eb-401c7578f569"},"vehicle_type_id":"4","last_reported":1741162398,"current_range_meters":10000,"station_id":"ce4bhm92rcd13ifvqglg","pricing_plan_id":"cebpf4jnsgd1na2vs0mg"},{"bike_id":"dd55ff76-e79c-4eb2-8662-4aacd8d90bf8","system_id":"levelo_inurba_marseille","lat":43.30153,"lon":5.38103,"is_reserved":false,"is_disabled":false,"rental_uris":{"android":"levelo://app?vid=dd55ff76-e79c-4eb2-8662-4aacd8d90bf8","ios":"levelo://app?vid=dd55ff76-e79c-4eb2-8662-4aacd8d90bf8"},"vehicle_type_id":"4","last_reported":1741162398,"current_range_meters":10800,"station_id":"ce4bgjp2rcd13ifvqbh0","pricing_plan_id":"cebpf4jnsgd1na2vs0mg"},{"bike_id":"6004d903-2b94-4e53-bf5c-e5153247bddb","system_id":"levelo_inurba_marseille","lat":43.3046,"lon":5.37898,"is_reserved":false,"is_disabled":false,"rental_uris":{"android":"levelo://app?vid=6004d903-2b94-4e53-bf5c-e5153247bddb","ios":"levelo://app?vid=6004d903-2b94-4e53-bf5c-e5153247bddb"},"vehicle_type_id":"4","last_reported":1741162398,"current_range_meters":10800,"station_id":"ce4bgup2rcd13ifvqcn0","pricing_plan_id":"cebpf4jnsgd1na2vs0mg"},{"bike_id":"9f29270e-e3e0-4f6c-9810-ffbd26af91a3","system_id":"levelo_inurba_marseille","lat":43.33601,"lon":5.4104,"is_reserved":false,"is_disabled":false,"rental_uris":{"android":"levelo://app?vid=9f29270e-e3e0-4f6c-9810-ffbd26af91a3","ios":"levelo://app?vid=9f29270e-e3e0-4f6c-9810-ffbd26af91a3"},"vehicle_type_id":"4","last_reported":1741162398,"current_range_meters":10800,"station_id":"ce4bhqh2rcd13ifvqhmg","pricing_plan_id":"cebpf4jnsgd1na2vs0mg"},{"bike_id":"9664280c-ec19-44a4-9913-206ac50d66b9","system_id":"levelo_inurba_marseille","lat":43.26159,"lon":5.40405,"is_reserved":false,"is_disabled":false,"rental_uris":{"android":"levelo://app?vid=9664280c-ec19-44a4-9913-206ac50d66b9","ios":"levelo://app?vid=9664280c-ec19-44a4-9913-206ac50d66b9"},"vehicle_type_id":"4","last_reported":1741162398,"current_range_meters":10800,"station_id":"ce4bhmh2rcd13ifvqgmg","pricing_plan_id":"cebpf4jnsgd1na2vs0mg"},{"bike_id":"aa9e7c2f-d639-4c5d-8c7a-f2f3ed75ee86","system_id":"levelo_inurba_marseille","lat":43.30307,"lon":5.39218,"is_reserved":false,"is_disabled":false,"rental_uris":{"android":"levelo://app?vid=aa9e7c2f-d639-4c5d-8c7a-f2f3ed75ee86","ios":"levelo://app?vid=aa9e7c2f-d639-4c5d-8c7a-f2f3ed75ee86"},"vehicle_type_id":"4","last_reported":1741162398,"current_range_meters":10800,"station_id":"ce4bgkh2rcd13ifvqbk0","pricing_plan_id":"cebpf4jnsgd1na2vs0mg"},{"bike_id":"391744a2-abab-4ab2-a32e-38c6ddee882a","system_id":"levelo_inurba_marseille","lat":43.29976,"lon":5.38481,"is_reserved":false,"is_disabled":true,"rental_uris":{"android":"levelo://app?vid=391744a2-abab-4ab2-a32e-38c6ddee882a","ios":"levelo://app?vid=391744a2-abab-4ab2-a32e-38c6ddee882a"},"vehicle_type_id":"4","last_reported":1741162398,"current_range_meters":10800,"station_id":"ce4bgj92rcd13ifvqbd0","pricing_plan_id":"cebpf4jnsgd1na2vs0mg"},{"bike_id":"c19d2d03-17b5-4949-b7dc-22a7fd555156","system_id":"levelo_inurba_marseille","lat":43.30047,"lon":5.39965,"is_reserved":false,"is_disabled":false,"rental_uris":{"android":"levelo://app?vid=c19d2d03-17b5-4949-b7dc-22a7fd555156","ios":"levelo://app?vid=c19d2d03-17b5-4949-b7dc-22a7fd555156"},"vehicle_type_id":"4","last_reported":1741162398,"current_range_meters":10800,"station_id":"","pricing_plan_id":"cebpf4jnsgd1na2vs0mg"},{"bike_id":"7cd5e07c-ad2a-4af8-99d9-77c41335ce79","system_id":"levelo_inurba_marseille","lat":43.2416,"lon":5.364,"is_reserved":false,"is_disabled":false,"rental_uris":{"android":"levelo://app?vid=7cd5e07c-ad2a-4af8-99d9-77c41335ce79","ios":"levelo://app?vid=7cd5e07c-ad2a-4af8-99d9-77c41335ce79"},"vehicle_type_id":"4","last_reported":1741162398,"current_range_meters":10800,"station_id":"cpo36qri1sfpv3e86is0","pricing_plan_id":"cebpf4jnsgd1na2vs0mg"},{"bike_id":"e3d7bc68-e1c3-463f-8323-6b168c27cfde","system_id":"levelo_inurba_marseille","lat":43.23154,"lon":5.43721,"is_reserved":false,"is_disabled":false,"rental_uris":{"android":"levelo://app?vid=e3d7bc68-e1c3-463f-8323-6b168c27cfde","ios":"levelo://app?vid=e3d7bc68-e1c3-463f-8323-6b168c27cfde"},"vehicle_type_id":"4","last_reported":1741162398,"current_range_meters":10800,"station_id":"ce4bhmp2rcd13ifvqgog","pricing_plan_id":"cebpf4jnsgd1na2vs0mg"},{"bike_id":"d571166c-77a4-4a91-b051-9cc34ad31336","system_id":"levelo_inurba_marseille","lat":43.302013,"lon":5.393308,"is_reserved":false,"is_disabled":false,"rental_uris":{"android":"levelo://app?vid=d571166c-77a4-4a91-b051-9cc34ad31336","ios":"levelo://app?vid=d571166c-77a4-4a91-b051-9cc34ad31336"},"vehicle_type_id":"4","last_reported":1741162398,"current_range_meters":10800,"station_id":"","pricing_plan_id":"cebpf4jnsgd1na2vs0mg"},{"bike_id":"fb6dafce-8f44-4dc1-b03f-f793bb833581","system_id":"levelo_inurba_marseille","lat":43.24072,"lon":5.37761,"is_reserved":false,"is_disabled":false,"rental_uris":{"android":"levelo://app?vid=fb6dafce-8f44-4dc1-b03f-f793bb833581","ios":"levelo://app?vid=fb6dafce-8f44-4dc1-b03f-f793bb833581"},"vehicle_type_id":"4","last_reported":1741162398,"current_range_meters":10800,"station_id":"ce4bhnp2rcd13ifvqgvg","pricing_plan_id":"cebpf4jnsgd1na2vs0mg"},{"bike_id":"a47a13a9-c176-4f2b-bca1-9dd7e5a64881","system_id":"levelo_inurba_marseille","lat":43.30922,"lon":5.40165,"is_reserved":false,"is_disabled":true,"rental_uris":{"android":"levelo://app?vid=a47a13a9-c176-4f2b-bca1-9dd7e5a64881","ios":"levelo://app?vid=a47a13a9-c176-4f2b-bca1-9dd7e5a64881"},"vehicle_type_id":"4","last_reported":1741162398,"current_range_meters":10800,"station_id":"ce4bgvp2rcd13ifvqct0","pricing_plan_id":"cebpf4jnsgd1na2vs0mg"},{"bike_id":"3b219114-afa7-412a-84e6-60bc704150c0","system_id":"levelo_inurba_marseille","lat":43.23155,"lon":5.43704,"is_reserved":false,"is_disabled":false,"rental_uris":{"android":"levelo://app?vid=3b219114-afa7-412a-84e6-60bc704150c0","ios":"levelo://app?vid=3b219114-afa7-412a-84e6-60bc704150c0"},"vehicle_type_id":"4","last_reported":1741162398,"current_range_meters":10800,"station_id":"ce4bhmp2rcd13ifvqgog","pricing_plan_id":"cebpf4jnsgd1na2vs0mg"},{"bike_id":"65454335-2b8f-41a7-9a83-ad755de99323","system_id":"levelo_inurba_marseille","lat":43.24807,"lon":5.3746,"is_reserved":false,"is_disabled":false,"rental_uris":{"android":"levelo://app?vid=65454335-2b8f-41a7-9a83-ad755de99323","ios":"levelo://app?vid=65454335-2b8f-41a7-9a83-ad755de99323"},"vehicle_type_id":"4","last_reported":1741162398,"current_range_meters":10800,"station_id":"ce4bhgh2rcd13ifvqfb0","pricing_plan_id":"cebpf4jnsgd1na2vs0mg"},{"bike_id":"888881c8-b267-49a5-9b99-6f5a2936c0d6","system_id":"levelo_inurba_marseille","lat":43.30309,"lon":5.36909,"is_reserved":false,"is_disabled":false,"rental_uris":{"android":"levelo://app?vid=888881c8-b267-49a5-9b99-6f5a2936c0d6","ios":"levelo://app?vid=888881c8-b267-49a5-9b99-6f5a2936c0d6"},"vehicle_type_id":"4","last_reported":1741162398,"current_range_meters":10800,"station_id":"ce4bgqh2rcd13ifvqc5g","pricing_plan_id":"cebpf4jnsgd1na2vs0mg"},{"bike_id":"c55557ad-1ed5-4997-aee7-ac92107f14b6","system_id":"levelo_inurba_marseille","lat":43.26471,"lon":5.37504,"is_reserved":false,"is_disabled":false,"rental_uris":{"android":"levelo://app?vid=c55557ad-1ed5-4997-aee7-ac92107f14b6","ios":"levelo://app?vid=c55557ad-1ed5-4997-aee7-ac92107f14b6"},"vehicle_type_id":"4","last_reported":1741162398,"current_range_meters":11200,"station_id":"","pricing_plan_id":"cebpf4jnsgd1na2vs0mg"},{"bike_id":"777fcecb-ee29-450c-9cff-1b8a0dec7271","system_id":"levelo_inurba_marseille","lat":43.3079,"lon":5.37653,"is_reserved":false,"is_disabled":true,"rental_uris":{"android":"levelo://app?vid=777fcecb-ee29-450c-9cff-1b8a0dec7271","ios":"levelo://app?vid=777fcecb-ee29-450c-9cff-1b8a0dec7271"},"vehicle_type_id":"4","last_reported":1741162398,"current_range_meters":10800,"station_id":"ce4bgv92rcd13ifvqcq0","pricing_plan_id":"cebpf4jnsgd1na2vs0mg"},{"bike_id":"a05c55ab-c182-4d85-a689-e8bd7dc01b73","system_id":"levelo_inurba_marseille","lat":43.25577,"lon":5.38226,"is_reserved":false,"is_disabled":false,"rental_uris":{"android":"levelo://app?vid=a05c55ab-c182-4d85-a689-e8bd7dc01b73","ios":"levelo://app?vid=a05c55ab-c182-4d85-a689-e8bd7dc01b73"},"vehicle_type_id":"4","last_reported":1741162398,"current_range_meters":11200,"station_id":"ce4bhih2rcd13ifvqfs0","pricing_plan_id":"cebpf4jnsgd1na2vs0mg"},{"bike_id":"01c8a0f5-8afc-4a6c-9460-96784dbbce10","system_id":"levelo_inurba_marseille","lat":43.27193,"lon":5.40994,"is_reserved":false,"is_disabled":false,"rental_uris":{"android":"levelo://app?vid=01c8a0f5-8afc-4a6c-9460-96784dbbce10","ios":"levelo://app?vid=01c8a0f5-8afc-4a6c-9460-96784dbbce10"},"vehicle_type_id":"4","last_reported":1741162398,"current_range_meters":10800,"station_id":"ce4bhl12rcd13ifvqgf0","pricing_plan_id":"cebpf4jnsgd1na2vs0mg"},{"bike_id":"17c04b47-b4f3-4a2a-accd-d5f659a10fa3","system_id":"levelo_inurba_marseille","lat":43.32477,"lon":5.36595,"is_reserved":false,"is_disabled":false,"rental_uris":{"android":"levelo://app?vid=17c04b47-b4f3-4a2a-accd-d5f659a10fa3","ios":"levelo://app?vid=17c04b47-b4f3-4a2a-accd-d5f659a10fa3"},"vehicle_type_id":"4","last_reported":1741162398,"current_range_meters":11200,"station_id":"ce4bhs12rcd13ifvqhvg","pricing_plan_id":"cebpf4jnsgd1na2vs0mg"},{"bike_id":"d45ce4bf-f9f2-429a-8e99-fd1c9932a08a","system_id":"levelo_inurba_marseille","lat":43.30645,"lon":5.40726,"is_reserved":false,"is_disabled":false,"rental_uris":{"android":"levelo://app?vid=d45ce4bf-f9f2-429a-8e99-fd1c9932a08a","ios":"levelo://app?vid=d45ce4bf-f9f2-429a-8e99-fd1c9932a08a"},"vehicle_type_id":"4","last_reported":1741162398,"current_range_meters":11200,"station_id":"","pricing_plan_id":"cebpf4jnsgd1na2vs0mg"},{"bike_id":"71e97f7d-c8ca-4d27-a594-07302db3483a","system_id":"levelo_inurba_marseille","lat":43.3059,"lon":5.39352,"is_reserved":false,"is_disabled":false,"rental_uris":{"android":"levelo://app?vid=71e97f7d-c8ca-4d27-a594-07302db3483a","ios":"levelo://app?vid=71e97f7d-c8ca-4d27-a594-07302db3483a"},"vehicle_type_id":"4","last_reported":1741162398,"current_range_meters":11200,"station_id":"ce4bh0p2rcd13ifvqd80","pricing_plan_id":"cebpf4jnsgd1na2vs0mg"},{"bike_id":"2aa13d4f-64d8-4839-bd11-24b7424045b6","system_id":"levelo_inurba_marseille","lat":43.27996,"lon":5.41666,"is_reserved":false,"is_disabled":false,"rental_uris":{"android":"levelo://app?vid=2aa13d4f-64d8-4839-bd11-24b7424045b6","ios":"levelo://app?vid=2aa13d4f-64d8-4839-bd11-24b7424045b6"},"vehicle_type_id":"4","last_reported":1741162398,"current_range_meters":10800,"station_id":"ce4bho12rcd13ifvqh1g","pricing_plan_id":"cebpf4jnsgd1na2vs0mg"},{"bike_id":"03d5bd23-db2c-4a3d-9573-a1403447f741","system_id":"levelo_inurba_marseille","lat":43.27813,"lon":5.40723,"is_reserved":false,"is_disabled":false,"rental_uris":{"android":"levelo://app?vid=03d5bd23-db2c-4a3d-9573-a1403447f741","ios":"levelo://app?vid=03d5bd23-db2c-4a3d-9573-a1403447f741"},"vehicle_type_id":"4","last_reported":1741162398,"current_range_meters":11200,"station_id":"ce4bhnh2rcd13ifvqgtg","pricing_plan_id":"cebpf4jnsgd1na2vs0mg"},{"bike_id":"e4eae33f-c797-4576-8c8c-30a361593456","system_id":"levelo_inurba_marseille","lat":43.29041,"lon":5.39973,"is_reserved":false,"is_disabled":false,"rental_uris":{"android":"levelo://app?vid=e4eae33f-c797-4576-8c8c-30a361593456","ios":"levelo://app?vid=e4eae33f-c797-4576-8c8c-30a361593456"},"vehicle_type_id":"4","last_reported":1741162398,"current_range_meters":11200,"station_id":"ce4bh392rcd13ifvqdm0","pricing_plan_id":"cebpf4jnsgd1na2vs0mg"},{"bike_id":"10460c2d-c60a-48a9-88b4-17ea9ade6ecf","system_id":"levelo_inurba_marseille","lat":43.24074,"lon":5.37742,"is_reserved":false,"is_disabled":false,"rental_uris":{"android":"levelo://app?vid=10460c2d-c60a-48a9-88b4-17ea9ade6ecf","ios":"levelo://app?vid=10460c2d-c60a-48a9-88b4-17ea9ade6ecf"},"vehicle_type_id":"4","last_reported":1741162398,"current_range_meters":11600,"station_id":"ce4bhnp2rcd13ifvqgvg","pricing_plan_id":"cebpf4jnsgd1na2vs0mg"},{"bike_id":"e147a6d0-e38e-41ed-9620-b5ceb546b3f6","system_id":"levelo_inurba_marseille","lat":43.27493,"lon":5.42469,"is_reserved":false,"is_disabled":false,"rental_uris":{"android":"levelo://app?vid=e147a6d0-e38e-41ed-9620-b5ceb546b3f6","ios":"levelo://app?vid=e147a6d0-e38e-41ed-9620-b5ceb546b3f6"},"vehicle_type_id":"4","last_reported":1741162398,"current_range_meters":11600,"station_id":"ce4bhn92rcd13ifvqgrg","pricing_plan_id":"cebpf4jnsgd1na2vs0mg"},{"bike_id":"e1cdc4f0-509b-415c-9592-9c6eaf597898","system_id":"levelo_inurba_marseille","lat":43.27805,"lon":5.40714,"is_reserved":false,"is_disabled":false,"rental_uris":{"android":"levelo://app?vid=e1cdc4f0-509b-415c-9592-9c6eaf597898","ios":"levelo://app?vid=e1cdc4f0-509b-415c-9592-9c6eaf597898"},"vehicle_type_id":"4","last_reported":1741162398,"current_range_meters":11600,"station_id":"ce4bhnh2rcd13ifvqgtg","pricing_plan_id":"cebpf4jnsgd1na2vs0mg"},{"bike_id":"7c12d55c-a7a0-4a3b-8c46-ec26c886ddb6","system_id":"levelo_inurba_marseille","lat":43.28932,"lon":5.36645,"is_reserved":false,"is_disabled":false,"rental_uris":{"android":"levelo://app?vid=7c12d55c-a7a0-4a3b-8c46-ec26c886ddb6","ios":"levelo://app?vid=7c12d55c-a7a0-4a3b-8c46-ec26c886ddb6"},"vehicle_type_id":"4","last_reported":1741162398,"current_range_meters":11600,"station_id":"ce4bhap2rcd13ifvqek0","pricing_plan_id":"cebpf4jnsgd1na2vs0mg"},{"bike_id":"d39260e1-62ae-4547-af60-ede049a4b8c6","system_id":"levelo_inurba_marseille","lat":43.30466,"lon":5.37917,"is_reserved":false,"is_disabled":false,"rental_uris":{"android":"levelo://app?vid=d39260e1-62ae-4547-af60-ede049a4b8c6","ios":"levelo://app?vid=d39260e1-62ae-4547-af60-ede049a4b8c6"},"vehicle_type_id":"4","last_reported":1741162398,"current_range_meters":11600,"station_id":"ce4bgup2rcd13ifvqcn0","pricing_plan_id":"cebpf4jnsgd1na2vs0mg"},{"bike_id":"48dd4a66-c4e0-4334-8dbe-e71a1ce9eb4d","system_id":"levelo_inurba_marseille","lat":43.28113,"lon":5.37846,"is_reserved":false,"is_disabled":false,"rental_uris":{"android":"levelo://app?vid=48dd4a66-c4e0-4334-8dbe-e71a1ce9eb4d","ios":"levelo://app?vid=48dd4a66-c4e0-4334-8dbe-e71a1ce9eb4d"},"vehicle_type_id":"4","last_reported":1741162398,"current_range_meters":12000,"station_id":"ce4bha12rcd13ifvqee0","pricing_plan_id":"cebpf4jnsgd1na2vs0mg"},{"bike_id":"4e099002-469e-40dd-a988-90ba29d19792","system_id":"levelo_inurba_marseille","lat":43.2455,"lon":5.39542,"is_reserved":false,"is_disabled":false,"rental_uris":{"android":"levelo://app?vid=4e099002-469e-40dd-a988-90ba29d19792","ios":"levelo://app?vid=4e099002-469e-40dd-a988-90ba29d19792"},"vehicle_type_id":"4","last_reported":1741162398,"current_range_meters":12000,"station_id":"ce4bhlp2rcd13ifvqgjg","pricing_plan_id":"cebpf4jnsgd1na2vs0mg"},{"bike_id":"0887995a-7163-48cf-a17f-e3237da9ea00","system_id":"levelo_inurba_marseille","lat":43.23179,"lon":5.40005,"is_reserved":false,"is_disabled":false,"rental_uris":{"android":"levelo://app?vid=0887995a-7163-48cf-a17f-e3237da9ea00","ios":"levelo://app?vid=0887995a-7163-48cf-a17f-e3237da9ea00"},"vehicle_type_id":"4","last_reported":1741162398,"current_range_meters":12000,"station_id":"ce4bhn12rcd13ifvqgqg","pricing_plan_id":"cebpf4jnsgd1na2vs0mg"},{"bike_id":"a779ad18-ca56-4d89-afc4-19b5aa3f1bbf","system_id":"levelo_inurba_marseille","lat":43.23965,"lon":5.36635,"is_reserved":false,"is_disabled":false,"rental_uris":{"android":"levelo://app?vid=a779ad18-ca56-4d89-afc4-19b5aa3f1bbf","ios":"levelo://app?vid=a779ad18-ca56-4d89-afc4-19b5aa3f1bbf"},"vehicle_type_id":"4","last_reported":1741162398,"current_range_meters":12400,"station_id":"ce4bhi12rcd13ifvqfp0","pricing_plan_id":"cebpf4jnsgd1na2vs0mg"},{"bike_id":"e1520afc-da0b-43ee-a947-bfc1425d9ac4","system_id":"levelo_inurba_marseille","lat":43.30307,"lon":5.379302,"is_reserved":false,"is_disabled":false,"rental_uris":{"android":"levelo://app?vid=e1520afc-da0b-43ee-a947-bfc1425d9ac4","ios":"levelo://app?vid=e1520afc-da0b-43ee-a947-bfc1425d9ac4"},"vehicle_type_id":"4","last_reported":1741162398,"current_range_meters":12400,"station_id":"ce4bguh2rcd13ifvqcj0","pricing_plan_id":"cebpf4jnsgd1na2vs0mg"},{"bike_id":"cd6daa3a-07f9-42ed-90a2-4f41a2e8d311","system_id":"levelo_inurba_marseille","lat":43.30215,"lon":5.3948,"is_reserved":false,"is_disabled":false,"rental_uris":{"android":"levelo://app?vid=cd6daa3a-07f9-42ed-90a2-4f41a2e8d311","ios":"levelo://app?vid=cd6daa3a-07f9-42ed-90a2-4f41a2e8d311"},"vehicle_type_id":"4","last_reported":1741162398,"current_range_meters":12400,"station_id":"ce4bh0p2rcd13ifvqd70","pricing_plan_id":"cebpf4jnsgd1na2vs0mg"},{"bike_id":"9128e698-c113-4cbd-8fcc-95b5412db81a","system_id":"levelo_inurba_marseille","lat":43.2985,"lon":5.36275,"is_reserved":false,"is_disabled":false,"rental_uris":{"android":"levelo://app?vid=9128e698-c113-4cbd-8fcc-95b5412db81a","ios":"levelo://app?vid=9128e698-c113-4cbd-8fcc-95b5412db81a"},"vehicle_type_id":"4","last_reported":1741162398,"current_range_meters":12000,"station_id":"ce4bgpp2rcd13ifvqc3g","pricing_plan_id":"cebpf4jnsgd1na2vs0mg"},{"bike_id":"4b37ce1f-b43f-429e-a19c-b8c9e00f65d3","system_id":"levelo_inurba_marseille","lat":43.24055,"lon":5.37751,"is_reserved":false,"is_disabled":false,"rental_uris":{"android":"levelo://app?vid=4b37ce1f-b43f-429e-a19c-b8c9e00f65d3","ios":"levelo://app?vid=4b37ce1f-b43f-429e-a19c-b8c9e00f65d3"},"vehicle_type_id":"4","last_reported":1741162398,"current_range_meters":12800,"station_id":"ce4bhnp2rcd13ifvqgvg","pricing_plan_id":"cebpf4jnsgd1na2vs0mg"},{"bike_id":"518a3a8f-ef76-4bdd-a0e9-2d748fc899f2","system_id":"levelo_inurba_marseille","lat":43.29981,"lon":5.37179,"is_reserved":false,"is_disabled":false,"rental_uris":{"android":"levelo://app?vid=518a3a8f-ef76-4bdd-a0e9-2d748fc899f2","ios":"levelo://app?vid=518a3a8f-ef76-4bdd-a0e9-2d748fc899f2"},"vehicle_type_id":"4","last_reported":1741162398,"current_range_meters":12400,"station_id":"ce4bgr92rcd13ifvqc7g","pricing_plan_id":"cebpf4jnsgd1na2vs0mg"},{"bike_id":"7af97423-5e21-41b0-a144-0f91ab7787c9","system_id":"levelo_inurba_marseille","lat":43.30274,"lon":5.37692,"is_reserved":false,"is_disabled":false,"rental_uris":{"android":"levelo://app?vid=7af97423-5e21-41b0-a144-0f91ab7787c9","ios":"levelo://app?vid=7af97423-5e21-41b0-a144-0f91ab7787c9"},"vehicle_type_id":"4","last_reported":1741162398,"current_range_meters":12800,"station_id":"ce4bguh2rcd13ifvqcj0","pricing_plan_id":"cebpf4jnsgd1na2vs0mg"},{"bike_id":"65eca687-68d5-4246-98e3-a514f2396bc6","system_id":"levelo_inurba_marseille","lat":43.27485,"lon":5.42477,"is_reserved":false,"is_disabled":false,"rental_uris":{"android":"levelo://app?vid=65eca687-68d5-4246-98e3-a514f2396bc6","ios":"levelo://app?vid=65eca687-68d5-4246-98e3-a514f2396bc6"},"vehicle_type_id":"4","last_reported":1741162398,"current_range_meters":12800,"station_id":"ce4bhn92rcd13ifvqgrg","pricing_plan_id":"cebpf4jnsgd1na2vs0mg"},{"bike_id":"88a22b1d-d9d1-4f92-ba32-0732f4e154bc","system_id":"levelo_inurba_marseille","lat":43.23169,"lon":5.43683,"is_reserved":false,"is_disabled":false,"rental_uris":{"android":"levelo://app?vid=88a22b1d-d9d1-4f92-ba32-0732f4e154bc","ios":"levelo://app?vid=88a22b1d-d9d1-4f92-ba32-0732f4e154bc"},"vehicle_type_id":"4","last_reported":1741162398,"current_range_meters":12800,"station_id":"ce4bhmp2rcd13ifvqgog","pricing_plan_id":"cebpf4jnsgd1na2vs0mg"},{"bike_id":"55b9b146-9559-4a51-9afc-0fabeee92be6","system_id":"levelo_inurba_marseille","lat":43.231512,"lon":5.437131,"is_reserved":false,"is_disabled":false,"rental_uris":{"android":"levelo://app?vid=55b9b146-9559-4a51-9afc-0fabeee92be6","ios":"levelo://app?vid=55b9b146-9559-4a51-9afc-0fabeee92be6"},"vehicle_type_id":"4","last_reported":1741162398,"current_range_meters":12800,"station_id":"ce4bhmp2rcd13ifvqgog","pricing_plan_id":"cebpf4jnsgd1na2vs0mg"},{"bike_id":"6df5ad72-a097-4be4-b2af-bbb2e9de2060","system_id":"levelo_inurba_marseille","lat":43.292723,"lon":5.384521,"is_reserved":false,"is_disabled":false,"rental_uris":{"android":"levelo://app?vid=6df5ad72-a097-4be4-b2af-bbb2e9de2060","ios":"levelo://app?vid=6df5ad72-a097-4be4-b2af-bbb2e9de2060"},"vehicle_type_id":"4","last_reported":1741162398,"current_range_meters":12800,"station_id":"ce4bhhh2rcd13ifvqfk0","pricing_plan_id":"cebpf4jnsgd1na2vs0mg"},{"bike_id":"8e67c6c2-1f86-420e-855b-676e159ed831","system_id":"levelo_inurba_marseille","lat":43.23106,"lon":5.35413,"is_reserved":false,"is_disabled":false,"rental_uris":{"android":"levelo://app?vid=8e67c6c2-1f86-420e-855b-676e159ed831","ios":"levelo://app?vid=8e67c6c2-1f86-420e-855b-676e159ed831"},"vehicle_type_id":"4","last_reported":1741162398,"current_range_meters":13600,"station_id":"cpo3342slgdg3j2ifvpg","pricing_plan_id":"cebpf4jnsgd1na2vs0mg"},{"bike_id":"cba6a766-3158-4fdc-849a-5887af830bdc","system_id":"levelo_inurba_marseille","lat":43.29238,"lon":5.38215,"is_reserved":false,"is_disabled":false,"rental_uris":{"android":"levelo://app?vid=cba6a766-3158-4fdc-849a-5887af830bdc","ios":"levelo://app?vid=cba6a766-3158-4fdc-849a-5887af830bdc"},"vehicle_type_id":"4","last_reported":1741162398,"current_range_meters":13600,"station_id":"","pricing_plan_id":"cebpf4jnsgd1na2vs0mg"},{"bike_id":"bfaefdd0-de3c-401c-9815-bd6ab825eef1","system_id":"levelo_inurba_marseille","lat":43.317635,"lon":5.390167,"is_reserved":false,"is_disabled":false,"rental_uris":{"android":"levelo://app?vid=bfaefdd0-de3c-401c-9815-bd6ab825eef1","ios":"levelo://app?vid=bfaefdd0-de3c-401c-9815-bd6ab825eef1"},"vehicle_type_id":"4","last_reported":1741162398,"current_range_meters":13600,"station_id":"ce4bhqp2rcd13ifvqhng","pricing_plan_id":"cebpf4jnsgd1na2vs0mg"},{"bike_id":"330426bc-0af9-4c3e-8e4c-6ec10833df11","system_id":"levelo_inurba_marseille","lat":43.29908,"lon":5.43668,"is_reserved":false,"is_disabled":false,"rental_uris":{"android":"levelo://app?vid=330426bc-0af9-4c3e-8e4c-6ec10833df11","ios":"levelo://app?vid=330426bc-0af9-4c3e-8e4c-6ec10833df11"},"vehicle_type_id":"4","last_reported":1741162398,"current_range_meters":13600,"station_id":"ce4bhpp2rcd13ifvqhfg","pricing_plan_id":"cebpf4jnsgd1na2vs0mg"},{"bike_id":"d633a57e-2f74-4e4c-859e-ce4b7a84b9a6","system_id":"levelo_inurba_marseille","lat":43.33024,"lon":5.39047,"is_reserved":false,"is_disabled":false,"rental_uris":{"android":"levelo://app?vid=d633a57e-2f74-4e4c-859e-ce4b7a84b9a6","ios":"levelo://app?vid=d633a57e-2f74-4e4c-859e-ce4b7a84b9a6"},"vehicle_type_id":"4","last_reported":1741162398,"current_range_meters":13600,"station_id":"ce4bhr92rcd13ifvqhrg","pricing_plan_id":"cebpf4jnsgd1na2vs0mg"},{"bike_id":"e8fb3957-55aa-4712-b8af-a6da8b77890f","system_id":"levelo_inurba_marseille","lat":43.30169,"lon":5.38116,"is_reserved":false,"is_disabled":false,"rental_uris":{"android":"levelo://app?vid=e8fb3957-55aa-4712-b8af-a6da8b77890f","ios":"levelo://app?vid=e8fb3957-55aa-4712-b8af-a6da8b77890f"},"vehicle_type_id":"4","last_reported":1741162398,"current_range_meters":14000,"station_id":"ce4bgjp2rcd13ifvqbh0","pricing_plan_id":"cebpf4jnsgd1na2vs0mg"},{"bike_id":"9cbb5914-3ce0-45a9-bfe4-895657d5f46f","system_id":"levelo_inurba_marseille","lat":43.23183,"lon":5.35576,"is_reserved":false,"is_disabled":false,"rental_uris":{"android":"levelo://app?vid=9cbb5914-3ce0-45a9-bfe4-895657d5f46f","ios":"levelo://app?vid=9cbb5914-3ce0-45a9-bfe4-895657d5f46f"},"vehicle_type_id":"4","last_reported":1741162398,"current_range_meters":14000,"station_id":"ce4bhu92rcd13ifvqi70","pricing_plan_id":"cebpf4jnsgd1na2vs0mg"},{"bike_id":"6eecd9a2-7f58-4d22-b3d0-d5ddac1cc0a6","system_id":"levelo_inurba_marseille","lat":43.274825,"lon":5.424558,"is_reserved":false,"is_disabled":false,"rental_uris":{"android":"levelo://app?vid=6eecd9a2-7f58-4d22-b3d0-d5ddac1cc0a6","ios":"levelo://app?vid=6eecd9a2-7f58-4d22-b3d0-d5ddac1cc0a6"},"vehicle_type_id":"4","last_reported":1741162398,"current_range_meters":14000,"station_id":"ce4bhn92rcd13ifvqgrg","pricing_plan_id":"cebpf4jnsgd1na2vs0mg"},{"bike_id":"12e18254-b863-444d-8925-63c2865f1afd","system_id":"levelo_inurba_marseille","lat":43.313487,"lon":5.367528,"is_reserved":false,"is_disabled":false,"rental_uris":{"android":"levelo://app?vid=12e18254-b863-444d-8925-63c2865f1afd","ios":"levelo://app?vid=12e18254-b863-444d-8925-63c2865f1afd"},"vehicle_type_id":"4","last_reported":1741162398,"current_range_meters":14000,"station_id":"ce4bgr92rcd13ifvqc6g","pricing_plan_id":"cebpf4jnsgd1na2vs0mg"},{"bike_id":"a490f13d-ff40-47b1-9376-19fb2024ec77","system_id":"levelo_inurba_marseille","lat":43.28544,"lon":5.39517,"is_reserved":false,"is_disabled":true,"rental_uris":{"android":"levelo://app?vid=a490f13d-ff40-47b1-9376-19fb2024ec77","ios":"levelo://app?vid=a490f13d-ff40-47b1-9376-19fb2024ec77"},"vehicle_type_id":"4","last_reported":1741162398,"current_range_meters":14000,"station_id":"ce4bh292rcd13ifvqdg0","pricing_plan_id":"cebpf4jnsgd1na2vs0mg"},{"bike_id":"7e141603-5076-446b-a90d-8e44d6246006","system_id":"levelo_inurba_marseille","lat":43.31239,"lon":5.36836,"is_reserved":false,"is_disabled":false,"rental_uris":{"android":"levelo://app?vid=7e141603-5076-446b-a90d-8e44d6246006","ios":"levelo://app?vid=7e141603-5076-446b-a90d-8e44d6246006"},"vehicle_type_id":"4","last_reported":1741162398,"current_range_meters":14000,"station_id":"ce4bgl92rcd13ifvqbq0","pricing_plan_id":"cebpf4jnsgd1na2vs0mg"},{"bike_id":"857a25dc-ffe6-4b30-9832-c25b3a56bcb3","system_id":"levelo_inurba_marseille","lat":43.29304,"lon":5.37446,"is_reserved":false,"is_disabled":false,"rental_uris":{"android":"levelo://app?vid=857a25dc-ffe6-4b30-9832-c25b3a56bcb3","ios":"levelo://app?vid=857a25dc-ffe6-4b30-9832-c25b3a56bcb3"},"vehicle_type_id":"4","last_reported":1741162398,"current_range_meters":14400,"station_id":"ce4bgi12rcd13ifvqb70","pricing_plan_id":"cebpf4jnsgd1na2vs0mg"},{"bike_id":"95a7f661-84a3-41c8-b322-371de73d76ec","system_id":"levelo_inurba_marseille","lat":43.25932,"lon":5.40903,"is_reserved":false,"is_disabled":false,"rental_uris":{"android":"levelo://app?vid=95a7f661-84a3-41c8-b322-371de73d76ec","ios":"levelo://app?vid=95a7f661-84a3-41c8-b322-371de73d76ec"},"vehicle_type_id":"4","last_reported":1741162398,"current_range_meters":14400,"station_id":"ce4bhm92rcd13ifvqglg","pricing_plan_id":"cebpf4jnsgd1na2vs0mg"},{"bike_id":"ee59b3a3-0f87-489f-91b5-15c91569f1b2","system_id":"levelo_inurba_marseille","lat":43.24162,"lon":5.36406,"is_reserved":false,"is_disabled":false,"rental_uris":{"android":"levelo://app?vid=ee59b3a3-0f87-489f-91b5-15c91569f1b2","ios":"levelo://app?vid=ee59b3a3-0f87-489f-91b5-15c91569f1b2"},"vehicle_type_id":"4","last_reported":1741162398,"current_range_meters":14400,"station_id":"cpo36qri1sfpv3e86is0","pricing_plan_id":"cebpf4jnsgd1na2vs0mg"},{"bike_id":"c3a15966-d6db-4a67-a176-541b2fe5f082","system_id":"levelo_inurba_marseille","lat":43.32368,"lon":5.38891,"is_reserved":false,"is_disabled":false,"rental_uris":{"android":"levelo://app?vid=c3a15966-d6db-4a67-a176-541b2fe5f082","ios":"levelo://app?vid=c3a15966-d6db-4a67-a176-541b2fe5f082"},"vehicle_type_id":"4","last_reported":1741162398,"current_range_meters":14400,"station_id":"ce4bhqp2rcd13ifvqhog","pricing_plan_id":"cebpf4jnsgd1na2vs0mg"},{"bike_id":"b649405b-b2a2-44f9-ae3e-40b0053e081d","system_id":"levelo_inurba_marseille","lat":43.31247,"lon":5.36831,"is_reserved":false,"is_disabled":false,"rental_uris":{"android":"levelo://app?vid=b649405b-b2a2-44f9-ae3e-40b0053e081d","ios":"levelo://app?vid=b649405b-b2a2-44f9-ae3e-40b0053e081d"},"vehicle_type_id":"4","last_reported":1741162398,"current_range_meters":14400,"station_id":"ce4bgl92rcd13ifvqbq0","pricing_plan_id":"cebpf4jnsgd1na2vs0mg"},{"bike_id":"36ea3d78-c071-48b9-b2be-3275c7728da2","system_id":"levelo_inurba_marseille","lat":43.26957,"lon":5.38632,"is_reserved":false,"is_disabled":false,"rental_uris":{"android":"levelo://app?vid=36ea3d78-c071-48b9-b2be-3275c7728da2","ios":"levelo://app?vid=36ea3d78-c071-48b9-b2be-3275c7728da2"},"vehicle_type_id":"4","last_reported":1741162398,"current_range_meters":14400,"station_id":"ce4bhh92rcd13ifvqfh0","pricing_plan_id":"cebpf4jnsgd1na2vs0mg"},{"bike_id":"c90348af-b6e6-4a12-9fb7-343bb6fb3aee","system_id":"levelo_inurba_marseille","lat":43.3096,"lon":5.39026,"is_reserved":false,"is_disabled":false,"rental_uris":{"android":"levelo://app?vid=c90348af-b6e6-4a12-9fb7-343bb6fb3aee","ios":"levelo://app?vid=c90348af-b6e6-4a12-9fb7-343bb6fb3aee"},"vehicle_type_id":"4","last_reported":1741162398,"current_range_meters":14400,"station_id":"ce4bgup2rcd13ifvqco0","pricing_plan_id":"cebpf4jnsgd1na2vs0mg"},{"bike_id":"8a090317-3396-417d-bc9b-22951b4192e3","system_id":"levelo_inurba_marseille","lat":43.30544,"lon":5.36712,"is_reserved":false,"is_disabled":false,"rental_uris":{"android":"levelo://app?vid=8a090317-3396-417d-bc9b-22951b4192e3","ios":"levelo://app?vid=8a090317-3396-417d-bc9b-22951b4192e3"},"vehicle_type_id":"4","last_reported":1741162398,"current_range_meters":14800,"station_id":"ce4bgrp2rcd13ifvqc9g","pricing_plan_id":"cebpf4jnsgd1na2vs0mg"},{"bike_id":"b2a5d79b-58d0-4e34-8458-d806660bb068","system_id":"levelo_inurba_marseille","lat":43.31225,"lon":5.36853,"is_reserved":false,"is_disabled":false,"rental_uris":{"android":"levelo://app?vid=b2a5d79b-58d0-4e34-8458-d806660bb068","ios":"levelo://app?vid=b2a5d79b-58d0-4e34-8458-d806660bb068"},"vehicle_type_id":"4","last_reported":1741162398,"current_range_meters":14800,"station_id":"ce4bgl92rcd13ifvqbq0","pricing_plan_id":"cebpf4jnsgd1na2vs0mg"},{"bike_id":"9d496aab-7c8b-4af3-aaf5-1951ecf986af","system_id":"levelo_inurba_marseille","lat":43.24087,"lon":5.37751,"is_reserved":false,"is_disabled":false,"rental_uris":{"android":"levelo://app?vid=9d496aab-7c8b-4af3-aaf5-1951ecf986af","ios":"levelo://app?vid=9d496aab-7c8b-4af3-aaf5-1951ecf986af"},"vehicle_type_id":"4","last_reported":1741162398,"current_range_meters":14800,"station_id":"ce4bhnp2rcd13ifvqgvg","pricing_plan_id":"cebpf4jnsgd1na2vs0mg"},{"bike_id":"a5802434-b463-4e34-acd3-c9e37f5a7d21","system_id":"levelo_inurba_marseille","lat":43.32542,"lon":5.41481,"is_reserved":false,"is_disabled":false,"rental_uris":{"android":"levelo://app?vid=a5802434-b463-4e34-acd3-c9e37f5a7d21","ios":"levelo://app?vid=a5802434-b463-4e34-acd3-c9e37f5a7d21"},"vehicle_type_id":"4","last_reported":1741162398,"current_range_meters":15200,"station_id":"ce4bhq12rcd13ifvqhhg","pricing_plan_id":"cebpf4jnsgd1na2vs0mg"},{"bike_id":"a8d1ac71-a294-4ca0-a4e8-1220dc2bf556","system_id":"levelo_inurba_marseille","lat":43.29199,"lon":5.35811,"is_reserved":false,"is_disabled":false,"rental_uris":{"android":"levelo://app?vid=a8d1ac71-a294-4ca0-a4e8-1220dc2bf556","ios":"levelo://app?vid=a8d1ac71-a294-4ca0-a4e8-1220dc2bf556"},"vehicle_type_id":"4","last_reported":1741162398,"current_range_meters":15200,"station_id":"ce4bhb12rcd13ifvqel0","pricing_plan_id":"cebpf4jnsgd1na2vs0mg"},{"bike_id":"37daac2b-b440-4805-b0a3-514ded11a5e0","system_id":"levelo_inurba_marseille","lat":43.30555,"lon":5.36699,"is_reserved":false,"is_disabled":false,"rental_uris":{"android":"levelo://app?vid=37daac2b-b440-4805-b0a3-514ded11a5e0","ios":"levelo://app?vid=37daac2b-b440-4805-b0a3-514ded11a5e0"},"vehicle_type_id":"4","last_reported":1741162398,"current_range_meters":15200,"station_id":"ce4bgrp2rcd13ifvqc9g","pricing_plan_id":"cebpf4jnsgd1na2vs0mg"},{"bike_id":"6b398da2-3a97-4577-b364-a26f612bc685","system_id":"levelo_inurba_marseille","lat":43.24073,"lon":5.37761,"is_reserved":false,"is_disabled":false,"rental_uris":{"android":"levelo://app?vid=6b398da2-3a97-4577-b364-a26f612bc685","ios":"levelo://app?vid=6b398da2-3a97-4577-b364-a26f612bc685"},"vehicle_type_id":"4","last_reported":1741162398,"current_range_meters":15200,"station_id":"ce4bhnp2rcd13ifvqgvg","pricing_plan_id":"cebpf4jnsgd1na2vs0mg"},{"bike_id":"dbc958c9-b359-4140-80d7-1f164ada71f5","system_id":"levelo_inurba_marseille","lat":43.31512,"lon":5.37286,"is_reserved":false,"is_disabled":true,"rental_uris":{"android":"levelo://app?vid=dbc958c9-b359-4140-80d7-1f164ada71f5","ios":"levelo://app?vid=dbc958c9-b359-4140-80d7-1f164ada71f5"},"vehicle_type_id":"4","last_reported":1741162398,"current_range_meters":15200,"station_id":"ce4bgt12rcd13ifvqcd0","pricing_plan_id":"cebpf4jnsgd1na2vs0mg"},{"bike_id":"7280219f-0e92-4abe-aef7-e5d504a7bae4","system_id":"levelo_inurba_marseille","lat":43.32482,"lon":5.36567,"is_reserved":false,"is_disabled":false,"rental_uris":{"android":"levelo://app?vid=7280219f-0e92-4abe-aef7-e5d504a7bae4","ios":"levelo://app?vid=7280219f-0e92-4abe-aef7-e5d504a7bae4"},"vehicle_type_id":"4","last_reported":1741162398,"current_range_meters":15200,"station_id":"ce4bhs12rcd13ifvqhvg","pricing_plan_id":"cebpf4jnsgd1na2vs0mg"},{"bike_id":"2f20fe16-3dfa-4f85-9620-feefc22192a9","system_id":"levelo_inurba_marseille","lat":43.24796,"lon":5.37459,"is_reserved":false,"is_disabled":false,"rental_uris":{"android":"levelo://app?vid=2f20fe16-3dfa-4f85-9620-feefc22192a9","ios":"levelo://app?vid=2f20fe16-3dfa-4f85-9620-feefc22192a9"},"vehicle_type_id":"4","last_reported":1741162398,"current_range_meters":16000,"station_id":"ce4bhgh2rcd13ifvqfb0","pricing_plan_id":"cebpf4jnsgd1na2vs0mg"},{"bike_id":"582c2a00-2f0a-4448-b241-804b9569d8ed","system_id":"levelo_inurba_marseille","lat":43.27497,"lon":5.42449,"is_reserved":false,"is_disabled":false,"rental_uris":{"android":"levelo://app?vid=582c2a00-2f0a-4448-b241-804b9569d8ed","ios":"levelo://app?vid=582c2a00-2f0a-4448-b241-804b9569d8ed"},"vehicle_type_id":"4","last_reported":1741162398,"current_range_meters":16000,"station_id":"ce4bhn92rcd13ifvqgrg","pricing_plan_id":"cebpf4jnsgd1na2vs0mg"},{"bike_id":"31e71788-3955-4d4d-a957-a431dc188529","system_id":"levelo_inurba_marseille","lat":43.30455,"lon":5.37917,"is_reserved":false,"is_disabled":false,"rental_uris":{"android":"levelo://app?vid=31e71788-3955-4d4d-a957-a431dc188529","ios":"levelo://app?vid=31e71788-3955-4d4d-a957-a431dc188529"},"vehicle_type_id":"4","last_reported":1741162398,"current_range_meters":16000,"station_id":"ce4bgup2rcd13ifvqcn0","pricing_plan_id":"cebpf4jnsgd1na2vs0mg"},{"bike_id":"7a93d7dc-7b6c-4124-b6b3-af4f07c904b1","system_id":"levelo_inurba_marseille","lat":43.30593,"lon":5.39339,"is_reserved":false,"is_disabled":false,"rental_uris":{"android":"levelo://app?vid=7a93d7dc-7b6c-4124-b6b3-af4f07c904b1","ios":"levelo://app?vid=7a93d7dc-7b6c-4124-b6b3-af4f07c904b1"},"vehicle_type_id":"4","last_reported":1741162398,"current_range_meters":16000,"station_id":"ce4bh0p2rcd13ifvqd80","pricing_plan_id":"cebpf4jnsgd1na2vs0mg"},{"bike_id":"fed2917a-a0ac-48d2-a73f-1b9e15abeffe","system_id":"levelo_inurba_marseille","lat":43.30145,"lon":5.38069,"is_reserved":false,"is_disabled":false,"rental_uris":{"android":"levelo://app?vid=fed2917a-a0ac-48d2-a73f-1b9e15abeffe","ios":"levelo://app?vid=fed2917a-a0ac-48d2-a73f-1b9e15abeffe"},"vehicle_type_id":"4","last_reported":1741162398,"current_range_meters":16000,"station_id":"ce4bgjp2rcd13ifvqbh0","pricing_plan_id":"cebpf4jnsgd1na2vs0mg"},{"bike_id":"e01955a4-91d8-4de2-9c8d-bbb965be7dd3","system_id":"levelo_inurba_marseille","lat":43.29775,"lon":5.39369,"is_reserved":false,"is_disabled":true,"rental_uris":{"android":"levelo://app?vid=e01955a4-91d8-4de2-9c8d-bbb965be7dd3","ios":"levelo://app?vid=e01955a4-91d8-4de2-9c8d-bbb965be7dd3"},"vehicle_type_id":"4","last_reported":1741162398,"current_range_meters":16000,"station_id":"chh1huq6cuj3fo74tm60","pricing_plan_id":"cebpf4jnsgd1na2vs0mg"},{"bike_id":"61490806-c3d1-49d8-affc-d46d1f9d07b0","system_id":"levelo_inurba_marseille","lat":43.31399,"lon":5.36683,"is_reserved":false,"is_disabled":false,"rental_uris":{"android":"levelo://app?vid=61490806-c3d1-49d8-affc-d46d1f9d07b0","ios":"levelo://app?vid=61490806-c3d1-49d8-affc-d46d1f9d07b0"},"vehicle_type_id":"4","last_reported":1741162398,"current_range_meters":16000,"station_id":"","pricing_plan_id":"cebpf4jnsgd1na2vs0mg"},{"bike_id":"8ee36fb4-5738-4a63-b2cb-082393736506","system_id":"levelo_inurba_marseille","lat":43.28361,"lon":5.38634,"is_reserved":false,"is_disabled":false,"rental_uris":{"android":"levelo://app?vid=8ee36fb4-5738-4a63-b2cb-082393736506","ios":"levelo://app?vid=8ee36fb4-5738-4a63-b2cb-082393736506"},"vehicle_type_id":"4","last_reported":1741162398,"current_range_meters":16400,"station_id":"ce4bh492rcd13ifvqdvg","pricing_plan_id":"cebpf4jnsgd1na2vs0mg"},{"bike_id":"127d6429-878d-4ced-9d33-0a512d472b9d","system_id":"levelo_inurba_marseille","lat":43.29633,"lon":5.406,"is_reserved":false,"is_disabled":false,"rental_uris":{"android":"levelo://app?vid=127d6429-878d-4ced-9d33-0a512d472b9d","ios":"levelo://app?vid=127d6429-878d-4ced-9d33-0a512d472b9d"},"vehicle_type_id":"4","last_reported":1741162398,"current_range_meters":16400,"station_id":"ce4bh0h2rcd13ifvqd60","pricing_plan_id":"cebpf4jnsgd1na2vs0mg"},{"bike_id":"f12b2439-04d3-462d-97d3-08b6bf3fdd09","system_id":"levelo_inurba_marseille","lat":43.24054,"lon":5.37745,"is_reserved":false,"is_disabled":false,"rental_uris":{"android":"levelo://app?vid=f12b2439-04d3-462d-97d3-08b6bf3fdd09","ios":"levelo://app?vid=f12b2439-04d3-462d-97d3-08b6bf3fdd09"},"vehicle_type_id":"4","last_reported":1741162398,"current_range_meters":16400,"station_id":"ce4bhnp2rcd13ifvqgvg","pricing_plan_id":"cebpf4jnsgd1na2vs0mg"},{"bike_id":"7f1905bf-da4d-4f13-af14-c5d46804e585","system_id":"levelo_inurba_marseille","lat":43.231845,"lon":5.355628,"is_reserved":false,"is_disabled":false,"rental_uris":{"android":"levelo://app?vid=7f1905bf-da4d-4f13-af14-c5d46804e585","ios":"levelo://app?vid=7f1905bf-da4d-4f13-af14-c5d46804e585"},"vehicle_type_id":"4","last_reported":1741162398,"current_range_meters":16400,"station_id":"ce4bhu92rcd13ifvqi70","pricing_plan_id":"cebpf4jnsgd1na2vs0mg"},{"bike_id":"0b3cb245-c1ab-4265-9e03-36f6b9bfa685","system_id":"levelo_inurba_marseille","lat":43.23052,"lon":5.35497,"is_reserved":false,"is_disabled":false,"rental_uris":{"android":"levelo://app?vid=0b3cb245-c1ab-4265-9e03-36f6b9bfa685","ios":"levelo://app?vid=0b3cb245-c1ab-4265-9e03-36f6b9bfa685"},"vehicle_type_id":"4","last_reported":1741162398,"current_range_meters":16400,"station_id":"cpo3342slgdg3j2ifvpg","pricing_plan_id":"cebpf4jnsgd1na2vs0mg"},{"bike_id":"ba60ddd0-090a-4921-a3fa-f07dc23829f3","system_id":"levelo_inurba_marseille","lat":43.279937,"lon":5.416643,"is_reserved":false,"is_disabled":false,"rental_uris":{"android":"levelo://app?vid=ba60ddd0-090a-4921-a3fa-f07dc23829f3","ios":"levelo://app?vid=ba60ddd0-090a-4921-a3fa-f07dc23829f3"},"vehicle_type_id":"4","last_reported":1741162398,"current_range_meters":16400,"station_id":"ce4bho12rcd13ifvqh1g","pricing_plan_id":"cebpf4jnsgd1na2vs0mg"},{"bike_id":"9cdc0688-b476-4e47-b0c2-48124c4a767c","system_id":"levelo_inurba_marseille","lat":43.25008,"lon":5.38929,"is_reserved":false,"is_disabled":false,"rental_uris":{"android":"levelo://app?vid=9cdc0688-b476-4e47-b0c2-48124c4a767c","ios":"levelo://app?vid=9cdc0688-b476-4e47-b0c2-48124c4a767c"},"vehicle_type_id":"4","last_reported":1741162398,"current_range_meters":16400,"station_id":"ce4bhgp2rcd13ifvqfd0","pricing_plan_id":"cebpf4jnsgd1na2vs0mg"},{"bike_id":"ba9d4a82-0ce6-487f-bc4b-86c56883a8c8","system_id":"levelo_inurba_marseille","lat":43.31285,"lon":5.36815,"is_reserved":false,"is_disabled":false,"rental_uris":{"android":"levelo://app?vid=ba9d4a82-0ce6-487f-bc4b-86c56883a8c8","ios":"levelo://app?vid=ba9d4a82-0ce6-487f-bc4b-86c56883a8c8"},"vehicle_type_id":"4","last_reported":1741162398,"current_range_meters":16800,"station_id":"","pricing_plan_id":"cebpf4jnsgd1na2vs0mg"},{"bike_id":"e5d41598-0b8c-4934-983a-bc2927772685","system_id":"levelo_inurba_marseille","lat":43.30953,"lon":5.39062,"is_reserved":false,"is_disabled":false,"rental_uris":{"android":"levelo://app?vid=e5d41598-0b8c-4934-983a-bc2927772685","ios":"levelo://app?vid=e5d41598-0b8c-4934-983a-bc2927772685"},"vehicle_type_id":"4","last_reported":1741162398,"current_range_meters":16800,"station_id":"ce4bgup2rcd13ifvqco0","pricing_plan_id":"cebpf4jnsgd1na2vs0mg"},{"bike_id":"0c03d3ac-d277-4d92-aaaf-15c876d3a5e5","system_id":"levelo_inurba_marseille","lat":43.27423,"lon":5.39422,"is_reserved":false,"is_disabled":false,"rental_uris":{"android":"levelo://app?vid=0c03d3ac-d277-4d92-aaaf-15c876d3a5e5","ios":"levelo://app?vid=0c03d3ac-d277-4d92-aaaf-15c876d3a5e5"},"vehicle_type_id":"4","last_reported":1741162398,"current_range_meters":16800,"station_id":"ce4bhdp2rcd13ifvqf20","pricing_plan_id":"cebpf4jnsgd1na2vs0mg"},{"bike_id":"18f1318e-e590-454d-b1b7-de0fcdd8db5f","system_id":"levelo_inurba_marseille","lat":43.29469,"lon":5.37765,"is_reserved":false,"is_disabled":false,"rental_uris":{"android":"levelo://app?vid=18f1318e-e590-454d-b1b7-de0fcdd8db5f","ios":"levelo://app?vid=18f1318e-e590-454d-b1b7-de0fcdd8db5f"},"vehicle_type_id":"4","last_reported":1741162398,"current_range_meters":16800,"station_id":"ce4bgjh2rcd13ifvqbf0","pricing_plan_id":"cebpf4jnsgd1na2vs0mg"},{"bike_id":"bbe662bf-5055-47d7-92b4-95663a14df30","system_id":"levelo_inurba_marseille","lat":43.30328,"lon":5.36908,"is_reserved":false,"is_disabled":false,"rental_uris":{"android":"levelo://app?vid=bbe662bf-5055-47d7-92b4-95663a14df30","ios":"levelo://app?vid=bbe662bf-5055-47d7-92b4-95663a14df30"},"vehicle_type_id":"4","last_reported":1741162398,"current_range_meters":16800,"station_id":"ce4bgqh2rcd13ifvqc5g","pricing_plan_id":"cebpf4jnsgd1na2vs0mg"},{"bike_id":"87a81ae1-2587-4805-88a4-3cffc8c14d4a","system_id":"levelo_inurba_marseille","lat":43.24678,"lon":5.38057,"is_reserved":false,"is_disabled":false,"rental_uris":{"android":"levelo://app?vid=87a81ae1-2587-4805-88a4-3cffc8c14d4a","ios":"levelo://app?vid=87a81ae1-2587-4805-88a4-3cffc8c14d4a"},"vehicle_type_id":"4","last_reported":1741162398,"current_range_meters":16400,"station_id":"ce4bhih2rcd13ifvqfr0","pricing_plan_id":"cebpf4jnsgd1na2vs0mg"},{"bike_id":"c40242ef-c243-471a-a3f5-e67b334e86dc","system_id":"levelo_inurba_marseille","lat":43.27492,"lon":5.42465,"is_reserved":false,"is_disabled":false,"rental_uris":{"android":"levelo://app?vid=c40242ef-c243-471a-a3f5-e67b334e86dc","ios":"levelo://app?vid=c40242ef-c243-471a-a3f5-e67b334e86dc"},"vehicle_type_id":"4","last_reported":1741162398,"current_range_meters":17200,"station_id":"ce4bhn92rcd13ifvqgrg","pricing_plan_id":"cebpf4jnsgd1na2vs0mg"},{"bike_id":"743ff6c4-52bb-4441-83b1-6b735d48e06f","system_id":"levelo_inurba_marseille","lat":43.30907,"lon":5.36841,"is_reserved":false,"is_disabled":false,"rental_uris":{"android":"levelo://app?vid=743ff6c4-52bb-4441-83b1-6b735d48e06f","ios":"levelo://app?vid=743ff6c4-52bb-4441-83b1-6b735d48e06f"},"vehicle_type_id":"4","last_reported":1741162398,"current_range_meters":17200,"station_id":"ce4bgn92rcd13ifvqbvg","pricing_plan_id":"cebpf4jnsgd1na2vs0mg"},{"bike_id":"5981e5fd-8ca3-4e17-921d-10437ee17d35","system_id":"levelo_inurba_marseille","lat":43.2416,"lon":5.36413,"is_reserved":false,"is_disabled":false,"rental_uris":{"android":"levelo://app?vid=5981e5fd-8ca3-4e17-921d-10437ee17d35","ios":"levelo://app?vid=5981e5fd-8ca3-4e17-921d-10437ee17d35"},