{"last_updated":1746375083,"ttl":60,"version":"2.2","data":{"bikes":[{"bike_id":"ee431cbb-877d-4c13-8c16-79999e3facb4","system_id":"levelo_inurba_marseille","lat":43.3321,"lon":5.43154,"is_reserved":false,"is_disabled":false,"rental_uris":{"android":"levelo://app?vid=ee431cbb-877d-4c13-8c16-79999e3facb4","ios":"levelo://app?vid=ee431cbb-877d-4c13-8c16-79999e3facb4"},"vehicle_type_id":"4","last_reported":1746375083,"current_range_meters":2800,"station_id":"","pricing_plan_id":"cebpf4jnsgd1na2vs0mg"},{"bike_id":"a99d3f91-43b7-440d-8b3e-a9c4024e4b46","system_id":"levelo_inurba_marseille","lat":43.24179,"lon":5.3973,"is_reserved":false,"is_disabled":false,"rental_uris":{"android":"levelo://app?vid=a99d3f91-43b7-440d-8b3e-a9c4024e4b46","ios":"levelo://app?vid=a99d3f91-43b7-440d-8b3e-a9c4024e4b46"},"vehicle_type_id":"4","last_reported":1746375083,"current_range_meters":2800,"station_id":"ce4bhn12rcd13ifvqgpg","pricing_plan_id":"cebpf4jnsgd1na2vs0mg"},{"bike_id":"fefd08ec-5881-4aed-9781-2a8173dd5fb9","system_id":"levelo_inurba_marseille","lat":43.29433,"lon":5.38243,"is_reserved":false,"is_disabled":false,"rental_uris":{"android":"levelo://app?vid=fefd08ec-5881-4aed-9781-2a8173dd5fb9","ios":"levelo://app?vid=fefd08ec-5881-4aed-9781-2a8173dd5fb9"},"vehicle_type_id":"4","last_reported":1746375083,"current_range_meters":2800,"station_id":"","pricing_plan_id":"cebpf4jnsgd1na2vs0mg"},{"bike_id":"01731ba8-91ae-4df2-ab15-b066fd575eee","system_id":"levelo_inurba_marseille","lat":43.28266,"lon":5.35062,"is_reserved":false,"is_disabled":false,"rental_uris":{"android":"levelo://app?vid=01731ba8-91ae-4df2-ab15-b066fd575eee","ios":"levelo://app?vid=01731ba8-91ae-4df2-ab15-b066fd575eee"},"vehicle_type_id":"4","last_reported":1746375083,"current_range_meters":3200,"station_id":"ce4bhbp2rcd13ifvqerg","pricing_plan_id":"cebpf4jnsgd1na2vs0mg"},{"bike_id":"336043ef-277a-4c59-9453-dfe001d33a02","system_id":"levelo_inurba_marseille","lat":43.21195,"lon":5.35102,"is_reserved":false,"is_disabled":false,"rental_uris":{"android":"levelo://app?vid=336043ef-277a-4c59-9453-dfe001d33a02","ios":"levelo://app?vid=336043ef-277a-4c59-9453-dfe001d33a02"},"vehicle_type_id":"4","last_reported":1746375083,"current_range_meters":3200,"station_id":"st_cvj6sg6p6f1abm77japg","pricing_plan_id":"cebpf4jnsgd1na2vs0mg"},{"bike_id":"570b486c-50df-4f1f-97df-caa86c0d419e","system_id":"levelo_inurba_marseille","lat":43.33692,"lon":5.35587,"is_reserved":false,"is_disabled":false,"rental_uris":{"android":"levelo://app?vid=570b486c-50df-4f1f-97df-caa86c0d419e","ios":"levelo://app?vid=570b486c-50df-4f1f-97df-caa86c0d419e"},"vehicle_type_id":"4","last_reported":1746375083,"current_range_meters":3200,"station_id":"","pricing_plan_id":"cebpf4jnsgd1na2vs0mg"},{"bike_id":"3c88ddeb-d7bc-4f44-8ebd-52a29a77424c","system_id":"levelo_inurba_marseille","lat":43.24172,"lon":5.39731,"is_reserved":false,"is_disabled":false,"rental_uris":{"android":"levelo://app?vid=3c88ddeb-d7bc-4f44-8ebd-52a29a77424c","ios":"levelo://app?vid=3c88ddeb-d7bc-4f44-8ebd-52a29a77424c"},"vehicle_type_id":"4","last_reported":1746375083,"current_range_meters":3600,"station_id":"ce4bhn12rcd13ifvqgpg","pricing_plan_id":"cebpf4jnsgd1na2vs0mg"},{"bike_id":"de5acecc-d982-4284-947d-8bc1c28677e1","system_id":"levelo_inurba_marseille","lat":43.24072,"lon":5.37759,"is_reserved":false,"is_disabled":false,"rental_uris":{"android":"levelo://app?vid=de5acecc-d982-4284-947d-8bc1c28677e1","ios":"levelo://app?vid=de5acecc-d982-4284-947d-8bc1c28677e1"},"vehicle_type_id":"4","last_reported":1746375083,"current_range_meters":3600,"station_id":"ce4bhnp2rcd13ifvqgvg","pricing_plan_id":"cebpf4jnsgd1na2vs0mg"},{"bike_id":"441771cd-0001-4237-b26e-f2e1502d0768","system_id":"levelo_inurba_marseille","lat":43.23639,"lon":5.36604,"is_reserved":false,"is_disabled":false,"rental_uris":{"android":"levelo://app?vid=441771cd-0001-4237-b26e-f2e1502d0768","ios":"levelo://app?vid=441771cd-0001-4237-b26e-f2e1502d0768"},"vehicle_type_id":"4","last_reported":1746375083,"current_range_meters":3600,"station_id":"","pricing_plan_id":"cebpf4jnsgd1na2vs0mg"},{"bike_id":"7ea8aa7f-374f-46ea-81db-b2bd9c6c01f5","system_id":"levelo_inurba_marseille","lat":43.30447,"lon":5.389,"is_reserved":false,"is_disabled":false,"rental_uris":{"android":"levelo://app?vid=7ea8aa7f-374f-46ea-81db-b2bd9c6c01f5","ios":"levelo://app?vid=7ea8aa7f-374f-46ea-81db-b2bd9c6c01f5"},"vehicle_type_id":"4","last_reported":1746375083,"current_range_meters":4000,"station_id":"ce4bgk12rcd13ifvqbi0","pricing_plan_id":"cebpf4jnsgd1na2vs0mg"},{"bike_id":"35145cef-b32c-4327-8f54-2c039278b0f6","system_id":"levelo_inurba_marseille","lat":43.21759,"lon":5.34584,"is_reserved":false,"is_disabled":false,"rental_uris":{"android":"levelo://app?vid=35145cef-b32c-4327-8f54-2c039278b0f6","ios":"levelo://app?vid=35145cef-b32c-4327-8f54-2c039278b0f6"},"vehicle_type_id":"4","last_reported":1746375083,"current_range_meters":4000,"station_id":"st_cvj6r9ubvosntc0bgbag","pricing_plan_id":"cebpf4jnsgd1na2vs0mg"},{"bike_id":"b1b6a64c-06f3-47ab-8aee-cb630311000c","system_id":"levelo_inurba_marseille","lat":43.30242,"lon":5.40051,"is_reserved":false,"is_disabled":false,"rental_uris":{"android":"levelo://app?vid=b1b6a64c-06f3-47ab-8aee-cb630311000c","ios":"levelo://app?vid=b1b6a64c-06f3-47ab-8aee-cb630311000c"},"vehicle_type_id":"4","last_reported":1746375083,"current_range_meters":3600,"station_id":"ce4bgvh2rcd13ifvqcs0","pricing_plan_id":"cebpf4jnsgd1na2vs0mg"},{"bike_id":"377086a6-8bae-4824-97b9-32ccceb8a482","system_id":"levelo_inurba_marseille","lat":43.28715,"lon":5.37935,"is_reserved":false,"is_disabled":false,"rental_uris":{"android":"levelo://app?vid=377086a6-8bae-4824-97b9-32ccceb8a482","ios":"levelo://app?vid=377086a6-8bae-4824-97b9-32ccceb8a482"},"vehicle_type_id":"4","last_reported":1746375083,"current_range_meters":4000,"station_id":"ce4bh9p2rcd13ifvqec0","pricing_plan_id":"cebpf4jnsgd1na2vs0mg"},{"bike_id":"ed102320-f60e-4809-9c9e-2e96bfde39b6","system_id":"levelo_inurba_marseille","lat":43.35248,"lon":5.43775,"is_reserved":false,"is_disabled":false,"rental_uris":{"android":"levelo://app?vid=ed102320-f60e-4809-9c9e-2e96bfde39b6","ios":"levelo://app?vid=ed102320-f60e-4809-9c9e-2e96bfde39b6"},"vehicle_type_id":"4","last_reported":1746375083,"current_range_meters":4400,"station_id":"","pricing_plan_id":"cebpf4jnsgd1na2vs0mg"},{"bike_id":"2f400e75-7c89-400b-9aaa-091bebe7c15c","system_id":"levelo_inurba_marseille","lat":43.31077,"lon":5.38361,"is_reserved":false,"is_disabled":true,"rental_uris":{"android":"levelo://app?vid=2f400e75-7c89-400b-9aaa-091bebe7c15c","ios":"levelo://app?vid=2f400e75-7c89-400b-9aaa-091bebe7c15c"},"vehicle_type_id":"4","last_reported":1746375083,"current_range_meters":4800,"station_id":"ce4bgv92rcd13ifvqcr0","pricing_plan_id":"cebpf4jnsgd1na2vs0mg"},{"bike_id":"ccf1a153-4284-4ec9-8b93-032415d3d2ac","system_id":"levelo_inurba_marseille","lat":43.33022,"lon":5.39036,"is_reserved":false,"is_disabled":false,"rental_uris":{"android":"levelo://app?vid=ccf1a153-4284-4ec9-8b93-032415d3d2ac","ios":"levelo://app?vid=ccf1a153-4284-4ec9-8b93-032415d3d2ac"},"vehicle_type_id":"4","last_reported":1746375083,"current_range_meters":4800,"station_id":"ce4bhr92rcd13ifvqhrg","pricing_plan_id":"cebpf4jnsgd1na2vs0mg"},{"bike_id":"be057940-8a90-4f48-bffc-0a68155248cb","system_id":"levelo_inurba_marseille","lat":43.28486,"lon":5.38421,"is_reserved":false,"is_disabled":false,"rental_uris":{"android":"levelo://app?vid=be057940-8a90-4f48-bffc-0a68155248cb","ios":"levelo://app?vid=be057940-8a90-4f48-bffc-0a68155248cb"},"vehicle_type_id":"4","last_reported":1746375083,"current_range_meters":5600,"station_id":"ce4bh512rcd13ifvqe3g","pricing_plan_id":"cebpf4jnsgd1na2vs0mg"},{"bike_id":"f567cb2c-9e13-4b1a-a09c-ae6c609dbb96","system_id":"levelo_inurba_marseille","lat":43.27316,"lon":5.39075,"is_reserved":false,"is_disabled":false,"rental_uris":{"android":"levelo://app?vid=f567cb2c-9e13-4b1a-a09c-ae6c609dbb96","ios":"levelo://app?vid=f567cb2c-9e13-4b1a-a09c-ae6c609dbb96"},"vehicle_type_id":"4","last_reported":1746375083,"current_range_meters":5600,"station_id":"ce4bhgp2rcd13ifvqfe0","pricing_plan_id":"cebpf4jnsgd1na2vs0mg"},{"bike_id":"8cec490b-b5bb-4b7b-ae3d-eec9ff07b8b6","system_id":"levelo_inurba_marseille","lat":43.29033,"lon":5.38656,"is_reserved":false,"is_disabled":false,"rental_uris":{"android":"levelo://app?vid=8cec490b-b5bb-4b7b-ae3d-eec9ff07b8b6","ios":"levelo://app?vid=8cec490b-b5bb-4b7b-ae3d-eec9ff07b8b6"},"vehicle_type_id":"4","last_reported":1746375083,"current_range_meters":5600,"station_id":"ce4bh4p2rcd13ifvqe0g","pricing_plan_id":"cebpf4jnsgd1na2vs0mg"},{"bike_id":"f9759920-99a4-431c-bfd6-2336544c23fc","system_id":"levelo_inurba_marseille","lat":43.23964,"lon":5.36644,"is_reserved":false,"is_disabled":false,"rental_uris":{"android":"levelo://app?vid=f9759920-99a4-431c-bfd6-2336544c23fc","ios":"levelo://app?vid=f9759920-99a4-431c-bfd6-2336544c23fc"},"vehicle_type_id":"4","last_reported":1746375083,"current_range_meters":5600,"station_id":"ce4bhi12rcd13ifvqfp0","pricing_plan_id":"cebpf4jnsgd1na2vs0mg"},{"bike_id":"f7a706a2-43e1-4605-ab3a-60a857be68c2","system_id":"levelo_inurba_marseille","lat":43.27809,"lon":5.40715,"is_reserved":false,"is_disabled":false,"rental_uris":{"android":"levelo://app?vid=f7a706a2-43e1-4605-ab3a-60a857be68c2","ios":"levelo://app?vid=f7a706a2-43e1-4605-ab3a-60a857be68c2"},"vehicle_type_id":"4","last_reported":1746375083,"current_range_meters":5600,"station_id":"ce4bhnh2rcd13ifvqgtg","pricing_plan_id":"cebpf4jnsgd1na2vs0mg"},{"bike_id":"bc94698d-9fc2-4f38-b27b-1fd8c060f0d9","system_id":"levelo_inurba_marseille","lat":43.29189,"lon":5.35804,"is_reserved":false,"is_disabled":false,"rental_uris":{"android":"levelo://app?vid=bc94698d-9fc2-4f38-b27b-1fd8c060f0d9","ios":"levelo://app?vid=bc94698d-9fc2-4f38-b27b-1fd8c060f0d9"},"vehicle_type_id":"4","last_reported":1746375083,"current_range_meters":5600,"station_id":"ce4bhb12rcd13ifvqel0","pricing_plan_id":"cebpf4jnsgd1na2vs0mg"},{"bike_id":"6012e73f-a97d-4080-8451-31be47c04cb3","system_id":"levelo_inurba_marseille","lat":43.24183,"lon":5.39744,"is_reserved":false,"is_disabled":false,"rental_uris":{"android":"levelo://app?vid=6012e73f-a97d-4080-8451-31be47c04cb3","ios":"levelo://app?vid=6012e73f-a97d-4080-8451-31be47c04cb3"},"vehicle_type_id":"4","last_reported":1746375083,"current_range_meters":5600,"station_id":"ce4bhn12rcd13ifvqgpg","pricing_plan_id":"cebpf4jnsgd1na2vs0mg"},{"bike_id":"1e372de8-09ef-418d-903e-d6c845a35c13","system_id":"levelo_inurba_marseille","lat":43.26563,"lon":5.39018,"is_reserved":false,"is_disabled":false,"rental_uris":{"android":"levelo://app?vid=1e372de8-09ef-418d-903e-d6c845a35c13","ios":"levelo://app?vid=1e372de8-09ef-418d-903e-d6c845a35c13"},"vehicle_type_id":"4","last_reported":1746375083,"current_range_meters":5600,"station_id":"ce4bhe12rcd13ifvqf30","pricing_plan_id":"cebpf4jnsgd1na2vs0mg"},{"bike_id":"33d984bb-57d7-4933-bc68-507510f5f8a6","system_id":"levelo_inurba_marseille","lat":43.24181,"lon":5.39733,"is_reserved":false,"is_disabled":false,"rental_uris":{"android":"levelo://app?vid=33d984bb-57d7-4933-bc68-507510f5f8a6","ios":"levelo://app?vid=33d984bb-57d7-4933-bc68-507510f5f8a6"},"vehicle_type_id":"4","last_reported":1746375083,"current_range_meters":5600,"station_id":"ce4bhn12rcd13ifvqgpg","pricing_plan_id":"cebpf4jnsgd1na2vs0mg"},{"bike_id":"dfb3396e-96f5-457c-af11-f6f27dad33e9","system_id":"levelo_inurba_marseille","lat":43.2721,"lon":5.36501,"is_reserved":false,"is_disabled":false,"rental_uris":{"android":"levelo://app?vid=dfb3396e-96f5-457c-af11-f6f27dad33e9","ios":"levelo://app?vid=dfb3396e-96f5-457c-af11-f6f27dad33e9"},"vehicle_type_id":"4","last_reported":1746375083,"current_range_meters":6000,"station_id":"","pricing_plan_id":"cebpf4jnsgd1na2vs0mg"},{"bike_id":"460dd371-6e7a-4a88-b74e-9bdea4989ea2","system_id":"levelo_inurba_marseille","lat":43.26957,"lon":5.38637,"is_reserved":false,"is_disabled":false,"rental_uris":{"android":"levelo://app?vid=460dd371-6e7a-4a88-b74e-9bdea4989ea2","ios":"levelo://app?vid=460dd371-6e7a-4a88-b74e-9bdea4989ea2"},"vehicle_type_id":"4","last_reported":1746375083,"current_range_meters":6000,"station_id":"ce4bhh92rcd13ifvqfh0","pricing_plan_id":"cebpf4jnsgd1na2vs0mg"},{"bike_id":"be9042c4-716a-416e-af52-c92d47776467","system_id":"levelo_inurba_marseille","lat":43.30908,"lon":5.40114,"is_reserved":false,"is_disabled":true,"rental_uris":{"android":"levelo://app?vid=be9042c4-716a-416e-af52-c92d47776467","ios":"levelo://app?vid=be9042c4-716a-416e-af52-c92d47776467"},"vehicle_type_id":"4","last_reported":1746375083,"current_range_meters":6000,"station_id":"ce4bgvp2rcd13ifvqct0","pricing_plan_id":"cebpf4jnsgd1na2vs0mg"},{"bike_id":"8df37787-a611-4ce6-9e65-032cb168f59b","system_id":"levelo_inurba_marseille","lat":43.21218,"lon":5.35089,"is_reserved":false,"is_disabled":false,"rental_uris":{"android":"levelo://app?vid=8df37787-a611-4ce6-9e65-032cb168f59b","ios":"levelo://app?vid=8df37787-a611-4ce6-9e65-032cb168f59b"},"vehicle_type_id":"4","last_reported":1746375083,"current_range_meters":6000,"station_id":"st_cvj6sg6p6f1abm77japg","pricing_plan_id":"cebpf4jnsgd1na2vs0mg"},{"bike_id":"5e19f207-06c1-43c1-a892-4960938f107e","system_id":"levelo_inurba_marseille","lat":43.28039,"lon":5.36946,"is_reserved":false,"is_disabled":false,"rental_uris":{"android":"levelo://app?vid=5e19f207-06c1-43c1-a892-4960938f107e","ios":"levelo://app?vid=5e19f207-06c1-43c1-a892-4960938f107e"},"vehicle_type_id":"4","last_reported":1746375083,"current_range_meters":6000,"station_id":"ce4bha12rcd13ifvqef0","pricing_plan_id":"cebpf4jnsgd1na2vs0mg"},{"bike_id":"8df6e310-0880-40a9-a691-cd475dfa3928","system_id":"levelo_inurba_marseille","lat":43.285816,"lon":5.442429,"is_reserved":false,"is_disabled":false,"rental_uris":{"android":"levelo://app?vid=8df6e310-0880-40a9-a691-cd475dfa3928","ios":"levelo://app?vid=8df6e310-0880-40a9-a691-cd475dfa3928"},"vehicle_type_id":"4","last_reported":1746375083,"current_range_meters":6400,"station_id":"","pricing_plan_id":"cebpf4jnsgd1na2vs0mg"},{"bike_id":"74a5d7da-650a-42c8-90f7-3d6c871b0d25","system_id":"levelo_inurba_marseille","lat":43.2926,"lon":5.38443,"is_reserved":false,"is_disabled":false,"rental_uris":{"android":"levelo://app?vid=74a5d7da-650a-42c8-90f7-3d6c871b0d25","ios":"levelo://app?vid=74a5d7da-650a-42c8-90f7-3d6c871b0d25"},"vehicle_type_id":"4","last_reported":1746375083,"current_range_meters":6400,"station_id":"ce4bh692rcd13ifvqea0","pricing_plan_id":"cebpf4jnsgd1na2vs0mg"},{"bike_id":"ba041294-dd4f-4859-be31-8420a21d9e96","system_id":"levelo_inurba_marseille","lat":43.30567,"lon":5.36575,"is_reserved":false,"is_disabled":false,"rental_uris":{"android":"levelo://app?vid=ba041294-dd4f-4859-be31-8420a21d9e96","ios":"levelo://app?vid=ba041294-dd4f-4859-be31-8420a21d9e96"},"vehicle_type_id":"4","last_reported":1746375083,"current_range_meters":6800,"station_id":"ce4bgs12rcd13ifvqcag","pricing_plan_id":"cebpf4jnsgd1na2vs0mg"},{"bike_id":"404da817-f031-4950-ba8b-2104a38b67fb","system_id":"levelo_inurba_marseille","lat":43.27179,"lon":5.41,"is_reserved":false,"is_disabled":false,"rental_uris":{"android":"levelo://app?vid=404da817-f031-4950-ba8b-2104a38b67fb","ios":"levelo://app?vid=404da817-f031-4950-ba8b-2104a38b67fb"},"vehicle_type_id":"4","last_reported":1746375083,"current_range_meters":6800,"station_id":"ce4bhl12rcd13ifvqgf0","pricing_plan_id":"cebpf4jnsgd1na2vs0mg"},{"bike_id":"285a1804-07e6-4d66-bd31-f55923d3c81a","system_id":"levelo_inurba_marseille","lat":43.3093,"lon":5.40123,"is_reserved":false,"is_disabled":false,"rental_uris":{"android":"levelo://app?vid=285a1804-07e6-4d66-bd31-f55923d3c81a","ios":"levelo://app?vid=285a1804-07e6-4d66-bd31-f55923d3c81a"},"vehicle_type_id":"4","last_reported":1746375083,"current_range_meters":6800,"station_id":"ce4bgvp2rcd13ifvqct0","pricing_plan_id":"cebpf4jnsgd1na2vs0mg"},{"bike_id":"3ab3c86e-8d2f-4e36-8bad-85bca3eb2e34","system_id":"levelo_inurba_marseille","lat":43.21763,"lon":5.34606,"is_reserved":false,"is_disabled":true,"rental_uris":{"android":"levelo://app?vid=3ab3c86e-8d2f-4e36-8bad-85bca3eb2e34","ios":"levelo://app?vid=3ab3c86e-8d2f-4e36-8bad-85bca3eb2e34"},"vehicle_type_id":"4","last_reported":1746375083,"current_range_meters":6800,"station_id":"","pricing_plan_id":"cebpf4jnsgd1na2vs0mg"},{"bike_id":"4605e4be-46c6-4729-a936-4e6d46ac0d03","system_id":"levelo_inurba_marseille","lat":43.29537,"lon":5.39406,"is_reserved":false,"is_disabled":false,"rental_uris":{"android":"levelo://app?vid=4605e4be-46c6-4729-a936-4e6d46ac0d03","ios":"levelo://app?vid=4605e4be-46c6-4729-a936-4e6d46ac0d03"},"vehicle_type_id":"4","last_reported":1746375083,"current_range_meters":6800,"station_id":"ce4bh292rcd13ifvqdf0","pricing_plan_id":"cebpf4jnsgd1na2vs0mg"},{"bike_id":"909825d5-7ad2-409e-b0de-cec7d5b4fa06","system_id":"levelo_inurba_marseille","lat":43.242191,"lon":5.367354,"is_reserved":false,"is_disabled":false,"rental_uris":{"android":"levelo://app?vid=909825d5-7ad2-409e-b0de-cec7d5b4fa06","ios":"levelo://app?vid=909825d5-7ad2-409e-b0de-cec7d5b4fa06"},"vehicle_type_id":"4","last_reported":1746375083,"current_range_meters":6800,"station_id":"","pricing_plan_id":"cebpf4jnsgd1na2vs0mg"},{"bike_id":"f6f66e51-2791-4bd2-b786-d9b9e147c82c","system_id":"levelo_inurba_marseille","lat":43.30804,"lon":5.3815,"is_reserved":false,"is_disabled":false,"rental_uris":{"android":"levelo://app?vid=f6f66e51-2791-4bd2-b786-d9b9e147c82c","ios":"levelo://app?vid=f6f66e51-2791-4bd2-b786-d9b9e147c82c"},"vehicle_type_id":"4","last_reported":1746375083,"current_range_meters":6800,"station_id":"ce4bgt12rcd13ifvqce0","pricing_plan_id":"cebpf4jnsgd1na2vs0mg"},{"bike_id":"f1af01ba-be04-49ac-9e6d-4a09e2af0cb8","system_id":"levelo_inurba_marseille","lat":43.25111,"lon":5.40323,"is_reserved":false,"is_disabled":false,"rental_uris":{"android":"levelo://app?vid=f1af01ba-be04-49ac-9e6d-4a09e2af0cb8","ios":"levelo://app?vid=f1af01ba-be04-49ac-9e6d-4a09e2af0cb8"},"vehicle_type_id":"4","last_reported":1746375083,"current_range_meters":6800,"station_id":"ce4bhlh2rcd13ifvqgig","pricing_plan_id":"cebpf4jnsgd1na2vs0mg"},{"bike_id":"17cd42e0-f3d6-4b5d-a7a7-aae4daea5f81","system_id":"levelo_inurba_marseille","lat":43.211958,"lon":5.350663,"is_reserved":false,"is_disabled":false,"rental_uris":{"android":"levelo://app?vid=17cd42e0-f3d6-4b5d-a7a7-aae4daea5f81","ios":"levelo://app?vid=17cd42e0-f3d6-4b5d-a7a7-aae4daea5f81"},"vehicle_type_id":"4","last_reported":1746375083,"current_range_meters":6800,"station_id":"","pricing_plan_id":"cebpf4jnsgd1na2vs0mg"},{"bike_id":"6ae9068b-8534-47e2-832a-cb0e5255371d","system_id":"levelo_inurba_marseille","lat":43.337444,"lon":5.374475,"is_reserved":false,"is_disabled":false,"rental_uris":{"android":"levelo://app?vid=6ae9068b-8534-47e2-832a-cb0e5255371d","ios":"levelo://app?vid=6ae9068b-8534-47e2-832a-cb0e5255371d"},"vehicle_type_id":"4","last_reported":1746375083,"current_range_meters":7200,"station_id":"ce4bgvp2rcd13ifvqct0","pricing_plan_id":"cebpf4jnsgd1na2vs0mg"},{"bike_id":"4e3db2c1-dd72-47e1-b54c-80dd87863a5e","system_id":"levelo_inurba_marseille","lat":43.30532,"lon":5.36536,"is_reserved":false,"is_disabled":false,"rental_uris":{"android":"levelo://app?vid=4e3db2c1-dd72-47e1-b54c-80dd87863a5e","ios":"levelo://app?vid=4e3db2c1-dd72-47e1-b54c-80dd87863a5e"},"vehicle_type_id":"4","last_reported":1746375083,"current_range_meters":7200,"station_id":"ce4bgs12rcd13ifvqcag","pricing_plan_id":"cebpf4jnsgd1na2vs0mg"},{"bike_id":"0e0be7bc-20e5-424a-89ff-1b6d292738ac","system_id":"levelo_inurba_marseille","lat":43.217443,"lon":5.346194,"is_reserved":false,"is_disabled":false,"rental_uris":{"android":"levelo://app?vid=0e0be7bc-20e5-424a-89ff-1b6d292738ac","ios":"levelo://app?vid=0e0be7bc-20e5-424a-89ff-1b6d292738ac"},"vehicle_type_id":"4","last_reported":1746375083,"current_range_meters":7200,"station_id":"st_cvj6r9ubvosntc0bgbag","pricing_plan_id":"cebpf4jnsgd1na2vs0mg"},{"bike_id":"4a93eb55-7216-47f7-831b-049b35413d07","system_id":"levelo_inurba_marseille","lat":43.30796,"lon":5.37638,"is_reserved":false,"is_disabled":false,"rental_uris":{"android":"levelo://app?vid=4a93eb55-7216-47f7-831b-049b35413d07","ios":"levelo://app?vid=4a93eb55-7216-47f7-831b-049b35413d07"},"vehicle_type_id":"4","last_reported":1746375083,"current_range_meters":7200,"station_id":"ce4bgv92rcd13ifvqcq0","pricing_plan_id":"cebpf4jnsgd1na2vs0mg"},{"bike_id":"9fb412e6-84d5-4a48-977d-9ce4831930da","system_id":"levelo_inurba_marseille","lat":43.251,"lon":5.40319,"is_reserved":false,"is_disabled":false,"rental_uris":{"android":"levelo://app?vid=9fb412e6-84d5-4a48-977d-9ce4831930da","ios":"levelo://app?vid=9fb412e6-84d5-4a48-977d-9ce4831930da"},"vehicle_type_id":"4","last_reported":1746375083,"current_range_meters":7200,"station_id":"ce4bhlh2rcd13ifvqgig","pricing_plan_id":"cebpf4jnsgd1na2vs0mg"},{"bike_id":"0ecfd02f-f853-4362-9dcd-e959b1ad8321","system_id":"levelo_inurba_marseille","lat":43.2419,"lon":5.39756,"is_reserved":false,"is_disabled":false,"rental_uris":{"android":"levelo://app?vid=0ecfd02f-f853-4362-9dcd-e959b1ad8321","ios":"levelo://app?vid=0ecfd02f-f853-4362-9dcd-e959b1ad8321"},"vehicle_type_id":"4","last_reported":1746375083,"current_range_meters":7200,"station_id":"ce4bhn12rcd13ifvqgpg","pricing_plan_id":"cebpf4jnsgd1na2vs0mg"},{"bike_id":"9f4674d4-7cdb-4958-9049-02d5f3b52e20","system_id":"levelo_inurba_marseille","lat":43.29903,"lon":5.4365,"is_reserved":false,"is_disabled":false,"rental_uris":{"android":"levelo://app?vid=9f4674d4-7cdb-4958-9049-02d5f3b52e20","ios":"levelo://app?vid=9f4674d4-7cdb-4958-9049-02d5f3b52e20"},"vehicle_type_id":"4","last_reported":1746375083,"current_range_meters":7200,"station_id":"ce4bhpp2rcd13ifvqhfg","pricing_plan_id":"cebpf4jnsgd1na2vs0mg"},{"bike_id":"a9e81389-04bf-4a2a-ad52-b64e50e776c4","system_id":"levelo_inurba_marseille","lat":43.25111,"lon":5.40333,"is_reserved":false,"is_disabled":false,"rental_uris":{"android":"levelo://app?vid=a9e81389-04bf-4a2a-ad52-b64e50e776c4","ios":"levelo://app?vid=a9e81389-04bf-4a2a-ad52-b64e50e776c4"},"vehicle_type_id":"4","last_reported":1746375083,"current_range_meters":7200,"station_id":"ce4bhlh2rcd13ifvqgig","pricing_plan_id":"cebpf4jnsgd1na2vs0mg"},{"bike_id":"f0259f55-382d-4317-a5a3-c63365a0d76b","system_id":"levelo_inurba_marseille","lat":43.255329,"lon":5.417955,"is_reserved":false,"is_disabled":false,"rental_uris":{"android":"levelo://app?vid=f0259f55-382d-4317-a5a3-c63365a0d76b","ios":"levelo://app?vid=f0259f55-382d-4317-a5a3-c63365a0d76b"},"vehicle_type_id":"4","last_reported":1746375083,"current_range_meters":8000,"station_id":"","pricing_plan_id":"cebpf4jnsgd1na2vs0mg"},{"bike_id":"fb582505-15b6-40c6-97cc-2feebea7d568","system_id":"levelo_inurba_marseille","lat":43.30413,"lon":5.39748,"is_reserved":false,"is_disabled":true,"rental_uris":{"android":"levelo://app?vid=fb582505-15b6-40c6-97cc-2feebea7d568","ios":"levelo://app?vid=fb582505-15b6-40c6-97cc-2feebea7d568"},"vehicle_type_id":"4","last_reported":1746375083,"current_range_meters":8000,"station_id":"ce4bh092rcd13ifvqd20","pricing_plan_id":"cebpf4jnsgd1na2vs0mg"},{"bike_id":"3b2cde0b-a9f3-42e3-81cc-45dd9d10a02f","system_id":"levelo_inurba_marseille","lat":43.2749,"lon":5.42451,"is_reserved":false,"is_disabled":false,"rental_uris":{"android":"levelo://app?vid=3b2cde0b-a9f3-42e3-81cc-45dd9d10a02f","ios":"levelo://app?vid=3b2cde0b-a9f3-42e3-81cc-45dd9d10a02f"},"vehicle_type_id":"4","last_reported":1746375083,"current_range_meters":8000,"station_id":"ce4bhn92rcd13ifvqgrg","pricing_plan_id":"cebpf4jnsgd1na2vs0mg"},{"bike_id":"d6f46377-72cc-4e6e-a85d-7f1eb0d77b48","system_id":"levelo_inurba_marseille","lat":43.27812,"lon":5.40704,"is_reserved":false,"is_disabled":false,"rental_uris":{"android":"levelo://app?vid=d6f46377-72cc-4e6e-a85d-7f1eb0d77b48","ios":"levelo://app?vid=d6f46377-72cc-4e6e-a85d-7f1eb0d77b48"},"vehicle_type_id":"4","last_reported":1746375083,"current_range_meters":8000,"station_id":"ce4bhnh2rcd13ifvqgtg","pricing_plan_id":"cebpf4jnsgd1na2vs0mg"},{"bike_id":"89e16aa8-f11d-4749-a4d2-fadbc12fff3b","system_id":"levelo_inurba_marseille","lat":43.27566,"lon":5.38433,"is_reserved":false,"is_disabled":false,"rental_uris":{"android":"levelo://app?vid=89e16aa8-f11d-4749-a4d2-fadbc12fff3b","ios":"levelo://app?vid=89e16aa8-f11d-4749-a4d2-fadbc12fff3b"},"vehicle_type_id":"4","last_reported":1746375083,"current_range_meters":8000,"station_id":"ce4bhh92rcd13ifvqfi0","pricing_plan_id":"cebpf4jnsgd1na2vs0mg"},{"bike_id":"f06c4667-9ef9-4dc2-8fda-8d26a990386f","system_id":"levelo_inurba_marseille","lat":43.28173,"lon":5.4263,"is_reserved":false,"is_disabled":false,"rental_uris":{"android":"levelo://app?vid=f06c4667-9ef9-4dc2-8fda-8d26a990386f","ios":"levelo://app?vid=f06c4667-9ef9-4dc2-8fda-8d26a990386f"},"vehicle_type_id":"4","last_reported":1746375083,"current_range_meters":8000,"station_id":"ce4bhnh2rcd13ifvqgug","pricing_plan_id":"cebpf4jnsgd1na2vs0mg"},{"bike_id":"3f66399a-314f-412d-a7f4-985bf3bed62f","system_id":"levelo_inurba_marseille","lat":43.31682,"lon":5.40469,"is_reserved":false,"is_disabled":false,"rental_uris":{"android":"levelo://app?vid=3f66399a-314f-412d-a7f4-985bf3bed62f","ios":"levelo://app?vid=3f66399a-314f-412d-a7f4-985bf3bed62f"},"vehicle_type_id":"4","last_reported":1746375083,"current_range_meters":8400,"station_id":"ce4bh012rcd13ifvqd00","pricing_plan_id":"cebpf4jnsgd1na2vs0mg"},{"bike_id":"e9c24f3d-2135-45ef-8f3e-49aaf01d2847","system_id":"levelo_inurba_marseille","lat":43.26253,"lon":5.37525,"is_reserved":false,"is_disabled":true,"rental_uris":{"android":"levelo://app?vid=e9c24f3d-2135-45ef-8f3e-49aaf01d2847","ios":"levelo://app?vid=e9c24f3d-2135-45ef-8f3e-49aaf01d2847"},"vehicle_type_id":"4","last_reported":1746375083,"current_range_meters":8400,"station_id":"","pricing_plan_id":"cebpf4jnsgd1na2vs0mg"},{"bike_id":"4d9c785a-6a14-4f60-8bcb-eb74d56c9262","system_id":"levelo_inurba_marseille","lat":43.27057,"lon":5.42266,"is_reserved":false,"is_disabled":false,"rental_uris":{"android":"levelo://app?vid=4d9c785a-6a14-4f60-8bcb-eb74d56c9262","ios":"levelo://app?vid=4d9c785a-6a14-4f60-8bcb-eb74d56c9262"},"vehicle_type_id":"4","last_reported":1746375083,"current_range_meters":8400,"station_id":"ce4bhk92rcd13ifvqgb0","pricing_plan_id":"cebpf4jnsgd1na2vs0mg"},{"bike_id":"0ec0d934-5c67-44dd-89d6-536579a065e4","system_id":"levelo_inurba_marseille","lat":43.27661,"lon":5.38873,"is_reserved":false,"is_disabled":false,"rental_uris":{"android":"levelo://app?vid=0ec0d934-5c67-44dd-89d6-536579a065e4","ios":"levelo://app?vid=0ec0d934-5c67-44dd-89d6-536579a065e4"},"vehicle_type_id":"4","last_reported":1746375083,"current_range_meters":8000,"station_id":"ce4bhi12rcd13ifvqfo0","pricing_plan_id":"cebpf4jnsgd1na2vs0mg"},{"bike_id":"6f8dd7c8-5eff-4509-9853-53af8780b6d6","system_id":"levelo_inurba_marseille","lat":43.245489,"lon":5.395244,"is_reserved":false,"is_disabled":false,"rental_uris":{"android":"levelo://app?vid=6f8dd7c8-5eff-4509-9853-53af8780b6d6","ios":"levelo://app?vid=6f8dd7c8-5eff-4509-9853-53af8780b6d6"},"vehicle_type_id":"4","last_reported":1746375083,"current_range_meters":8400,"station_id":"ce4bhlp2rcd13ifvqgjg","pricing_plan_id":"cebpf4jnsgd1na2vs0mg"},{"bike_id":"a0aae7b8-8c70-4466-a693-ceac31b60ff9","system_id":"levelo_inurba_marseille","lat":43.243892,"lon":5.370607,"is_reserved":false,"is_disabled":false,"rental_uris":{"android":"levelo://app?vid=a0aae7b8-8c70-4466-a693-ceac31b60ff9","ios":"levelo://app?vid=a0aae7b8-8c70-4466-a693-ceac31b60ff9"},"vehicle_type_id":"4","last_reported":1746375083,"current_range_meters":8400,"station_id":"ce4bhhh2rcd13ifvqfk0","pricing_plan_id":"cebpf4jnsgd1na2vs0mg"},{"bike_id":"7c9f302f-84ec-4062-ae0c-5788a6786ad9","system_id":"levelo_inurba_marseille","lat":43.217517,"lon":5.346004,"is_reserved":false,"is_disabled":false,"rental_uris":{"android":"levelo://app?vid=7c9f302f-84ec-4062-ae0c-5788a6786ad9","ios":"levelo://app?vid=7c9f302f-84ec-4062-ae0c-5788a6786ad9"},"vehicle_type_id":"4","last_reported":1746375083,"current_range_meters":8800,"station_id":"st_cvj6r9ubvosntc0bgbag","pricing_plan_id":"cebpf4jnsgd1na2vs0mg"},{"bike_id":"e4856e11-0139-477e-a022-4b979369719b","system_id":"levelo_inurba_marseille","lat":43.23972,"lon":5.36649,"is_reserved":false,"is_disabled":false,"rental_uris":{"android":"levelo://app?vid=e4856e11-0139-477e-a022-4b979369719b","ios":"levelo://app?vid=e4856e11-0139-477e-a022-4b979369719b"},"vehicle_type_id":"4","last_reported":1746375083,"current_range_meters":8800,"station_id":"ce4bhi12rcd13ifvqfp0","pricing_plan_id":"cebpf4jnsgd1na2vs0mg"},{"bike_id":"645c642e-f127-447b-85a3-d5537be9202e","system_id":"levelo_inurba_marseille","lat":43.304644,"lon":5.379146,"is_reserved":false,"is_disabled":false,"rental_uris":{"android":"levelo://app?vid=645c642e-f127-447b-85a3-d5537be9202e","ios":"levelo://app?vid=645c642e-f127-447b-85a3-d5537be9202e"},"vehicle_type_id":"4","last_reported":1746375083,"current_range_meters":8800,"station_id":"ce4bgup2rcd13ifvqcn0","pricing_plan_id":"cebpf4jnsgd1na2vs0mg"},{"bike_id":"f2f259d1-36b8-4370-b79f-1e8086cc6d08","system_id":"levelo_inurba_marseille","lat":43.27066,"lon":5.42279,"is_reserved":false,"is_disabled":false,"rental_uris":{"android":"levelo://app?vid=f2f259d1-36b8-4370-b79f-1e8086cc6d08","ios":"levelo://app?vid=f2f259d1-36b8-4370-b79f-1e8086cc6d08"},"vehicle_type_id":"4","last_reported":1746375083,"current_range_meters":8800,"station_id":"ce4bhk92rcd13ifvqgb0","pricing_plan_id":"cebpf4jnsgd1na2vs0mg"},{"bike_id":"05cdd6da-e920-4d7e-851a-954d203bf00a","system_id":"levelo_inurba_marseille","lat":43.23191,"lon":5.39987,"is_reserved":false,"is_disabled":false,"rental_uris":{"android":"levelo://app?vid=05cdd6da-e920-4d7e-851a-954d203bf00a","ios":"levelo://app?vid=05cdd6da-e920-4d7e-851a-954d203bf00a"},"vehicle_type_id":"4","last_reported":1746375083,"current_range_meters":8800,"station_id":"ce4bhn12rcd13ifvqgqg","pricing_plan_id":"cebpf4jnsgd1na2vs0mg"},{"bike_id":"fd2c3c67-23a6-4380-b7ca-8f23c8f78921","system_id":"levelo_inurba_marseille","lat":43.323635,"lon":5.367449,"is_reserved":false,"is_disabled":false,"rental_uris":{"android":"levelo://app?vid=fd2c3c67-23a6-4380-b7ca-8f23c8f78921","ios":"levelo://app?vid=fd2c3c67-23a6-4380-b7ca-8f23c8f78921"},"vehicle_type_id":"4","last_reported":1746375083,"current_range_meters":8800,"station_id":"ce4bhsh2rcd13ifvqi2g","pricing_plan_id":"cebpf4jnsgd1na2vs0mg"},{"bike_id":"d55c8237-2304-4efd-993e-dc727f0f1b6a","system_id":"levelo_inurba_marseille","lat":43.22522,"lon":5.34771,"is_reserved":false,"is_disabled":false,"rental_uris":{"android":"levelo://app?vid=d55c8237-2304-4efd-993e-dc727f0f1b6a","ios":"levelo://app?vid=d55c8237-2304-4efd-993e-dc727f0f1b6a"},"vehicle_type_id":"4","last_reported":1746375083,"current_range_meters":9200,"station_id":"st_cvj5dfep6f1abm77gieg","pricing_plan_id":"cebpf4jnsgd1na2vs0mg"},{"bike_id":"149c95b4-f578-461b-97eb-b1c79b5173cd","system_id":"levelo_inurba_marseille","lat":43.29923,"lon":5.38161,"is_reserved":false,"is_disabled":true,"rental_uris":{"android":"levelo://app?vid=149c95b4-f578-461b-97eb-b1c79b5173cd","ios":"levelo://app?vid=149c95b4-f578-461b-97eb-b1c79b5173cd"},"vehicle_type_id":"4","last_reported":1746375083,"current_range_meters":9200,"station_id":"ce4bgj12rcd13ifvqbc0","pricing_plan_id":"cebpf4jnsgd1na2vs0mg"},{"bike_id":"1d59b5c9-cca4-43f9-a7f4-1bb7ebcfb8ae","system_id":"levelo_inurba_marseille","lat":43.27373,"lon":5.362545,"is_reserved":false,"is_disabled":true,"rental_uris":{"android":"levelo://app?vid=1d59b5c9-cca4-43f9-a7f4-1bb7ebcfb8ae","ios":"levelo://app?vid=1d59b5c9-cca4-43f9-a7f4-1bb7ebcfb8ae"},"vehicle_type_id":"4","last_reported":1746375083,"current_range_meters":9200,"station_id":"","pricing_plan_id":"cebpf4jnsgd1na2vs0mg"},{"bike_id":"a3a149ce-62d6-4eed-8e59-9e82fdb6aad7","system_id":"levelo_inurba_marseille","lat":43.25133,"lon":5.40326,"is_reserved":false,"is_disabled":false,"rental_uris":{"android":"levelo://app?vid=a3a149ce-62d6-4eed-8e59-9e82fdb6aad7","ios":"levelo://app?vid=a3a149ce-62d6-4eed-8e59-9e82fdb6aad7"},"vehicle_type_id":"4","last_reported":1746375083,"current_range_meters":9200,"station_id":"ce4bhlh2rcd13ifvqgig","pricing_plan_id":"cebpf4jnsgd1na2vs0mg"},{"bike_id":"274ad913-cb5d-44ea-8484-26eae07424ea","system_id":"levelo_inurba_marseille","lat":43.25858,"lon":5.39904,"is_reserved":false,"is_disabled":true,"rental_uris":{"android":"levelo://app?vid=274ad913-cb5d-44ea-8484-26eae07424ea","ios":"levelo://app?vid=274ad913-cb5d-44ea-8484-26eae07424ea"},"vehicle_type_id":"4","last_reported":1746375083,"current_range_meters":9200,"station_id":"ce4bhl92rcd13ifvqghg","pricing_plan_id":"cebpf4jnsgd1na2vs0mg"},{"bike_id":"89c5a075-7c7e-4ffe-b42c-f3bda787ff75","system_id":"levelo_inurba_marseille","lat":43.32259,"lon":5.37441,"is_reserved":false,"is_disabled":false,"rental_uris":{"android":"levelo://app?vid=89c5a075-7c7e-4ffe-b42c-f3bda787ff75","ios":"levelo://app?vid=89c5a075-7c7e-4ffe-b42c-f3bda787ff75"},"vehicle_type_id":"4","last_reported":1746375083,"current_range_meters":9200,"station_id":"","pricing_plan_id":"cebpf4jnsgd1na2vs0mg"},{"bike_id":"6338e318-2f80-4349-ae11-615c887b4fb9","system_id":"levelo_inurba_marseille","lat":43.25934,"lon":5.409,"is_reserved":false,"is_disabled":false,"rental_uris":{"android":"levelo://app?vid=6338e318-2f80-4349-ae11-615c887b4fb9","ios":"levelo://app?vid=6338e318-2f80-4349-ae11-615c887b4fb9"},"vehicle_type_id":"4","last_reported":1746375083,"current_range_meters":9200,"station_id":"ce4bhm92rcd13ifvqglg","pricing_plan_id":"cebpf4jnsgd1na2vs0mg"},{"bike_id":"51e137dc-06d4-4721-8a2f-24e002c6d5d0","system_id":"levelo_inurba_marseille","lat":43.24047,"lon":5.37785,"is_reserved":false,"is_disabled":false,"rental_uris":{"android":"levelo://app?vid=51e137dc-06d4-4721-8a2f-24e002c6d5d0","ios":"levelo://app?vid=51e137dc-06d4-4721-8a2f-24e002c6d5d0"},"vehicle_type_id":"4","last_reported":1746375083,"current_range_meters":9200,"station_id":"ce4bhnp2rcd13ifvqgvg","pricing_plan_id":"cebpf4jnsgd1na2vs0mg"},{"bike_id":"1c53114f-12ea-4131-9a1b-7fbb80d9df57","system_id":"levelo_inurba_marseille","lat":43.27107,"lon":5.42249,"is_reserved":false,"is_disabled":false,"rental_uris":{"android":"levelo://app?vid=1c53114f-12ea-4131-9a1b-7fbb80d9df57","ios":"levelo://app?vid=1c53114f-12ea-4131-9a1b-7fbb80d9df57"},"vehicle_type_id":"4","last_reported":1746375083,"current_range_meters":9600,"station_id":"ce4bhk92rcd13ifvqgb0","pricing_plan_id":"cebpf4jnsgd1na2vs0mg"},{"bike_id":"aedf206f-89f3-4f30-9da6-56fb7ff8915b","system_id":"levelo_inurba_marseille","lat":43.281214,"lon":5.404014,"is_reserved":false,"is_disabled":false,"rental_uris":{"android":"levelo://app?vid=aedf206f-89f3-4f30-9da6-56fb7ff8915b","ios":"levelo://app?vid=aedf206f-89f3-4f30-9da6-56fb7ff8915b"},"vehicle_type_id":"4","last_reported":1746375083,"current_range_meters":9600,"station_id":"","pricing_plan_id":"cebpf4jnsgd1na2vs0mg"},{"bike_id":"1a7db7ca-aa1b-4aeb-bb91-375fb343fdce","system_id":"levelo_inurba_marseille","lat":43.24063,"lon":5.3775,"is_reserved":false,"is_disabled":false,"rental_uris":{"android":"levelo://app?vid=1a7db7ca-aa1b-4aeb-bb91-375fb343fdce","ios":"levelo://app?vid=1a7db7ca-aa1b-4aeb-bb91-375fb343fdce"},"vehicle_type_id":"4","last_reported":1746375083,"current_range_meters":9600,"station_id":"ce4bhnp2rcd13ifvqgvg","pricing_plan_id":"cebpf4jnsgd1na2vs0mg"},{"bike_id":"4badb9b6-3851-4c8c-a36e-7c02f91ea1d9","system_id":"levelo_inurba_marseille","lat":43.21203,"lon":5.35092,"is_reserved":false,"is_disabled":false,"rental_uris":{"android":"levelo://app?vid=4badb9b6-3851-4c8c-a36e-7c02f91ea1d9","ios":"levelo://app?vid=4badb9b6-3851-4c8c-a36e-7c02f91ea1d9"},"vehicle_type_id":"4","last_reported":1746375083,"current_range_meters":9600,"station_id":"st_cvj6sg6p6f1abm77japg","pricing_plan_id":"cebpf4jnsgd1na2vs0mg"},{"bike_id":"c59dd5c1-a195-4870-b3d7-afb523598e23","system_id":"levelo_inurba_marseille","lat":43.30798,"lon":5.4355,"is_reserved":false,"is_disabled":false,"rental_uris":{"android":"levelo://app?vid=c59dd5c1-a195-4870-b3d7-afb523598e23","ios":"levelo://app?vid=c59dd5c1-a195-4870-b3d7-afb523598e23"},"vehicle_type_id":"4","last_reported":1746375083,"current_range_meters":10000,"station_id":"ce4bhph2rcd13ifvqheg","pricing_plan_id":"cebpf4jnsgd1na2vs0mg"},{"bike_id":"b10901bc-afb6-4657-8344-f1f4848ffd7a","system_id":"levelo_inurba_marseille","lat":43.31903,"lon":5.40744,"is_reserved":false,"is_disabled":false,"rental_uris":{"android":"levelo://app?vid=b10901bc-afb6-4657-8344-f1f4848ffd7a","ios":"levelo://app?vid=b10901bc-afb6-4657-8344-f1f4848ffd7a"},"vehicle_type_id":"4","last_reported":1746375083,"current_range_meters":10000,"station_id":"ce4bhq12rcd13ifvqhig","pricing_plan_id":"cebpf4jnsgd1na2vs0mg"},{"bike_id":"94df7289-0088-4f02-9b5a-cdc6552b7367","system_id":"levelo_inurba_marseille","lat":43.29024,"lon":5.38646,"is_reserved":false,"is_disabled":false,"rental_uris":{"android":"levelo://app?vid=94df7289-0088-4f02-9b5a-cdc6552b7367","ios":"levelo://app?vid=94df7289-0088-4f02-9b5a-cdc6552b7367"},"vehicle_type_id":"4","last_reported":1746375083,"current_range_meters":10000,"station_id":"ce4bh4p2rcd13ifvqe0g","pricing_plan_id":"cebpf4jnsgd1na2vs0mg"},{"bike_id":"b23e6477-0706-440b-9dde-1183a17007da","system_id":"levelo_inurba_marseille","lat":43.27068,"lon":5.4227,"is_reserved":false,"is_disabled":false,"rental_uris":{"android":"levelo://app?vid=b23e6477-0706-440b-9dde-1183a17007da","ios":"levelo://app?vid=b23e6477-0706-440b-9dde-1183a17007da"},"vehicle_type_id":"4","last_reported":1746375083,"current_range_meters":10000,"station_id":"ce4bhk92rcd13ifvqgb0","pricing_plan_id":"cebpf4jnsgd1na2vs0mg"},{"bike_id":"c7d7e927-d481-48dc-9924-c23148169dba","system_id":"levelo_inurba_marseille","lat":43.30636,"lon":5.40103,"is_reserved":false,"is_disabled":false,"rental_uris":{"android":"levelo://app?vid=c7d7e927-d481-48dc-9924-c23148169dba","ios":"levelo://app?vid=c7d7e927-d481-48dc-9924-c23148169dba"},"vehicle_type_id":"4","last_reported":1746375083,"current_range_meters":10000,"station_id":"ce4bh112rcd13ifvqda0","pricing_plan_id":"cebpf4jnsgd1na2vs0mg"},{"bike_id":"0397570e-b83d-4017-8742-c3d74b4e8593","system_id":"levelo_inurba_marseille","lat":43.28812,"lon":5.38821,"is_reserved":false,"is_disabled":true,"rental_uris":{"android":"levelo://app?vid=0397570e-b83d-4017-8742-c3d74b4e8593","ios":"levelo://app?vid=0397570e-b83d-4017-8742-c3d74b4e8593"},"vehicle_type_id":"4","last_reported":1746375083,"current_range_meters":10000,"station_id":"","pricing_plan_id":"cebpf4jnsgd1na2vs0mg"},{"bike_id":"e7a53190-32a8-41d8-a52d-ab003914cabe","system_id":"levelo_inurba_marseille","lat":43.25495,"lon":5.3765,"is_reserved":false,"is_disabled":false,"rental_uris":{"android":"levelo://app?vid=e7a53190-32a8-41d8-a52d-ab003914cabe","ios":"levelo://app?vid=e7a53190-32a8-41d8-a52d-ab003914cabe"},"vehicle_type_id":"4","last_reported":1746375083,"current_range_meters":10800,"station_id":"ce4bhh12rcd13ifvqff0","pricing_plan_id":"cebpf4jnsgd1na2vs0mg"},{"bike_id":"77e5fc0c-8247-4eae-976e-b65c5c479c47","system_id":"levelo_inurba_marseille","lat":43.24406,"lon":5.37076,"is_reserved":false,"is_disabled":false,"rental_uris":{"android":"levelo://app?vid=77e5fc0c-8247-4eae-976e-b65c5c479c47","ios":"levelo://app?vid=77e5fc0c-8247-4eae-976e-b65c5c479c47"},"vehicle_type_id":"4","last_reported":1746375083,"current_range_meters":10800,"station_id":"ce4bhhh2rcd13ifvqfk0","pricing_plan_id":"cebpf4jnsgd1na2vs0mg"},{"bike_id":"5d7b2d6c-7ab3-449b-af50-81a2e1ab4a9d","system_id":"levelo_inurba_marseille","lat":43.282654,"lon":5.350701,"is_reserved":false,"is_disabled":false,"rental_uris":{"android":"levelo://app?vid=5d7b2d6c-7ab3-449b-af50-81a2e1ab4a9d","ios":"levelo://app?vid=5d7b2d6c-7ab3-449b-af50-81a2e1ab4a9d"},"vehicle_type_id":"4","last_reported":1746375083,"current_range_meters":11200,"station_id":"ce4bhbp2rcd13ifvqerg","pricing_plan_id":"cebpf4jnsgd1na2vs0mg"},{"bike_id":"baecf2d4-f935-45c1-9d81-5dd4689a0d91","system_id":"levelo_inurba_marseille","lat":43.28047,"lon":5.36971,"is_reserved":false,"is_disabled":false,"rental_uris":{"android":"levelo://app?vid=baecf2d4-f935-45c1-9d81-5dd4689a0d91","ios":"levelo://app?vid=baecf2d4-f935-45c1-9d81-5dd4689a0d91"},"vehicle_type_id":"4","last_reported":1746375083,"current_range_meters":11200,"station_id":"ce4bha12rcd13ifvqef0","pricing_plan_id":"cebpf4jnsgd1na2vs0mg"},{"bike_id":"49f2e8ef-3e8a-4844-b0f1-9077a212950a","system_id":"levelo_inurba_marseille","lat":43.31246,"lon":5.37167,"is_reserved":false,"is_disabled":false,"rental_uris":{"android":"levelo://app?vid=49f2e8ef-3e8a-4844-b0f1-9077a212950a","ios":"levelo://app?vid=49f2e8ef-3e8a-4844-b0f1-9077a212950a"},"vehicle_type_id":"4","last_reported":1746375083,"current_range_meters":11600,"station_id":"","pricing_plan_id":"cebpf4jnsgd1na2vs0mg"},{"bike_id":"c041e647-a532-4271-ab4c-b8d07e0d410f","system_id":"levelo_inurba_marseille","lat":43.24543,"lon":5.39516,"is_reserved":false,"is_disabled":false,"rental_uris":{"android":"levelo://app?vid=c041e647-a532-4271-ab4c-b8d07e0d410f","ios":"levelo://app?vid=c041e647-a532-4271-ab4c-b8d07e0d410f"},"vehicle_type_id":"4","last_reported":1746375083,"current_range_meters":11600,"station_id":"ce4bhlp2rcd13ifvqgjg","pricing_plan_id":"cebpf4jnsgd1na2vs0mg"},{"bike_id":"986f8e01-70fd-4832-850b-f3b9cc196999","system_id":"levelo_inurba_marseille","lat":43.26679,"lon":5.38265,"is_reserved":false,"is_disabled":false,"rental_uris":{"android":"levelo://app?vid=986f8e01-70fd-4832-850b-f3b9cc196999","ios":"levelo://app?vid=986f8e01-70fd-4832-850b-f3b9cc196999"},"vehicle_type_id":"4","last_reported":1746375083,"current_range_meters":11200,"station_id":"ce4bhg92rcd13ifvqf90","pricing_plan_id":"cebpf4jnsgd1na2vs0mg"},{"bike_id":"f40f2357-07bc-429b-9556-3a1b37ddfd3c","system_id":"levelo_inurba_marseille","lat":43.29373,"lon":5.37852,"is_reserved":false,"is_disabled":false,"rental_uris":{"android":"levelo://app?vid=f40f2357-07bc-429b-9556-3a1b37ddfd3c","ios":"levelo://app?vid=f40f2357-07bc-429b-9556-3a1b37ddfd3c"},"vehicle_type_id":"4","last_reported":1746375083,"current_range_meters":12000,"station_id":"ce4bgjh2rcd13ifvqbf0","pricing_plan_id":"cebpf4jnsgd1na2vs0mg"},{"bike_id":"f28f6892-6b8e-4bb4-bd97-24bcbf7f6f01","system_id":"levelo_inurba_marseille","lat":43.23169,"lon":5.4004,"is_reserved":false,"is_disabled":false,"rental_uris":{"android":"levelo://app?vid=f28f6892-6b8e-4bb4-bd97-24bcbf7f6f01","ios":"levelo://app?vid=f28f6892-6b8e-4bb4-bd97-24bcbf7f6f01"},"vehicle_type_id":"4","last_reported":1746375083,"current_range_meters":12000,"station_id":"ce4bhn12rcd13ifvqgqg","pricing_plan_id":"cebpf4jnsgd1na2vs0mg"},{"bike_id":"4b521072-a449-41c7-b214-27a4c7b43215","system_id":"levelo_inurba_marseille","lat":43.33146,"lon":5.38176,"is_reserved":false,"is_disabled":false,"rental_uris":{"android":"levelo://app?vid=4b521072-a449-41c7-b214-27a4c7b43215","ios":"levelo://app?vid=4b521072-a449-41c7-b214-27a4c7b43215"},"vehicle_type_id":"4","last_reported":1746375083,"current_range_meters":12000,"station_id":"","pricing_plan_id":"cebpf4jnsgd1na2vs0mg"},{"bike_id":"ad909f59-a93c-4074-922b-a6948ea89e49","system_id":"levelo_inurba_marseille","lat":43.26686,"lon":5.38247,"is_reserved":false,"is_disabled":false,"rental_uris":{"android":"levelo://app?vid=ad909f59-a93c-4074-922b-a6948ea89e49","ios":"levelo://app?vid=ad909f59-a93c-4074-922b-a6948ea89e49"},"vehicle_type_id":"4","last_reported":1746375083,"current_range_meters":12000,"station_id":"ce4bhg92rcd13ifvqf90","pricing_plan_id":"cebpf4jnsgd1na2vs0mg"},{"bike_id":"7851545e-136f-4386-a4f0-53ae01e08181","system_id":"levelo_inurba_marseille","lat":43.24808,"lon":5.37463,"is_reserved":false,"is_disabled":false,"rental_uris":{"android":"levelo://app?vid=7851545e-136f-4386-a4f0-53ae01e08181","ios":"levelo://app?vid=7851545e-136f-4386-a4f0-53ae01e08181"},"vehicle_type_id":"4","last_reported":1746375083,"current_range_meters":12400,"station_id":"ce4bhgh2rcd13ifvqfb0","pricing_plan_id":"cebpf4jnsgd1na2vs0mg"},{"bike_id":"e234c9c4-65cf-42bc-b2d9-38acc77199c3","system_id":"levelo_inurba_marseille","lat":43.37429,"lon":5.43779,"is_reserved":false,"is_disabled":false,"rental_uris":{"android":"levelo://app?vid=e234c9c4-65cf-42bc-b2d9-38acc77199c3","ios":"levelo://app?vid=e234c9c4-65cf-42bc-b2d9-38acc77199c3"},"vehicle_type_id":"4","last_reported":1746375083,"current_range_meters":12800,"station_id":"","pricing_plan_id":"cebpf4jnsgd1na2vs0mg"},{"bike_id":"b1e94ec2-c124-4b45-af28-71d37328dcf1","system_id":"levelo_inurba_marseille","lat":43.21771,"lon":5.34588,"is_reserved":false,"is_disabled":false,"rental_uris":{"android":"levelo://app?vid=b1e94ec2-c124-4b45-af28-71d37328dcf1","ios":"levelo://app?vid=b1e94ec2-c124-4b45-af28-71d37328dcf1"},"vehicle_type_id":"4","last_reported":1746375083,"current_range_meters":13600,"station_id":"","pricing_plan_id":"cebpf4jnsgd1na2vs0mg"},{"bike_id":"1b44d34e-5503-4245-83df-cdcd5bbaaaed","system_id":"levelo_inurba_marseille","lat":43.25727,"lon":5.41105,"is_reserved":false,"is_disabled":false,"rental_uris":{"android":"levelo://app?vid=1b44d34e-5503-4245-83df-cdcd5bbaaaed","ios":"levelo://app?vid=1b44d34e-5503-4245-83df-cdcd5bbaaaed"},"vehicle_type_id":"4","last_reported":1746375083,"current_range_meters":13600,"station_id":"ce4bhkp2rcd13ifvqgd0","pricing_plan_id":"cebpf4jnsgd1na2vs0mg"},{"bike_id":"5ef2e5d0-1991-43cb-be16-507fbf4cf56c","system_id":"levelo_inurba_marseille","lat":43.286612,"lon":5.386577,"is_reserved":false,"is_disabled":false,"rental_uris":{"android":"levelo://app?vid=5ef2e5d0-1991-43cb-be16-507fbf4cf56c","ios":"levelo://app?vid=5ef2e5d0-1991-43cb-be16-507fbf4cf56c"},"vehicle_type_id":"4","last_reported":1746375083,"current_range_meters":14000,"station_id":"ce4bh492rcd13ifvqdug","pricing_plan_id":"cebpf4jnsgd1na2vs0mg"},{"bike_id":"ddce0e6f-2723-480b-8f4f-db3e23560eb3","system_id":"levelo_inurba_marseille","lat":43.29842,"lon":5.36277,"is_reserved":false,"is_disabled":false,"rental_uris":{"android":"levelo://app?vid=ddce0e6f-2723-480b-8f4f-db3e23560eb3","ios":"levelo://app?vid=ddce0e6f-2723-480b-8f4f-db3e23560eb3"},"vehicle_type_id":"4","last_reported":1746375083,"current_range_meters":14000,"station_id":"ce4bgpp2rcd13ifvqc3g","pricing_plan_id":"cebpf4jnsgd1na2vs0mg"},{"bike_id":"634411b6-f06c-4f86-a9ab-7d83f0bd5db4","system_id":"levelo_inurba_marseille","lat":43.30431,"lon":5.38897,"is_reserved":false,"is_disabled":false,"rental_uris":{"android":"levelo://app?vid=634411b6-f06c-4f86-a9ab-7d83f0bd5db4","ios":"levelo://app?vid=634411b6-f06c-4f86-a9ab-7d83f0bd5db4"},"vehicle_type_id":"4","last_reported":1746375083,"current_range_meters":14000,"station_id":"ce4bgk12rcd13ifvqbi0","pricing_plan_id":"cebpf4jnsgd1na2vs0mg"},{"bike_id":"c1433ce3-c302-4d9c-89e8-03a0d20c737a","system_id":"levelo_inurba_marseille","lat":43.26972,"lon":5.3865,"is_reserved":false,"is_disabled":true,"rental_uris":{"android":"levelo://app?vid=c1433ce3-c302-4d9c-89e8-03a0d20c737a","ios":"levelo://app?vid=c1433ce3-c302-4d9c-89e8-03a0d20c737a"},"vehicle_type_id":"4","last_reported":1746375083,"current_range_meters":14000,"station_id":"ce4bhh92rcd13ifvqfh0","pricing_plan_id":"cebpf4jnsgd1na2vs0mg"},{"bike_id":"33e4c1f5-8251-46b6-82bd-2862f3e6beb2","system_id":"levelo_inurba_marseille","lat":43.28935,"lon":5.38411,"is_reserved":false,"is_disabled":false,"rental_uris":{"android":"levelo://app?vid=33e4c1f5-8251-46b6-82bd-2862f3e6beb2","ios":"levelo://app?vid=33e4c1f5-8251-46b6-82bd-2862f3e6beb2"},"vehicle_type_id":"4","last_reported":1746375083,"current_range_meters":14000,"station_id":"ce4bh612rcd13ifvqe6g","pricing_plan_id":"cebpf4jnsgd1na2vs0mg"},{"bike_id":"e84eee43-7ebe-4b56-a08b-27d6e58561fd","system_id":"levelo_inurba_marseille","lat":43.241771,"lon":5.397238,"is_reserved":false,"is_disabled":false,"rental_uris":{"android":"levelo://app?vid=e84eee43-7ebe-4b56-a08b-27d6e58561fd","ios":"levelo://app?vid=e84eee43-7ebe-4b56-a08b-27d6e58561fd"},"vehicle_type_id":"4","last_reported":1746375083,"current_range_meters":14000,"station_id":"ce4bhn12rcd13ifvqgpg","pricing_plan_id":"cebpf4jnsgd1na2vs0mg"},{"bike_id":"fdef9e55-be0f-41e0-8526-8e8fa7260880","system_id":"levelo_inurba_marseille","lat":43.31289,"lon":5.373962,"is_reserved":false,"is_disabled":false,"rental_uris":{"android":"levelo://app?vid=fdef9e55-be0f-41e0-8526-8e8fa7260880","ios":"levelo://app?vid=fdef9e55-be0f-41e0-8526-8e8fa7260880"},"vehicle_type_id":"4","last_reported":1746375083,"current_range_meters":14400,"station_id":"","pricing_plan_id":"cebpf4jnsgd1na2vs0mg"},{"bike_id":"9ebef22b-5dc5-41f4-b80e-25f01b74505b","system_id":"levelo_inurba_marseille","lat":43.303752,"lon":5.424826,"is_reserved":false,"is_disabled":false,"rental_uris":{"android":"levelo://app?vid=9ebef22b-5dc5-41f4-b80e-25f01b74505b","ios":"levelo://app?vid=9ebef22b-5dc5-41f4-b80e-25f01b74505b"},"vehicle_type_id":"4","last_reported":1746375083,"current_range_meters":14400,"station_id":"ce4bhoh2rcd13ifvqh6g","pricing_plan_id":"cebpf4jnsgd1na2vs0mg"},{"bike_id":"43f220ab-0408-46b3-abe5-60437ce3bc1e","system_id":"levelo_inurba_marseille","lat":43.231884,"lon":5.355613,"is_reserved":false,"is_disabled":false,"rental_uris":{"android":"levelo://app?vid=43f220ab-0408-46b3-abe5-60437ce3bc1e","ios":"levelo://app?vid=43f220ab-0408-46b3-abe5-60437ce3bc1e"},"vehicle_type_id":"4","last_reported":1746375083,"current_range_meters":14800,"station_id":"ce4bhu92rcd13ifvqi70","pricing_plan_id":"cebpf4jnsgd1na2vs0mg"},{"bike_id":"0c11662e-fc4d-4eaa-b63a-ff7ece390b22","system_id":"levelo_inurba_marseille","lat":43.2953,"lon":5.38555,"is_reserved":false,"is_disabled":false,"rental_uris":{"android":"levelo://app?vid=0c11662e-fc4d-4eaa-b63a-ff7ece390b22","ios":"levelo://app?vid=0c11662e-fc4d-4eaa-b63a-ff7ece390b22"},"vehicle_type_id":"4","last_reported":1746375083,"current_range_meters":14800,"station_id":"ce4bgih2rcd13ifvqba0","pricing_plan_id":"cebpf4jnsgd1na2vs0mg"},{"bike_id":"c2b9228e-578f-483d-b652-514bf50bca07","system_id":"levelo_inurba_marseille","lat":43.29284,"lon":5.40121,"is_reserved":false,"is_disabled":false,"rental_uris":{"android":"levelo://app?vid=c2b9228e-578f-483d-b652-514bf50bca07","ios":"levelo://app?vid=c2b9228e-578f-483d-b652-514bf50bca07"},"vehicle_type_id":"4","last_reported":1746375083,"current_range_meters":14800,"station_id":"ce4bh312rcd13ifvqdk0","pricing_plan_id":"cebpf4jnsgd1na2vs0mg"},{"bike_id":"0ff3b88b-4259-4f4c-b7af-eeb58b642f1a","system_id":"levelo_inurba_marseille","lat":43.29555,"lon":5.37511,"is_reserved":false,"is_disabled":false,"rental_uris":{"android":"levelo://app?vid=0ff3b88b-4259-4f4c-b7af-eeb58b642f1a","ios":"levelo://app?vid=0ff3b88b-4259-4f4c-b7af-eeb58b642f1a"},"vehicle_type_id":"4","last_reported":1746375083,"current_range_meters":14800,"station_id":"ce4bgh92rcd13ifvqb50","pricing_plan_id":"cebpf4jnsgd1na2vs0mg"},{"bike_id":"d9d8610d-6362-4841-86ac-786a4b4a7deb","system_id":"levelo_inurba_marseille","lat":43.274915,"lon":5.424732,"is_reserved":false,"is_disabled":false,"rental_uris":{"android":"levelo://app?vid=d9d8610d-6362-4841-86ac-786a4b4a7deb","ios":"levelo://app?vid=d9d8610d-6362-4841-86ac-786a4b4a7deb"},"vehicle_type_id":"4","last_reported":1746375083,"current_range_meters":15200,"station_id":"ce4bhn92rcd13ifvqgrg","pricing_plan_id":"cebpf4jnsgd1na2vs0mg"},{"bike_id":"7e3397ce-e59e-44fd-b5a1-467964722f06","system_id":"levelo_inurba_marseille","lat":43.29557,"lon":5.38555,"is_reserved":false,"is_disabled":false,"rental_uris":{"android":"levelo://app?vid=7e3397ce-e59e-44fd-b5a1-467964722f06","ios":"levelo://app?vid=7e3397ce-e59e-44fd-b5a1-467964722f06"},"vehicle_type_id":"4","last_reported":1746375083,"current_range_meters":16000,"station_id":"ce4bgih2rcd13ifvqba0","pricing_plan_id":"cebpf4jnsgd1na2vs0mg"},{"bike_id":"578732df-51ae-47a2-8d9a-a3a489ba150f","system_id":"levelo_inurba_marseille","lat":43.295536,"lon":5.422855,"is_reserved":false,"is_disabled":true,"rental_uris":{"android":"levelo://app?vid=578732df-51ae-47a2-8d9a-a3a489ba150f","ios":"levelo://app?vid=578732df-51ae-47a2-8d9a-a3a489ba150f"},"vehicle_type_id":"4","last_reported":1746375083,"current_range_meters":16000,"station_id":"ce4bhph2rcd13ifvqhdg","pricing_plan_id":"cebpf4jnsgd1na2vs0mg"},{"bike_id":"f07cfc50-1350-4568-9581-0845ede0b590","system_id":"levelo_inurba_marseille","lat":43.27115,"lon":5.42299,"is_reserved":false,"is_disabled":false,"rental_uris":{"android":"levelo://app?vid=f07cfc50-1350-4568-9581-0845ede0b590","ios":"levelo://app?vid=f07cfc50-1350-4568-9581-0845ede0b590"},"vehicle_type_id":"4","last_reported":1746375083,"current_range_meters":16000,"station_id":"","pricing_plan_id":"cebpf4jnsgd1na2vs0mg"},{"bike_id":"fb80c1da-d845-467b-9c3b-2f591f4d56ae","system_id":"levelo_inurba_marseille","lat":43.323406,"lon":5.37422,"is_reserved":false,"is_disabled":false,"rental_uris":{"android":"levelo://app?vid=fb80c1da-d845-467b-9c3b-2f591f4d56ae","ios":"levelo://app?vid=fb80c1da-d845-467b-9c3b-2f591f4d56ae"},"vehicle_type_id":"4","last_reported":1746375083,"current_range_meters":16400,"station_id":"","pricing_plan_id":"cebpf4jnsgd1na2vs0mg"},{"bike_id":"0abe7365-362a-4c2d-949a-e32faf9d4099","system_id":"levelo_inurba_marseille","lat":43.2118,"lon":5.35084,"is_reserved":false,"is_disabled":false,"rental_uris":{"android":"levelo://app?vid=0abe7365-362a-4c2d-949a-e32faf9d4099","ios":"levelo://app?vid=0abe7365-362a-4c2d-949a-e32faf9d4099"},"vehicle_type_id":"4","last_reported":1746375083,"current_range_meters":16400,"station_id":"st_cvj6sg6p6f1abm77japg","pricing_plan_id":"cebpf4jnsgd1na2vs0mg"},{"bike_id":"c934a038-999c-4097-b244-e68883d621e3","system_id":"levelo_inurba_marseille","lat":43.30547,"lon":5.36536,"is_reserved":false,"is_disabled":true,"rental_uris":{"android":"levelo://app?vid=c934a038-999c-4097-b244-e68883d621e3","ios":"levelo://app?vid=c934a038-999c-4097-b244-e68883d621e3"},"vehicle_type_id":"4","last_reported":1746375083,"current_range_meters":16400,"station_id":"ce4bgs12rcd13ifvqcag","pricing_plan_id":"cebpf4jnsgd1na2vs0mg"},{"bike_id":"8ab46f99-9644-474c-9745-b78357bd9ec9","system_id":"levelo_inurba_marseille","lat":43.37405,"lon":5.43787,"is_reserved":false,"is_disabled":false,"rental_uris":{"android":"levelo://app?vid=8ab46f99-9644-474c-9745-b78357bd9ec9","ios":"levelo://app?vid=8ab46f99-9644-474c-9745-b78357bd9ec9"},"vehicle_type_id":"4","last_reported":1746375083,"current_range_meters":16400,"station_id":"","pricing_plan_id":"cebpf4jnsgd1na2vs0mg"},{"bike_id":"d090085b-b127-4c33-afd4-4f378f97cece","system_id":"levelo_inurba_marseille","lat":43.29222,"lon":5.360403,"is_reserved":false,"is_disabled":false,"rental_uris":{"android":"levelo://app?vid=d090085b-b127-4c33-afd4-4f378f97cece","ios":"levelo://app?vid=d090085b-b127-4c33-afd4-4f378f97cece"},"vehicle_type_id":"4","last_reported":1746375083,"current_range_meters":16400,"station_id":"ce4bhbh2rcd13ifvqeqg","pricing_plan_id":"cebpf4jnsgd1na2vs0mg"},{"bike_id":"fa509948-bf73-4ac7-8923-c0e402f79fbe","system_id":"levelo_inurba_marseille","lat":43.289307,"lon":5.384091,"is_reserved":false,"is_disabled":false,"rental_uris":{"android":"levelo://app?vid=fa509948-bf73-4ac7-8923-c0e402f79fbe","ios":"levelo://app?vid=fa509948-bf73-4ac7-8923-c0e402f79fbe"},"vehicle_type_id":"4","last_reported":1746375083,"current_range_meters":16400,"station_id":"ce4bh612rcd13ifvqe6g","pricing_plan_id":"cebpf4jnsgd1na2vs0mg"},{"bike_id":"b3fe0b19-2211-4f86-9a98-f3b710f3310f","system_id":"levelo_inurba_marseille","lat":43.29521,"lon":5.39411,"is_reserved":false,"is_disabled":false,"rental_uris":{"android":"levelo://app?vid=b3fe0b19-2211-4f86-9a98-f3b710f3310f","ios":"levelo://app?vid=b3fe0b19-2211-4f86-9a98-f3b710f3310f"},"vehicle_type_id":"4","last_reported":1746375083,"current_range_meters":16400,"station_id":"ce4bh292rcd13ifvqdf0","pricing_plan_id":"cebpf4jnsgd1na2vs0mg"},{"bike_id":"c1164673-c116-4f91-8aab-6e7c7c72c246","system_id":"levelo_inurba_marseille","lat":43.28031,"lon":5.36944,"is_reserved":false,"is_disabled":false,"rental_uris":{"android":"levelo://app?vid=c1164673-c116-4f91-8aab-6e7c7c72c246","ios":"levelo://app?vid=c1164673-c116-4f91-8aab-6e7c7c72c246"},"vehicle_type_id":"4","last_reported":1746375083,"current_range_meters":16800,"station_id":"ce4bha12rcd13ifvqef0","pricing_plan_id":"cebpf4jnsgd1na2vs0mg"},{"bike_id":"3e3b735e-1de6-4f7d-9a13-ff336cf16341","system_id":"levelo_inurba_marseille","lat":43.29911,"lon":5.3746,"is_reserved":false,"is_disabled":false,"rental_uris":{"android":"levelo://app?vid=3e3b735e-1de6-4f7d-9a13-ff336cf16341","ios":"levelo://app?vid=3e3b735e-1de6-4f7d-9a13-ff336cf16341"},"vehicle_type_id":"4","last_reported":1746375083,"current_range_meters":16800,"station_id":"ce4bgjh2rcd13ifvqbg0","pricing_plan_id":"cebpf4jnsgd1na2vs0mg"},{"bike_id":"114a16f7-4b98-4ec1-a103-ecace5542fe5","system_id":"levelo_inurba_marseille","lat":43.3054,"lon":5.36545,"is_reserved":false,"is_disabled":false,"rental_uris":{"android":"levelo://app?vid=114a16f7-4b98-4ec1-a103-ecace5542fe5","ios":"levelo://app?vid=114a16f7-4b98-4ec1-a103-ecace5542fe5"},"vehicle_type_id":"4","last_reported":1746375083,"current_range_meters":16800,"station_id":"ce4bgs12rcd13ifvqcag","pricing_plan_id":"cebpf4jnsgd1na2vs0mg"},{"bike_id":"cb0a7ff5-b4ff-4d3e-8306-c149ade4bdfb","system_id":"levelo_inurba_marseille","lat":43.27217,"lon":5.39192,"is_reserved":false,"is_disabled":true,"rental_uris":{"android":"levelo://app?vid=cb0a7ff5-b4ff-4d3e-8306-c149ade4bdfb","ios":"levelo://app?vid=cb0a7ff5-b4ff-4d3e-8306-c149ade4bdfb"},"vehicle_type_id":"4","last_reported":1746375083,"current_range_meters":16800,"station_id":"ce4bhhp2rcd13ifvqfm0","pricing_plan_id":"cebpf4jnsgd1na2vs0mg"},{"bike_id":"bfde4c09-4802-4193-9d99-6cd2e1675207","system_id":"levelo_inurba_marseille","lat":43.32519,"lon":5.4146,"is_reserved":false,"is_disabled":false,"rental_uris":{"android":"levelo://app?vid=bfde4c09-4802-4193-9d99-6cd2e1675207","ios":"levelo://app?vid=bfde4c09-4802-4193-9d99-6cd2e1675207"},"vehicle_type_id":"4","last_reported":1746375083,"current_range_meters":16800,"station_id":"ce4bhq12rcd13ifvqhhg","pricing_plan_id":"cebpf4jnsgd1na2vs0mg"},{"bike_id":"0a0ece37-539d-4aa3-b235-deb8a4daf593","system_id":"levelo_inurba_marseille","lat":43.33081,"lon":5.40822,"is_reserved":false,"is_disabled":false,"rental_uris":{"android":"levelo://app?vid=0a0ece37-539d-4aa3-b235-deb8a4daf593","ios":"levelo://app?vid=0a0ece37-539d-4aa3-b235-deb8a4daf593"},"vehicle_type_id":"4","last_reported":1746375083,"current_range_meters":16800,"station_id":"","pricing_plan_id":"cebpf4jnsgd1na2vs0mg"},{"bike_id":"ef2f410d-cc1b-40b7-bf77-aa6b672bf015","system_id":"levelo_inurba_marseille","lat":43.25117,"lon":5.40314,"is_reserved":false,"is_disabled":false,"rental_uris":{"android":"levelo://app?vid=ef2f410d-cc1b-40b7-bf77-aa6b672bf015","ios":"levelo://app?vid=ef2f410d-cc1b-40b7-bf77-aa6b672bf015"},"vehicle_type_id":"4","last_reported":1746375083,"current_range_meters":17200,"station_id":"ce4bhlh2rcd13ifvqgig","pricing_plan_id":"cebpf4jnsgd1na2vs0mg"},{"bike_id":"1885e4e4-787e-4399-a182-13afb5671e8f","system_id":"levelo_inurba_marseille","lat":43.31756,"lon":5.39017,"is_reserved":false,"is_disabled":false,"rental_uris":{"android":"levelo://app?vid=1885e4e4-787e-4399-a182-13afb5671e8f","ios":"levelo://app?vid=1885e4e4-787e-4399-a182-13afb5671e8f"},"vehicle_type_id":"4","last_reported":1746375083,"current_range_meters":17200,"station_id":"ce4bhqp2rcd13ifvqhng","pricing_plan_id":"cebpf4jnsgd1na2vs0mg"},{"bike_id":"fb207fcb-a2e9-401d-8c36-093f5d477e27","system_id":"levelo_inurba_marseille","lat":43.29705,"lon":5.36614,"is_reserved":false,"is_disabled":false,"rental_uris":{"android":"levelo://app?vid=fb207fcb-a2e9-401d-8c36-093f5d477e27","ios":"levelo://app?vid=fb207fcb-a2e9-401d-8c36-093f5d477e27"},"vehicle_type_id":"4","last_reported":1746375083,"current_range_meters":17200,"station_id":"ce4bgn12rcd13ifvqbt0","pricing_plan_id":"cebpf4jnsgd1na2vs0mg"},{"bike_id":"e883c754-88b4-4758-a509-0e95dc305fea","system_id":"levelo_inurba_marseille","lat":43.284067,"lon":5.375018,"is_reserved":false,"is_disabled":false,"rental_uris":{"android":"levelo://app?vid=e883c754-88b4-4758-a509-0e95dc305fea","ios":"levelo://app?vid=e883c754-88b4-4758-a509-0e95dc305fea"},"vehicle_type_id":"4","last_reported":1746375083,"current_range_meters":17200,"station_id":"ce4bht12rcd13ifvqi60","pricing_plan_id":"cebpf4jnsgd1na2vs0mg"},{"bike_id":"e22c6726-a820-4ab9-bd2d-8d91a2e16de0","system_id":"levelo_inurba_marseille","lat":43.28402,"lon":5.37517,"is_reserved":false,"is_disabled":false,"rental_uris":{"android":"levelo://app?vid=e22c6726-a820-4ab9-bd2d-8d91a2e16de0","ios":"levelo://app?vid=e22c6726-a820-4ab9-bd2d-8d91a2e16de0"},"vehicle_type_id":"4","last_reported":1746375083,"current_range_meters":17200,"station_id":"ce4bh412rcd13ifvqds0","pricing_plan_id":"cebpf4jnsgd1na2vs0mg"},{"bike_id":"b3cbb21e-793f-478c-9965-8205d52774c6","system_id":"levelo_inurba_marseille","lat":43.307381,"lon":5.424301,"is_reserved":false,"is_disabled":false,"rental_uris":{"android":"levelo://app?vid=b3cbb21e-793f-478c-9965-8205d52774c6","ios":"levelo://app?vid=b3cbb21e-793f-478c-9965-8205d52774c6"},"vehicle_type_id":"4","last_reported":1746375083,"current_range_meters":17200,"station_id":"st_cvj6ca6bvosntc0bfgr0","pricing_plan_id":"cebpf4jnsgd1na2vs0mg"},{"bike_id":"8536704e-961e-4868-ad07-81df77fc76eb","system_id":"levelo_inurba_marseille","lat":43.29009,"lon":5.35621,"is_reserved":false,"is_disabled":true,"rental_uris":{"android":"levelo://app?vid=8536704e-961e-4868-ad07-81df77fc76eb","ios":"levelo://app?vid=8536704e-961e-4868-ad07-81df77fc76eb"},"vehicle_type_id":"4","last_reported":1746375083,"current_range_meters":17600,"station_id":"ce4bhb92rcd13ifvqen0","pricing_plan_id":"cebpf4jnsgd1na2vs0mg"},{"bike_id":"3c9de8db-86b6-49e6-b059-3ba8d4cbeaa2","system_id":"levelo_inurba_marseille","lat":43.28455,"lon":5.35883,"is_reserved":false,"is_disabled":false,"rental_uris":{"android":"levelo://app?vid=3c9de8db-86b6-49e6-b059-3ba8d4cbeaa2","ios":"levelo://app?vid=3c9de8db-86b6-49e6-b059-3ba8d4cbeaa2"},"vehicle_type_id":"4","last_reported":1746375083,"current_range_meters":17600,"station_id":"ce4bhah2rcd13ifvqei0","pricing_plan_id":"cebpf4jnsgd1na2vs0mg"},{"bike_id":"086126b2-412a-4875-9dbb-85dc061d4895","system_id":"levelo_inurba_marseille","lat":43.312166,"lon":5.368414,"is_reserved":false,"is_disabled":false,"rental_uris":{"android":"levelo://app?vid=086126b2-412a-4875-9dbb-85dc061d4895","ios":"levelo://app?vid=086126b2-412a-4875-9dbb-85dc061d4895"},"vehicle_type_id":"4","last_reported":1746375083,"current_range_meters":17600,"station_id":"ce4bgl92rcd13ifvqbq0","pricing_plan_id":"cebpf4jnsgd1na2vs0mg"},{"bike_id":"602c308e-7629-4f71-8889-4402194a6a9d","system_id":"levelo_inurba_marseille","lat":43.28271,"lon":5.35061,"is_reserved":false,"is_disabled":false,"rental_uris":{"android":"levelo://app?vid=602c308e-7629-4f71-8889-4402194a6a9d","ios":"levelo://app?vid=602c308e-7629-4f71-8889-4402194a6a9d"},"vehicle_type_id":"4","last_reported":1746375083,"current_range_meters":17600,"station_id":"ce4bhbp2rcd13ifvqerg","pricing_plan_id":"cebpf4jnsgd1na2vs0mg"},{"bike_id":"3ff1331f-d2b9-4db6-9af0-17b5a04341a5","system_id":"levelo_inurba_marseille","lat":43.24326,"lon":5.37993,"is_reserved":false,"is_disabled":false,"rental_uris":{"android":"levelo://app?vid=3ff1331f-d2b9-4db6-9af0-17b5a04341a5","ios":"levelo://app?vid=3ff1331f-d2b9-4db6-9af0-17b5a04341a5"},"vehicle_type_id":"4","last_reported":1746375083,"current_range_meters":17600,"station_id":"","pricing_plan_id":"cebpf4jnsgd1na2vs0mg"},{"bike_id":"53902522-add6-4e05-b94e-4c542746b08d","system_id":"levelo_inurba_marseille","lat":43.30223,"lon":5.39476,"is_reserved":false,"is_disabled":false,"rental_uris":{"android":"levelo://app?vid=53902522-add6-4e05-b94e-4c542746b08d","ios":"levelo://app?vid=53902522-add6-4e05-b94e-4c542746b08d"},"vehicle_type_id":"4","last_reported":1746375083,"current_range_meters":17600,"station_id":"ce4bh0p2rcd13ifvqd70","pricing_plan_id":"cebpf4jnsgd1na2vs0mg"},{"bike_id":"4b962c7e-365b-448d-92be-509804de58d8","system_id":"levelo_inurba_marseille","lat":43.26803,"lon":5.40278,"is_reserved":false,"is_disabled":false,"rental_uris":{"android":"levelo://app?vid=4b962c7e-365b-448d-92be-509804de58d8","ios":"levelo://app?vid=4b962c7e-365b-448d-92be-509804de58d8"},"vehicle_type_id":"4","last_reported":1746375083,"current_range_meters":18000,"station_id":"ce501612rcd8frsf0b60","pricing_plan_id":"cebpf4jnsgd1na2vs0mg"},{"bike_id":"f5539e44-f759-45e6-bb7d-0808360893a6","system_id":"levelo_inurba_marseille","lat":43.29544,"lon":5.38563,"is_reserved":false,"is_disabled":false,"rental_uris":{"android":"levelo://app?vid=f5539e44-f759-45e6-bb7d-0808360893a6","ios":"levelo://app?vid=f5539e44-f759-45e6-bb7d-0808360893a6"},"vehicle_type_id":"4","last_reported":1746375083,"current_range_meters":18000,"station_id":"ce4bgih2rcd13ifvqba0","pricing_plan_id":"cebpf4jnsgd1na2vs0mg"},{"bike_id":"7ad04c1b-fc26-4c94-a72f-89c6e3ca5c32","system_id":"levelo_inurba_marseille","lat":43.31184,"lon":5.40759,"is_reserved":false,"is_disabled":false,"rental_uris":{"android":"levelo://app?vid=7ad04c1b-fc26-4c94-a72f-89c6e3ca5c32","ios":"levelo://app?vid=7ad04c1b-fc26-4c94-a72f-89c6e3ca5c32"},"vehicle_type_id":"4","last_reported":1746375083,"current_range_meters":18000,"station_id":"","pricing_plan_id":"cebpf4jnsgd1na2vs0mg"},{"bike_id":"a7393548-1ca4-426f-bec8-e094325f844e","system_id":"levelo_inurba_marseille","lat":43.26304,"lon":5.37445,"is_reserved":false,"is_disabled":false,"rental_uris":{"android":"levelo://app?vid=a7393548-1ca4-426f-bec8-e094325f844e","ios":"levelo://app?vid=a7393548-1ca4-426f-bec8-e094325f844e"},"vehicle_type_id":"4","last_reported":1746375083,"current_range_meters":18000,"station_id":"","pricing_plan_id":"cebpf4jnsgd1na2vs0mg"},{"bike_id":"9293995f-6088-445a-9161-eecaf96d78d3","system_id":"levelo_inurba_marseille","lat":43.31362,"lon":5.38493,"is_reserved":false,"is_disabled":false,"rental_uris":{"android":"levelo://app?vid=9293995f-6088-445a-9161-eecaf96d78d3","ios":"levelo://app?vid=9293995f-6088-445a-9161-eecaf96d78d3"},"vehicle_type_id":"4","last_reported":1746375083,"current_range_meters":18000,"station_id":"ce4bgt92rcd13ifvqcf0","pricing_plan_id":"cebpf4jnsgd1na2vs0mg"},{"bike_id":"89c1c22e-4deb-4a12-b25d-9d0f09a1f79b","system_id":"levelo_inurba_marseille","lat":43.21797,"lon":5.34559,"is_reserved":false,"is_disabled":false,"rental_uris":{"android":"levelo://app?vid=89c1c22e-4deb-4a12-b25d-9d0f09a1f79b","ios":"levelo://app?vid=89c1c22e-4deb-4a12-b25d-9d0f09a1f79b"},"vehicle_type_id":"4","last_reported":1746375083,"current_range_meters":18000,"station_id":"st_cvj6r9ubvosntc0bgbag","pricing_plan_id":"cebpf4jnsgd1na2vs0mg"},{"bike_id":"d252a272-7b85-44ee-b117-a17b072d1a91","system_id":"levelo_inurba_marseille","lat":43.21754,"lon":5.34611,"is_reserved":false,"is_disabled":false,"rental_uris":{"android":"levelo://app?vid=d252a272-7b85-44ee-b117-a17b072d1a91","ios":"levelo://app?vid=d252a272-7b85-44ee-b117-a17b072d1a91"},"vehicle_type_id":"4","last_reported":1746375083,"current_range_meters":18000,"station_id":"st_cvj6r9ubvosntc0bgbag","pricing_plan_id":"cebpf4jnsgd1na2vs0mg"},{"bike_id":"082ac56b-3d9f-4f13-bc0f-c2060386c881","system_id":"levelo_inurba_marseille","lat":43.29027,"lon":5.35611,"is_reserved":false,"is_disabled":true,"rental_uris":{"android":"levelo://app?vid=082ac56b-3d9f-4f13-bc0f-c2060386c881","ios":"levelo://app?vid=082ac56b-3d9f-4f13-bc0f-c2060386c881"},"vehicle_type_id":"4","last_reported":1746375083,"current_range_meters":18000,"station_id":"ce4bhb92rcd13ifvqen0","pricing_plan_id":"cebpf4jnsgd1na2vs0mg"},{"bike_id":"8e69649f-d5a0-4ead-b212-c5b5612beda7","system_id":"levelo_inurba_marseille","lat":43.254924,"lon":5.37651,"is_reserved":false,"is_disabled":true,"rental_uris":{"android":"levelo://app?vid=8e69649f-d5a0-4ead-b212-c5b5612beda7","ios":"levelo://app?vid=8e69649f-d5a0-4ead-b212-c5b5612beda7"},"vehicle_type_id":"4","last_reported":1746375083,"current_range_meters":18000,"station_id":"ce4bhh12rcd13ifvqff0","pricing_plan_id":"cebpf4jnsgd1na2vs0mg"},{"bike_id":"248cff7b-e45b-4ba6-aeae-88d832ab4128","system_id":"levelo_inurba_marseille","lat":43.30771,"lon":5.37654,"is_reserved":false,"is_disabled":false,"rental_uris":{"android":"levelo://app?vid=248cff7b-e45b-4ba6-aeae-88d832ab4128","ios":"levelo://app?vid=248cff7b-e45b-4ba6-aeae-88d832ab4128"},"vehicle_type_id":"4","last_reported":1746375083,"current_range_meters":18800,"station_id":"ce4bgv92rcd13ifvqcq0","pricing_plan_id":"cebpf4jnsgd1na2vs0mg"},{"bike_id":"f589fc42-057a-43b9-81ad-55c2a575aecf","system_id":"levelo_inurba_marseille","lat":43.310743,"lon":5.38357,"is_reserved":false,"is_disabled":true,"rental_uris":{"android":"levelo://app?vid=f589fc42-057a-43b9-81ad-55c2a575aecf","ios":"levelo://app?vid=f589fc42-057a-43b9-81ad-55c2a575aecf"},"vehicle_type_id":"4","last_reported":1746375083,"current_range_meters":18800,"station_id":"ce4bgv92rcd13ifvqcr0","pricing_plan_id":"cebpf4jnsgd1na2vs0mg"},{"bike_id":"9e49154e-0537-454d-a0e8-e8723b931bc3","system_id":"levelo_inurba_marseille","lat":43.27811,"lon":5.40717,"is_reserved":false,"is_disabled":false,"rental_uris":{"android":"levelo://app?vid=9e49154e-0537-454d-a0e8-e8723b931bc3","ios":"levelo://app?vid=9e49154e-0537-454d-a0e8-e8723b931bc3"},"vehicle_type_id":"4","last_reported":1746375083,"current_range_meters":18800,"station_id":"ce4bhnh2rcd13ifvqgtg","pricing_plan_id":"cebpf4jnsgd1na2vs0mg"},{"bike_id":"a8a5d03d-9153-4179-835f-415d347401e8","system_id":"levelo_inurba_marseille","lat":43.29541,"lon":5.42226,"is_reserved":false,"is_disabled":false,"rental_uris":{"android":"levelo://app?vid=a8a5d03d-9153-4179-835f-415d347401e8","ios":"levelo://app?vid=a8a5d03d-9153-4179-835f-415d347401e8"},"vehicle_type_id":"4","last_reported":1746375083,"current_range_meters":18800,"station_id":"","pricing_plan_id":"cebpf4jnsgd1na2vs0mg"},{"bike_id":"c1ed4be9-e62a-4842-b4f9-d0b01cf192b2","system_id":"levelo_inurba_marseille","lat":43.26805,"lon":5.40269,"is_reserved":false,"is_disabled":false,"rental_uris":{"android":"levelo://app?vid=c1ed4be9-e62a-4842-b4f9-d0b01cf192b2","ios":"levelo://app?vid=c1ed4be9-e62a-4842-b4f9-d0b01cf192b2"},"vehicle_type_id":"4","last_reported":1746375083,"current_range_meters":18800,"station_id":"ce501612rcd8frsf0b60","pricing_plan_id":"cebpf4jnsgd1na2vs0mg"},{"bike_id":"c05e8e25-b4fb-46fe-b561-37e22ee67280","system_id":"levelo_inurba_marseille","lat":43.26205,"lon":5.37926,"is_reserved":false,"is_disabled":false,"rental_uris":{"android":"levelo://app?vid=c05e8e25-b4fb-46fe-b561-37e22ee67280","ios":"levelo://app?vid=c05e8e25-b4fb-46fe-b561-37e22ee67280"},"vehicle_type_id":"4","last_reported":1746375083,"current_range_meters":18800,"station_id":"ce4bhjp2rcd13ifvqg90","pricing_plan_id":"cebpf4jnsgd1na2vs0mg"},{"bike_id":"49b58d60-dc03-48ac-8607-dc6871ca3cb6","system_id":"levelo_inurba_marseille","lat":43.28408,"lon":5.37511,"is_reserved":false,"is_disabled":false,"rental_uris":{"android":"levelo://app?vid=49b58d60-dc03-48ac-8607-dc6871ca3cb6","ios":"levelo://app?vid=49b58d60-dc03-48ac-8607-dc6871ca3cb6"},"vehicle_type_id":"4","last_reported":1746375083,"current_range_meters":18800,"station_id":"ce4bh412rcd13ifvqds0","pricing_plan_id":"cebpf4jnsgd1na2vs0mg"},{"bike_id":"71c3857d-4427-4da0-9126-58c93842e3fa","system_id":"levelo_inurba_marseille","lat":43.29913,"lon":5.37461,"is_reserved":false,"is_disabled":false,"rental_uris":{"android":"levelo://app?vid=71c3857d-4427-4da0-9126-58c93842e3fa","ios":"levelo://app?vid=71c3857d-4427-4da0-9126-58c93842e3fa"},"vehicle_type_id":"4","last_reported":1746375083,"current_range_meters":18800,"station_id":"ce4bgjh2rcd13ifvqbg0","pricing_plan_id":"cebpf4jnsgd1na2vs0mg"},{"bike_id":"db0e0ddb-0230-4f44-ba3e-6dcb98b952cd","system_id":"levelo_inurba_marseille","lat":43.23194,"lon":5.35558,"is_reserved":false,"is_disabled":true,"rental_uris":{"android":"levelo://app?vid=db0e0ddb-0230-4f44-ba3e-6dcb98b952cd","ios":"levelo://app?vid=db0e0ddb-0230-4f44-ba3e-6dcb98b952cd"},"vehicle_type_id":"4","last_reported":1746375083,"current_range_meters":19200,"station_id":"ce4bhu92rcd13ifvqi70","pricing_plan_id":"cebpf4jnsgd1na2vs0mg"},{"bike_id":"7329ea7d-846d-4c45-a82d-c5a726bf8132","system_id":"levelo_inurba_marseille","lat":43.23059,"lon":5.35495,"is_reserved":false,"is_disabled":false,"rental_uris":{"android":"levelo://app?vid=7329ea7d-846d-4c45-a82d-c5a726bf8132","ios":"levelo://app?vid=7329ea7d-846d-4c45-a82d-c5a726bf8132"},"vehicle_type_id":"4","last_reported":1746375083,"current_range_meters":19200,"station_id":"cpo3342slgdg3j2ifvpg","pricing_plan_id":"cebpf4jnsgd1na2vs0mg"},{"bike_id":"9dc1bad8-1a07-44a1-b418-804319c4a0ae","system_id":"levelo_inurba_marseille","lat":43.289317,"lon":5.3839,"is_reserved":false,"is_disabled":false,"rental_uris":{"android":"levelo://app?vid=9dc1bad8-1a07-44a1-b418-804319c4a0ae","ios":"levelo://app?vid=9dc1bad8-1a07-44a1-b418-804319c4a0ae"},"vehicle_type_id":"4","last_reported":1746375083,"current_range_meters":19200,"station_id":"ce4bh612rcd13ifvqe6g","pricing_plan_id":"cebpf4jnsgd1na2vs0mg"},{"bike_id":"4d6575f9-ff77-470d-8988-17e340d259bb","system_id":"levelo_inurba_marseille","lat":43.28438,"lon":5.39193,"is_reserved":false,"is_disabled":false,"rental_uris":{"android":"levelo://app?vid=4d6575f9-ff77-470d-8988-17e340d259bb","ios":"levelo://app?vid=4d6575f9-ff77-470d-8988-17e340d259bb"},"vehicle_type_id":"4","last_reported":1746375083,"current_range_meters":19200,"station_id":"ce4bhoh2rcd13ifvqh5g","pricing_plan_id":"cebpf4jnsgd1na2vs0mg"},{"bike_id":"650c1499-3b39-4326-a256-5bf2405c3f26","system_id":"levelo_inurba_marseille","lat":43.25114,"lon":5.40322,"is_reserved":false,"is_disabled":false,"rental_uris":{"android":"levelo://app?vid=650c1499-3b39-4326-a256-5bf2405c3f26","ios":"levelo://app?vid=650c1499-3b39-4326-a256-5bf2405c3f26"},"vehicle_type_id":"4","last_reported":1746375083,"current_range_meters":19200,"station_id":"ce4bhlh2rcd13ifvqgig","pricing_plan_id":"cebpf4jnsgd1na2vs0mg"},{"bike_id":"166fe2b4-28a7-4e2e-98ce-b8f905031e2a","system_id":"levelo_inurba_marseille","lat":43.25123,"lon":5.4032,"is_reserved":false,"is_disabled":false,"rental_uris":{"android":"levelo://app?vid=166fe2b4-28a7-4e2e-98ce-b8f905031e2a","ios":"levelo://app?vid=166fe2b4-28a7-4e2e-98ce-b8f905031e2a"},"vehicle_type_id":"4","last_reported":1746375083,"current_range_meters":19200,"station_id":"ce4bhlh2rcd13ifvqgig","pricing_plan_id":"cebpf4jnsgd1na2vs0mg"},{"bike_id":"2307226f-b402-4f40-a1b0-72a2abad9dc0","system_id":"levelo_inurba_marseille","lat":43.30804,"lon":5.43534,"is_reserved":false,"is_disabled":false,"rental_uris":{"android":"levelo://app?vid=2307226f-b402-4f40-a1b0-72a2abad9dc0","ios":"levelo://app?vid=2307226f-b402-4f40-a1b0-72a2abad9dc0"},"vehicle_type_id":"4","last_reported":1746375083,"current_range_meters":19200,"station_id":"ce4bhph2rcd13ifvqheg","pricing_plan_id":"cebpf4jnsgd1na2vs0mg"},{"bike_id":"3bf96f6c-1138-425e-99d5-253ba6181d5e","system_id":"levelo_inurba_marseille","lat":43.30431,"lon":5.3984,"is_reserved":false,"is_disabled":true,"rental_uris":{"android":"levelo://app?vid=3bf96f6c-1138-425e-99d5-253ba6181d5e","ios":"levelo://app?vid=3bf96f6c-1138-425e-99d5-253ba6181d5e"},"vehicle_type_id":"4","last_reported":1746375083,"current_range_meters":19600,"station_id":"","pricing_plan_id":"cebpf4jnsgd1na2vs0mg"},{"bike_id":"bbba4a42-41f1-4d4c-a0ec-15062e1d6496","system_id":"levelo_inurba_marseille","lat":43.30812,"lon":5.43517,"is_reserved":false,"is_disabled":false,"rental_uris":{"android":"levelo://app?vid=bbba4a42-41f1-4d4c-a0ec-15062e1d6496","ios":"levelo://app?vid=bbba4a42-41f1-4d4c-a0ec-15062e1d6496"},"vehicle_type_id":"4","last_reported":1746375083,"current_range_meters":19600,"station_id":"ce4bhph2rcd13ifvqheg","pricing_plan_id":"cebpf4jnsgd1na2vs0mg"},{"bike_id":"574f9534-6b0b-43b3-a942-c6870095631b","system_id":"levelo_inurba_marseille","lat":43.28617,"lon":5.37093,"is_reserved":false,"is_disabled":true,"rental_uris":{"android":"levelo://app?vid=574f9534-6b0b-43b3-a942-c6870095631b","ios":"levelo://app?vid=574f9534-6b0b-43b3-a942-c6870095631b"},"vehicle_type_id":"4","last_reported":1746375083,"current_range_meters":19600,"station_id":"","pricing_plan_id":"cebpf4jnsgd1na2vs0mg"},{"bike_id":"ef7522cc-8014-40bc-9598-b978ef8d62ed","system_id":"levelo_inurba_marseille","lat":43.30246,"lon":5.40091,"is_reserved":false,"is_disabled":true,"rental_uris":{"android":"levelo://app?vid=ef7522cc-8014-40bc-9598-b978ef8d62ed","ios":"levelo://app?vid=ef7522cc-8014-40bc-9598-b978ef8d62ed"},"vehicle_type_id":"4","last_reported":1746375083,"current_range_meters":19600,"station_id":"ce4bgvh2rcd13ifvqcs0","pricing_plan_id":"cebpf4jnsgd1na2vs0mg"},{"bike_id":"7367ce89-d7ca-4834-b713-9e6a4d9dad10","system_id":"levelo_inurba_marseille","lat":43.29918,"lon":5.43536,"is_reserved":false,"is_disabled":false,"rental_uris":{"android":"levelo://app?vid=7367ce89-d7ca-4834-b713-9e6a4d9dad10","ios":"levelo://app?vid=7367ce89-d7ca-4834-b713-9e6a4d9dad10"},"vehicle_type_id":"4","last_reported":1746375083,"current_range_meters":19600,"station_id":"","pricing_plan_id":"cebpf4jnsgd1na2vs0mg"},{"bike_id":"1bc89dec-24f6-4cf3-9a07-0634e2bc1366","system_id":"levelo_inurba_marseille","lat":43.23187,"lon":5.39984,"is_reserved":false,"is_disabled":false,"rental_uris":{"android":"levelo://app?vid=1bc89dec-24f6-4cf3-9a07-0634e2bc1366","ios":"levelo://app?vid=1bc89dec-24f6-4cf3-9a07-0634e2bc1366"},"vehicle_type_id":"4","last_reported":1746375083,"current_range_meters":19600,"station_id":"ce4bhn12rcd13ifvqgqg","pricing_plan_id":"cebpf4jnsgd1na2vs0mg"},{"bike_id":"9e174534-0b7f-41f7-9bb7-f68172cda9ce","system_id":"levelo_inurba_marseille","lat":43.21193,"lon":5.35077,"is_reserved":false,"is_disabled":false,"rental_uris":{"android":"levelo://app?vid=9e174534-0b7f-41f7-9bb7-f68172cda9ce","ios":"levelo://app?vid=9e174534-0b7f-41f7-9bb7-f68172cda9ce"},"vehicle_type_id":"4","last_reported":1746375083,"current_range_meters":19600,"station_id":"st_cvj6sg6p6f1abm77japg","pricing_plan_id":"cebpf4jnsgd1na2vs0mg"},{"bike_id":"a06d1b32-4572-4c60-94a7-66eb6b8dc6fc","system_id":"levelo_inurba_marseille","lat":43.231798,"lon":5.399935,"is_reserved":false,"is_disabled":false,"rental_uris":{"android":"levelo://app?vid=a06d1b32-4572-4c60-94a7-66eb6b8dc6fc","ios":"levelo://app?vid=a06d1b32-4572-4c60-94a7-66eb6b8dc6fc"},"vehicle_type_id":"4","last_reported":1746375083,"current_range_meters":19600,"station_id":"ce4bhn12rcd13ifvqgqg","pricing_plan_id":"cebpf4jnsgd1na2vs0mg"},{"bike_id":"0a0a6079-47ca-4582-8ee5-7da92c23e6f7","system_id":"levelo_inurba_marseille","lat":43.23198,"lon":5.3998,"is_reserved":false,"is_disabled":false,"rental_uris":{"android":"levelo://app?vid=0a0a6079-47ca-4582-8ee5-7da92c23e6f7","ios":"levelo://app?vid=0a0a6079-47ca-4582-8ee5-7da92c23e6f7"},"vehicle_type_id":"4","last_reported":1746375083,"current_range_meters":19600,"station_id":"ce4bhn12rcd13ifvqgqg","pricing_plan_id":"cebpf4jnsgd1na2vs0mg"},{"bike_id":"a3eccdb9-63c9-4af7-a546-62ce7eea30d4","system_id":"levelo_inurba_marseille","lat":43.290699,"lon":5.371542,"is_reserved":false,"is_disabled":true,"rental_uris":{"android":"levelo://app?vid=a3eccdb9-63c9-4af7-a546-62ce7eea30d4","ios":"levelo://app?vid=a3eccdb9-63c9-4af7-a546-62ce7eea30d4"},"vehicle_type_id":"4","last_reported":1746375083,"current_range_meters":19600,"station_id":"ce4bh5p2rcd13ifvqe4g","pricing_plan_id":"cebpf4jnsgd1na2vs0mg"},{"bike_id":"5a566878-9c0c-4341-873f-c9dd3e9f33d7","system_id":"levelo_inurba_marseille","lat":43.25084,"lon":5.395,"is_reserved":false,"is_disabled":false,"rental_uris":{"android":"levelo://app?vid=5a566878-9c0c-4341-873f-c9dd3e9f33d7","ios":"levelo://app?vid=5a566878-9c0c-4341-873f-c9dd3e9f33d7"},"vehicle_type_id":"4","last_reported":1746375083,"current_range_meters":19600,"station_id":"ce4bhm12rcd13ifvqgkg","pricing_plan_id":"cebpf4jnsgd1na2vs0mg"},{"bike_id":"891a748b-bb8a-41ba-acea-b9e8a952878f","system_id":"levelo_inurba_marseille","lat":43.28417,"lon":5.37532,"is_reserved":false,"is_disabled":true,"rental_uris":{"android":"levelo://app?vid=891a748b-bb8a-41ba-acea-b9e8a952878f","ios":"levelo://app?vid=891a748b-bb8a-41ba-acea-b9e8a952878f"},"vehicle_type_id":"4","last_reported":1746375083,"current_range_meters":19600,"station_id":"ce4bh412rcd13ifvqds0","pricing_plan_id":"cebpf4jnsgd1na2vs0mg"},{"bike_id":"c05ba851-2df3-4a19-8655-615ae8d873cd","system_id":"levelo_inurba_marseille","lat":43.30181,"lon":5.36628,"is_reserved":false,"is_disabled":false,"rental_uris":{"android":"levelo://app?vid=c05ba851-2df3-4a19-8655-615ae8d873cd","ios":"levelo://app?vid=c05ba851-2df3-4a19-8655-615ae8d873cd"},"vehicle_type_id":"4","last_reported":1746375083,"current_range_meters":19600,"station_id":"ce4bgrh2rcd13ifvqc8g","pricing_plan_id":"cebpf4jnsgd1na2vs0mg"},{"bike_id":"9fa4dbac-ad09-473f-8c9f-dc555535dd4a","system_id":"levelo_inurba_marseille","lat":43.31704,"lon":5.3773,"is_reserved":false,"is_disabled":true,"rental_uris":{"android":"levelo://app?vid=9fa4dbac-ad09-473f-8c9f-dc555535dd4a","ios":"levelo://app?vid=9fa4dbac-ad09-473f-8c9f-dc555535dd4a"},"vehicle_type_id":"4","last_reported":1746375083,"current_range_meters":20000,"station_id":"ce4bgth2rcd13ifvqch0","pricing_plan_id":"cebpf4jnsgd1na2vs0mg"},{"bike_id":"7e69744c-f26a-41c8-b999-e2ed6b9b21ea","system_id":"levelo_inurba_marseille","lat":43.30808,"lon":5.43526,"is_reserved":false,"is_disabled":false,"rental_uris":{"android":"levelo://app?vid=7e69744c-f26a-41c8-b999-e2ed6b9b21ea","ios":"levelo://app?vid=7e69744c-f26a-41c8-b999-e2ed6b9b21ea"},"vehicle_type_id":"4","last_reported":1746375083,"current_range_meters":20000,"station_id":"ce4bhph2rcd13ifvqheg","pricing_plan_id":"cebpf4jnsgd1na2vs0mg"},{"bike_id":"be08d0c5-8233-46ce-a16a-10ba0e6ee589","system_id":"levelo_inurba_marseille","lat":43.26948,"lon":5.38655,"is_reserved":false,"is_disabled":true,"rental_uris":{"android":"levelo://app?vid=be08d0c5-8233-46ce-a16a-10ba0e6ee589","ios":"levelo://app?vid=be08d0c5-8233-46ce-a16a-10ba0e6ee589"},"vehicle_type_id":"4","last_reported":1746375083,"current_range_meters":20400,"station_id":"ce4bhh92rcd13ifvqfh0","pricing_plan_id":"cebpf4jnsgd1na2vs0mg"},{"bike_id":"5c35ca89-f3cb-48e5-b775-d9c1b359cca9","system_id":"levelo_inurba_marseille","lat":43.24067,"lon":5.37769,"is_reserved":false,"is_disabled":false,"rental_uris":{"android":"levelo://app?vid=5c35ca89-f3cb-48e5-b775-d9c1b359cca9","ios":"levelo://app?vid=5c35ca89-f3cb-48e5-b775-d9c1b359cca9"},"vehicle_type_id":"4","last_reported":1746375083,"current_range_meters":20400,"station_id":"ce4bhnp2rcd13ifvqgvg","pricing_plan_id":"cebpf4jnsgd1na2vs0mg"},{"bike_id":"f4a672d5-befc-438d-9adc-f5a92e33ff29","system_id":"levelo_inurba_marseille","lat":43.27677,"lon":5.38937,"is_reserved":false,"is_disabled":false,"rental_uris":{"android":"levelo://app?vid=f4a672d5-befc-438d-9adc-f5a92e33ff29","ios":"levelo://app?vid=f4a672d5-befc-438d-9adc-f5a92e33ff29"},"vehicle_type_id":"4","last_reported":1746375083,"current_range_meters":20400,"station_id":"ce4bhi12rcd13ifvqfo0","pricing_plan_id":"cebpf4jnsgd1na2vs0mg"},{"bike_id":"fbc8d2df-e040-476c-af0a-20d1a56597f5","system_id":"levelo_inurba_marseille","lat":43.30245,"lon":5.40048,"is_reserved":false,"is_disabled":false,"rental_uris":{"android":"levelo://app?vid=fbc8d2df-e040-476c-af0a-20d1a56597f5","ios":"levelo://app?vid=fbc8d2df-e040-476c-af0a-20d1a56597f5"},"vehicle_type_id":"4","last_reported":1746375083,"current_range_meters":20400,"station_id":"ce4bgvh2rcd13ifvqcs0","pricing_plan_id":"cebpf4jnsgd1na2vs0mg"},{"bike_id":"2dce38cf-a8d4-49cd-9fcf-ef494d90a125","system_id":"levelo_inurba_marseille","lat":43.27137,"lon":5.3637,"is_reserved":false,"is_disabled":false,"rental_uris":{"android":"levelo://app?vid=2dce38cf-a8d4-49cd-9fcf-ef494d90a125","ios":"levelo://app?vid=2dce38cf-a8d4-49cd-9fcf-ef494d90a125"},"vehicle_type_id":"4","last_reported":1746375083,"current_range_meters":20400,"station_id":"","pricing_plan_id":"cebpf4jnsgd1na2vs0mg"},{"bike_id":"66ea8dda-80d2-463f-99bd-0575cc3d73ec","system_id":"levelo_inurba_marseille","lat":43.29932,"lon":5.36555,"is_reserved":false,"is_disabled":false,"rental_uris":{"android":"levelo://app?vid=66ea8dda-80d2-463f-99bd-0575cc3d73ec","ios":"levelo://app?vid=66ea8dda-80d2-463f-99bd-0575cc3d73ec"},"vehicle_type_id":"4","last_reported":1746375083,"current_range_meters":20400,"station_id":"ce4bgm92rcd13ifvqbr0","pricing_plan_id":"cebpf4jnsgd1na2vs0mg"},{"bike_id":"06deec25-2980-4345-93c5-c668a24eddd4","system_id":"levelo_inurba_marseille","lat":43.2781,"lon":5.40723,"is_reserved":false,"is_disabled":false,"rental_uris":{"android":"levelo://app?vid=06deec25-2980-4345-93c5-c668a24eddd4","ios":"levelo://app?vid=06deec25-2980-4345-93c5-c668a24eddd4"},"vehicle_type_id":"4","last_reported":1746375083,"current_range_meters":20400,"station_id":"ce4bhnh2rcd13ifvqgtg","pricing_plan_id":"cebpf4jnsgd1na2vs0mg"},{"bike_id":"06a3f6ce-77d3-4cf3-8508-2cee7cc7fb24","system_id":"levelo_inurba_marseille","lat":43.262037,"lon":5.379314,"is_reserved":false,"is_disabled":false,"rental_uris":{"android":"levelo://app?vid=06a3f6ce-77d3-4cf3-8508-2cee7cc7fb24","ios":"levelo://app?vid=06a3f6ce-77d3-4cf3-8508-2cee7cc7fb24"},"vehicle_type_id":"4","last_reported":1746375083,"current_range_meters":20400,"station_id":"","pricing_plan_id":"cebpf4jnsgd1na2vs0mg"},{"bike_id":"1ce5faab-c057-44d0-b6f7-996b2962169c","system_id":"levelo_inurba_marseille","lat":43.3236,"lon":5.36724,"is_reserved":false,"is_disabled":false,"rental_uris":{"android":"levelo://app?vid=1ce5faab-c057-44d0-b6f7-996b2962169c","ios":"levelo://app?vid=1ce5faab-c057-44d0-b6f7-996b2962169c"},"vehicle_type_id":"4","last_reported":1746375083,"current_range_meters":20800,"station_id":"ce4bhsh2rcd13ifvqi2g","pricing_plan_id":"cebpf4jnsgd1na2vs0mg"},{"bike_id":"2572b0ab-4e00-4561-9ddf-930ec235ec81","system_id":"levelo_inurba_marseille","lat":43.28076,"lon":5.39651,"is_reserved":false,"is_disabled":false,"rental_uris":{"android":"levelo://app?vid=2572b0ab-4e00-4561-9ddf-930ec235ec81","ios":"levelo://app?vid=2572b0ab-4e00-4561-9ddf-930ec235ec81"},"vehicle_type_id":"4","last_reported":1746375083,"current_range_meters":20800,"station_id":"ce4bho12rcd13ifvqh2g","pricing_plan_id":"cebpf4jnsgd1na2vs0mg"},{"bike_id":"3f99c6ce-c305-4935-947c-fbabfbe8da2e","system_id":"levelo_inurba_marseille","lat":43.31687,"lon":5.40475,"is_reserved":false,"is_disabled":false,"rental_uris":{"android":"levelo://app?vid=3f99c6ce-c305-4935-947c-fbabfbe8da2e","ios":"levelo://app?vid=3f99c6ce-c305-4935-947c-fbabfbe8da2e"},"vehicle_type_id":"4","last_reported":1746375083,"current_range_meters":20800,"station_id":"ce4bh012rcd13ifvqd00","pricing_plan_id":"cebpf4jnsgd1na2vs0mg"},{"bike_id":"974bb4d0-65bb-4039-a628-a8fbf43281c6","system_id":"levelo_inurba_marseille","lat":43.32288,"lon":5.38286,"is_reserved":false,"is_disabled":false,"rental_uris":{"android":"levelo://app?vid=974bb4d0-65bb-4039-a628-a8fbf43281c6","ios":"levelo://app?vid=974bb4d0-65bb-4039-a628-a8fbf43281c6"},"vehicle_type_id":"4","last_reported":1746375083,"current_range_meters":20400,"station_id":"ce4bhr12rcd13ifvqhqg","pricing_plan_id":"cebpf4jnsgd1na2vs0mg"},{"bike_id":"ce7dbab7-9310-4b7e-bf0c-465a151ac403","system_id":"levelo_inurba_marseille","lat":43.35241,"lon":5.43765,"is_reserved":false,"is_disabled":false,"rental_uris":{"android":"levelo://app?vid=ce7dbab7-9310-4b7e-bf0c-465a151ac403","ios":"levelo://app?vid=ce7dbab7-9310-4b7e-bf0c-465a151ac403"},"vehicle_type_id":"4","last_reported":1746375083,"current_range_meters":20800,"station_id":"","pricing_plan_id":"cebpf4jnsgd1na2vs0mg"},{"bike_id":"1b7995d2-6253-41ce-8fdc-1971e5923ed3","system_id":"levelo_inurba_marseille","lat":43.29029,"lon":5.38645,"is_reserved":false,"is_disabled":false,"rental_uris":{"android":"levelo://app?vid=1b7995d2-6253-41ce-8fdc-1971e5923ed3","ios":"levelo://app?vid=1b7995d2-6253-41ce-8fdc-1971e5923ed3"},"vehicle_type_id":"4","last_reported":1746375083,"current_range_meters":21600,"station_id":"ce4bh4p2rcd13ifvqe0g","pricing_plan_id":"cebpf4jnsgd1na2vs0mg"},{"bike_id":"9115a0cd-0d09-4644-872a-ba7f635fc580","system_id":"levelo_inurba_marseille","lat":43.31347,"lon":5.38497,"is_reserved":false,"is_disabled":false,"rental_uris":{"android":"levelo://app?vid=9115a0cd-0d09-4644-872a-ba7f635fc580","ios":"levelo://app?vid=9115a0cd-0d09-4644-872a-ba7f635fc580"},"vehicle_type_id":"4","last_reported":1746375083,"current_range_meters":21600,"station_id":"ce4bgt92rcd13ifvqcf0","pricing_plan_id":"cebpf4jnsgd1na2vs0mg"},{"bike_id":"55e2365c-b270-4dfe-a830-699a54b79cdb","system_id":"levelo_inurba_marseille","lat":43.25577,"lon":5.420971,"is_reserved":false,"is_disabled":false,"rental_uris":{"android":"levelo://app?vid=55e2365c-b270-4dfe-a830-699a54b79cdb","ios":"levelo://app?vid=55e2365c-b270-4dfe-a830-699a54b79cdb"},"vehicle_type_id":"4","last_reported":1746375083,"current_range_meters":21600,"station_id":"","pricing_plan_id":"cebpf4jnsgd1na2vs0mg"},{"bike_id":"de3f76b1-58ea-42d0-99f1-347daf91f0b4","system_id":"levelo_inurba_marseille","lat":43.21198,"lon":5.35094,"is_reserved":false,"is_disabled":false,"rental_uris":{"android":"levelo://app?vid=de3f76b1-58ea-42d0-99f1-347daf91f0b4","ios":"levelo://app?vid=de3f76b1-58ea-42d0-99f1-347daf91f0b4"},"vehicle_type_id":"4","last_reported":1746375083,"current_range_meters":21600,"station_id":"st_cvj6sg6p6f1abm77japg","pricing_plan_id":"cebpf4jnsgd1na2vs0mg"},{"bike_id":"3f9fddb3-4d57-4ad0-8fd2-61341dad0fd3","system_id":"levelo_inurba_marseille","lat":43.296079,"lon":5.381019,"is_reserved":false,"is_disabled":true,"rental_uris":{"android":"levelo://app?vid=3f9fddb3-4d57-4ad0-8fd2-61341dad0fd3","ios":"levelo://app?vid=3f9fddb3-4d57-4ad0-8fd2-61341dad0fd3"},"vehicle_type_id":"4","last_reported":1746375083,"current_range_meters":21600,"station_id":"ce4bgl12rcd13ifvqbo0","pricing_plan_id":"cebpf4jnsgd1na2vs0mg"},{"bike_id":"cb18f575-9c1e-4e54-ba38-fab988ce4b38","system_id":"levelo_inurba_marseille","lat":43.29254,"lon":5.40904,"is_reserved":false,"is_disabled":false,"rental_uris":{"android":"levelo://app?vid=cb18f575-9c1e-4e54-ba38-fab988ce4b38","ios":"levelo://app?vid=cb18f575-9c1e-4e54-ba38-fab988ce4b38"},"vehicle_type_id":"4","last_reported":1746375083,"current_range_meters":22000,"station_id":"ce4bh192rcd13ifvqdc0","pricing_plan_id":"cebpf4jnsgd1na2vs0mg"},{"bike_id":"99caa5c9-73c6-4674-850e-ae7cd663deab","system_id":"levelo_inurba_marseille","lat":43.21233,"lon":5.35029,"is_reserved":false,"is_disabled":false,"rental_uris":{"android":"levelo://app?vid=99caa5c9-73c6-4674-850e-ae7cd663deab","ios":"levelo://app?vid=99caa5c9-73c6-4674-850e-ae7cd663deab"},"vehicle_type_id":"4","last_reported":1746375083,"current_range_meters":22000,"station_id":"st_cvj6sg6p6f1abm77japg","pricing_plan_id":"cebpf4jnsgd1na2vs0mg"},{"bike_id":"8a72f7db-004e-408a-b2bf-bcc0f8712e2b","system_id":"levelo_inurba_marseille","lat":43.29533,"lon":5.39402,"is_reserved":false,"is_disabled":false,"rental_uris":{"android":"levelo://app?vid=8a72f7db-004e-408a-b2bf-bcc0f8712e2b","ios":"levelo://app?vid=8a72f7db-004e-408a-b2bf-bcc0f8712e2b"},"vehicle_type_id":"4","last_reported":1746375083,"current_range_meters":22000,"station_id":"ce4bh292rcd13ifvqdf0","pricing_plan_id":"cebpf4jnsgd1na2vs0mg"},{"bike_id":"3adde3db-51cc-4dd8-841f-e10756da32a4","system_id":"levelo_inurba_marseille","lat":43.27809,"lon":5.4071,"is_reserved":false,"is_disabled":false,"rental_uris":{"android":"levelo://app?vid=3adde3db-51cc-4dd8-841f-e10756da32a4","ios":"levelo://app?vid=3adde3db-51cc-4dd8-841f-e10756da32a4"},"vehicle_type_id":"4","last_reported":1746375083,"current_range_meters":22000,"station_id":"ce4bhnh2rcd13ifvqgtg","pricing_plan_id":"cebpf4jnsgd1na2vs0mg"},{"bike_id":"1edd79ec-71cc-47e6-8f88-520edb4bbaae","system_id":"levelo_inurba_marseille","lat":43.29802,"lon":5.38127,"is_reserved":false,"is_disabled":true,"rental_uris":{"android":"levelo://app?vid=1edd79ec-71cc-47e6-8f88-520edb4bbaae","ios":"levelo://app?vid=1edd79ec-71cc-47e6-8f88-520edb4bbaae"},"vehicle_type_id":"4","last_reported":1746375083,"current_range_meters":22000,"station_id":"ce4bgip2rcd13ifvqbb0","pricing_plan_id":"cebpf4jnsgd1na2vs0mg"},{"bike_id":"f6e5fbd9-5016-498f-93d8-30958fdc8095","system_id":"levelo_inurba_marseille","lat":43.26804,"lon":5.40269,"is_reserved":false,"is_disabled":false,"rental_uris":{"android":"levelo://app?vid=f6e5fbd9-5016-498f-93d8-30958fdc8095","ios":"levelo://app?vid=f6e5fbd9-5016-498f-93d8-30958fdc8095"},"vehicle_type_id":"4","last_reported":1746375083,"current_range_meters":22000,"station_id":"ce501612rcd8frsf0b60","pricing_plan_id":"cebpf4jnsgd1na2vs0mg"},{"bike_id":"26efb263-228e-4337-94df-462d984e10a5","system_id":"levelo_inurba_marseille","lat":43.32674,"lon":5.41008,"is_reserved":false,"is_disabled":false,"rental_uris":{"android":"levelo://app?vid=26efb263-228e-4337-94df-462d984e10a5","ios":"levelo://app?vid=26efb263-228e-4337-94df-462d984e10a5"},"vehicle_type_id":"4","last_reported":1746375083,"current_range_meters":22400,"station_id":"ce4bhpp2rcd13ifvqhgg","pricing_plan_id":"cebpf4jnsgd1na2vs0mg"},{"bike_id":"d1ec814b-7128-4cb1-a05f-d59b2ec94248","system_id":"levelo_inurba_marseille","lat":43.22673,"lon":5.3481,"is_reserved":false,"is_disabled":false,"rental_uris":{"android":"levelo://app?vid=d1ec814b-7128-4cb1-a05f-d59b2ec94248","ios":"levelo://app?vid=d1ec814b-7128-4cb1-a05f-d59b2ec94248"},"vehicle_type_id":"4","last_reported":1746375083,"current_range_meters":22400,"station_id":"","pricing_plan_id":"cebpf4jnsgd1na2vs0mg"},{"bike_id":"21b50a80-6d64-424e-b298-6f167ba88e54","system_id":"levelo_inurba_marseille","lat":43.26671,"lon":5.38289,"is_reserved":false,"is_disabled":false,"rental_uris":{"android":"levelo://app?vid=21b50a80-6d64-424e-b298-6f167ba88e54","ios":"levelo://app?vid=21b50a80-6d64-424e-b298-6f167ba88e54"},"vehicle_type_id":"4","last_reported":1746375083,"current_range_meters":22400,"station_id":"ce4bhg92rcd13ifvqf90","pricing_plan_id":"cebpf4jnsgd1na2vs0mg"},{"bike_id":"125ca05d-5a4c-4327-ae64-e200198cedf3","system_id":"levelo_inurba_marseille","lat":43.29582,"lon":5.42281,"is_reserved":false,"is_disabled":false,"rental_uris":{"android":"levelo://app?vid=125ca05d-5a4c-4327-ae64-e200198cedf3","ios":"levelo://app?vid=125ca05d-5a4c-4327-ae64-e200198cedf3"},"vehicle_type_id":"4","last_reported":1746375083,"current_range_meters":22400,"station_id":"ce4bhph2rcd13ifvqhdg","pricing_plan_id":"cebpf4jnsgd1na2vs0mg"},{"bike_id":"9ac9a44f-6abe-4743-a6fe-974f0f86c6c4","system_id":"levelo_inurba_marseille","lat":43.23962,"lon":5.36639,"is_reserved":false,"is_disabled":true,"rental_uris":{"android":"levelo://app?vid=9ac9a44f-6abe-4743-a6fe-974f0f86c6c4","ios":"levelo://app?vid=9ac9a44f-6abe-4743-a6fe-974f0f86c6c4"},"vehicle_type_id":"4","last_reported":1746375083,"current_range_meters":22400,"station_id":"ce4bhi12rcd13ifvqfp0","pricing_plan_id":"cebpf4jnsgd1na2vs0mg"},{"bike_id":"e81f1dd7-e19f-474b-93c1-dfcee75eb837","system_id":"levelo_inurba_marseille","lat":43.31756,"lon":5.39021,"is_reserved":false,"is_disabled":false,"rental_uris":{"android":"levelo://app?vid=e81f1dd7-e19f-474b-93c1-dfcee75eb837","ios":"levelo://app?vid=e81f1dd7-e19f-474b-93c1-dfcee75eb837"},"vehicle_type_id":"4","last_reported":1746375083,"current_range_meters":22400,"station_id":"ce4bhqp2rcd13ifvqhng","pricing_plan_id":"cebpf4jnsgd1na2vs0mg"},{"bike_id":"521d3531-2dd1-4da9-9582-b2882863f64f","system_id":"levelo_inurba_marseille","lat":43.28481,"lon":5.35895,"is_reserved":false,"is_disabled":true,"rental_uris":{"android":"levelo://app?vid=521d3531-2dd1-4da9-9582-b2882863f64f","ios":"levelo://app?vid=521d3531-2dd1-4da9-9582-b2882863f64f"},"vehicle_type_id":"4","last_reported":1746375083,"current_range_meters":22400,"station_id":"ce4bhah2rcd13ifvqei0","pricing_plan_id":"cebpf4jnsgd1na2vs0mg"},{"bike_id":"4a265d53-8062-4c16-b5ef-3d21375eab3f","system_id":"levelo_inurba_marseille","lat":43.31996,"lon":5.38221,"is_reserved":false,"is_disabled":true,"rental_uris":{"android":"levelo://app?vid=4a265d53-8062-4c16-b5ef-3d21375eab3f","ios":"levelo://app?vid=4a265d53-8062-4c16-b5ef-3d21375eab3f"},"vehicle_type_id":"4","last_reported":1746375083,"current_range_meters":22400,"station_id":"ce4bhr12rcd13ifvqhpg","pricing_plan_id":"cebpf4jnsgd1na2vs0mg"},{"bike_id":"e48b2367-9d93-44a6-a6fc-ef0538b3ce56","system_id":"levelo_inurba_marseille","lat":43.302431,"lon":5.400819,"is_reserved":false,"is_disabled":false,"rental_uris":{"android":"levelo://app?vid=e48b2367-9d93-44a6-a6fc-ef0538b3ce56","ios":"levelo://app?vid=e48b2367-9d93-44a6-a6fc-ef0538b3ce56"},"vehicle_type_id":"4","last_reported":1746375083,"current_range_meters":22400,"station_id":"ce4bgvh2rcd13ifvqcs0","pricing_plan_id":"cebpf4jnsgd1na2vs0mg"},{"bike_id":"11f68171-8949-4980-9a93-ca591f133eb5","system_id":"levelo_inurba_marseille","lat":43.30554,"lon":5.3655,"is_reserved":false,"is_disabled":false,"rental_uris":{"android":"levelo://app?vid=11f68171-8949-4980-9a93-ca591f133eb5","ios":"levelo://app?vid=11f68171-8949-4980-9a93-ca591f133eb5"},"vehicle_type_id":"4","last_reported":1746375083,"current_range_meters":22800,"station_id":"ce4bgs12rcd13ifvqcag","pricing_plan_id":"cebpf4jnsgd1na2vs0mg"},{"bike_id":"3f72b7ea-5944-4b5c-833d-de535a116f71","system_id":"levelo_inurba_marseille","lat":43.31171,"lon":5.3872,"is_reserved":false,"is_disabled":false,"rental_uris":{"android":"levelo://app?vid=3f72b7ea-5944-4b5c-833d-de535a116f71","ios":"levelo://app?vid=3f72b7ea-5944-4b5c-833d-de535a116f71"},"vehicle_type_id":"4","last_reported":1746375083,"current_range_meters":22800,"station_id":"ce4bgv12rcd13ifvqcp0","pricing_plan_id":"cebpf4jnsgd1na2vs0mg"},{"bike_id":"203d91f5-6c36-4523-963d-b10eff730e29","system_id":"levelo_inurba_marseille","lat":43.3072,"lon":5.42437,"is_reserved":false,"is_disabled":false,"rental_uris":{"android":"levelo://app?vid=203d91f5-6c36-4523-963d-b10eff730e29","ios":"levelo://app?vid=203d91f5-6c36-4523-963d-b10eff730e29"},"vehicle_type_id":"4","last_reported":1746375083,"current_range_meters":22800,"station_id":"st_cvj6ca6bvosntc0bfgr0","pricing_plan_id":"cebpf4jnsgd1na2vs0mg"},{"bike_id":"d0bcf1fb-cbba-4142-876b-db3b580f0e4d","system_id":"levelo_inurba_marseille","lat":43.29564,"lon":5.42309,"is_reserved":false,"is_disabled":false,"rental_uris":{"android":"levelo://app?vid=d0bcf1fb-cbba-4142-876b-db3b580f0e4d","ios":"levelo://app?vid=d0bcf1fb-cbba-4142-876b-db3b580f0e4d"},"vehicle_type_id":"4","last_reported":1746375083,"current_range_meters":22800,"station_id":"ce4bhph2rcd13ifvqhdg","pricing_plan_id":"cebpf4jnsgd1na2vs0mg"},{"bike_id":"a68f8e70-357e-4268-b136-3bf4d48b8a0d","system_id":"levelo_inurba_marseille","lat":43.28617,"lon":5.35103,"is_reserved":false,"is_disabled":false,"rental_uris":{"android":"levelo://app?vid=a68f8e70-357e-4268-b136-3bf4d48b8a0d","ios":"levelo://app?vid=a68f8e70-357e-4268-b136-3bf4d48b8a0d"},"vehicle_type_id":"4","last_reported":1746375083,"current_range_meters":22800,"station_id":"ce4bhch2rcd13ifvqeug","pricing_plan_id":"cebpf4jnsgd1na2vs0mg"},{"bike_id":"77775212-2cb0-45d9-b508-ccec0a1f8fd7","system_id":"levelo_inurba_marseille","lat":43.25816,"lon":5.39434,"is_reserved":false,"is_disabled":false,"rental_uris":{"android":"levelo://app?vid=77775212-2cb0-45d9-b508-ccec0a1f8fd7","ios":"levelo://app?vid=77775212-2cb0-45d9-b508-ccec0a1f8fd7"},"vehicle_type_id":"4","last_reported":1746375083,"current_range_meters":23200,"station_id":"ce4bhip2rcd13ifvqft0","pricing_plan_id":"cebpf4jnsgd1na2vs0mg"},{"bike_id":"d5766629-24c7-427e-b176-9df137244d3f","system_id":"levelo_inurba_marseille","lat":43.30428,"lon":5.39749,"is_reserved":false,"is_disabled":false,"rental_uris":{"android":"levelo://app?vid=d5766629-24c7-427e-b176-9df137244d3f","ios":"levelo://app?vid=d5766629-24c7-427e-b176-9df137244d3f"},"vehicle_type_id":"4","last_reported":1746375083,"current_range_meters":23200,"station_id":"ce4bh092rcd13ifvqd20","pricing_plan_id":"cebpf4jnsgd1na2vs0mg"},