{"last_updated":1679267189,"ttl":30,"version":"2.2","data":{"bikes":[{"bike_id":"88e0aa66-381f-46cf-bcca-3d9924aac4a2","system_id":"levelo_inurba_marseille","lat":43.31218,"lon":5.36857,"is_reserved":false,"is_disabled":false,"rental_uris":{"android":"levelo://app?vid=88e0aa66-381f-46cf-bcca-3d9924aac4a2","ios":"levelo://app?vid=88e0aa66-381f-46cf-bcca-3d9924aac4a2"},"vehicle_type_id":"4","last_reported":1679267190,"current_range_meters":0,"station_id":"ce4bgl92rcd13ifvqbq0","pricing_plan_id":"free"},{"bike_id":"d1d53a01-2978-4949-a6a4-ad0cca60a10b","system_id":"levelo_inurba_marseille","lat":43.31233,"lon":5.3688,"is_reserved":false,"is_disabled":false,"rental_uris":{"android":"levelo://app?vid=d1d53a01-2978-4949-a6a4-ad0cca60a10b","ios":"levelo://app?vid=d1d53a01-2978-4949-a6a4-ad0cca60a10b"},"vehicle_type_id":"4","last_reported":1679267190,"current_range_meters":10000,"station_id":"ce4bgl92rcd13ifvqbq0","pricing_plan_id":"free"},{"bike_id":"199bf262-3fba-455a-867f-4e2c510b158d","system_id":"levelo_inurba_marseille","lat":43.30908,"lon":5.36843,"is_reserved":false,"is_disabled":false,"rental_uris":{"android":"levelo://app?vid=199bf262-3fba-455a-867f-4e2c510b158d","ios":"levelo://app?vid=199bf262-3fba-455a-867f-4e2c510b158d"},"vehicle_type_id":"4","last_reported":1679267190,"current_range_meters":400,"station_id":"ce4bgn92rcd13ifvqbvg","pricing_plan_id":"free"},{"bike_id":"050cc297-ddd7-4817-8deb-3bb353d1051c","system_id":"levelo_inurba_marseille","lat":43.30889,"lon":5.372003,"is_reserved":false,"is_disabled":false,"rental_uris":{"android":"levelo://app?vid=050cc297-ddd7-4817-8deb-3bb353d1051c","ios":"levelo://app?vid=050cc297-ddd7-4817-8deb-3bb353d1051c"},"vehicle_type_id":"4","last_reported":1679267190,"current_range_meters":0,"station_id":"","pricing_plan_id":"free"},{"bike_id":"ac9ea263-b70a-4e82-9a83-2eb1750ec048","system_id":"levelo_inurba_marseille","lat":43.305989,"lon":5.37225,"is_reserved":false,"is_disabled":false,"rental_uris":{"android":"levelo://app?vid=ac9ea263-b70a-4e82-9a83-2eb1750ec048","ios":"levelo://app?vid=ac9ea263-b70a-4e82-9a83-2eb1750ec048"},"vehicle_type_id":"4","last_reported":1679267190,"current_range_meters":6000,"station_id":"ce4bgqh2rcd13ifvqc4g","pricing_plan_id":"free"},{"bike_id":"502a219e-c43e-4173-8bc0-b9fcb43e10f8","system_id":"levelo_inurba_marseille","lat":43.305989,"lon":5.37225,"is_reserved":false,"is_disabled":false,"rental_uris":{"android":"levelo://app?vid=502a219e-c43e-4173-8bc0-b9fcb43e10f8","ios":"levelo://app?vid=502a219e-c43e-4173-8bc0-b9fcb43e10f8"},"vehicle_type_id":"4","last_reported":1679267190,"current_range_meters":0,"station_id":"ce4bgqh2rcd13ifvqc4g","pricing_plan_id":"free"},{"bike_id":"1b1ef7ce-a682-472f-94bb-93e53af1077c","system_id":"levelo_inurba_marseille","lat":43.30596,"lon":5.37232,"is_reserved":false,"is_disabled":false,"rental_uris":{"android":"levelo://app?vid=1b1ef7ce-a682-472f-94bb-93e53af1077c","ios":"levelo://app?vid=1b1ef7ce-a682-472f-94bb-93e53af1077c"},"vehicle_type_id":"4","last_reported":1679267190,"current_range_meters":10000,"station_id":"","pricing_plan_id":"free"},{"bike_id":"4ec8fe12-7b43-4a49-9bf3-7ade490a1c20","system_id":"levelo_inurba_marseille","lat":43.306375,"lon":5.374255,"is_reserved":false,"is_disabled":false,"rental_uris":{"android":"levelo://app?vid=4ec8fe12-7b43-4a49-9bf3-7ade490a1c20","ios":"levelo://app?vid=4ec8fe12-7b43-4a49-9bf3-7ade490a1c20"},"vehicle_type_id":"4","last_reported":1679267190,"current_range_meters":0,"station_id":"","pricing_plan_id":"free"},{"bike_id":"39ee26ed-7659-415f-a228-7fb0cf1d4505","system_id":"levelo_inurba_marseille","lat":43.317104,"lon":5.377362,"is_reserved":false,"is_disabled":false,"rental_uris":{"android":"levelo://app?vid=39ee26ed-7659-415f-a228-7fb0cf1d4505","ios":"levelo://app?vid=39ee26ed-7659-415f-a228-7fb0cf1d4505"},"vehicle_type_id":"4","last_reported":1679267190,"current_range_meters":15200,"station_id":"","pricing_plan_id":"free"},{"bike_id":"fd186cce-b235-40e9-a6f3-493f6354082b","system_id":"levelo_inurba_marseille","lat":43.317043,"lon":5.377593,"is_reserved":false,"is_disabled":false,"rental_uris":{"android":"levelo://app?vid=fd186cce-b235-40e9-a6f3-493f6354082b","ios":"levelo://app?vid=fd186cce-b235-40e9-a6f3-493f6354082b"},"vehicle_type_id":"4","last_reported":1679267190,"current_range_meters":7200,"station_id":"","pricing_plan_id":"free"},{"bike_id":"4e6fea43-a84e-480c-a0c8-d11b281bd231","system_id":"levelo_inurba_marseille","lat":43.305572,"lon":5.376112,"is_reserved":false,"is_disabled":false,"rental_uris":{"android":"levelo://app?vid=4e6fea43-a84e-480c-a0c8-d11b281bd231","ios":"levelo://app?vid=4e6fea43-a84e-480c-a0c8-d11b281bd231"},"vehicle_type_id":"4","last_reported":1679267190,"current_range_meters":3600,"station_id":"","pricing_plan_id":"free"},{"bike_id":"452b2672-b362-4d38-9696-ddda64ec1212","system_id":"levelo_inurba_marseille","lat":43.30187,"lon":5.36609,"is_reserved":false,"is_disabled":false,"rental_uris":{"android":"levelo://app?vid=452b2672-b362-4d38-9696-ddda64ec1212","ios":"levelo://app?vid=452b2672-b362-4d38-9696-ddda64ec1212"},"vehicle_type_id":"4","last_reported":1679267190,"current_range_meters":27200,"station_id":"","pricing_plan_id":"free"},{"bike_id":"34e618a6-d5db-4207-8f73-c9c8a503379d","system_id":"levelo_inurba_marseille","lat":43.313291,"lon":5.382224,"is_reserved":false,"is_disabled":false,"rental_uris":{"android":"levelo://app?vid=34e618a6-d5db-4207-8f73-c9c8a503379d","ios":"levelo://app?vid=34e618a6-d5db-4207-8f73-c9c8a503379d"},"vehicle_type_id":"4","last_reported":1679267190,"current_range_meters":0,"station_id":"","pricing_plan_id":"free"},{"bike_id":"4e08e7d6-0271-4ee5-a54c-60b990dc525f","system_id":"levelo_inurba_marseille","lat":43.308012,"lon":5.381511,"is_reserved":false,"is_disabled":false,"rental_uris":{"android":"levelo://app?vid=4e08e7d6-0271-4ee5-a54c-60b990dc525f","ios":"levelo://app?vid=4e08e7d6-0271-4ee5-a54c-60b990dc525f"},"vehicle_type_id":"4","last_reported":1679267190,"current_range_meters":0,"station_id":"ce4bgt12rcd13ifvqce0","pricing_plan_id":"free"},{"bike_id":"cf1595da-8441-4aef-bd2c-9e7659473e58","system_id":"levelo_inurba_marseille","lat":43.30803,"lon":5.38153,"is_reserved":false,"is_disabled":false,"rental_uris":{"android":"levelo://app?vid=cf1595da-8441-4aef-bd2c-9e7659473e58","ios":"levelo://app?vid=cf1595da-8441-4aef-bd2c-9e7659473e58"},"vehicle_type_id":"4","last_reported":1679267190,"current_range_meters":20400,"station_id":"ce4bgt12rcd13ifvqce0","pricing_plan_id":"free"},{"bike_id":"f14a7db1-247f-4a66-a689-9a828c067b8a","system_id":"levelo_inurba_marseille","lat":43.313571,"lon":5.384829,"is_reserved":false,"is_disabled":false,"rental_uris":{"android":"levelo://app?vid=f14a7db1-247f-4a66-a689-9a828c067b8a","ios":"levelo://app?vid=f14a7db1-247f-4a66-a689-9a828c067b8a"},"vehicle_type_id":"4","last_reported":1679267190,"current_range_meters":20000,"station_id":"ce4bgt92rcd13ifvqcf0","pricing_plan_id":"free"},{"bike_id":"d17faeef-18fe-47e2-b8de-3e3eb6b4c68d","system_id":"levelo_inurba_marseille","lat":43.313571,"lon":5.384829,"is_reserved":false,"is_disabled":false,"rental_uris":{"android":"levelo://app?vid=d17faeef-18fe-47e2-b8de-3e3eb6b4c68d","ios":"levelo://app?vid=d17faeef-18fe-47e2-b8de-3e3eb6b4c68d"},"vehicle_type_id":"4","last_reported":1679267190,"current_range_meters":8800,"station_id":"ce4bgt92rcd13ifvqcf0","pricing_plan_id":"free"},{"bike_id":"de53ded5-04e3-46df-b826-5277bac7baa1","system_id":"levelo_inurba_marseille","lat":43.305364,"lon":5.384119,"is_reserved":false,"is_disabled":false,"rental_uris":{"android":"levelo://app?vid=de53ded5-04e3-46df-b826-5277bac7baa1","ios":"levelo://app?vid=de53ded5-04e3-46df-b826-5277bac7baa1"},"vehicle_type_id":"4","last_reported":1679267190,"current_range_meters":0,"station_id":"ce4bgg92rcd13ifvqb30","pricing_plan_id":"free"},{"bike_id":"1f50a77f-c815-47d0-9a95-4aa1a7265cee","system_id":"levelo_inurba_marseille","lat":43.311722,"lon":5.387247,"is_reserved":false,"is_disabled":false,"rental_uris":{"android":"levelo://app?vid=1f50a77f-c815-47d0-9a95-4aa1a7265cee","ios":"levelo://app?vid=1f50a77f-c815-47d0-9a95-4aa1a7265cee"},"vehicle_type_id":"4","last_reported":1679267190,"current_range_meters":16000,"station_id":"ce4bgv12rcd13ifvqcp0","pricing_plan_id":"free"},{"bike_id":"6b577ebf-1fc3-4f70-ba88-8cc5bc3eb61a","system_id":"levelo_inurba_marseille","lat":43.311722,"lon":5.387247,"is_reserved":false,"is_disabled":false,"rental_uris":{"android":"levelo://app?vid=6b577ebf-1fc3-4f70-ba88-8cc5bc3eb61a","ios":"levelo://app?vid=6b577ebf-1fc3-4f70-ba88-8cc5bc3eb61a"},"vehicle_type_id":"4","last_reported":1679267190,"current_range_meters":8800,"station_id":"ce4bgv12rcd13ifvqcp0","pricing_plan_id":"free"},{"bike_id":"04828532-ba93-4038-a742-9ab68a2bcc6b","system_id":"levelo_inurba_marseille","lat":43.311722,"lon":5.387247,"is_reserved":false,"is_disabled":false,"rental_uris":{"android":"levelo://app?vid=04828532-ba93-4038-a742-9ab68a2bcc6b","ios":"levelo://app?vid=04828532-ba93-4038-a742-9ab68a2bcc6b"},"vehicle_type_id":"4","last_reported":1679267190,"current_range_meters":29200,"station_id":"ce4bgv12rcd13ifvqcp0","pricing_plan_id":"free"},{"bike_id":"7c921359-a22c-4f5b-a038-6d38a614723a","system_id":"levelo_inurba_marseille","lat":43.297794,"lon":5.370888,"is_reserved":false,"is_disabled":false,"rental_uris":{"android":"levelo://app?vid=7c921359-a22c-4f5b-a038-6d38a614723a","ios":"levelo://app?vid=7c921359-a22c-4f5b-a038-6d38a614723a"},"vehicle_type_id":"4","last_reported":1679267190,"current_range_meters":0,"station_id":"ce4bgop2rcd13ifvqc1g","pricing_plan_id":"free"},{"bike_id":"7b38ce2a-d95e-4fe6-82ed-235640470951","system_id":"levelo_inurba_marseille","lat":43.328371,"lon":5.366909,"is_reserved":false,"is_disabled":false,"rental_uris":{"android":"levelo://app?vid=7b38ce2a-d95e-4fe6-82ed-235640470951","ios":"levelo://app?vid=7b38ce2a-d95e-4fe6-82ed-235640470951"},"vehicle_type_id":"4","last_reported":1679267190,"current_range_meters":8400,"station_id":"ce4bhs92rcd13ifvqi0g","pricing_plan_id":"free"},{"bike_id":"013d55aa-dde2-4987-9af5-784f54551cab","system_id":"levelo_inurba_marseille","lat":43.32842,"lon":5.375288,"is_reserved":false,"is_disabled":false,"rental_uris":{"android":"levelo://app?vid=013d55aa-dde2-4987-9af5-784f54551cab","ios":"levelo://app?vid=013d55aa-dde2-4987-9af5-784f54551cab"},"vehicle_type_id":"4","last_reported":1679267190,"current_range_meters":6800,"station_id":"","pricing_plan_id":"free"},{"bike_id":"bcfc85a0-f080-4027-805f-242717bb4e8c","system_id":"levelo_inurba_marseille","lat":43.29573,"lon":5.367355,"is_reserved":false,"is_disabled":false,"rental_uris":{"android":"levelo://app?vid=bcfc85a0-f080-4027-805f-242717bb4e8c","ios":"levelo://app?vid=bcfc85a0-f080-4027-805f-242717bb4e8c"},"vehicle_type_id":"4","last_reported":1679267190,"current_range_meters":23600,"station_id":"ce4bgph2rcd13ifvqc2g","pricing_plan_id":"free"},{"bike_id":"82d7855d-89cf-4168-b0c1-dc3199c21867","system_id":"levelo_inurba_marseille","lat":43.296921,"lon":5.376579,"is_reserved":false,"is_disabled":false,"rental_uris":{"android":"levelo://app?vid=82d7855d-89cf-4168-b0c1-dc3199c21867","ios":"levelo://app?vid=82d7855d-89cf-4168-b0c1-dc3199c21867"},"vehicle_type_id":"4","last_reported":1679267190,"current_range_meters":0,"station_id":"ce4bgkh2rcd13ifvqbl0","pricing_plan_id":"free"},{"bike_id":"5aa8b894-ab42-4184-b8b0-d397de8410b4","system_id":"levelo_inurba_marseille","lat":43.299028,"lon":5.381509,"is_reserved":false,"is_disabled":false,"rental_uris":{"android":"levelo://app?vid=5aa8b894-ab42-4184-b8b0-d397de8410b4","ios":"levelo://app?vid=5aa8b894-ab42-4184-b8b0-d397de8410b4"},"vehicle_type_id":"4","last_reported":1679267190,"current_range_meters":4000,"station_id":"ce4bgj12rcd13ifvqbc0","pricing_plan_id":"free"},{"bike_id":"03bd547c-9bda-4b7d-8704-53e2a98a820b","system_id":"levelo_inurba_marseille","lat":43.309589,"lon":5.390258,"is_reserved":false,"is_disabled":false,"rental_uris":{"android":"levelo://app?vid=03bd547c-9bda-4b7d-8704-53e2a98a820b","ios":"levelo://app?vid=03bd547c-9bda-4b7d-8704-53e2a98a820b"},"vehicle_type_id":"4","last_reported":1679267190,"current_range_meters":19600,"station_id":"ce4bgup2rcd13ifvqco0","pricing_plan_id":"free"},{"bike_id":"9dd46a1f-549f-4e6a-9388-b19070774e1a","system_id":"levelo_inurba_marseille","lat":43.309589,"lon":5.390258,"is_reserved":false,"is_disabled":false,"rental_uris":{"android":"levelo://app?vid=9dd46a1f-549f-4e6a-9388-b19070774e1a","ios":"levelo://app?vid=9dd46a1f-549f-4e6a-9388-b19070774e1a"},"vehicle_type_id":"4","last_reported":1679267190,"current_range_meters":26400,"station_id":"ce4bgup2rcd13ifvqco0","pricing_plan_id":"free"},{"bike_id":"d2806991-aca0-4e2f-823e-8c134a702787","system_id":"levelo_inurba_marseille","lat":43.31758,"lon":5.390101,"is_reserved":false,"is_disabled":false,"rental_uris":{"android":"levelo://app?vid=d2806991-aca0-4e2f-823e-8c134a702787","ios":"levelo://app?vid=d2806991-aca0-4e2f-823e-8c134a702787"},"vehicle_type_id":"4","last_reported":1679267190,"current_range_meters":12400,"station_id":"ce4bhqp2rcd13ifvqhng","pricing_plan_id":"free"},{"bike_id":"f2fe71ca-8da9-4cf0-9313-5bb081eb967e","system_id":"levelo_inurba_marseille","lat":43.29657,"lon":5.376727,"is_reserved":false,"is_disabled":false,"rental_uris":{"android":"levelo://app?vid=f2fe71ca-8da9-4cf0-9313-5bb081eb967e","ios":"levelo://app?vid=f2fe71ca-8da9-4cf0-9313-5bb081eb967e"},"vehicle_type_id":"4","last_reported":1679267190,"current_range_meters":0,"station_id":"","pricing_plan_id":"free"},{"bike_id":"8f0253d3-dd17-42cf-841b-2d4082d06618","system_id":"levelo_inurba_marseille","lat":43.298041,"lon":5.380914,"is_reserved":false,"is_disabled":false,"rental_uris":{"android":"levelo://app?vid=8f0253d3-dd17-42cf-841b-2d4082d06618","ios":"levelo://app?vid=8f0253d3-dd17-42cf-841b-2d4082d06618"},"vehicle_type_id":"4","last_reported":1679267190,"current_range_meters":0,"station_id":"","pricing_plan_id":"free"},{"bike_id":"dc2a66cb-9f68-41ff-afd4-106736553a96","system_id":"levelo_inurba_marseille","lat":43.32363,"lon":5.38884,"is_reserved":false,"is_disabled":false,"rental_uris":{"android":"levelo://app?vid=dc2a66cb-9f68-41ff-afd4-106736553a96","ios":"levelo://app?vid=dc2a66cb-9f68-41ff-afd4-106736553a96"},"vehicle_type_id":"4","last_reported":1679267190,"current_range_meters":6800,"station_id":"","pricing_plan_id":"free"},{"bike_id":"25a690a1-8ce6-46a3-bda6-cea29969af9d","system_id":"levelo_inurba_marseille","lat":43.32362,"lon":5.38887,"is_reserved":false,"is_disabled":false,"rental_uris":{"android":"levelo://app?vid=25a690a1-8ce6-46a3-bda6-cea29969af9d","ios":"levelo://app?vid=25a690a1-8ce6-46a3-bda6-cea29969af9d"},"vehicle_type_id":"4","last_reported":1679267190,"current_range_meters":2400,"station_id":"","pricing_plan_id":"free"},{"bike_id":"42a10408-8112-4a92-b0b0-24cf888b2721","system_id":"levelo_inurba_marseille","lat":43.32367,"lon":5.388836,"is_reserved":false,"is_disabled":false,"rental_uris":{"android":"levelo://app?vid=42a10408-8112-4a92-b0b0-24cf888b2721","ios":"levelo://app?vid=42a10408-8112-4a92-b0b0-24cf888b2721"},"vehicle_type_id":"4","last_reported":1679267190,"current_range_meters":1200,"station_id":"ce4bhqp2rcd13ifvqhog","pricing_plan_id":"free"},{"bike_id":"c97df904-3ae9-4d69-937d-efcf85a8a2a5","system_id":"levelo_inurba_marseille","lat":43.32366,"lon":5.38893,"is_reserved":false,"is_disabled":false,"rental_uris":{"android":"levelo://app?vid=c97df904-3ae9-4d69-937d-efcf85a8a2a5","ios":"levelo://app?vid=c97df904-3ae9-4d69-937d-efcf85a8a2a5"},"vehicle_type_id":"4","last_reported":1679267190,"current_range_meters":0,"station_id":"","pricing_plan_id":"free"},{"bike_id":"2309b4f8-07e0-47ef-9ade-764977eb7b93","system_id":"levelo_inurba_marseille","lat":43.305994,"lon":5.393687,"is_reserved":false,"is_disabled":false,"rental_uris":{"android":"levelo://app?vid=2309b4f8-07e0-47ef-9ade-764977eb7b93","ios":"levelo://app?vid=2309b4f8-07e0-47ef-9ade-764977eb7b93"},"vehicle_type_id":"4","last_reported":1679267190,"current_range_meters":22400,"station_id":"ce4bh0p2rcd13ifvqd80","pricing_plan_id":"free"},{"bike_id":"b5f0e910-1e28-4011-a554-5e1a0668879d","system_id":"levelo_inurba_marseille","lat":43.29218,"lon":5.36051,"is_reserved":false,"is_disabled":false,"rental_uris":{"android":"levelo://app?vid=b5f0e910-1e28-4011-a554-5e1a0668879d","ios":"levelo://app?vid=b5f0e910-1e28-4011-a554-5e1a0668879d"},"vehicle_type_id":"4","last_reported":1679267190,"current_range_meters":19600,"station_id":"ce4bhbh2rcd13ifvqeqg","pricing_plan_id":"free"},{"bike_id":"d3428953-8929-429e-a382-eb984c3c2ab4","system_id":"levelo_inurba_marseille","lat":43.313291,"lon":5.396838,"is_reserved":false,"is_disabled":false,"rental_uris":{"android":"levelo://app?vid=d3428953-8929-429e-a382-eb984c3c2ab4","ios":"levelo://app?vid=d3428953-8929-429e-a382-eb984c3c2ab4"},"vehicle_type_id":"4","last_reported":1679267190,"current_range_meters":0,"station_id":"ce4bgvp2rcd13ifvqcu0","pricing_plan_id":"free"},{"bike_id":"bf528970-681c-4a93-a3b2-236dd25fb6d6","system_id":"levelo_inurba_marseille","lat":43.313291,"lon":5.396838,"is_reserved":false,"is_disabled":false,"rental_uris":{"android":"levelo://app?vid=bf528970-681c-4a93-a3b2-236dd25fb6d6","ios":"levelo://app?vid=bf528970-681c-4a93-a3b2-236dd25fb6d6"},"vehicle_type_id":"4","last_reported":1679267190,"current_range_meters":400,"station_id":"ce4bgvp2rcd13ifvqcu0","pricing_plan_id":"free"},{"bike_id":"b2b00d11-4fa9-4d2e-88a8-9a24ccf7d766","system_id":"levelo_inurba_marseille","lat":43.313291,"lon":5.396838,"is_reserved":false,"is_disabled":false,"rental_uris":{"android":"levelo://app?vid=b2b00d11-4fa9-4d2e-88a8-9a24ccf7d766","ios":"levelo://app?vid=b2b00d11-4fa9-4d2e-88a8-9a24ccf7d766"},"vehicle_type_id":"4","last_reported":1679267190,"current_range_meters":8400,"station_id":"ce4bgvp2rcd13ifvqcu0","pricing_plan_id":"free"},{"bike_id":"44f7d5af-0afb-4c05-aa8a-ac1c30a8558c","system_id":"levelo_inurba_marseille","lat":43.313291,"lon":5.396838,"is_reserved":false,"is_disabled":false,"rental_uris":{"android":"levelo://app?vid=44f7d5af-0afb-4c05-aa8a-ac1c30a8558c","ios":"levelo://app?vid=44f7d5af-0afb-4c05-aa8a-ac1c30a8558c"},"vehicle_type_id":"4","last_reported":1679267190,"current_range_meters":8000,"station_id":"ce4bgvp2rcd13ifvqcu0","pricing_plan_id":"free"},{"bike_id":"038c449b-4570-4526-9def-76c802691943","system_id":"levelo_inurba_marseille","lat":43.313291,"lon":5.396838,"is_reserved":false,"is_disabled":false,"rental_uris":{"android":"levelo://app?vid=038c449b-4570-4526-9def-76c802691943","ios":"levelo://app?vid=038c449b-4570-4526-9def-76c802691943"},"vehicle_type_id":"4","last_reported":1679267190,"current_range_meters":0,"station_id":"ce4bgvp2rcd13ifvqcu0","pricing_plan_id":"free"},{"bike_id":"d7f2d1b3-414c-46e6-aaf0-f67703986ad6","system_id":"levelo_inurba_marseille","lat":43.2905,"lon":5.35906,"is_reserved":false,"is_disabled":false,"rental_uris":{"android":"levelo://app?vid=d7f2d1b3-414c-46e6-aaf0-f67703986ad6","ios":"levelo://app?vid=d7f2d1b3-414c-46e6-aaf0-f67703986ad6"},"vehicle_type_id":"4","last_reported":1679267190,"current_range_meters":31200,"station_id":"","pricing_plan_id":"free"},{"bike_id":"74b2254f-a542-4353-887f-da3db1373029","system_id":"levelo_inurba_marseille","lat":43.294227,"lon":5.386077,"is_reserved":false,"is_disabled":false,"rental_uris":{"android":"levelo://app?vid=74b2254f-a542-4353-887f-da3db1373029","ios":"levelo://app?vid=74b2254f-a542-4353-887f-da3db1373029"},"vehicle_type_id":"4","last_reported":1679267190,"current_range_meters":0,"station_id":"ce4bh2h2rcd13ifvqdh0","pricing_plan_id":"free"},{"bike_id":"d7882bfe-44b5-4780-b315-1e20313aa712","system_id":"levelo_inurba_marseille","lat":43.289184,"lon":5.366408,"is_reserved":false,"is_disabled":false,"rental_uris":{"android":"levelo://app?vid=d7882bfe-44b5-4780-b315-1e20313aa712","ios":"levelo://app?vid=d7882bfe-44b5-4780-b315-1e20313aa712"},"vehicle_type_id":"4","last_reported":1679267190,"current_range_meters":8800,"station_id":"ce4bhap2rcd13ifvqek0","pricing_plan_id":"free"},{"bike_id":"0c52e680-a20e-4844-9b0d-0a917044c9e9","system_id":"levelo_inurba_marseille","lat":43.33045,"lon":5.38914,"is_reserved":false,"is_disabled":false,"rental_uris":{"android":"levelo://app?vid=0c52e680-a20e-4844-9b0d-0a917044c9e9","ios":"levelo://app?vid=0c52e680-a20e-4844-9b0d-0a917044c9e9"},"vehicle_type_id":"4","last_reported":1679267190,"current_range_meters":400,"station_id":"ce4bhr92rcd13ifvqhrg","pricing_plan_id":"free"},{"bike_id":"2e2e6078-92a6-4ab5-a595-34da5c3e7f3b","system_id":"levelo_inurba_marseille","lat":43.290104,"lon":5.356111,"is_reserved":false,"is_disabled":false,"rental_uris":{"android":"levelo://app?vid=2e2e6078-92a6-4ab5-a595-34da5c3e7f3b","ios":"levelo://app?vid=2e2e6078-92a6-4ab5-a595-34da5c3e7f3b"},"vehicle_type_id":"4","last_reported":1679267190,"current_range_meters":8400,"station_id":"ce4bhb92rcd13ifvqen0","pricing_plan_id":"free"},{"bike_id":"635da83a-0acd-47f6-88c5-8d5856068bdf","system_id":"levelo_inurba_marseille","lat":43.330442,"lon":5.389148,"is_reserved":false,"is_disabled":false,"rental_uris":{"android":"levelo://app?vid=635da83a-0acd-47f6-88c5-8d5856068bdf","ios":"levelo://app?vid=635da83a-0acd-47f6-88c5-8d5856068bdf"},"vehicle_type_id":"4","last_reported":1679267190,"current_range_meters":4000,"station_id":"ce4bhr92rcd13ifvqhrg","pricing_plan_id":"free"},{"bike_id":"590f6e26-d220-4956-95fb-b7ca67204c35","system_id":"levelo_inurba_marseille","lat":43.289756,"lon":5.378374,"is_reserved":false,"is_disabled":false,"rental_uris":{"android":"levelo://app?vid=590f6e26-d220-4956-95fb-b7ca67204c35","ios":"levelo://app?vid=590f6e26-d220-4956-95fb-b7ca67204c35"},"vehicle_type_id":"4","last_reported":1679267190,"current_range_meters":0,"station_id":"","pricing_plan_id":"free"},{"bike_id":"be8f0033-8672-40bc-8b96-2fdd98bbb39c","system_id":"levelo_inurba_marseille","lat":43.290136,"lon":5.382001,"is_reserved":false,"is_disabled":false,"rental_uris":{"android":"levelo://app?vid=be8f0033-8672-40bc-8b96-2fdd98bbb39c","ios":"levelo://app?vid=be8f0033-8672-40bc-8b96-2fdd98bbb39c"},"vehicle_type_id":"4","last_reported":1679267190,"current_range_meters":0,"station_id":"","pricing_plan_id":"free"},{"bike_id":"559d5e1d-112c-46f3-8438-e178155d1f4a","system_id":"levelo_inurba_marseille","lat":43.3066,"lon":5.40049,"is_reserved":false,"is_disabled":false,"rental_uris":{"android":"levelo://app?vid=559d5e1d-112c-46f3-8438-e178155d1f4a","ios":"levelo://app?vid=559d5e1d-112c-46f3-8438-e178155d1f4a"},"vehicle_type_id":"4","last_reported":1679267190,"current_range_meters":0,"station_id":"","pricing_plan_id":"free"},{"bike_id":"d0d7df32-c37a-428a-9862-70b0480dd19b","system_id":"levelo_inurba_marseille","lat":43.337455,"lon":5.374605,"is_reserved":false,"is_disabled":false,"rental_uris":{"android":"levelo://app?vid=d0d7df32-c37a-428a-9862-70b0480dd19b","ios":"levelo://app?vid=d0d7df32-c37a-428a-9862-70b0480dd19b"},"vehicle_type_id":"4","last_reported":1679267190,"current_range_meters":2800,"station_id":"","pricing_plan_id":"free"},{"bike_id":"3691d997-1cad-46ed-b7e6-586680d35f2f","system_id":"levelo_inurba_marseille","lat":43.337474,"lon":5.374601,"is_reserved":false,"is_disabled":false,"rental_uris":{"android":"levelo://app?vid=3691d997-1cad-46ed-b7e6-586680d35f2f","ios":"levelo://app?vid=3691d997-1cad-46ed-b7e6-586680d35f2f"},"vehicle_type_id":"4","last_reported":1679267190,"current_range_meters":15600,"station_id":"","pricing_plan_id":"free"},{"bike_id":"228f65ff-6b04-4dbc-b939-c1fa72d1be5e","system_id":"levelo_inurba_marseille","lat":43.337602,"lon":5.374671,"is_reserved":false,"is_disabled":false,"rental_uris":{"android":"levelo://app?vid=228f65ff-6b04-4dbc-b939-c1fa72d1be5e","ios":"levelo://app?vid=228f65ff-6b04-4dbc-b939-c1fa72d1be5e"},"vehicle_type_id":"4","last_reported":1679267190,"current_range_meters":20000,"station_id":"","pricing_plan_id":"free"},{"bike_id":"ebb653f6-e780-4b35-8a80-63ced90399c4","system_id":"levelo_inurba_marseille","lat":43.30645,"lon":5.40098,"is_reserved":false,"is_disabled":false,"rental_uris":{"android":"levelo://app?vid=ebb653f6-e780-4b35-8a80-63ced90399c4","ios":"levelo://app?vid=ebb653f6-e780-4b35-8a80-63ced90399c4"},"vehicle_type_id":"4","last_reported":1679267190,"current_range_meters":0,"station_id":"","pricing_plan_id":"free"},{"bike_id":"614eb05e-c38d-4487-baac-3a7c1491b507","system_id":"levelo_inurba_marseille","lat":43.301117,"lon":5.398795,"is_reserved":false,"is_disabled":false,"rental_uris":{"android":"levelo://app?vid=614eb05e-c38d-4487-baac-3a7c1491b507","ios":"levelo://app?vid=614eb05e-c38d-4487-baac-3a7c1491b507"},"vehicle_type_id":"4","last_reported":1679267190,"current_range_meters":5200,"station_id":"ce4bh0h2rcd13ifvqd40","pricing_plan_id":"free"},{"bike_id":"53469d26-9326-4819-ab49-c7fae63c0bfd","system_id":"levelo_inurba_marseille","lat":43.286593,"lon":5.363346,"is_reserved":false,"is_disabled":false,"rental_uris":{"android":"levelo://app?vid=53469d26-9326-4819-ab49-c7fae63c0bfd","ios":"levelo://app?vid=53469d26-9326-4819-ab49-c7fae63c0bfd"},"vehicle_type_id":"4","last_reported":1679267190,"current_range_meters":21600,"station_id":"ce4bhah2rcd13ifvqej0","pricing_plan_id":"free"},{"bike_id":"13daf331-d4da-4609-b100-9d9d574ca585","system_id":"levelo_inurba_marseille","lat":43.286593,"lon":5.363346,"is_reserved":false,"is_disabled":false,"rental_uris":{"android":"levelo://app?vid=13daf331-d4da-4609-b100-9d9d574ca585","ios":"levelo://app?vid=13daf331-d4da-4609-b100-9d9d574ca585"},"vehicle_type_id":"4","last_reported":1679267190,"current_range_meters":4400,"station_id":"ce4bhah2rcd13ifvqej0","pricing_plan_id":"free"},{"bike_id":"88a1a7fe-47f6-4905-a600-a126571e231f","system_id":"levelo_inurba_marseille","lat":43.286593,"lon":5.363346,"is_reserved":false,"is_disabled":false,"rental_uris":{"android":"levelo://app?vid=88a1a7fe-47f6-4905-a600-a126571e231f","ios":"levelo://app?vid=88a1a7fe-47f6-4905-a600-a126571e231f"},"vehicle_type_id":"4","last_reported":1679267190,"current_range_meters":2800,"station_id":"ce4bhah2rcd13ifvqej0","pricing_plan_id":"free"},{"bike_id":"a94248f1-3c0d-42e2-8cb1-cf4fa92ab279","system_id":"levelo_inurba_marseille","lat":43.286593,"lon":5.363346,"is_reserved":false,"is_disabled":false,"rental_uris":{"android":"levelo://app?vid=a94248f1-3c0d-42e2-8cb1-cf4fa92ab279","ios":"levelo://app?vid=a94248f1-3c0d-42e2-8cb1-cf4fa92ab279"},"vehicle_type_id":"4","last_reported":1679267190,"current_range_meters":0,"station_id":"ce4bhah2rcd13ifvqej0","pricing_plan_id":"free"},{"bike_id":"378a7a58-49da-4ad5-8cf2-fe505511d48c","system_id":"levelo_inurba_marseille","lat":43.302759,"lon":5.400793,"is_reserved":false,"is_disabled":false,"rental_uris":{"android":"levelo://app?vid=378a7a58-49da-4ad5-8cf2-fe505511d48c","ios":"levelo://app?vid=378a7a58-49da-4ad5-8cf2-fe505511d48c"},"vehicle_type_id":"4","last_reported":1679267190,"current_range_meters":28800,"station_id":"ce4bgvh2rcd13ifvqcs0","pricing_plan_id":"free"},{"bike_id":"f7b4df50-eb50-4093-9fe5-a6ae01bfe3bb","system_id":"levelo_inurba_marseille","lat":43.316517,"lon":5.404375,"is_reserved":false,"is_disabled":false,"rental_uris":{"android":"levelo://app?vid=f7b4df50-eb50-4093-9fe5-a6ae01bfe3bb","ios":"levelo://app?vid=f7b4df50-eb50-4093-9fe5-a6ae01bfe3bb"},"vehicle_type_id":"4","last_reported":1679267190,"current_range_meters":14800,"station_id":"ce4bh012rcd13ifvqd00","pricing_plan_id":"free"},{"bike_id":"a8f5114f-9270-4c90-a713-38638b616ecd","system_id":"levelo_inurba_marseille","lat":43.28461,"lon":5.35891,"is_reserved":false,"is_disabled":false,"rental_uris":{"android":"levelo://app?vid=a8f5114f-9270-4c90-a713-38638b616ecd","ios":"levelo://app?vid=a8f5114f-9270-4c90-a713-38638b616ecd"},"vehicle_type_id":"4","last_reported":1679267190,"current_range_meters":1200,"station_id":"","pricing_plan_id":"free"},{"bike_id":"a4c7aac0-d891-4a93-9be7-26de2e858e67","system_id":"levelo_inurba_marseille","lat":43.297415,"lon":5.401475,"is_reserved":false,"is_disabled":false,"rental_uris":{"android":"levelo://app?vid=a4c7aac0-d891-4a93-9be7-26de2e858e67","ios":"levelo://app?vid=a4c7aac0-d891-4a93-9be7-26de2e858e67"},"vehicle_type_id":"4","last_reported":1679267190,"current_range_meters":7200,"station_id":"","pricing_plan_id":"free"},{"bike_id":"1430011a-0610-46a9-9f8e-d7433f5de21d","system_id":"levelo_inurba_marseille","lat":43.32451,"lon":5.4045,"is_reserved":false,"is_disabled":false,"rental_uris":{"android":"levelo://app?vid=1430011a-0610-46a9-9f8e-d7433f5de21d","ios":"levelo://app?vid=1430011a-0610-46a9-9f8e-d7433f5de21d"},"vehicle_type_id":"4","last_reported":1679267190,"current_range_meters":13600,"station_id":"","pricing_plan_id":"free"},{"bike_id":"60d93b7c-19f9-4720-b598-5d4e354fedd5","system_id":"levelo_inurba_marseille","lat":43.33717,"lon":5.391857,"is_reserved":false,"is_disabled":false,"rental_uris":{"android":"levelo://app?vid=60d93b7c-19f9-4720-b598-5d4e354fedd5","ios":"levelo://app?vid=60d93b7c-19f9-4720-b598-5d4e354fedd5"},"vehicle_type_id":"4","last_reported":1679267190,"current_range_meters":9200,"station_id":"ce4bhr92rcd13ifvqhsg","pricing_plan_id":"free"},{"bike_id":"ce4c7965-d2ff-4a1f-9ae2-163f5924d505","system_id":"levelo_inurba_marseille","lat":43.288501,"lon":5.393087,"is_reserved":false,"is_disabled":false,"rental_uris":{"android":"levelo://app?vid=ce4c7965-d2ff-4a1f-9ae2-163f5924d505","ios":"levelo://app?vid=ce4c7965-d2ff-4a1f-9ae2-163f5924d505"},"vehicle_type_id":"4","last_reported":1679267190,"current_range_meters":0,"station_id":"ce4bh2p2rcd13ifvqdi0","pricing_plan_id":"free"},{"bike_id":"8c76c067-f6fd-484b-b2d7-db2b1f6800fe","system_id":"levelo_inurba_marseille","lat":43.283523,"lon":5.3811,"is_reserved":false,"is_disabled":false,"rental_uris":{"android":"levelo://app?vid=8c76c067-f6fd-484b-b2d7-db2b1f6800fe","ios":"levelo://app?vid=8c76c067-f6fd-484b-b2d7-db2b1f6800fe"},"vehicle_type_id":"4","last_reported":1679267190,"current_range_meters":18000,"station_id":"","pricing_plan_id":"free"},{"bike_id":"99d33dd5-28c0-4922-9402-dfaf7e82caa6","system_id":"levelo_inurba_marseille","lat":43.289363,"lon":5.396322,"is_reserved":false,"is_disabled":false,"rental_uris":{"android":"levelo://app?vid=99d33dd5-28c0-4922-9402-dfaf7e82caa6","ios":"levelo://app?vid=99d33dd5-28c0-4922-9402-dfaf7e82caa6"},"vehicle_type_id":"4","last_reported":1679267190,"current_range_meters":7600,"station_id":"ce4bh3h2rcd13ifvqdn0","pricing_plan_id":"free"},{"bike_id":"22f00f91-1583-48b1-b691-708679555aaf","system_id":"levelo_inurba_marseille","lat":43.28279,"lon":5.350857,"is_reserved":false,"is_disabled":false,"rental_uris":{"android":"levelo://app?vid=22f00f91-1583-48b1-b691-708679555aaf","ios":"levelo://app?vid=22f00f91-1583-48b1-b691-708679555aaf"},"vehicle_type_id":"4","last_reported":1679267190,"current_range_meters":23600,"station_id":"ce4bhbp2rcd13ifvqerg","pricing_plan_id":"free"},{"bike_id":"2e9eeb24-f6dd-4943-9061-1861929f1d82","system_id":"levelo_inurba_marseille","lat":43.292724,"lon":5.401131,"is_reserved":false,"is_disabled":false,"rental_uris":{"android":"levelo://app?vid=2e9eeb24-f6dd-4943-9061-1861929f1d82","ios":"levelo://app?vid=2e9eeb24-f6dd-4943-9061-1861929f1d82"},"vehicle_type_id":"4","last_reported":1679267190,"current_range_meters":23600,"station_id":"ce4bh312rcd13ifvqdk0","pricing_plan_id":"free"},{"bike_id":"3bb1f037-d27a-4c0e-bb74-9188645e94c2","system_id":"levelo_inurba_marseille","lat":43.282797,"lon":5.350683,"is_reserved":false,"is_disabled":false,"rental_uris":{"android":"levelo://app?vid=3bb1f037-d27a-4c0e-bb74-9188645e94c2","ios":"levelo://app?vid=3bb1f037-d27a-4c0e-bb74-9188645e94c2"},"vehicle_type_id":"4","last_reported":1679267190,"current_range_meters":23600,"station_id":"ce4bhbp2rcd13ifvqerg","pricing_plan_id":"free"},{"bike_id":"88d33f22-da56-435e-a4aa-e4e8f6060ecc","system_id":"levelo_inurba_marseille","lat":43.28106,"lon":5.37843,"is_reserved":false,"is_disabled":false,"rental_uris":{"android":"levelo://app?vid=88d33f22-da56-435e-a4aa-e4e8f6060ecc","ios":"levelo://app?vid=88d33f22-da56-435e-a4aa-e4e8f6060ecc"},"vehicle_type_id":"4","last_reported":1679267190,"current_range_meters":5600,"station_id":"ce4bha12rcd13ifvqee0","pricing_plan_id":"free"},{"bike_id":"c78c7551-d0a9-471f-a85d-a99ea05154bb","system_id":"levelo_inurba_marseille","lat":43.28102,"lon":5.37835,"is_reserved":false,"is_disabled":false,"rental_uris":{"android":"levelo://app?vid=c78c7551-d0a9-471f-a85d-a99ea05154bb","ios":"levelo://app?vid=c78c7551-d0a9-471f-a85d-a99ea05154bb"},"vehicle_type_id":"4","last_reported":1679267190,"current_range_meters":0,"station_id":"","pricing_plan_id":"free"},{"bike_id":"e4f8191a-e2cc-4b52-a13f-1b7ad2072c1b","system_id":"levelo_inurba_marseille","lat":43.296376,"lon":5.406003,"is_reserved":false,"is_disabled":false,"rental_uris":{"android":"levelo://app?vid=e4f8191a-e2cc-4b52-a13f-1b7ad2072c1b","ios":"levelo://app?vid=e4f8191a-e2cc-4b52-a13f-1b7ad2072c1b"},"vehicle_type_id":"4","last_reported":1679267190,"current_range_meters":2400,"station_id":"ce4bh0h2rcd13ifvqd60","pricing_plan_id":"free"},{"bike_id":"0b1a93c2-4ecb-4280-900f-5c9a8b7756e9","system_id":"levelo_inurba_marseille","lat":43.280993,"lon":5.378433,"is_reserved":false,"is_disabled":false,"rental_uris":{"android":"levelo://app?vid=0b1a93c2-4ecb-4280-900f-5c9a8b7756e9","ios":"levelo://app?vid=0b1a93c2-4ecb-4280-900f-5c9a8b7756e9"},"vehicle_type_id":"4","last_reported":1679267190,"current_range_meters":0,"station_id":"","pricing_plan_id":"free"},{"bike_id":"f0e993a3-a667-49e7-84f3-bd61a2e5986f","system_id":"levelo_inurba_marseille","lat":43.284462,"lon":5.392121,"is_reserved":false,"is_disabled":false,"rental_uris":{"android":"levelo://app?vid=f0e993a3-a667-49e7-84f3-bd61a2e5986f","ios":"levelo://app?vid=f0e993a3-a667-49e7-84f3-bd61a2e5986f"},"vehicle_type_id":"4","last_reported":1679267190,"current_range_meters":2800,"station_id":"ce4bhoh2rcd13ifvqh5g","pricing_plan_id":"free"},{"bike_id":"ac5e5f56-fb51-4e39-83f9-f7368de9a02f","system_id":"levelo_inurba_marseille","lat":43.304188,"lon":5.412904,"is_reserved":false,"is_disabled":false,"rental_uris":{"android":"levelo://app?vid=ac5e5f56-fb51-4e39-83f9-f7368de9a02f","ios":"levelo://app?vid=ac5e5f56-fb51-4e39-83f9-f7368de9a02f"},"vehicle_type_id":"4","last_reported":1679267190,"current_range_meters":29200,"station_id":"ce4bhop2rcd13ifvqh8g","pricing_plan_id":"free"},{"bike_id":"55f2c8c4-a1b3-4e25-85e3-0dc931df826e","system_id":"levelo_inurba_marseille","lat":43.304188,"lon":5.412904,"is_reserved":false,"is_disabled":false,"rental_uris":{"android":"levelo://app?vid=55f2c8c4-a1b3-4e25-85e3-0dc931df826e","ios":"levelo://app?vid=55f2c8c4-a1b3-4e25-85e3-0dc931df826e"},"vehicle_type_id":"4","last_reported":1679267190,"current_range_meters":29600,"station_id":"ce4bhop2rcd13ifvqh8g","pricing_plan_id":"free"},{"bike_id":"29671d63-0cc7-4cdf-8065-727b82ee79aa","system_id":"levelo_inurba_marseille","lat":43.304188,"lon":5.412904,"is_reserved":false,"is_disabled":false,"rental_uris":{"android":"levelo://app?vid=29671d63-0cc7-4cdf-8065-727b82ee79aa","ios":"levelo://app?vid=29671d63-0cc7-4cdf-8065-727b82ee79aa"},"vehicle_type_id":"4","last_reported":1679267190,"current_range_meters":31600,"station_id":"ce4bhop2rcd13ifvqh8g","pricing_plan_id":"free"},{"bike_id":"3635a144-8778-4232-b52f-584a4015e828","system_id":"levelo_inurba_marseille","lat":43.287154,"lon":5.399979,"is_reserved":false,"is_disabled":false,"rental_uris":{"android":"levelo://app?vid=3635a144-8778-4232-b52f-584a4015e828","ios":"levelo://app?vid=3635a144-8778-4232-b52f-584a4015e828"},"vehicle_type_id":"4","last_reported":1679267190,"current_range_meters":17600,"station_id":"ce4bho92rcd13ifvqh3g","pricing_plan_id":"free"},{"bike_id":"7a8fca1c-84ee-4899-9f14-e3817ff797ec","system_id":"levelo_inurba_marseille","lat":43.287154,"lon":5.399979,"is_reserved":false,"is_disabled":false,"rental_uris":{"android":"levelo://app?vid=7a8fca1c-84ee-4899-9f14-e3817ff797ec","ios":"levelo://app?vid=7a8fca1c-84ee-4899-9f14-e3817ff797ec"},"vehicle_type_id":"4","last_reported":1679267190,"current_range_meters":31200,"station_id":"ce4bho92rcd13ifvqh3g","pricing_plan_id":"free"},{"bike_id":"c7d1f2e4-8e41-4a29-9a70-a4ba9450acf2","system_id":"levelo_inurba_marseille","lat":43.29957,"lon":5.4131,"is_reserved":false,"is_disabled":false,"rental_uris":{"android":"levelo://app?vid=c7d1f2e4-8e41-4a29-9a70-a4ba9450acf2","ios":"levelo://app?vid=c7d1f2e4-8e41-4a29-9a70-a4ba9450acf2"},"vehicle_type_id":"4","last_reported":1679267190,"current_range_meters":27600,"station_id":"ce4bhp12rcd13ifvqh9g","pricing_plan_id":"free"},{"bike_id":"754584db-5c72-4f56-8120-762a9cbbfa3b","system_id":"levelo_inurba_marseille","lat":43.299579,"lon":5.413255,"is_reserved":false,"is_disabled":false,"rental_uris":{"android":"levelo://app?vid=754584db-5c72-4f56-8120-762a9cbbfa3b","ios":"levelo://app?vid=754584db-5c72-4f56-8120-762a9cbbfa3b"},"vehicle_type_id":"4","last_reported":1679267190,"current_range_meters":4400,"station_id":"ce4bhp12rcd13ifvqh9g","pricing_plan_id":"free"},{"bike_id":"e9d41ed9-6722-49f9-9845-ae38f2ce7d48","system_id":"levelo_inurba_marseille","lat":43.299524,"lon":5.413182,"is_reserved":false,"is_disabled":false,"rental_uris":{"android":"levelo://app?vid=e9d41ed9-6722-49f9-9845-ae38f2ce7d48","ios":"levelo://app?vid=e9d41ed9-6722-49f9-9845-ae38f2ce7d48"},"vehicle_type_id":"4","last_reported":1679267190,"current_range_meters":2800,"station_id":"","pricing_plan_id":"free"},{"bike_id":"1d9cd785-35c2-4153-afee-e820fc6587d5","system_id":"levelo_inurba_marseille","lat":43.299577,"lon":5.413277,"is_reserved":false,"is_disabled":false,"rental_uris":{"android":"levelo://app?vid=1d9cd785-35c2-4153-afee-e820fc6587d5","ios":"levelo://app?vid=1d9cd785-35c2-4153-afee-e820fc6587d5"},"vehicle_type_id":"4","last_reported":1679267190,"current_range_meters":26800,"station_id":"ce4bhp12rcd13ifvqh9g","pricing_plan_id":"free"},{"bike_id":"679fd8f8-2235-438a-a9e9-ce3e34fe297a","system_id":"levelo_inurba_marseille","lat":43.324739,"lon":5.414292,"is_reserved":false,"is_disabled":false,"rental_uris":{"android":"levelo://app?vid=679fd8f8-2235-438a-a9e9-ce3e34fe297a","ios":"levelo://app?vid=679fd8f8-2235-438a-a9e9-ce3e34fe297a"},"vehicle_type_id":"4","last_reported":1679267190,"current_range_meters":3600,"station_id":"","pricing_plan_id":"free"},{"bike_id":"998841ad-76db-477f-b953-98f328b19f0f","system_id":"levelo_inurba_marseille","lat":43.292571,"lon":5.409107,"is_reserved":false,"is_disabled":false,"rental_uris":{"android":"levelo://app?vid=998841ad-76db-477f-b953-98f328b19f0f","ios":"levelo://app?vid=998841ad-76db-477f-b953-98f328b19f0f"},"vehicle_type_id":"4","last_reported":1679267190,"current_range_meters":0,"station_id":"ce4bh192rcd13ifvqdc0","pricing_plan_id":"free"},{"bike_id":"1745123a-25f7-4bce-a1f8-2ff755a9b2d4","system_id":"levelo_inurba_marseille","lat":43.325434,"lon":5.414362,"is_reserved":false,"is_disabled":false,"rental_uris":{"android":"levelo://app?vid=1745123a-25f7-4bce-a1f8-2ff755a9b2d4","ios":"levelo://app?vid=1745123a-25f7-4bce-a1f8-2ff755a9b2d4"},"vehicle_type_id":"4","last_reported":1679267190,"current_range_meters":8400,"station_id":"ce4bhq12rcd13ifvqhhg","pricing_plan_id":"free"},{"bike_id":"32f7f410-8568-4be2-93f2-3fd243e9feee","system_id":"levelo_inurba_marseille","lat":43.33612,"lon":5.410321,"is_reserved":false,"is_disabled":false,"rental_uris":{"android":"levelo://app?vid=32f7f410-8568-4be2-93f2-3fd243e9feee","ios":"levelo://app?vid=32f7f410-8568-4be2-93f2-3fd243e9feee"},"vehicle_type_id":"4","last_reported":1679267190,"current_range_meters":26400,"station_id":"ce4bhqh2rcd13ifvqhmg","pricing_plan_id":"free"},{"bike_id":"38038e58-a818-4e1c-9c10-2a9f0d41e457","system_id":"levelo_inurba_marseille","lat":43.336134,"lon":5.410341,"is_reserved":false,"is_disabled":false,"rental_uris":{"android":"levelo://app?vid=38038e58-a818-4e1c-9c10-2a9f0d41e457","ios":"levelo://app?vid=38038e58-a818-4e1c-9c10-2a9f0d41e457"},"vehicle_type_id":"4","last_reported":1679267190,"current_range_meters":24400,"station_id":"ce4bhqh2rcd13ifvqhmg","pricing_plan_id":"free"},{"bike_id":"bf1fbe30-2902-4f49-a183-f265bbbc264c","system_id":"levelo_inurba_marseille","lat":43.33612,"lon":5.410321,"is_reserved":false,"is_disabled":false,"rental_uris":{"android":"levelo://app?vid=bf1fbe30-2902-4f49-a183-f265bbbc264c","ios":"levelo://app?vid=bf1fbe30-2902-4f49-a183-f265bbbc264c"},"vehicle_type_id":"4","last_reported":1679267190,"current_range_meters":12000,"station_id":"ce4bhqh2rcd13ifvqhmg","pricing_plan_id":"free"},{"bike_id":"feb5f84b-cd87-4739-9b97-a1022bb1d412","system_id":"levelo_inurba_marseille","lat":43.336148,"lon":5.410349,"is_reserved":false,"is_disabled":false,"rental_uris":{"android":"levelo://app?vid=feb5f84b-cd87-4739-9b97-a1022bb1d412","ios":"levelo://app?vid=feb5f84b-cd87-4739-9b97-a1022bb1d412"},"vehicle_type_id":"4","last_reported":1679267190,"current_range_meters":26000,"station_id":"ce4bhqh2rcd13ifvqhmg","pricing_plan_id":"free"},{"bike_id":"d3ff9249-c181-4ac9-b814-cd9425a2b806","system_id":"levelo_inurba_marseille","lat":43.336134,"lon":5.410341,"is_reserved":false,"is_disabled":false,"rental_uris":{"android":"levelo://app?vid=d3ff9249-c181-4ac9-b814-cd9425a2b806","ios":"levelo://app?vid=d3ff9249-c181-4ac9-b814-cd9425a2b806"},"vehicle_type_id":"4","last_reported":1679267190,"current_range_meters":21600,"station_id":"ce4bhqh2rcd13ifvqhmg","pricing_plan_id":"free"},{"bike_id":"6f7c456f-25b6-4043-8d52-78cb6427cc6b","system_id":"levelo_inurba_marseille","lat":43.336134,"lon":5.410341,"is_reserved":false,"is_disabled":false,"rental_uris":{"android":"levelo://app?vid=6f7c456f-25b6-4043-8d52-78cb6427cc6b","ios":"levelo://app?vid=6f7c456f-25b6-4043-8d52-78cb6427cc6b"},"vehicle_type_id":"4","last_reported":1679267190,"current_range_meters":20800,"station_id":"ce4bhqh2rcd13ifvqhmg","pricing_plan_id":"free"},{"bike_id":"4f958feb-9223-4a85-ae9d-6bbeb24b0ace","system_id":"levelo_inurba_marseille","lat":43.30413,"lon":5.42542,"is_reserved":false,"is_disabled":false,"rental_uris":{"android":"levelo://app?vid=4f958feb-9223-4a85-ae9d-6bbeb24b0ace","ios":"levelo://app?vid=4f958feb-9223-4a85-ae9d-6bbeb24b0ace"},"vehicle_type_id":"4","last_reported":1679267190,"current_range_meters":4800,"station_id":"","pricing_plan_id":"free"},{"bike_id":"294524a0-48d8-47f8-a638-1a025f7bfc14","system_id":"levelo_inurba_marseille","lat":43.295523,"lon":5.422926,"is_reserved":false,"is_disabled":false,"rental_uris":{"android":"levelo://app?vid=294524a0-48d8-47f8-a638-1a025f7bfc14","ios":"levelo://app?vid=294524a0-48d8-47f8-a638-1a025f7bfc14"},"vehicle_type_id":"4","last_reported":1679267190,"current_range_meters":9200,"station_id":"ce4bhph2rcd13ifvqhdg","pricing_plan_id":"free"},{"bike_id":"7c25627b-52d2-4e1f-a2c5-ff281379658a","system_id":"levelo_inurba_marseille","lat":43.29552,"lon":5.42279,"is_reserved":false,"is_disabled":false,"rental_uris":{"android":"levelo://app?vid=7c25627b-52d2-4e1f-a2c5-ff281379658a","ios":"levelo://app?vid=7c25627b-52d2-4e1f-a2c5-ff281379658a"},"vehicle_type_id":"4","last_reported":1679267190,"current_range_meters":18800,"station_id":"ce4bhph2rcd13ifvqhdg","pricing_plan_id":"free"},{"bike_id":"94c91f66-5bf8-4124-bd49-21f28584ac87","system_id":"levelo_inurba_marseille","lat":43.29553,"lon":5.4228,"is_reserved":false,"is_disabled":false,"rental_uris":{"android":"levelo://app?vid=94c91f66-5bf8-4124-bd49-21f28584ac87","ios":"levelo://app?vid=94c91f66-5bf8-4124-bd49-21f28584ac87"},"vehicle_type_id":"4","last_reported":1679267190,"current_range_meters":400,"station_id":"ce4bhph2rcd13ifvqhdg","pricing_plan_id":"free"},{"bike_id":"15357db7-2348-4275-97d7-f561e492026c","system_id":"levelo_inurba_marseille","lat":43.29556,"lon":5.42287,"is_reserved":false,"is_disabled":false,"rental_uris":{"android":"levelo://app?vid=15357db7-2348-4275-97d7-f561e492026c","ios":"levelo://app?vid=15357db7-2348-4275-97d7-f561e492026c"},"vehicle_type_id":"4","last_reported":1679267190,"current_range_meters":1200,"station_id":"ce4bhph2rcd13ifvqhdg","pricing_plan_id":"free"},{"bike_id":"bc064ba5-50f6-4ce3-8d9b-1239bb2d9bd3","system_id":"levelo_inurba_marseille","lat":43.29551,"lon":5.42285,"is_reserved":false,"is_disabled":false,"rental_uris":{"android":"levelo://app?vid=bc064ba5-50f6-4ce3-8d9b-1239bb2d9bd3","ios":"levelo://app?vid=bc064ba5-50f6-4ce3-8d9b-1239bb2d9bd3"},"vehicle_type_id":"4","last_reported":1679267190,"current_range_meters":0,"station_id":"","pricing_plan_id":"free"},{"bike_id":"597061d9-7d4c-4d9f-928e-70368f7dc079","system_id":"levelo_inurba_marseille","lat":43.295523,"lon":5.422926,"is_reserved":false,"is_disabled":false,"rental_uris":{"android":"levelo://app?vid=597061d9-7d4c-4d9f-928e-70368f7dc079","ios":"levelo://app?vid=597061d9-7d4c-4d9f-928e-70368f7dc079"},"vehicle_type_id":"4","last_reported":1679267190,"current_range_meters":24800,"station_id":"ce4bhph2rcd13ifvqhdg","pricing_plan_id":"free"},{"bike_id":"87f0a20b-30d2-431b-9d8c-bbe200acabae","system_id":"levelo_inurba_marseille","lat":43.29547,"lon":5.42287,"is_reserved":false,"is_disabled":false,"rental_uris":{"android":"levelo://app?vid=87f0a20b-30d2-431b-9d8c-bbe200acabae","ios":"levelo://app?vid=87f0a20b-30d2-431b-9d8c-bbe200acabae"},"vehicle_type_id":"4","last_reported":1679267190,"current_range_meters":21600,"station_id":"ce4bhph2rcd13ifvqhdg","pricing_plan_id":"free"},{"bike_id":"348de51b-f62a-486e-8e94-bfa618b9d1c1","system_id":"levelo_inurba_marseille","lat":43.278128,"lon":5.407195,"is_reserved":false,"is_disabled":false,"rental_uris":{"android":"levelo://app?vid=348de51b-f62a-486e-8e94-bfa618b9d1c1","ios":"levelo://app?vid=348de51b-f62a-486e-8e94-bfa618b9d1c1"},"vehicle_type_id":"4","last_reported":1679267190,"current_range_meters":1600,"station_id":"ce4bhnh2rcd13ifvqgtg","pricing_plan_id":"free"},{"bike_id":"df6f35ea-9f89-4d2a-bc60-fa15b434769e","system_id":"levelo_inurba_marseille","lat":43.269523,"lon":5.386423,"is_reserved":false,"is_disabled":false,"rental_uris":{"android":"levelo://app?vid=df6f35ea-9f89-4d2a-bc60-fa15b434769e","ios":"levelo://app?vid=df6f35ea-9f89-4d2a-bc60-fa15b434769e"},"vehicle_type_id":"4","last_reported":1679267190,"current_range_meters":14800,"station_id":"ce4bhh92rcd13ifvqfh0","pricing_plan_id":"free"},{"bike_id":"efa38077-8d8b-4846-9329-4529a5e3ae41","system_id":"levelo_inurba_marseille","lat":43.279987,"lon":5.416563,"is_reserved":false,"is_disabled":false,"rental_uris":{"android":"levelo://app?vid=efa38077-8d8b-4846-9329-4529a5e3ae41","ios":"levelo://app?vid=efa38077-8d8b-4846-9329-4529a5e3ae41"},"vehicle_type_id":"4","last_reported":1679267190,"current_range_meters":22000,"station_id":"","pricing_plan_id":"free"},{"bike_id":"9aac5d88-84f2-49d4-8de1-83fbe49ab068","system_id":"levelo_inurba_marseille","lat":43.2607,"lon":5.393983,"is_reserved":false,"is_disabled":false,"rental_uris":{"android":"levelo://app?vid=9aac5d88-84f2-49d4-8de1-83fbe49ab068","ios":"levelo://app?vid=9aac5d88-84f2-49d4-8de1-83fbe49ab068"},"vehicle_type_id":"4","last_reported":1679267190,"current_range_meters":18400,"station_id":"ce4bhh92rcd13ifvqfj0","pricing_plan_id":"free"},{"bike_id":"39ae7553-5b15-41ed-be49-d087d1ff66f8","system_id":"levelo_inurba_marseille","lat":43.2607,"lon":5.393983,"is_reserved":false,"is_disabled":false,"rental_uris":{"android":"levelo://app?vid=39ae7553-5b15-41ed-be49-d087d1ff66f8","ios":"levelo://app?vid=39ae7553-5b15-41ed-be49-d087d1ff66f8"},"vehicle_type_id":"4","last_reported":1679267190,"current_range_meters":7600,"station_id":"ce4bhh92rcd13ifvqfj0","pricing_plan_id":"free"},{"bike_id":"b5fd0508-197a-4071-8a3a-2378b72b0be9","system_id":"levelo_inurba_marseille","lat":43.2607,"lon":5.393983,"is_reserved":false,"is_disabled":false,"rental_uris":{"android":"levelo://app?vid=b5fd0508-197a-4071-8a3a-2378b72b0be9","ios":"levelo://app?vid=b5fd0508-197a-4071-8a3a-2378b72b0be9"},"vehicle_type_id":"4","last_reported":1679267190,"current_range_meters":31600,"station_id":"ce4bhh92rcd13ifvqfj0","pricing_plan_id":"free"},{"bike_id":"0312c11b-f530-4c74-8298-1f0b15885c6d","system_id":"levelo_inurba_marseille","lat":43.2607,"lon":5.393983,"is_reserved":false,"is_disabled":false,"rental_uris":{"android":"levelo://app?vid=0312c11b-f530-4c74-8298-1f0b15885c6d","ios":"levelo://app?vid=0312c11b-f530-4c74-8298-1f0b15885c6d"},"vehicle_type_id":"4","last_reported":1679267190,"current_range_meters":1200,"station_id":"ce4bhh92rcd13ifvqfj0","pricing_plan_id":"free"},{"bike_id":"106ba0d7-eee6-4035-a2fc-25d6d4db5d3a","system_id":"levelo_inurba_marseille","lat":43.2607,"lon":5.393983,"is_reserved":false,"is_disabled":false,"rental_uris":{"android":"levelo://app?vid=106ba0d7-eee6-4035-a2fc-25d6d4db5d3a","ios":"levelo://app?vid=106ba0d7-eee6-4035-a2fc-25d6d4db5d3a"},"vehicle_type_id":"4","last_reported":1679267190,"current_range_meters":400,"station_id":"ce4bhh92rcd13ifvqfj0","pricing_plan_id":"free"},{"bike_id":"1d029ce5-36f7-4b74-b4fe-5432b4551522","system_id":"levelo_inurba_marseille","lat":43.260909,"lon":5.397624,"is_reserved":false,"is_disabled":false,"rental_uris":{"android":"levelo://app?vid=1d029ce5-36f7-4b74-b4fe-5432b4551522","ios":"levelo://app?vid=1d029ce5-36f7-4b74-b4fe-5432b4551522"},"vehicle_type_id":"4","last_reported":1679267190,"current_range_meters":18400,"station_id":"","pricing_plan_id":"free"},{"bike_id":"217a32fe-0161-43b0-bec3-ad3345425f35","system_id":"levelo_inurba_marseille","lat":43.29255,"lon":5.44146,"is_reserved":false,"is_disabled":false,"rental_uris":{"android":"levelo://app?vid=217a32fe-0161-43b0-bec3-ad3345425f35","ios":"levelo://app?vid=217a32fe-0161-43b0-bec3-ad3345425f35"},"vehicle_type_id":"4","last_reported":1679267190,"current_range_meters":17600,"station_id":"","pricing_plan_id":"free"},{"bike_id":"22eb2a93-8530-4d89-81c3-2ee96c198141","system_id":"levelo_inurba_marseille","lat":43.270721,"lon":5.422764,"is_reserved":false,"is_disabled":false,"rental_uris":{"android":"levelo://app?vid=22eb2a93-8530-4d89-81c3-2ee96c198141","ios":"levelo://app?vid=22eb2a93-8530-4d89-81c3-2ee96c198141"},"vehicle_type_id":"4","last_reported":1679267190,"current_range_meters":19600,"station_id":"ce4bhk92rcd13ifvqgb0","pricing_plan_id":"free"},{"bike_id":"fa98aad0-89c9-40e6-9bf8-a25b8ff9aa0d","system_id":"levelo_inurba_marseille","lat":43.250023,"lon":5.38919,"is_reserved":false,"is_disabled":false,"rental_uris":{"android":"levelo://app?vid=fa98aad0-89c9-40e6-9bf8-a25b8ff9aa0d","ios":"levelo://app?vid=fa98aad0-89c9-40e6-9bf8-a25b8ff9aa0d"},"vehicle_type_id":"4","last_reported":1679267190,"current_range_meters":0,"station_id":"ce4bhgp2rcd13ifvqfd0","pricing_plan_id":"free"},{"bike_id":"d6ba5441-e7f8-4d02-bff7-30e543542b95","system_id":"levelo_inurba_marseille","lat":43.250009,"lon":5.389195,"is_reserved":false,"is_disabled":false,"rental_uris":{"android":"levelo://app?vid=d6ba5441-e7f8-4d02-bff7-30e543542b95","ios":"levelo://app?vid=d6ba5441-e7f8-4d02-bff7-30e543542b95"},"vehicle_type_id":"4","last_reported":1679267190,"current_range_meters":3200,"station_id":"ce4bhgp2rcd13ifvqfd0","pricing_plan_id":"free"},{"bike_id":"249e6ff9-120e-46ee-8a67-e72270b7db49","system_id":"levelo_inurba_marseille","lat":43.250009,"lon":5.389195,"is_reserved":false,"is_disabled":false,"rental_uris":{"android":"levelo://app?vid=249e6ff9-120e-46ee-8a67-e72270b7db49","ios":"levelo://app?vid=249e6ff9-120e-46ee-8a67-e72270b7db49"},"vehicle_type_id":"4","last_reported":1679267190,"current_range_meters":25200,"station_id":"ce4bhgp2rcd13ifvqfd0","pricing_plan_id":"free"},{"bike_id":"5cc5a21b-242a-45fd-aa24-6270d3c39c50","system_id":"levelo_inurba_marseille","lat":43.25102,"lon":5.403214,"is_reserved":false,"is_disabled":false,"rental_uris":{"android":"levelo://app?vid=5cc5a21b-242a-45fd-aa24-6270d3c39c50","ios":"levelo://app?vid=5cc5a21b-242a-45fd-aa24-6270d3c39c50"},"vehicle_type_id":"4","last_reported":1679267190,"current_range_meters":2400,"station_id":"ce4bhlh2rcd13ifvqgig","pricing_plan_id":"free"},{"bike_id":"da99ef17-7f7a-4319-8014-293645ffe646","system_id":"levelo_inurba_marseille","lat":43.250966,"lon":5.395186,"is_reserved":false,"is_disabled":false,"rental_uris":{"android":"levelo://app?vid=da99ef17-7f7a-4319-8014-293645ffe646","ios":"levelo://app?vid=da99ef17-7f7a-4319-8014-293645ffe646"},"vehicle_type_id":"4","last_reported":1679267190,"current_range_meters":28800,"station_id":"ce4bhm12rcd13ifvqgkg","pricing_plan_id":"free"},{"bike_id":"c01836ea-60b2-49aa-85ba-dea461a3aee0","system_id":"levelo_inurba_marseille","lat":43.24693,"lon":5.382096,"is_reserved":false,"is_disabled":false,"rental_uris":{"android":"levelo://app?vid=c01836ea-60b2-49aa-85ba-dea461a3aee0","ios":"levelo://app?vid=c01836ea-60b2-49aa-85ba-dea461a3aee0"},"vehicle_type_id":"4","last_reported":1679267190,"current_range_meters":6800,"station_id":"ce4bhih2rcd13ifvqfr0","pricing_plan_id":"free"},{"bike_id":"dae4c24d-2796-4b9f-846b-bd6446323a02","system_id":"levelo_inurba_marseille","lat":43.24693,"lon":5.382096,"is_reserved":false,"is_disabled":false,"rental_uris":{"android":"levelo://app?vid=dae4c24d-2796-4b9f-846b-bd6446323a02","ios":"levelo://app?vid=dae4c24d-2796-4b9f-846b-bd6446323a02"},"vehicle_type_id":"4","last_reported":1679267190,"current_range_meters":24800,"station_id":"ce4bhih2rcd13ifvqfr0","pricing_plan_id":"free"},{"bike_id":"0bedc515-d668-44ef-bd63-5d9b13d2828a","system_id":"levelo_inurba_marseille","lat":43.25102,"lon":5.403214,"is_reserved":false,"is_disabled":false,"rental_uris":{"android":"levelo://app?vid=0bedc515-d668-44ef-bd63-5d9b13d2828a","ios":"levelo://app?vid=0bedc515-d668-44ef-bd63-5d9b13d2828a"},"vehicle_type_id":"4","last_reported":1679267190,"current_range_meters":10800,"station_id":"ce4bhlh2rcd13ifvqgig","pricing_plan_id":"free"},{"bike_id":"b90459c5-e095-4f0a-aeac-221a028ba781","system_id":"levelo_inurba_marseille","lat":43.24693,"lon":5.382096,"is_reserved":false,"is_disabled":false,"rental_uris":{"android":"levelo://app?vid=b90459c5-e095-4f0a-aeac-221a028ba781","ios":"levelo://app?vid=b90459c5-e095-4f0a-aeac-221a028ba781"},"vehicle_type_id":"4","last_reported":1679267190,"current_range_meters":6000,"station_id":"ce4bhih2rcd13ifvqfr0","pricing_plan_id":"free"},{"bike_id":"bbd0f7ca-d1f4-48c8-9f65-340b99f7c8bc","system_id":"levelo_inurba_marseille","lat":43.24693,"lon":5.382096,"is_reserved":false,"is_disabled":false,"rental_uris":{"android":"levelo://app?vid=bbd0f7ca-d1f4-48c8-9f65-340b99f7c8bc","ios":"levelo://app?vid=bbd0f7ca-d1f4-48c8-9f65-340b99f7c8bc"},"vehicle_type_id":"4","last_reported":1679267190,"current_range_meters":13200,"station_id":"ce4bhih2rcd13ifvqfr0","pricing_plan_id":"free"},{"bike_id":"ca97ab45-0cf2-48cb-b71c-19ef4310206b","system_id":"levelo_inurba_marseille","lat":43.24693,"lon":5.382096,"is_reserved":false,"is_disabled":false,"rental_uris":{"android":"levelo://app?vid=ca97ab45-0cf2-48cb-b71c-19ef4310206b","ios":"levelo://app?vid=ca97ab45-0cf2-48cb-b71c-19ef4310206b"},"vehicle_type_id":"4","last_reported":1679267190,"current_range_meters":0,"station_id":"ce4bhih2rcd13ifvqfr0","pricing_plan_id":"free"},{"bike_id":"5a173d5e-9942-4239-8108-eb732309ce24","system_id":"levelo_inurba_marseille","lat":43.25102,"lon":5.403214,"is_reserved":false,"is_disabled":false,"rental_uris":{"android":"levelo://app?vid=5a173d5e-9942-4239-8108-eb732309ce24","ios":"levelo://app?vid=5a173d5e-9942-4239-8108-eb732309ce24"},"vehicle_type_id":"4","last_reported":1679267190,"current_range_meters":9200,"station_id":"ce4bhlh2rcd13ifvqgig","pricing_plan_id":"free"},{"bike_id":"0d11801d-6fdd-40e0-85d9-f094fb6f88b0","system_id":"levelo_inurba_marseille","lat":43.25102,"lon":5.403214,"is_reserved":false,"is_disabled":false,"rental_uris":{"android":"levelo://app?vid=0d11801d-6fdd-40e0-85d9-f094fb6f88b0","ios":"levelo://app?vid=0d11801d-6fdd-40e0-85d9-f094fb6f88b0"},"vehicle_type_id":"4","last_reported":1679267190,"current_range_meters":24800,"station_id":"ce4bhlh2rcd13ifvqgig","pricing_plan_id":"free"},{"bike_id":"fdcf7f55-deee-4429-a5e0-a76cade2bcee","system_id":"levelo_inurba_marseille","lat":43.25102,"lon":5.403214,"is_reserved":false,"is_disabled":false,"rental_uris":{"android":"levelo://app?vid=fdcf7f55-deee-4429-a5e0-a76cade2bcee","ios":"levelo://app?vid=fdcf7f55-deee-4429-a5e0-a76cade2bcee"},"vehicle_type_id":"4","last_reported":1679267190,"current_range_meters":12000,"station_id":"ce4bhlh2rcd13ifvqgig","pricing_plan_id":"free"},{"bike_id":"adc9fe03-106e-4f48-b0c8-8f80085f7015","system_id":"levelo_inurba_marseille","lat":43.25102,"lon":5.403214,"is_reserved":false,"is_disabled":false,"rental_uris":{"android":"levelo://app?vid=adc9fe03-106e-4f48-b0c8-8f80085f7015","ios":"levelo://app?vid=adc9fe03-106e-4f48-b0c8-8f80085f7015"},"vehicle_type_id":"4","last_reported":1679267190,"current_range_meters":7600,"station_id":"ce4bhlh2rcd13ifvqgig","pricing_plan_id":"free"},{"bike_id":"936ecc25-fffa-4bca-810c-08d9cae0872b","system_id":"levelo_inurba_marseille","lat":43.245581,"lon":5.395069,"is_reserved":false,"is_disabled":false,"rental_uris":{"android":"levelo://app?vid=936ecc25-fffa-4bca-810c-08d9cae0872b","ios":"levelo://app?vid=936ecc25-fffa-4bca-810c-08d9cae0872b"},"vehicle_type_id":"4","last_reported":1679267190,"current_range_meters":9200,"station_id":"ce4bhlp2rcd13ifvqgjg","pricing_plan_id":"free"},{"bike_id":"6517cd95-8881-4095-a72f-d78547f4b481","system_id":"levelo_inurba_marseille","lat":43.240623,"lon":5.377642,"is_reserved":false,"is_disabled":false,"rental_uris":{"android":"levelo://app?vid=6517cd95-8881-4095-a72f-d78547f4b481","ios":"levelo://app?vid=6517cd95-8881-4095-a72f-d78547f4b481"},"vehicle_type_id":"4","last_reported":1679267190,"current_range_meters":13200,"station_id":"ce4bhnp2rcd13ifvqgvg","pricing_plan_id":"free"},{"bike_id":"18cfc76e-fdbc-4fcc-87d9-b83f1a32dc03","system_id":"levelo_inurba_marseille","lat":43.239588,"lon":5.366238,"is_reserved":false,"is_disabled":false,"rental_uris":{"android":"levelo://app?vid=18cfc76e-fdbc-4fcc-87d9-b83f1a32dc03","ios":"levelo://app?vid=18cfc76e-fdbc-4fcc-87d9-b83f1a32dc03"},"vehicle_type_id":"4","last_reported":1679267190,"current_range_meters":23200,"station_id":"ce4bhi12rcd13ifvqfp0","pricing_plan_id":"free"},{"bike_id":"334e498b-b826-46b9-9de7-4687ff6c9d3a","system_id":"levelo_inurba_marseille","lat":43.2383,"lon":5.37561,"is_reserved":false,"is_disabled":false,"rental_uris":{"android":"levelo://app?vid=334e498b-b826-46b9-9de7-4687ff6c9d3a","ios":"levelo://app?vid=334e498b-b826-46b9-9de7-4687ff6c9d3a"},"vehicle_type_id":"4","last_reported":1679267190,"current_range_meters":1200,"station_id":"","pricing_plan_id":"free"},{"bike_id":"5dda21a0-4fd2-4ce0-bc65-60056dc23de8","system_id":"levelo_inurba_marseille","lat":43.231923,"lon":5.355545,"is_reserved":false,"is_disabled":false,"rental_uris":{"android":"levelo://app?vid=5dda21a0-4fd2-4ce0-bc65-60056dc23de8","ios":"levelo://app?vid=5dda21a0-4fd2-4ce0-bc65-60056dc23de8"},"vehicle_type_id":"4","last_reported":1679267190,"current_range_meters":25200,"station_id":"ce4bhu92rcd13ifvqi70","pricing_plan_id":"free"},{"bike_id":"2330a857-0775-4481-8767-6dfc1bdded79","system_id":"levelo_inurba_marseille","lat":43.28631,"lon":5.47514,"is_reserved":false,"is_disabled":false,"rental_uris":{"android":"levelo://app?vid=2330a857-0775-4481-8767-6dfc1bdded79","ios":"levelo://app?vid=2330a857-0775-4481-8767-6dfc1bdded79"},"vehicle_type_id":"4","last_reported":1679267190,"current_range_meters":16400,"station_id":"","pricing_plan_id":"free"},{"bike_id":"dc46f849-62cf-47d9-993c-25d51a98d655","system_id":"levelo_inurba_marseille","lat":43.280743,"lon":5.505593,"is_reserved":false,"is_disabled":false,"rental_uris":{"android":"levelo://app?vid=dc46f849-62cf-47d9-993c-25d51a98d655","ios":"levelo://app?vid=dc46f849-62cf-47d9-993c-25d51a98d655"},"vehicle_type_id":"4","last_reported":1679267190,"current_range_meters":4800,"station_id":"","pricing_plan_id":"free"}]}}