{"last_updated":1730016723,"ttl":60,"version":"2.2","data":{"bikes":[{"bike_id":"1df94eee-2e0f-443f-906f-3fb9f97851ee","system_id":"levelo_inurba_marseille","lat":43.31102,"lon":5.37775,"is_reserved":false,"is_disabled":false,"rental_uris":{"android":"levelo://app?vid=1df94eee-2e0f-443f-906f-3fb9f97851ee","ios":"levelo://app?vid=1df94eee-2e0f-443f-906f-3fb9f97851ee"},"vehicle_type_id":"4","last_reported":1730016724,"current_range_meters":24400,"station_id":"ce4bgt92rcd13ifvqcg0","pricing_plan_id":"cebpf4jnsgd1na2vs0mg"},{"bike_id":"69f4165a-13a2-4bd8-b4d6-abfa25614867","system_id":"levelo_inurba_marseille","lat":43.26807,"lon":5.4026,"is_reserved":false,"is_disabled":false,"rental_uris":{"android":"levelo://app?vid=69f4165a-13a2-4bd8-b4d6-abfa25614867","ios":"levelo://app?vid=69f4165a-13a2-4bd8-b4d6-abfa25614867"},"vehicle_type_id":"4","last_reported":1730016724,"current_range_meters":38800,"station_id":"ce501612rcd8frsf0b60","pricing_plan_id":"cebpf4jnsgd1na2vs0mg"},{"bike_id":"a5665962-8f9b-48f5-a5d3-fa16ab36a6ff","system_id":"levelo_inurba_marseille","lat":43.28075,"lon":5.39647,"is_reserved":false,"is_disabled":false,"rental_uris":{"android":"levelo://app?vid=a5665962-8f9b-48f5-a5d3-fa16ab36a6ff","ios":"levelo://app?vid=a5665962-8f9b-48f5-a5d3-fa16ab36a6ff"},"vehicle_type_id":"4","last_reported":1730016724,"current_range_meters":40000,"station_id":"ce4bho12rcd13ifvqh2g","pricing_plan_id":"cebpf4jnsgd1na2vs0mg"},{"bike_id":"5fb7b3c7-bbad-4c2d-828b-aaad6b48e7cf","system_id":"levelo_inurba_marseille","lat":43.27996,"lon":5.40013,"is_reserved":false,"is_disabled":false,"rental_uris":{"android":"levelo://app?vid=5fb7b3c7-bbad-4c2d-828b-aaad6b48e7cf","ios":"levelo://app?vid=5fb7b3c7-bbad-4c2d-828b-aaad6b48e7cf"},"vehicle_type_id":"4","last_reported":1730016724,"current_range_meters":31200,"station_id":"ce4bho92rcd13ifvqh4g","pricing_plan_id":"cebpf4jnsgd1na2vs0mg"},{"bike_id":"377d303f-c164-4555-b94c-fc1217e19259","system_id":"levelo_inurba_marseille","lat":43.30188,"lon":5.36624,"is_reserved":false,"is_disabled":false,"rental_uris":{"android":"levelo://app?vid=377d303f-c164-4555-b94c-fc1217e19259","ios":"levelo://app?vid=377d303f-c164-4555-b94c-fc1217e19259"},"vehicle_type_id":"4","last_reported":1730016724,"current_range_meters":38400,"station_id":"ce4bgrh2rcd13ifvqc8g","pricing_plan_id":"cebpf4jnsgd1na2vs0mg"},{"bike_id":"48660d12-eacc-4f93-a06c-04c2aa9e37e4","system_id":"levelo_inurba_marseille","lat":43.26802,"lon":5.40264,"is_reserved":false,"is_disabled":false,"rental_uris":{"android":"levelo://app?vid=48660d12-eacc-4f93-a06c-04c2aa9e37e4","ios":"levelo://app?vid=48660d12-eacc-4f93-a06c-04c2aa9e37e4"},"vehicle_type_id":"4","last_reported":1730016724,"current_range_meters":18800,"station_id":"ce501612rcd8frsf0b60","pricing_plan_id":"cebpf4jnsgd1na2vs0mg"},{"bike_id":"9d1f8e5b-a54b-44ef-a1e3-676db13b2967","system_id":"levelo_inurba_marseille","lat":43.30463,"lon":5.37911,"is_reserved":false,"is_disabled":false,"rental_uris":{"android":"levelo://app?vid=9d1f8e5b-a54b-44ef-a1e3-676db13b2967","ios":"levelo://app?vid=9d1f8e5b-a54b-44ef-a1e3-676db13b2967"},"vehicle_type_id":"4","last_reported":1730016724,"current_range_meters":39200,"station_id":"ce4bgup2rcd13ifvqcn0","pricing_plan_id":"cebpf4jnsgd1na2vs0mg"},{"bike_id":"78720953-dc66-4056-9566-1b8201fd6bf1","system_id":"levelo_inurba_marseille","lat":43.30532,"lon":5.36701,"is_reserved":false,"is_disabled":false,"rental_uris":{"android":"levelo://app?vid=78720953-dc66-4056-9566-1b8201fd6bf1","ios":"levelo://app?vid=78720953-dc66-4056-9566-1b8201fd6bf1"},"vehicle_type_id":"4","last_reported":1730016724,"current_range_meters":38000,"station_id":"ce4bgrp2rcd13ifvqc9g","pricing_plan_id":"cebpf4jnsgd1na2vs0mg"},{"bike_id":"f3d5c86c-ab11-4ca3-aa72-c97ea732ed17","system_id":"levelo_inurba_marseille","lat":43.27314,"lon":5.39085,"is_reserved":false,"is_disabled":false,"rental_uris":{"android":"levelo://app?vid=f3d5c86c-ab11-4ca3-aa72-c97ea732ed17","ios":"levelo://app?vid=f3d5c86c-ab11-4ca3-aa72-c97ea732ed17"},"vehicle_type_id":"4","last_reported":1730016724,"current_range_meters":30400,"station_id":"ce4bhgp2rcd13ifvqfe0","pricing_plan_id":"cebpf4jnsgd1na2vs0mg"},{"bike_id":"3381cd79-1316-4c50-ad86-ee5056cd0e14","system_id":"levelo_inurba_marseille","lat":43.2606,"lon":5.39398,"is_reserved":false,"is_disabled":false,"rental_uris":{"android":"levelo://app?vid=3381cd79-1316-4c50-ad86-ee5056cd0e14","ios":"levelo://app?vid=3381cd79-1316-4c50-ad86-ee5056cd0e14"},"vehicle_type_id":"4","last_reported":1730016724,"current_range_meters":32000,"station_id":"ce4bhh92rcd13ifvqfj0","pricing_plan_id":"cebpf4jnsgd1na2vs0mg"},{"bike_id":"7d86a8ee-3f05-493b-abac-95616ad4fe13","system_id":"levelo_inurba_marseille","lat":43.3132,"lon":5.3969,"is_reserved":false,"is_disabled":false,"rental_uris":{"android":"levelo://app?vid=7d86a8ee-3f05-493b-abac-95616ad4fe13","ios":"levelo://app?vid=7d86a8ee-3f05-493b-abac-95616ad4fe13"},"vehicle_type_id":"4","last_reported":1730016724,"current_range_meters":26000,"station_id":"ce4bgvp2rcd13ifvqcu0","pricing_plan_id":"cebpf4jnsgd1na2vs0mg"},{"bike_id":"df27f7ad-c67e-4614-bb06-ec6d6b0835fe","system_id":"levelo_inurba_marseille","lat":43.30888,"lon":5.39626,"is_reserved":false,"is_disabled":false,"rental_uris":{"android":"levelo://app?vid=df27f7ad-c67e-4614-bb06-ec6d6b0835fe","ios":"levelo://app?vid=df27f7ad-c67e-4614-bb06-ec6d6b0835fe"},"vehicle_type_id":"4","last_reported":1730016724,"current_range_meters":32400,"station_id":"ce4bh012rcd13ifvqcv0","pricing_plan_id":"cebpf4jnsgd1na2vs0mg"},{"bike_id":"47623020-0c90-41e5-bb48-79ad4b2c18cf","system_id":"levelo_inurba_marseille","lat":43.30882,"lon":5.39645,"is_reserved":false,"is_disabled":false,"rental_uris":{"android":"levelo://app?vid=47623020-0c90-41e5-bb48-79ad4b2c18cf","ios":"levelo://app?vid=47623020-0c90-41e5-bb48-79ad4b2c18cf"},"vehicle_type_id":"4","last_reported":1730016724,"current_range_meters":40000,"station_id":"ce4bh012rcd13ifvqcv0","pricing_plan_id":"cebpf4jnsgd1na2vs0mg"},{"bike_id":"6bd42e05-1319-4872-b4ff-a162c48f3507","system_id":"levelo_inurba_marseille","lat":43.27214,"lon":5.3918,"is_reserved":false,"is_disabled":false,"rental_uris":{"android":"levelo://app?vid=6bd42e05-1319-4872-b4ff-a162c48f3507","ios":"levelo://app?vid=6bd42e05-1319-4872-b4ff-a162c48f3507"},"vehicle_type_id":"4","last_reported":1730016724,"current_range_meters":38000,"station_id":"ce4bhhp2rcd13ifvqfm0","pricing_plan_id":"cebpf4jnsgd1na2vs0mg"},{"bike_id":"827593ab-8b1a-4ab9-8d6a-e667bdcc5093","system_id":"levelo_inurba_marseille","lat":43.25112,"lon":5.40315,"is_reserved":false,"is_disabled":false,"rental_uris":{"android":"levelo://app?vid=827593ab-8b1a-4ab9-8d6a-e667bdcc5093","ios":"levelo://app?vid=827593ab-8b1a-4ab9-8d6a-e667bdcc5093"},"vehicle_type_id":"4","last_reported":1730016724,"current_range_meters":20000,"station_id":"ce4bhlh2rcd13ifvqgig","pricing_plan_id":"cebpf4jnsgd1na2vs0mg"},{"bike_id":"d97b91f4-e188-49a4-8c71-216ae6228de5","system_id":"levelo_inurba_marseille","lat":43.32659,"lon":5.40981,"is_reserved":false,"is_disabled":false,"rental_uris":{"android":"levelo://app?vid=d97b91f4-e188-49a4-8c71-216ae6228de5","ios":"levelo://app?vid=d97b91f4-e188-49a4-8c71-216ae6228de5"},"vehicle_type_id":"4","last_reported":1730016724,"current_range_meters":39200,"station_id":"ce4bhpp2rcd13ifvqhgg","pricing_plan_id":"cebpf4jnsgd1na2vs0mg"},{"bike_id":"0cb89bfe-6145-4ff2-8d7f-15aadf6ee55b","system_id":"levelo_inurba_marseille","lat":43.2606,"lon":5.39392,"is_reserved":false,"is_disabled":false,"rental_uris":{"android":"levelo://app?vid=0cb89bfe-6145-4ff2-8d7f-15aadf6ee55b","ios":"levelo://app?vid=0cb89bfe-6145-4ff2-8d7f-15aadf6ee55b"},"vehicle_type_id":"4","last_reported":1730016724,"current_range_meters":8400,"station_id":"ce4bhh92rcd13ifvqfj0","pricing_plan_id":"cebpf4jnsgd1na2vs0mg"},{"bike_id":"e62a88f0-d41b-417a-94ff-364a2c528771","system_id":"levelo_inurba_marseille","lat":43.31332,"lon":5.39695,"is_reserved":false,"is_disabled":false,"rental_uris":{"android":"levelo://app?vid=e62a88f0-d41b-417a-94ff-364a2c528771","ios":"levelo://app?vid=e62a88f0-d41b-417a-94ff-364a2c528771"},"vehicle_type_id":"4","last_reported":1730016724,"current_range_meters":28800,"station_id":"ce4bgvp2rcd13ifvqcu0","pricing_plan_id":"cebpf4jnsgd1na2vs0mg"},{"bike_id":"dd67dff0-67b6-4118-b2dd-ed3f600e30e9","system_id":"levelo_inurba_marseille","lat":43.27209,"lon":5.39171,"is_reserved":false,"is_disabled":false,"rental_uris":{"android":"levelo://app?vid=dd67dff0-67b6-4118-b2dd-ed3f600e30e9","ios":"levelo://app?vid=dd67dff0-67b6-4118-b2dd-ed3f600e30e9"},"vehicle_type_id":"4","last_reported":1730016724,"current_range_meters":35600,"station_id":"ce4bhhp2rcd13ifvqfm0","pricing_plan_id":"cebpf4jnsgd1na2vs0mg"},{"bike_id":"6d5e49be-c229-45f6-8f3b-e356b9a5d195","system_id":"levelo_inurba_marseille","lat":43.29007,"lon":5.35617,"is_reserved":false,"is_disabled":false,"rental_uris":{"android":"levelo://app?vid=6d5e49be-c229-45f6-8f3b-e356b9a5d195","ios":"levelo://app?vid=6d5e49be-c229-45f6-8f3b-e356b9a5d195"},"vehicle_type_id":"4","last_reported":1730016724,"current_range_meters":37600,"station_id":"ce4bhb92rcd13ifvqen0","pricing_plan_id":"cebpf4jnsgd1na2vs0mg"},{"bike_id":"f85d1b72-3a8c-4a2a-864a-92a540d77af2","system_id":"levelo_inurba_marseille","lat":43.31271,"lon":5.40167,"is_reserved":false,"is_disabled":false,"rental_uris":{"android":"levelo://app?vid=f85d1b72-3a8c-4a2a-864a-92a540d77af2","ios":"levelo://app?vid=f85d1b72-3a8c-4a2a-864a-92a540d77af2"},"vehicle_type_id":"4","last_reported":1730016724,"current_range_meters":40000,"station_id":"ce4bh092rcd13ifvqd30","pricing_plan_id":"cebpf4jnsgd1na2vs0mg"},{"bike_id":"52500d99-48c8-48d8-b237-01cf8c235dd1","system_id":"levelo_inurba_marseille","lat":43.306,"lon":5.37217,"is_reserved":false,"is_disabled":false,"rental_uris":{"android":"levelo://app?vid=52500d99-48c8-48d8-b237-01cf8c235dd1","ios":"levelo://app?vid=52500d99-48c8-48d8-b237-01cf8c235dd1"},"vehicle_type_id":"4","last_reported":1730016724,"current_range_meters":27200,"station_id":"ce4bgqh2rcd13ifvqc4g","pricing_plan_id":"cebpf4jnsgd1na2vs0mg"},{"bike_id":"1b069649-8942-4abd-b411-cbe3bb286661","system_id":"levelo_inurba_marseille","lat":43.301415,"lon":5.398706,"is_reserved":false,"is_disabled":false,"rental_uris":{"android":"levelo://app?vid=1b069649-8942-4abd-b411-cbe3bb286661","ios":"levelo://app?vid=1b069649-8942-4abd-b411-cbe3bb286661"},"vehicle_type_id":"4","last_reported":1730016724,"current_range_meters":38400,"station_id":"ce4bh0h2rcd13ifvqd40","pricing_plan_id":"cebpf4jnsgd1na2vs0mg"},{"bike_id":"633bdd84-8a27-486c-8d5a-62bd9dd56f9f","system_id":"levelo_inurba_marseille","lat":43.26944,"lon":5.40245,"is_reserved":false,"is_disabled":false,"rental_uris":{"android":"levelo://app?vid=633bdd84-8a27-486c-8d5a-62bd9dd56f9f","ios":"levelo://app?vid=633bdd84-8a27-486c-8d5a-62bd9dd56f9f"},"vehicle_type_id":"4","last_reported":1730016724,"current_range_meters":38800,"station_id":"cjm6bp8fraef2m0cb0m0","pricing_plan_id":"cebpf4jnsgd1na2vs0mg"},{"bike_id":"a18cc378-b014-42ac-bfd2-e1bfca34d44a","system_id":"levelo_inurba_marseille","lat":43.3043,"lon":5.38884,"is_reserved":false,"is_disabled":false,"rental_uris":{"android":"levelo://app?vid=a18cc378-b014-42ac-bfd2-e1bfca34d44a","ios":"levelo://app?vid=a18cc378-b014-42ac-bfd2-e1bfca34d44a"},"vehicle_type_id":"4","last_reported":1730016724,"current_range_meters":24800,"station_id":"ce4bgk12rcd13ifvqbi0","pricing_plan_id":"cebpf4jnsgd1na2vs0mg"},{"bike_id":"94008cea-95dd-4c3d-b32c-368ab2fae152","system_id":"levelo_inurba_marseille","lat":43.241798,"lon":5.397349,"is_reserved":false,"is_disabled":false,"rental_uris":{"android":"levelo://app?vid=94008cea-95dd-4c3d-b32c-368ab2fae152","ios":"levelo://app?vid=94008cea-95dd-4c3d-b32c-368ab2fae152"},"vehicle_type_id":"4","last_reported":1730016724,"current_range_meters":40000,"station_id":"ce4bhn12rcd13ifvqgpg","pricing_plan_id":"cebpf4jnsgd1na2vs0mg"},{"bike_id":"0928be29-76cf-4694-8550-4035141e75c7","system_id":"levelo_inurba_marseille","lat":43.31487,"lon":5.37306,"is_reserved":false,"is_disabled":false,"rental_uris":{"android":"levelo://app?vid=0928be29-76cf-4694-8550-4035141e75c7","ios":"levelo://app?vid=0928be29-76cf-4694-8550-4035141e75c7"},"vehicle_type_id":"4","last_reported":1730016724,"current_range_meters":38800,"station_id":"ce4bgt12rcd13ifvqcd0","pricing_plan_id":"cebpf4jnsgd1na2vs0mg"},{"bike_id":"0c5cd99c-9f06-4e90-a5fc-6ff2c5bc4703","system_id":"levelo_inurba_marseille","lat":43.26932,"lon":5.38906,"is_reserved":false,"is_disabled":false,"rental_uris":{"android":"levelo://app?vid=0c5cd99c-9f06-4e90-a5fc-6ff2c5bc4703","ios":"levelo://app?vid=0c5cd99c-9f06-4e90-a5fc-6ff2c5bc4703"},"vehicle_type_id":"4","last_reported":1730016724,"current_range_meters":38000,"station_id":"ce4bhhh2rcd13ifvqfl0","pricing_plan_id":"cebpf4jnsgd1na2vs0mg"},{"bike_id":"8291da1f-cab3-41f8-aabb-44279c1e1c81","system_id":"levelo_inurba_marseille","lat":43.284,"lon":5.37524,"is_reserved":false,"is_disabled":false,"rental_uris":{"android":"levelo://app?vid=8291da1f-cab3-41f8-aabb-44279c1e1c81","ios":"levelo://app?vid=8291da1f-cab3-41f8-aabb-44279c1e1c81"},"vehicle_type_id":"4","last_reported":1730016724,"current_range_meters":38800,"station_id":"ce4bh412rcd13ifvqds0","pricing_plan_id":"cebpf4jnsgd1na2vs0mg"},{"bike_id":"c8f33dbe-8d46-4679-b0bd-686b38e43e1d","system_id":"levelo_inurba_marseille","lat":43.24535,"lon":5.39525,"is_reserved":false,"is_disabled":false,"rental_uris":{"android":"levelo://app?vid=c8f33dbe-8d46-4679-b0bd-686b38e43e1d","ios":"levelo://app?vid=c8f33dbe-8d46-4679-b0bd-686b38e43e1d"},"vehicle_type_id":"4","last_reported":1730016724,"current_range_meters":28800,"station_id":"ce4bhlp2rcd13ifvqgjg","pricing_plan_id":"cebpf4jnsgd1na2vs0mg"},{"bike_id":"a402349c-2289-4512-8e06-ddedd18ccc18","system_id":"levelo_inurba_marseille","lat":43.27304,"lon":5.39095,"is_reserved":false,"is_disabled":false,"rental_uris":{"android":"levelo://app?vid=a402349c-2289-4512-8e06-ddedd18ccc18","ios":"levelo://app?vid=a402349c-2289-4512-8e06-ddedd18ccc18"},"vehicle_type_id":"4","last_reported":1730016724,"current_range_meters":14000,"station_id":"ce4bhgp2rcd13ifvqfe0","pricing_plan_id":"cebpf4jnsgd1na2vs0mg"},{"bike_id":"ff081f0c-ea21-431a-8d61-ad48db65fd3a","system_id":"levelo_inurba_marseille","lat":43.30351,"lon":5.4189,"is_reserved":false,"is_disabled":false,"rental_uris":{"android":"levelo://app?vid=ff081f0c-ea21-431a-8d61-ad48db65fd3a","ios":"levelo://app?vid=ff081f0c-ea21-431a-8d61-ad48db65fd3a"},"vehicle_type_id":"4","last_reported":1730016724,"current_range_meters":30000,"station_id":"ce4bhop2rcd13ifvqh7g","pricing_plan_id":"cebpf4jnsgd1na2vs0mg"},{"bike_id":"9e2ed2a6-cc4f-426a-924e-97d668ce66c6","system_id":"levelo_inurba_marseille","lat":43.27208,"lon":5.39178,"is_reserved":false,"is_disabled":false,"rental_uris":{"android":"levelo://app?vid=9e2ed2a6-cc4f-426a-924e-97d668ce66c6","ios":"levelo://app?vid=9e2ed2a6-cc4f-426a-924e-97d668ce66c6"},"vehicle_type_id":"4","last_reported":1730016724,"current_range_meters":24400,"station_id":"ce4bhhp2rcd13ifvqfm0","pricing_plan_id":"cebpf4jnsgd1na2vs0mg"},{"bike_id":"8c0c2fa1-37f9-48f1-b246-0c1a1c47fbb2","system_id":"levelo_inurba_marseille","lat":43.2656,"lon":5.39005,"is_reserved":false,"is_disabled":false,"rental_uris":{"android":"levelo://app?vid=8c0c2fa1-37f9-48f1-b246-0c1a1c47fbb2","ios":"levelo://app?vid=8c0c2fa1-37f9-48f1-b246-0c1a1c47fbb2"},"vehicle_type_id":"4","last_reported":1730016724,"current_range_meters":6000,"station_id":"ce4bhe12rcd13ifvqf30","pricing_plan_id":"cebpf4jnsgd1na2vs0mg"},{"bike_id":"591b95e8-7363-4631-9197-0b7a72627658","system_id":"levelo_inurba_marseille","lat":43.27548,"lon":5.38426,"is_reserved":false,"is_disabled":false,"rental_uris":{"android":"levelo://app?vid=591b95e8-7363-4631-9197-0b7a72627658","ios":"levelo://app?vid=591b95e8-7363-4631-9197-0b7a72627658"},"vehicle_type_id":"4","last_reported":1730016724,"current_range_meters":32400,"station_id":"ce4bhh92rcd13ifvqfi0","pricing_plan_id":"cebpf4jnsgd1na2vs0mg"},{"bike_id":"8ed0e600-52f7-4841-aa09-f2be0f0fd557","system_id":"levelo_inurba_marseille","lat":43.26764,"lon":5.40236,"is_reserved":false,"is_disabled":false,"rental_uris":{"android":"levelo://app?vid=8ed0e600-52f7-4841-aa09-f2be0f0fd557","ios":"levelo://app?vid=8ed0e600-52f7-4841-aa09-f2be0f0fd557"},"vehicle_type_id":"4","last_reported":1730016724,"current_range_meters":38800,"station_id":"ce501612rcd8frsf0b60","pricing_plan_id":"cebpf4jnsgd1na2vs0mg"},{"bike_id":"f0c44abb-ad46-4eef-911d-7e07d391b73c","system_id":"levelo_inurba_marseille","lat":43.28398,"lon":5.37514,"is_reserved":false,"is_disabled":false,"rental_uris":{"android":"levelo://app?vid=f0c44abb-ad46-4eef-911d-7e07d391b73c","ios":"levelo://app?vid=f0c44abb-ad46-4eef-911d-7e07d391b73c"},"vehicle_type_id":"4","last_reported":1730016724,"current_range_meters":33200,"station_id":"ce4bh412rcd13ifvqds0","pricing_plan_id":"cebpf4jnsgd1na2vs0mg"},{"bike_id":"02e93658-a646-4595-9a8b-543b60579eaa","system_id":"levelo_inurba_marseille","lat":43.26944,"lon":5.38637,"is_reserved":false,"is_disabled":false,"rental_uris":{"android":"levelo://app?vid=02e93658-a646-4595-9a8b-543b60579eaa","ios":"levelo://app?vid=02e93658-a646-4595-9a8b-543b60579eaa"},"vehicle_type_id":"4","last_reported":1730016724,"current_range_meters":12800,"station_id":"ce4bhh92rcd13ifvqfh0","pricing_plan_id":"cebpf4jnsgd1na2vs0mg"},{"bike_id":"e6d3bcb8-2f97-4379-9ffc-70495f1bd10c","system_id":"levelo_inurba_marseille","lat":43.27312,"lon":5.39083,"is_reserved":false,"is_disabled":false,"rental_uris":{"android":"levelo://app?vid=e6d3bcb8-2f97-4379-9ffc-70495f1bd10c","ios":"levelo://app?vid=e6d3bcb8-2f97-4379-9ffc-70495f1bd10c"},"vehicle_type_id":"4","last_reported":1730016724,"current_range_meters":13600,"station_id":"ce4bhgp2rcd13ifvqfe0","pricing_plan_id":"cebpf4jnsgd1na2vs0mg"},{"bike_id":"31da4327-0e5a-4c19-a2f0-40556cf9949e","system_id":"levelo_inurba_marseille","lat":43.29803,"lon":5.38081,"is_reserved":false,"is_disabled":false,"rental_uris":{"android":"levelo://app?vid=31da4327-0e5a-4c19-a2f0-40556cf9949e","ios":"levelo://app?vid=31da4327-0e5a-4c19-a2f0-40556cf9949e"},"vehicle_type_id":"4","last_reported":1730016724,"current_range_meters":38400,"station_id":"ce4bgip2rcd13ifvqbb0","pricing_plan_id":"cebpf4jnsgd1na2vs0mg"},{"bike_id":"bdebca23-d953-4046-be99-bf6c27ec1b5d","system_id":"levelo_inurba_marseille","lat":43.29958,"lon":5.41315,"is_reserved":false,"is_disabled":false,"rental_uris":{"android":"levelo://app?vid=bdebca23-d953-4046-be99-bf6c27ec1b5d","ios":"levelo://app?vid=bdebca23-d953-4046-be99-bf6c27ec1b5d"},"vehicle_type_id":"4","last_reported":1730016724,"current_range_meters":28800,"station_id":"ce4bhp12rcd13ifvqh9g","pricing_plan_id":"cebpf4jnsgd1na2vs0mg"},{"bike_id":"5de0a329-7698-4bce-b772-88bd5818048d","system_id":"levelo_inurba_marseille","lat":43.26067,"lon":5.39391,"is_reserved":false,"is_disabled":false,"rental_uris":{"android":"levelo://app?vid=5de0a329-7698-4bce-b772-88bd5818048d","ios":"levelo://app?vid=5de0a329-7698-4bce-b772-88bd5818048d"},"vehicle_type_id":"4","last_reported":1730016724,"current_range_meters":33600,"station_id":"ce4bhh92rcd13ifvqfj0","pricing_plan_id":"cebpf4jnsgd1na2vs0mg"},{"bike_id":"5cfe8df2-5996-457b-b0d3-351040a2f00d","system_id":"levelo_inurba_marseille","lat":43.27199,"lon":5.3918,"is_reserved":false,"is_disabled":false,"rental_uris":{"android":"levelo://app?vid=5cfe8df2-5996-457b-b0d3-351040a2f00d","ios":"levelo://app?vid=5cfe8df2-5996-457b-b0d3-351040a2f00d"},"vehicle_type_id":"4","last_reported":1730016724,"current_range_meters":27200,"station_id":"ce4bhhp2rcd13ifvqfm0","pricing_plan_id":"cebpf4jnsgd1na2vs0mg"},{"bike_id":"3db02cbf-fd6e-4fe3-bfd3-a23c9699e16c","system_id":"levelo_inurba_marseille","lat":43.28849,"lon":5.35844,"is_reserved":false,"is_disabled":false,"rental_uris":{"android":"levelo://app?vid=3db02cbf-fd6e-4fe3-bfd3-a23c9699e16c","ios":"levelo://app?vid=3db02cbf-fd6e-4fe3-bfd3-a23c9699e16c"},"vehicle_type_id":"4","last_reported":1730016724,"current_range_meters":36400,"station_id":"ce4bhb12rcd13ifvqem0","pricing_plan_id":"cebpf4jnsgd1na2vs0mg"},{"bike_id":"27f39214-437b-402f-ba70-e8fd46f4e41b","system_id":"levelo_inurba_marseille","lat":43.284844,"lon":5.369313,"is_reserved":false,"is_disabled":false,"rental_uris":{"android":"levelo://app?vid=27f39214-437b-402f-ba70-e8fd46f4e41b","ios":"levelo://app?vid=27f39214-437b-402f-ba70-e8fd46f4e41b"},"vehicle_type_id":"4","last_reported":1730016724,"current_range_meters":20000,"station_id":"","pricing_plan_id":"cebpf4jnsgd1na2vs0mg"},{"bike_id":"5ed72901-e44e-460e-9669-5f1f8a6d2f53","system_id":"levelo_inurba_marseille","lat":43.28657,"lon":5.44467,"is_reserved":false,"is_disabled":false,"rental_uris":{"android":"levelo://app?vid=5ed72901-e44e-460e-9669-5f1f8a6d2f53","ios":"levelo://app?vid=5ed72901-e44e-460e-9669-5f1f8a6d2f53"},"vehicle_type_id":"4","last_reported":1730016724,"current_range_meters":10000,"station_id":"","pricing_plan_id":"cebpf4jnsgd1na2vs0mg"},{"bike_id":"2b90b642-9660-43fa-bcc7-9e76110cd43e","system_id":"levelo_inurba_marseille","lat":43.2958,"lon":5.37505,"is_reserved":false,"is_disabled":false,"rental_uris":{"android":"levelo://app?vid=2b90b642-9660-43fa-bcc7-9e76110cd43e","ios":"levelo://app?vid=2b90b642-9660-43fa-bcc7-9e76110cd43e"},"vehicle_type_id":"4","last_reported":1730016724,"current_range_meters":36000,"station_id":"ce4bgh92rcd13ifvqb50","pricing_plan_id":"cebpf4jnsgd1na2vs0mg"},{"bike_id":"e7360508-6978-487a-a79b-5e2dad5d0ea3","system_id":"levelo_inurba_marseille","lat":43.22923,"lon":5.35373,"is_reserved":false,"is_disabled":false,"rental_uris":{"android":"levelo://app?vid=e7360508-6978-487a-a79b-5e2dad5d0ea3","ios":"levelo://app?vid=e7360508-6978-487a-a79b-5e2dad5d0ea3"},"vehicle_type_id":"4","last_reported":1730016724,"current_range_meters":26000,"station_id":"cpo3532slgdg3j2ikp40","pricing_plan_id":"cebpf4jnsgd1na2vs0mg"},{"bike_id":"0ffc7421-c922-46fc-ab65-c26a6371c358","system_id":"levelo_inurba_marseille","lat":43.27183,"lon":5.4099,"is_reserved":false,"is_disabled":false,"rental_uris":{"android":"levelo://app?vid=0ffc7421-c922-46fc-ab65-c26a6371c358","ios":"levelo://app?vid=0ffc7421-c922-46fc-ab65-c26a6371c358"},"vehicle_type_id":"4","last_reported":1730016724,"current_range_meters":35200,"station_id":"ce4bhl12rcd13ifvqgf0","pricing_plan_id":"cebpf4jnsgd1na2vs0mg"},{"bike_id":"f24dbadd-fd5b-46f1-8c95-5b9db6c25cc4","system_id":"levelo_inurba_marseille","lat":43.30425,"lon":5.39751,"is_reserved":false,"is_disabled":false,"rental_uris":{"android":"levelo://app?vid=f24dbadd-fd5b-46f1-8c95-5b9db6c25cc4","ios":"levelo://app?vid=f24dbadd-fd5b-46f1-8c95-5b9db6c25cc4"},"vehicle_type_id":"4","last_reported":1730016724,"current_range_meters":39200,"station_id":"ce4bh092rcd13ifvqd20","pricing_plan_id":"cebpf4jnsgd1na2vs0mg"},{"bike_id":"37a14755-d984-4d8b-95a2-79de8cf575fc","system_id":"levelo_inurba_marseille","lat":43.29039,"lon":5.39966,"is_reserved":false,"is_disabled":false,"rental_uris":{"android":"levelo://app?vid=37a14755-d984-4d8b-95a2-79de8cf575fc","ios":"levelo://app?vid=37a14755-d984-4d8b-95a2-79de8cf575fc"},"vehicle_type_id":"4","last_reported":1730016724,"current_range_meters":26800,"station_id":"ce4bh392rcd13ifvqdm0","pricing_plan_id":"cebpf4jnsgd1na2vs0mg"},{"bike_id":"32669b12-4ec1-41d8-be48-28f196a0ec8b","system_id":"levelo_inurba_marseille","lat":43.3014,"lon":5.37412,"is_reserved":false,"is_disabled":false,"rental_uris":{"android":"levelo://app?vid=32669b12-4ec1-41d8-be48-28f196a0ec8b","ios":"levelo://app?vid=32669b12-4ec1-41d8-be48-28f196a0ec8b"},"vehicle_type_id":"4","last_reported":1730016724,"current_range_meters":39200,"station_id":"ce4bgs92rcd13ifvqcc0","pricing_plan_id":"cebpf4jnsgd1na2vs0mg"},{"bike_id":"2cc619f1-5b22-47d2-8dbe-18740f06dc1b","system_id":"levelo_inurba_marseille","lat":43.31995,"lon":5.3815,"is_reserved":false,"is_disabled":false,"rental_uris":{"android":"levelo://app?vid=2cc619f1-5b22-47d2-8dbe-18740f06dc1b","ios":"levelo://app?vid=2cc619f1-5b22-47d2-8dbe-18740f06dc1b"},"vehicle_type_id":"4","last_reported":1730016724,"current_range_meters":32000,"station_id":"ce4bhr12rcd13ifvqhpg","pricing_plan_id":"cebpf4jnsgd1na2vs0mg"},{"bike_id":"34c0b19e-e327-425b-bf09-25bec92dd9c4","system_id":"levelo_inurba_marseille","lat":43.2933,"lon":5.45469,"is_reserved":false,"is_disabled":false,"rental_uris":{"android":"levelo://app?vid=34c0b19e-e327-425b-bf09-25bec92dd9c4","ios":"levelo://app?vid=34c0b19e-e327-425b-bf09-25bec92dd9c4"},"vehicle_type_id":"4","last_reported":1730016724,"current_range_meters":7200,"station_id":"","pricing_plan_id":"cebpf4jnsgd1na2vs0mg"},{"bike_id":"82b38875-307d-40a4-b2d2-29f6abfedf60","system_id":"levelo_inurba_marseille","lat":43.25935,"lon":5.40909,"is_reserved":false,"is_disabled":false,"rental_uris":{"android":"levelo://app?vid=82b38875-307d-40a4-b2d2-29f6abfedf60","ios":"levelo://app?vid=82b38875-307d-40a4-b2d2-29f6abfedf60"},"vehicle_type_id":"4","last_reported":1730016724,"current_range_meters":20400,"station_id":"ce4bhm92rcd13ifvqglg","pricing_plan_id":"cebpf4jnsgd1na2vs0mg"},{"bike_id":"4e1b89e2-f965-455a-b9ce-8fa933558641","system_id":"levelo_inurba_marseille","lat":43.24651,"lon":5.38898,"is_reserved":false,"is_disabled":false,"rental_uris":{"android":"levelo://app?vid=4e1b89e2-f965-455a-b9ce-8fa933558641","ios":"levelo://app?vid=4e1b89e2-f965-455a-b9ce-8fa933558641"},"vehicle_type_id":"4","last_reported":1730016724,"current_range_meters":38800,"station_id":"ce4bhg12rcd13ifvqf60","pricing_plan_id":"cebpf4jnsgd1na2vs0mg"},{"bike_id":"34f93e00-5029-4642-b0c4-0b8938f16f5d","system_id":"levelo_inurba_marseille","lat":43.31352,"lon":5.36706,"is_reserved":false,"is_disabled":false,"rental_uris":{"android":"levelo://app?vid=34f93e00-5029-4642-b0c4-0b8938f16f5d","ios":"levelo://app?vid=34f93e00-5029-4642-b0c4-0b8938f16f5d"},"vehicle_type_id":"4","last_reported":1730016724,"current_range_meters":32400,"station_id":"ce4bgr92rcd13ifvqc6g","pricing_plan_id":"cebpf4jnsgd1na2vs0mg"},{"bike_id":"ae26d24f-7025-406f-baf9-8be36f32579c","system_id":"levelo_inurba_marseille","lat":43.32004,"lon":5.38142,"is_reserved":false,"is_disabled":false,"rental_uris":{"android":"levelo://app?vid=ae26d24f-7025-406f-baf9-8be36f32579c","ios":"levelo://app?vid=ae26d24f-7025-406f-baf9-8be36f32579c"},"vehicle_type_id":"4","last_reported":1730016724,"current_range_meters":27600,"station_id":"ce4bhr12rcd13ifvqhpg","pricing_plan_id":"cebpf4jnsgd1na2vs0mg"},{"bike_id":"76aa5814-cdc7-48aa-9cb7-9d8ca62c9719","system_id":"levelo_inurba_marseille","lat":43.25581,"lon":5.38236,"is_reserved":false,"is_disabled":false,"rental_uris":{"android":"levelo://app?vid=76aa5814-cdc7-48aa-9cb7-9d8ca62c9719","ios":"levelo://app?vid=76aa5814-cdc7-48aa-9cb7-9d8ca62c9719"},"vehicle_type_id":"4","last_reported":1730016724,"current_range_meters":34800,"station_id":"ce4bhih2rcd13ifvqfs0","pricing_plan_id":"cebpf4jnsgd1na2vs0mg"},{"bike_id":"e16ba0fb-c8f9-4074-a1c8-ad626ad5602f","system_id":"levelo_inurba_marseille","lat":43.26935,"lon":5.40244,"is_reserved":false,"is_disabled":false,"rental_uris":{"android":"levelo://app?vid=e16ba0fb-c8f9-4074-a1c8-ad626ad5602f","ios":"levelo://app?vid=e16ba0fb-c8f9-4074-a1c8-ad626ad5602f"},"vehicle_type_id":"4","last_reported":1730016724,"current_range_meters":38800,"station_id":"cjm6bp8fraef2m0cb0m0","pricing_plan_id":"cebpf4jnsgd1na2vs0mg"},{"bike_id":"0e1999de-b984-4f60-b291-f83e907cbd57","system_id":"levelo_inurba_marseille","lat":43.2731,"lon":5.3908,"is_reserved":false,"is_disabled":false,"rental_uris":{"android":"levelo://app?vid=0e1999de-b984-4f60-b291-f83e907cbd57","ios":"levelo://app?vid=0e1999de-b984-4f60-b291-f83e907cbd57"},"vehicle_type_id":"4","last_reported":1730016724,"current_range_meters":36000,"station_id":"ce4bhgp2rcd13ifvqfe0","pricing_plan_id":"cebpf4jnsgd1na2vs0mg"},{"bike_id":"122cfea6-ee31-4573-bcce-7752cff38519","system_id":"levelo_inurba_marseille","lat":43.30147,"lon":5.39869,"is_reserved":false,"is_disabled":false,"rental_uris":{"android":"levelo://app?vid=122cfea6-ee31-4573-bcce-7752cff38519","ios":"levelo://app?vid=122cfea6-ee31-4573-bcce-7752cff38519"},"vehicle_type_id":"4","last_reported":1730016724,"current_range_meters":20000,"station_id":"ce4bh0h2rcd13ifvqd40","pricing_plan_id":"cebpf4jnsgd1na2vs0mg"},{"bike_id":"516d2c7e-30e2-429a-adec-fbbadb0d1d0b","system_id":"levelo_inurba_marseille","lat":43.286176,"lon":5.35107,"is_reserved":false,"is_disabled":false,"rental_uris":{"android":"levelo://app?vid=516d2c7e-30e2-429a-adec-fbbadb0d1d0b","ios":"levelo://app?vid=516d2c7e-30e2-429a-adec-fbbadb0d1d0b"},"vehicle_type_id":"4","last_reported":1730016724,"current_range_meters":33600,"station_id":"ce4bhch2rcd13ifvqeug","pricing_plan_id":"cebpf4jnsgd1na2vs0mg"},{"bike_id":"2985d685-8fc1-41e6-b6f5-71b6e39a23b5","system_id":"levelo_inurba_marseille","lat":43.272,"lon":5.3918,"is_reserved":false,"is_disabled":false,"rental_uris":{"android":"levelo://app?vid=2985d685-8fc1-41e6-b6f5-71b6e39a23b5","ios":"levelo://app?vid=2985d685-8fc1-41e6-b6f5-71b6e39a23b5"},"vehicle_type_id":"4","last_reported":1730016724,"current_range_meters":25200,"station_id":"ce4bhhp2rcd13ifvqfm0","pricing_plan_id":"cebpf4jnsgd1na2vs0mg"},{"bike_id":"0927a9a6-2aa8-4e37-9962-91ca9c7b80a8","system_id":"levelo_inurba_marseille","lat":43.27425,"lon":5.39403,"is_reserved":false,"is_disabled":false,"rental_uris":{"android":"levelo://app?vid=0927a9a6-2aa8-4e37-9962-91ca9c7b80a8","ios":"levelo://app?vid=0927a9a6-2aa8-4e37-9962-91ca9c7b80a8"},"vehicle_type_id":"4","last_reported":1730016724,"current_range_meters":30000,"station_id":"ce4bhdp2rcd13ifvqf20","pricing_plan_id":"cebpf4jnsgd1na2vs0mg"},{"bike_id":"6875a1a6-32b9-4783-93f5-84a3a0c85f67","system_id":"levelo_inurba_marseille","lat":43.23061,"lon":5.35492,"is_reserved":false,"is_disabled":false,"rental_uris":{"android":"levelo://app?vid=6875a1a6-32b9-4783-93f5-84a3a0c85f67","ios":"levelo://app?vid=6875a1a6-32b9-4783-93f5-84a3a0c85f67"},"vehicle_type_id":"4","last_reported":1730016724,"current_range_meters":26800,"station_id":"cpo3342slgdg3j2ifvpg","pricing_plan_id":"cebpf4jnsgd1na2vs0mg"},{"bike_id":"4d119be0-f244-48af-924a-f5cd3481568e","system_id":"levelo_inurba_marseille","lat":43.30137,"lon":5.37418,"is_reserved":false,"is_disabled":false,"rental_uris":{"android":"levelo://app?vid=4d119be0-f244-48af-924a-f5cd3481568e","ios":"levelo://app?vid=4d119be0-f244-48af-924a-f5cd3481568e"},"vehicle_type_id":"4","last_reported":1730016724,"current_range_meters":38000,"station_id":"ce4bgs92rcd13ifvqcc0","pricing_plan_id":"cebpf4jnsgd1na2vs0mg"},{"bike_id":"b0c69a31-8df0-4543-be39-d450987138e1","system_id":"levelo_inurba_marseille","lat":43.273123,"lon":5.39084,"is_reserved":false,"is_disabled":false,"rental_uris":{"android":"levelo://app?vid=b0c69a31-8df0-4543-be39-d450987138e1","ios":"levelo://app?vid=b0c69a31-8df0-4543-be39-d450987138e1"},"vehicle_type_id":"4","last_reported":1730016724,"current_range_meters":34800,"station_id":"ce4bhgp2rcd13ifvqfe0","pricing_plan_id":"cebpf4jnsgd1na2vs0mg"},{"bike_id":"c7c09894-8d01-40b4-926c-f262fd967e3b","system_id":"levelo_inurba_marseille","lat":43.32368,"lon":5.38891,"is_reserved":false,"is_disabled":false,"rental_uris":{"android":"levelo://app?vid=c7c09894-8d01-40b4-926c-f262fd967e3b","ios":"levelo://app?vid=c7c09894-8d01-40b4-926c-f262fd967e3b"},"vehicle_type_id":"4","last_reported":1730016724,"current_range_meters":6800,"station_id":"ce4bhqp2rcd13ifvqhog","pricing_plan_id":"cebpf4jnsgd1na2vs0mg"},{"bike_id":"794d7bc8-d607-44de-a2b0-2a1fc45dca3e","system_id":"levelo_inurba_marseille","lat":43.25488,"lon":5.3765,"is_reserved":false,"is_disabled":false,"rental_uris":{"android":"levelo://app?vid=794d7bc8-d607-44de-a2b0-2a1fc45dca3e","ios":"levelo://app?vid=794d7bc8-d607-44de-a2b0-2a1fc45dca3e"},"vehicle_type_id":"4","last_reported":1730016724,"current_range_meters":24400,"station_id":"ce4bhh12rcd13ifvqff0","pricing_plan_id":"cebpf4jnsgd1na2vs0mg"},{"bike_id":"b43b69d6-e655-4561-aef2-035bb796c8d2","system_id":"levelo_inurba_marseille","lat":43.31881,"lon":5.40722,"is_reserved":false,"is_disabled":false,"rental_uris":{"android":"levelo://app?vid=b43b69d6-e655-4561-aef2-035bb796c8d2","ios":"levelo://app?vid=b43b69d6-e655-4561-aef2-035bb796c8d2"},"vehicle_type_id":"4","last_reported":1730016724,"current_range_meters":38000,"station_id":"ce4bhq12rcd13ifvqhig","pricing_plan_id":"cebpf4jnsgd1na2vs0mg"},{"bike_id":"78af26b3-cf75-4d6d-a817-3a164b823e70","system_id":"levelo_inurba_marseille","lat":43.26802,"lon":5.40268,"is_reserved":false,"is_disabled":false,"rental_uris":{"android":"levelo://app?vid=78af26b3-cf75-4d6d-a817-3a164b823e70","ios":"levelo://app?vid=78af26b3-cf75-4d6d-a817-3a164b823e70"},"vehicle_type_id":"4","last_reported":1730016724,"current_range_meters":10000,"station_id":"ce501612rcd8frsf0b60","pricing_plan_id":"cebpf4jnsgd1na2vs0mg"},{"bike_id":"9c1eddf2-6fc0-4f54-8bc0-baf0d0151e64","system_id":"levelo_inurba_marseille","lat":43.23962,"lon":5.36624,"is_reserved":false,"is_disabled":false,"rental_uris":{"android":"levelo://app?vid=9c1eddf2-6fc0-4f54-8bc0-baf0d0151e64","ios":"levelo://app?vid=9c1eddf2-6fc0-4f54-8bc0-baf0d0151e64"},"vehicle_type_id":"4","last_reported":1730016724,"current_range_meters":38400,"station_id":"ce4bhi12rcd13ifvqfp0","pricing_plan_id":"cebpf4jnsgd1na2vs0mg"},{"bike_id":"10ee936f-868d-43e4-990f-cc800eeddb4e","system_id":"levelo_inurba_marseille","lat":43.32647,"lon":5.4099,"is_reserved":false,"is_disabled":false,"rental_uris":{"android":"levelo://app?vid=10ee936f-868d-43e4-990f-cc800eeddb4e","ios":"levelo://app?vid=10ee936f-868d-43e4-990f-cc800eeddb4e"},"vehicle_type_id":"4","last_reported":1730016724,"current_range_meters":26800,"station_id":"ce4bhpp2rcd13ifvqhgg","pricing_plan_id":"cebpf4jnsgd1na2vs0mg"},{"bike_id":"54642b2e-0ba2-49a2-8b26-3d73f5c6be8d","system_id":"levelo_inurba_marseille","lat":43.269431,"lon":5.402508,"is_reserved":false,"is_disabled":false,"rental_uris":{"android":"levelo://app?vid=54642b2e-0ba2-49a2-8b26-3d73f5c6be8d","ios":"levelo://app?vid=54642b2e-0ba2-49a2-8b26-3d73f5c6be8d"},"vehicle_type_id":"4","last_reported":1730016724,"current_range_meters":40000,"station_id":"cjm6bp8fraef2m0cb0m0","pricing_plan_id":"cebpf4jnsgd1na2vs0mg"},{"bike_id":"272108ab-c66d-4277-b942-346fbf20d819","system_id":"levelo_inurba_marseille","lat":43.30355,"lon":5.41876,"is_reserved":false,"is_disabled":false,"rental_uris":{"android":"levelo://app?vid=272108ab-c66d-4277-b942-346fbf20d819","ios":"levelo://app?vid=272108ab-c66d-4277-b942-346fbf20d819"},"vehicle_type_id":"4","last_reported":1730016724,"current_range_meters":8400,"station_id":"ce4bhop2rcd13ifvqh7g","pricing_plan_id":"cebpf4jnsgd1na2vs0mg"},{"bike_id":"9bf2ab5d-f85c-4d9a-a1f6-70dc559d4a7f","system_id":"levelo_inurba_marseille","lat":43.26019,"lon":5.37558,"is_reserved":false,"is_disabled":false,"rental_uris":{"android":"levelo://app?vid=9bf2ab5d-f85c-4d9a-a1f6-70dc559d4a7f","ios":"levelo://app?vid=9bf2ab5d-f85c-4d9a-a1f6-70dc559d4a7f"},"vehicle_type_id":"4","last_reported":1730016724,"current_range_meters":38400,"station_id":"ce4bhgh2rcd13ifvqfa0","pricing_plan_id":"cebpf4jnsgd1na2vs0mg"},{"bike_id":"8fbb3d87-cdca-4c4a-859f-e70dea3485a5","system_id":"levelo_inurba_marseille","lat":43.274955,"lon":5.42458,"is_reserved":false,"is_disabled":false,"rental_uris":{"android":"levelo://app?vid=8fbb3d87-cdca-4c4a-859f-e70dea3485a5","ios":"levelo://app?vid=8fbb3d87-cdca-4c4a-859f-e70dea3485a5"},"vehicle_type_id":"4","last_reported":1730016724,"current_range_meters":34800,"station_id":"ce4bhn92rcd13ifvqgrg","pricing_plan_id":"cebpf4jnsgd1na2vs0mg"},{"bike_id":"d4dbb103-b4d9-4e96-8ae8-a3fef8c9dbdf","system_id":"levelo_inurba_marseille","lat":43.31746,"lon":5.39022,"is_reserved":false,"is_disabled":false,"rental_uris":{"android":"levelo://app?vid=d4dbb103-b4d9-4e96-8ae8-a3fef8c9dbdf","ios":"levelo://app?vid=d4dbb103-b4d9-4e96-8ae8-a3fef8c9dbdf"},"vehicle_type_id":"4","last_reported":1730016724,"current_range_meters":10800,"station_id":"ce4bhqp2rcd13ifvqhng","pricing_plan_id":"cebpf4jnsgd1na2vs0mg"},{"bike_id":"20db6b8a-8c82-4712-80f6-626349a87361","system_id":"levelo_inurba_marseille","lat":43.25483,"lon":5.37658,"is_reserved":false,"is_disabled":false,"rental_uris":{"android":"levelo://app?vid=20db6b8a-8c82-4712-80f6-626349a87361","ios":"levelo://app?vid=20db6b8a-8c82-4712-80f6-626349a87361"},"vehicle_type_id":"4","last_reported":1730016724,"current_range_meters":19600,"station_id":"ce4bhh12rcd13ifvqff0","pricing_plan_id":"cebpf4jnsgd1na2vs0mg"},{"bike_id":"b1f541c4-f6f1-4393-b5dc-7f8b525508f0","system_id":"levelo_inurba_marseille","lat":43.31273,"lon":5.40166,"is_reserved":false,"is_disabled":false,"rental_uris":{"android":"levelo://app?vid=b1f541c4-f6f1-4393-b5dc-7f8b525508f0","ios":"levelo://app?vid=b1f541c4-f6f1-4393-b5dc-7f8b525508f0"},"vehicle_type_id":"4","last_reported":1730016724,"current_range_meters":18800,"station_id":"ce4bh092rcd13ifvqd30","pricing_plan_id":"cebpf4jnsgd1na2vs0mg"},{"bike_id":"010556e8-69f7-4dfc-b80f-b3335225b0f4","system_id":"levelo_inurba_marseille","lat":43.26211,"lon":5.37441,"is_reserved":false,"is_disabled":false,"rental_uris":{"android":"levelo://app?vid=010556e8-69f7-4dfc-b80f-b3335225b0f4","ios":"levelo://app?vid=010556e8-69f7-4dfc-b80f-b3335225b0f4"},"vehicle_type_id":"4","last_reported":1730016724,"current_range_meters":38800,"station_id":"ce4bhgp2rcd13ifvqfc0","pricing_plan_id":"cebpf4jnsgd1na2vs0mg"},{"bike_id":"51a3b430-922e-4c29-a369-d8bcbb43e4f4","system_id":"levelo_inurba_marseille","lat":43.27309,"lon":5.3907,"is_reserved":false,"is_disabled":false,"rental_uris":{"android":"levelo://app?vid=51a3b430-922e-4c29-a369-d8bcbb43e4f4","ios":"levelo://app?vid=51a3b430-922e-4c29-a369-d8bcbb43e4f4"},"vehicle_type_id":"4","last_reported":1730016724,"current_range_meters":3200,"station_id":"ce4bhgp2rcd13ifvqfe0","pricing_plan_id":"cebpf4jnsgd1na2vs0mg"},{"bike_id":"3035b77c-f0af-4479-9d1c-ce2eb4364541","system_id":"levelo_inurba_marseille","lat":43.24537,"lon":5.3953,"is_reserved":false,"is_disabled":false,"rental_uris":{"android":"levelo://app?vid=3035b77c-f0af-4479-9d1c-ce2eb4364541","ios":"levelo://app?vid=3035b77c-f0af-4479-9d1c-ce2eb4364541"},"vehicle_type_id":"4","last_reported":1730016724,"current_range_meters":40000,"station_id":"ce4bhlp2rcd13ifvqgjg","pricing_plan_id":"cebpf4jnsgd1na2vs0mg"},{"bike_id":"5af9e1ec-be16-4573-a266-0bc868b78b27","system_id":"levelo_inurba_marseille","lat":43.23185,"lon":5.39986,"is_reserved":false,"is_disabled":false,"rental_uris":{"android":"levelo://app?vid=5af9e1ec-be16-4573-a266-0bc868b78b27","ios":"levelo://app?vid=5af9e1ec-be16-4573-a266-0bc868b78b27"},"vehicle_type_id":"4","last_reported":1730016724,"current_range_meters":38800,"station_id":"ce4bhn12rcd13ifvqgqg","pricing_plan_id":"cebpf4jnsgd1na2vs0mg"},{"bike_id":"418412bc-4bb0-4196-8bf0-c8b87125fb5f","system_id":"levelo_inurba_marseille","lat":43.29185,"lon":5.35799,"is_reserved":false,"is_disabled":false,"rental_uris":{"android":"levelo://app?vid=418412bc-4bb0-4196-8bf0-c8b87125fb5f","ios":"levelo://app?vid=418412bc-4bb0-4196-8bf0-c8b87125fb5f"},"vehicle_type_id":"4","last_reported":1730016724,"current_range_meters":38800,"station_id":"ce4bhb12rcd13ifvqel0","pricing_plan_id":"cebpf4jnsgd1na2vs0mg"},{"bike_id":"cae5512b-eeb1-4b21-8d8f-d8841b2677f3","system_id":"levelo_inurba_marseille","lat":43.24175,"lon":5.39724,"is_reserved":false,"is_disabled":false,"rental_uris":{"android":"levelo://app?vid=cae5512b-eeb1-4b21-8d8f-d8841b2677f3","ios":"levelo://app?vid=cae5512b-eeb1-4b21-8d8f-d8841b2677f3"},"vehicle_type_id":"4","last_reported":1730016724,"current_range_meters":22000,"station_id":"ce4bhn12rcd13ifvqgpg","pricing_plan_id":"cebpf4jnsgd1na2vs0mg"},{"bike_id":"260aed32-376a-4a04-90e9-19a42e3aad1d","system_id":"levelo_inurba_marseille","lat":43.28434,"lon":5.3919,"is_reserved":false,"is_disabled":false,"rental_uris":{"android":"levelo://app?vid=260aed32-376a-4a04-90e9-19a42e3aad1d","ios":"levelo://app?vid=260aed32-376a-4a04-90e9-19a42e3aad1d"},"vehicle_type_id":"4","last_reported":1730016724,"current_range_meters":40000,"station_id":"ce4bhoh2rcd13ifvqh5g","pricing_plan_id":"cebpf4jnsgd1na2vs0mg"},{"bike_id":"cd8988cf-34e0-4cd8-92c1-67d3cd8c964e","system_id":"levelo_inurba_marseille","lat":43.23958,"lon":5.36637,"is_reserved":false,"is_disabled":false,"rental_uris":{"android":"levelo://app?vid=cd8988cf-34e0-4cd8-92c1-67d3cd8c964e","ios":"levelo://app?vid=cd8988cf-34e0-4cd8-92c1-67d3cd8c964e"},"vehicle_type_id":"4","last_reported":1730016724,"current_range_meters":17200,"station_id":"ce4bhi12rcd13ifvqfp0","pricing_plan_id":"cebpf4jnsgd1na2vs0mg"},{"bike_id":"2dedcd69-11d2-4929-8a95-bdd4cdc50606","system_id":"levelo_inurba_marseille","lat":43.28835,"lon":5.35849,"is_reserved":false,"is_disabled":false,"rental_uris":{"android":"levelo://app?vid=2dedcd69-11d2-4929-8a95-bdd4cdc50606","ios":"levelo://app?vid=2dedcd69-11d2-4929-8a95-bdd4cdc50606"},"vehicle_type_id":"4","last_reported":1730016724,"current_range_meters":27600,"station_id":"ce4bhb12rcd13ifvqem0","pricing_plan_id":"cebpf4jnsgd1na2vs0mg"},{"bike_id":"c6b2fc05-7410-47d6-b54b-25615935e650","system_id":"levelo_inurba_marseille","lat":43.28152,"lon":5.42637,"is_reserved":false,"is_disabled":false,"rental_uris":{"android":"levelo://app?vid=c6b2fc05-7410-47d6-b54b-25615935e650","ios":"levelo://app?vid=c6b2fc05-7410-47d6-b54b-25615935e650"},"vehicle_type_id":"4","last_reported":1730016724,"current_range_meters":31200,"station_id":"ce4bhnh2rcd13ifvqgug","pricing_plan_id":"cebpf4jnsgd1na2vs0mg"},{"bike_id":"02e2bd26-41d8-4d15-af04-cfaf9a2776d0","system_id":"levelo_inurba_marseille","lat":43.31324,"lon":5.39695,"is_reserved":false,"is_disabled":false,"rental_uris":{"android":"levelo://app?vid=02e2bd26-41d8-4d15-af04-cfaf9a2776d0","ios":"levelo://app?vid=02e2bd26-41d8-4d15-af04-cfaf9a2776d0"},"vehicle_type_id":"4","last_reported":1730016724,"current_range_meters":38000,"station_id":"ce4bgvp2rcd13ifvqcu0","pricing_plan_id":"cebpf4jnsgd1na2vs0mg"},{"bike_id":"8300f4af-3b29-4c7d-8ec8-48620780b31d","system_id":"levelo_inurba_marseille","lat":43.26932,"lon":5.38907,"is_reserved":false,"is_disabled":false,"rental_uris":{"android":"levelo://app?vid=8300f4af-3b29-4c7d-8ec8-48620780b31d","ios":"levelo://app?vid=8300f4af-3b29-4c7d-8ec8-48620780b31d"},"vehicle_type_id":"4","last_reported":1730016724,"current_range_meters":30000,"station_id":"ce4bhhh2rcd13ifvqfl0","pricing_plan_id":"cebpf4jnsgd1na2vs0mg"},{"bike_id":"ef136fa5-257b-4ee5-bd73-f0de7405e6ba","system_id":"levelo_inurba_marseille","lat":43.24538,"lon":5.39525,"is_reserved":false,"is_disabled":false,"rental_uris":{"android":"levelo://app?vid=ef136fa5-257b-4ee5-bd73-f0de7405e6ba","ios":"levelo://app?vid=ef136fa5-257b-4ee5-bd73-f0de7405e6ba"},"vehicle_type_id":"4","last_reported":1730016724,"current_range_meters":25600,"station_id":"ce4bhlp2rcd13ifvqgjg","pricing_plan_id":"cebpf4jnsgd1na2vs0mg"},{"bike_id":"043cd71f-55c8-4732-bfc4-16f89bf10b99","system_id":"levelo_inurba_marseille","lat":43.311159,"lon":5.377714,"is_reserved":false,"is_disabled":false,"rental_uris":{"android":"levelo://app?vid=043cd71f-55c8-4732-bfc4-16f89bf10b99","ios":"levelo://app?vid=043cd71f-55c8-4732-bfc4-16f89bf10b99"},"vehicle_type_id":"4","last_reported":1730016724,"current_range_meters":28000,"station_id":"ce4bgt92rcd13ifvqcg0","pricing_plan_id":"cebpf4jnsgd1na2vs0mg"},{"bike_id":"27e31678-f86a-433a-a57e-85d03f387139","system_id":"levelo_inurba_marseille","lat":43.27808,"lon":5.40718,"is_reserved":false,"is_disabled":false,"rental_uris":{"android":"levelo://app?vid=27e31678-f86a-433a-a57e-85d03f387139","ios":"levelo://app?vid=27e31678-f86a-433a-a57e-85d03f387139"},"vehicle_type_id":"4","last_reported":1730016724,"current_range_meters":30400,"station_id":"ce4bhnh2rcd13ifvqgtg","pricing_plan_id":"cebpf4jnsgd1na2vs0mg"},{"bike_id":"9488ca84-aa5e-4311-bde9-38d634703444","system_id":"levelo_inurba_marseille","lat":43.32477,"lon":5.36557,"is_reserved":false,"is_disabled":false,"rental_uris":{"android":"levelo://app?vid=9488ca84-aa5e-4311-bde9-38d634703444","ios":"levelo://app?vid=9488ca84-aa5e-4311-bde9-38d634703444"},"vehicle_type_id":"4","last_reported":1730016724,"current_range_meters":38800,"station_id":"ce4bhs12rcd13ifvqhvg","pricing_plan_id":"cebpf4jnsgd1na2vs0mg"},{"bike_id":"5809a0b6-4a3c-4116-a401-5ea44791b160","system_id":"levelo_inurba_marseille","lat":43.26683,"lon":5.38278,"is_reserved":false,"is_disabled":false,"rental_uris":{"android":"levelo://app?vid=5809a0b6-4a3c-4116-a401-5ea44791b160","ios":"levelo://app?vid=5809a0b6-4a3c-4116-a401-5ea44791b160"},"vehicle_type_id":"4","last_reported":1730016724,"current_range_meters":30400,"station_id":"ce4bhg92rcd13ifvqf90","pricing_plan_id":"cebpf4jnsgd1na2vs0mg"},{"bike_id":"e5e817e3-05ee-42a0-97b8-792b18b2b2d7","system_id":"levelo_inurba_marseille","lat":43.32479,"lon":5.36562,"is_reserved":false,"is_disabled":false,"rental_uris":{"android":"levelo://app?vid=e5e817e3-05ee-42a0-97b8-792b18b2b2d7","ios":"levelo://app?vid=e5e817e3-05ee-42a0-97b8-792b18b2b2d7"},"vehicle_type_id":"4","last_reported":1730016724,"current_range_meters":25600,"station_id":"ce4bhs12rcd13ifvqhvg","pricing_plan_id":"cebpf4jnsgd1na2vs0mg"},{"bike_id":"8d95a664-3ea5-46eb-b2f2-41f6f9ef201c","system_id":"levelo_inurba_marseille","lat":43.27998,"lon":5.40009,"is_reserved":false,"is_disabled":false,"rental_uris":{"android":"levelo://app?vid=8d95a664-3ea5-46eb-b2f2-41f6f9ef201c","ios":"levelo://app?vid=8d95a664-3ea5-46eb-b2f2-41f6f9ef201c"},"vehicle_type_id":"4","last_reported":1730016724,"current_range_meters":20000,"station_id":"ce4bho92rcd13ifvqh4g","pricing_plan_id":"cebpf4jnsgd1na2vs0mg"},{"bike_id":"7eb08ed6-d766-453c-8a30-626864e68dc5","system_id":"levelo_inurba_marseille","lat":43.24544,"lon":5.39521,"is_reserved":false,"is_disabled":false,"rental_uris":{"android":"levelo://app?vid=7eb08ed6-d766-453c-8a30-626864e68dc5","ios":"levelo://app?vid=7eb08ed6-d766-453c-8a30-626864e68dc5"},"vehicle_type_id":"4","last_reported":1730016724,"current_range_meters":17600,"station_id":"ce4bhlp2rcd13ifvqgjg","pricing_plan_id":"cebpf4jnsgd1na2vs0mg"},{"bike_id":"80f76666-e73a-42ad-ae8f-0e775abdc325","system_id":"levelo_inurba_marseille","lat":43.30603,"lon":5.3722,"is_reserved":false,"is_disabled":false,"rental_uris":{"android":"levelo://app?vid=80f76666-e73a-42ad-ae8f-0e775abdc325","ios":"levelo://app?vid=80f76666-e73a-42ad-ae8f-0e775abdc325"},"vehicle_type_id":"4","last_reported":1730016724,"current_range_meters":39200,"station_id":"ce4bgqh2rcd13ifvqc4g","pricing_plan_id":"cebpf4jnsgd1na2vs0mg"},{"bike_id":"8dba1885-e6c6-4fbd-9c07-ec666e373b16","system_id":"levelo_inurba_marseille","lat":43.25726,"lon":5.41098,"is_reserved":false,"is_disabled":false,"rental_uris":{"android":"levelo://app?vid=8dba1885-e6c6-4fbd-9c07-ec666e373b16","ios":"levelo://app?vid=8dba1885-e6c6-4fbd-9c07-ec666e373b16"},"vehicle_type_id":"4","last_reported":1730016724,"current_range_meters":24400,"station_id":"ce4bhkp2rcd13ifvqgd0","pricing_plan_id":"cebpf4jnsgd1na2vs0mg"},{"bike_id":"cfc805ad-07d3-485d-8116-71278eb29e7b","system_id":"levelo_inurba_marseille","lat":43.31532,"lon":5.38032,"is_reserved":false,"is_disabled":false,"rental_uris":{"android":"levelo://app?vid=cfc805ad-07d3-485d-8116-71278eb29e7b","ios":"levelo://app?vid=cfc805ad-07d3-485d-8116-71278eb29e7b"},"vehicle_type_id":"4","last_reported":1730016724,"current_range_meters":38400,"station_id":"ce4bhsp2rcd13ifvqi50","pricing_plan_id":"cebpf4jnsgd1na2vs0mg"},{"bike_id":"601916c5-3274-4e01-863c-d96df39ce3b1","system_id":"levelo_inurba_marseille","lat":43.26558,"lon":5.38999,"is_reserved":false,"is_disabled":false,"rental_uris":{"android":"levelo://app?vid=601916c5-3274-4e01-863c-d96df39ce3b1","ios":"levelo://app?vid=601916c5-3274-4e01-863c-d96df39ce3b1"},"vehicle_type_id":"4","last_reported":1730016724,"current_range_meters":36800,"station_id":"ce4bhe12rcd13ifvqf30","pricing_plan_id":"cebpf4jnsgd1na2vs0mg"},{"bike_id":"481d530d-cf24-495f-b5d6-89dd932238a0","system_id":"levelo_inurba_marseille","lat":43.25724,"lon":5.41102,"is_reserved":false,"is_disabled":false,"rental_uris":{"android":"levelo://app?vid=481d530d-cf24-495f-b5d6-89dd932238a0","ios":"levelo://app?vid=481d530d-cf24-495f-b5d6-89dd932238a0"},"vehicle_type_id":"4","last_reported":1730016724,"current_range_meters":38400,"station_id":"ce4bhkp2rcd13ifvqgd0","pricing_plan_id":"cebpf4jnsgd1na2vs0mg"},{"bike_id":"59a91155-6b0b-4425-94a0-7ee9ed9b8729","system_id":"levelo_inurba_marseille","lat":43.24997,"lon":5.38926,"is_reserved":false,"is_disabled":false,"rental_uris":{"android":"levelo://app?vid=59a91155-6b0b-4425-94a0-7ee9ed9b8729","ios":"levelo://app?vid=59a91155-6b0b-4425-94a0-7ee9ed9b8729"},"vehicle_type_id":"4","last_reported":1730016724,"current_range_meters":38800,"station_id":"ce4bhgp2rcd13ifvqfd0","pricing_plan_id":"cebpf4jnsgd1na2vs0mg"},{"bike_id":"1fafbe93-2ba4-4077-bfcf-7b3992b30a25","system_id":"levelo_inurba_marseille","lat":43.29552,"lon":5.42283,"is_reserved":false,"is_disabled":false,"rental_uris":{"android":"levelo://app?vid=1fafbe93-2ba4-4077-bfcf-7b3992b30a25","ios":"levelo://app?vid=1fafbe93-2ba4-4077-bfcf-7b3992b30a25"},"vehicle_type_id":"4","last_reported":1730016724,"current_range_meters":39200,"station_id":"ce4bhph2rcd13ifvqhdg","pricing_plan_id":"cebpf4jnsgd1na2vs0mg"},{"bike_id":"7b9bb9f6-2747-4f5c-a936-06f552492e45","system_id":"levelo_inurba_marseille","lat":43.3172,"lon":5.42401,"is_reserved":false,"is_disabled":false,"rental_uris":{"android":"levelo://app?vid=7b9bb9f6-2747-4f5c-a936-06f552492e45","ios":"levelo://app?vid=7b9bb9f6-2747-4f5c-a936-06f552492e45"},"vehicle_type_id":"4","last_reported":1730016724,"current_range_meters":38000,"station_id":"ce4bhp92rcd13ifvqhbg","pricing_plan_id":"cebpf4jnsgd1na2vs0mg"},{"bike_id":"4bafa726-86cb-40fe-9c0c-25741165ee73","system_id":"levelo_inurba_marseille","lat":43.29958,"lon":5.41318,"is_reserved":false,"is_disabled":false,"rental_uris":{"android":"levelo://app?vid=4bafa726-86cb-40fe-9c0c-25741165ee73","ios":"levelo://app?vid=4bafa726-86cb-40fe-9c0c-25741165ee73"},"vehicle_type_id":"4","last_reported":1730016724,"current_range_meters":9600,"station_id":"ce4bhp12rcd13ifvqh9g","pricing_plan_id":"cebpf4jnsgd1na2vs0mg"},{"bike_id":"c88a130f-ae47-47e3-8846-cea489fc1d0d","system_id":"levelo_inurba_marseille","lat":43.26061,"lon":5.39382,"is_reserved":false,"is_disabled":false,"rental_uris":{"android":"levelo://app?vid=c88a130f-ae47-47e3-8846-cea489fc1d0d","ios":"levelo://app?vid=c88a130f-ae47-47e3-8846-cea489fc1d0d"},"vehicle_type_id":"4","last_reported":1730016724,"current_range_meters":31200,"station_id":"ce4bhh92rcd13ifvqfj0","pricing_plan_id":"cebpf4jnsgd1na2vs0mg"},{"bike_id":"8a55373d-8f54-4890-9729-5db301ba9fa0","system_id":"levelo_inurba_marseille","lat":43.250043,"lon":5.389115,"is_reserved":false,"is_disabled":false,"rental_uris":{"android":"levelo://app?vid=8a55373d-8f54-4890-9729-5db301ba9fa0","ios":"levelo://app?vid=8a55373d-8f54-4890-9729-5db301ba9fa0"},"vehicle_type_id":"4","last_reported":1730016724,"current_range_meters":33200,"station_id":"ce4bhgp2rcd13ifvqfd0","pricing_plan_id":"cebpf4jnsgd1na2vs0mg"},{"bike_id":"af051610-c966-4faf-9adc-c51e52a37b65","system_id":"levelo_inurba_marseille","lat":43.31491,"lon":5.37308,"is_reserved":false,"is_disabled":false,"rental_uris":{"android":"levelo://app?vid=af051610-c966-4faf-9adc-c51e52a37b65","ios":"levelo://app?vid=af051610-c966-4faf-9adc-c51e52a37b65"},"vehicle_type_id":"4","last_reported":1730016724,"current_range_meters":34000,"station_id":"ce4bgt12rcd13ifvqcd0","pricing_plan_id":"cebpf4jnsgd1na2vs0mg"},{"bike_id":"4262e7fa-8781-4d58-962e-02b0ff77d4e4","system_id":"levelo_inurba_marseille","lat":43.30591,"lon":5.39358,"is_reserved":false,"is_disabled":false,"rental_uris":{"android":"levelo://app?vid=4262e7fa-8781-4d58-962e-02b0ff77d4e4","ios":"levelo://app?vid=4262e7fa-8781-4d58-962e-02b0ff77d4e4"},"vehicle_type_id":"4","last_reported":1730016724,"current_range_meters":39200,"station_id":"ce4bh0p2rcd13ifvqd80","pricing_plan_id":"cebpf4jnsgd1na2vs0mg"},{"bike_id":"b0c7ce4f-cf48-4b13-99b1-24dbbfafc315","system_id":"levelo_inurba_marseille","lat":43.2781,"lon":5.40709,"is_reserved":false,"is_disabled":false,"rental_uris":{"android":"levelo://app?vid=b0c7ce4f-cf48-4b13-99b1-24dbbfafc315","ios":"levelo://app?vid=b0c7ce4f-cf48-4b13-99b1-24dbbfafc315"},"vehicle_type_id":"4","last_reported":1730016724,"current_range_meters":28800,"station_id":"ce4bhnh2rcd13ifvqgtg","pricing_plan_id":"cebpf4jnsgd1na2vs0mg"},{"bike_id":"e113f747-4daa-44f7-a218-9e030daa2565","system_id":"levelo_inurba_marseille","lat":43.32105,"lon":5.36773,"is_reserved":false,"is_disabled":false,"rental_uris":{"android":"levelo://app?vid=e113f747-4daa-44f7-a218-9e030daa2565","ios":"levelo://app?vid=e113f747-4daa-44f7-a218-9e030daa2565"},"vehicle_type_id":"4","last_reported":1730016724,"current_range_meters":27200,"station_id":"ce4bhrh2rcd13ifvqhug","pricing_plan_id":"cebpf4jnsgd1na2vs0mg"},{"bike_id":"f417428a-25a9-438a-b11f-5432418a08bc","system_id":"levelo_inurba_marseille","lat":43.28027,"lon":5.36934,"is_reserved":false,"is_disabled":false,"rental_uris":{"android":"levelo://app?vid=f417428a-25a9-438a-b11f-5432418a08bc","ios":"levelo://app?vid=f417428a-25a9-438a-b11f-5432418a08bc"},"vehicle_type_id":"4","last_reported":1730016724,"current_range_meters":39200,"station_id":"ce4bha12rcd13ifvqef0","pricing_plan_id":"cebpf4jnsgd1na2vs0mg"},{"bike_id":"1d0ee280-a64a-47bd-a460-6cc2fbcba870","system_id":"levelo_inurba_marseille","lat":43.29569,"lon":5.4,"is_reserved":false,"is_disabled":false,"rental_uris":{"android":"levelo://app?vid=1d0ee280-a64a-47bd-a460-6cc2fbcba870","ios":"levelo://app?vid=1d0ee280-a64a-47bd-a460-6cc2fbcba870"},"vehicle_type_id":"4","last_reported":1730016724,"current_range_meters":14800,"station_id":"ce4bh312rcd13ifvqdj0","pricing_plan_id":"cebpf4jnsgd1na2vs0mg"},{"bike_id":"6dfe5cc9-8aa4-4177-aac2-34ca48bf27f9","system_id":"levelo_inurba_marseille","lat":43.31277,"lon":5.40165,"is_reserved":false,"is_disabled":false,"rental_uris":{"android":"levelo://app?vid=6dfe5cc9-8aa4-4177-aac2-34ca48bf27f9","ios":"levelo://app?vid=6dfe5cc9-8aa4-4177-aac2-34ca48bf27f9"},"vehicle_type_id":"4","last_reported":1730016724,"current_range_meters":6000,"station_id":"ce4bh092rcd13ifvqd30","pricing_plan_id":"cebpf4jnsgd1na2vs0mg"},{"bike_id":"4cb54fe2-6aa3-4b51-89f9-1a40a399762b","system_id":"levelo_inurba_marseille","lat":43.29619,"lon":5.37149,"is_reserved":false,"is_disabled":false,"rental_uris":{"android":"levelo://app?vid=4cb54fe2-6aa3-4b51-89f9-1a40a399762b","ios":"levelo://app?vid=4cb54fe2-6aa3-4b51-89f9-1a40a399762b"},"vehicle_type_id":"4","last_reported":1730016724,"current_range_meters":20000,"station_id":"ce4bgnh2rcd13ifvqc0g","pricing_plan_id":"cebpf4jnsgd1na2vs0mg"},{"bike_id":"9fd56fad-5f3d-42b4-b491-7b57b76bc0cf","system_id":"levelo_inurba_marseille","lat":43.27815,"lon":5.40722,"is_reserved":false,"is_disabled":false,"rental_uris":{"android":"levelo://app?vid=9fd56fad-5f3d-42b4-b491-7b57b76bc0cf","ios":"levelo://app?vid=9fd56fad-5f3d-42b4-b491-7b57b76bc0cf"},"vehicle_type_id":"4","last_reported":1730016724,"current_range_meters":24000,"station_id":"ce4bhnh2rcd13ifvqgtg","pricing_plan_id":"cebpf4jnsgd1na2vs0mg"},{"bike_id":"bf291e7e-22e0-40c3-9fbf-804e4d125b27","system_id":"levelo_inurba_marseille","lat":43.25577,"lon":5.38227,"is_reserved":false,"is_disabled":false,"rental_uris":{"android":"levelo://app?vid=bf291e7e-22e0-40c3-9fbf-804e4d125b27","ios":"levelo://app?vid=bf291e7e-22e0-40c3-9fbf-804e4d125b27"},"vehicle_type_id":"4","last_reported":1730016724,"current_range_meters":14400,"station_id":"ce4bhih2rcd13ifvqfs0","pricing_plan_id":"cebpf4jnsgd1na2vs0mg"},{"bike_id":"05fba4cc-ed02-4c92-993f-4b533bd85ad6","system_id":"levelo_inurba_marseille","lat":43.30424,"lon":5.39751,"is_reserved":false,"is_disabled":false,"rental_uris":{"android":"levelo://app?vid=05fba4cc-ed02-4c92-993f-4b533bd85ad6","ios":"levelo://app?vid=05fba4cc-ed02-4c92-993f-4b533bd85ad6"},"vehicle_type_id":"4","last_reported":1730016724,"current_range_meters":39200,"station_id":"ce4bh092rcd13ifvqd20","pricing_plan_id":"cebpf4jnsgd1na2vs0mg"},{"bike_id":"cb176300-6569-4931-a7b5-26a3947ac35d","system_id":"levelo_inurba_marseille","lat":43.25003,"lon":5.38914,"is_reserved":false,"is_disabled":false,"rental_uris":{"android":"levelo://app?vid=cb176300-6569-4931-a7b5-26a3947ac35d","ios":"levelo://app?vid=cb176300-6569-4931-a7b5-26a3947ac35d"},"vehicle_type_id":"4","last_reported":1730016724,"current_range_meters":32400,"station_id":"ce4bhgp2rcd13ifvqfd0","pricing_plan_id":"cebpf4jnsgd1na2vs0mg"},{"bike_id":"b375fc97-9ffd-4424-a9ca-64c19ca1f1e3","system_id":"levelo_inurba_marseille","lat":43.29567,"lon":5.39967,"is_reserved":false,"is_disabled":false,"rental_uris":{"android":"levelo://app?vid=b375fc97-9ffd-4424-a9ca-64c19ca1f1e3","ios":"levelo://app?vid=b375fc97-9ffd-4424-a9ca-64c19ca1f1e3"},"vehicle_type_id":"4","last_reported":1730016724,"current_range_meters":40000,"station_id":"ce4bh312rcd13ifvqdj0","pricing_plan_id":"cebpf4jnsgd1na2vs0mg"},{"bike_id":"37a65248-44b6-4560-8888-2a9f1528b98e","system_id":"levelo_inurba_marseille","lat":43.29025,"lon":5.38637,"is_reserved":false,"is_disabled":false,"rental_uris":{"android":"levelo://app?vid=37a65248-44b6-4560-8888-2a9f1528b98e","ios":"levelo://app?vid=37a65248-44b6-4560-8888-2a9f1528b98e"},"vehicle_type_id":"4","last_reported":1730016724,"current_range_meters":28400,"station_id":"ce4bh4p2rcd13ifvqe0g","pricing_plan_id":"cebpf4jnsgd1na2vs0mg"},{"bike_id":"744bde82-bd02-445d-b711-6cd860d3c3d0","system_id":"levelo_inurba_marseille","lat":43.30416,"lon":5.41288,"is_reserved":false,"is_disabled":false,"rental_uris":{"android":"levelo://app?vid=744bde82-bd02-445d-b711-6cd860d3c3d0","ios":"levelo://app?vid=744bde82-bd02-445d-b711-6cd860d3c3d0"},"vehicle_type_id":"4","last_reported":1730016724,"current_range_meters":36000,"station_id":"ce4bhop2rcd13ifvqh8g","pricing_plan_id":"cebpf4jnsgd1na2vs0mg"},{"bike_id":"ad2b0ded-18b9-4515-9475-8402ee694265","system_id":"levelo_inurba_marseille","lat":43.31112,"lon":5.3777,"is_reserved":false,"is_disabled":false,"rental_uris":{"android":"levelo://app?vid=ad2b0ded-18b9-4515-9475-8402ee694265","ios":"levelo://app?vid=ad2b0ded-18b9-4515-9475-8402ee694265"},"vehicle_type_id":"4","last_reported":1730016724,"current_range_meters":30400,"station_id":"ce4bgt92rcd13ifvqcg0","pricing_plan_id":"cebpf4jnsgd1na2vs0mg"},{"bike_id":"4e34ffc2-4ae4-4483-9511-9a97f6d751e6","system_id":"levelo_inurba_marseille","lat":43.29303,"lon":5.37452,"is_reserved":false,"is_disabled":false,"rental_uris":{"android":"levelo://app?vid=4e34ffc2-4ae4-4483-9511-9a97f6d751e6","ios":"levelo://app?vid=4e34ffc2-4ae4-4483-9511-9a97f6d751e6"},"vehicle_type_id":"4","last_reported":1730016724,"current_range_meters":38000,"station_id":"ce4bgi12rcd13ifvqb70","pricing_plan_id":"cebpf4jnsgd1na2vs0mg"},{"bike_id":"76655054-c5bb-403b-83de-851da69c462b","system_id":"levelo_inurba_marseille","lat":43.30415,"lon":5.4128,"is_reserved":false,"is_disabled":false,"rental_uris":{"android":"levelo://app?vid=76655054-c5bb-403b-83de-851da69c462b","ios":"levelo://app?vid=76655054-c5bb-403b-83de-851da69c462b"},"vehicle_type_id":"4","last_reported":1730016724,"current_range_meters":27200,"station_id":"ce4bhop2rcd13ifvqh8g","pricing_plan_id":"cebpf4jnsgd1na2vs0mg"},{"bike_id":"a4cdb9e2-dcee-478e-b833-1e72009d3ae3","system_id":"levelo_inurba_marseille","lat":43.30418,"lon":5.41274,"is_reserved":false,"is_disabled":false,"rental_uris":{"android":"levelo://app?vid=a4cdb9e2-dcee-478e-b833-1e72009d3ae3","ios":"levelo://app?vid=a4cdb9e2-dcee-478e-b833-1e72009d3ae3"},"vehicle_type_id":"4","last_reported":1730016724,"current_range_meters":38000,"station_id":"ce4bhop2rcd13ifvqh8g","pricing_plan_id":"cebpf4jnsgd1na2vs0mg"},{"bike_id":"c65417d6-6622-4395-b76f-feb2f4595473","system_id":"levelo_inurba_marseille","lat":43.25723,"lon":5.41102,"is_reserved":false,"is_disabled":false,"rental_uris":{"android":"levelo://app?vid=c65417d6-6622-4395-b76f-feb2f4595473","ios":"levelo://app?vid=c65417d6-6622-4395-b76f-feb2f4595473"},"vehicle_type_id":"4","last_reported":1730016724,"current_range_meters":36800,"station_id":"ce4bhkp2rcd13ifvqgd0","pricing_plan_id":"cebpf4jnsgd1na2vs0mg"},{"bike_id":"75bc418d-5fa4-4111-819c-79228dcd39de","system_id":"levelo_inurba_marseille","lat":43.26056,"lon":5.39394,"is_reserved":false,"is_disabled":false,"rental_uris":{"android":"levelo://app?vid=75bc418d-5fa4-4111-819c-79228dcd39de","ios":"levelo://app?vid=75bc418d-5fa4-4111-819c-79228dcd39de"},"vehicle_type_id":"4","last_reported":1730016724,"current_range_meters":10000,"station_id":"ce4bhh92rcd13ifvqfj0","pricing_plan_id":"cebpf4jnsgd1na2vs0mg"},{"bike_id":"d7ff7165-6d5c-4f76-865c-b2ea1a2a3c7a","system_id":"levelo_inurba_marseille","lat":43.27489,"lon":5.42449,"is_reserved":false,"is_disabled":false,"rental_uris":{"android":"levelo://app?vid=d7ff7165-6d5c-4f76-865c-b2ea1a2a3c7a","ios":"levelo://app?vid=d7ff7165-6d5c-4f76-865c-b2ea1a2a3c7a"},"vehicle_type_id":"4","last_reported":1730016724,"current_range_meters":6800,"station_id":"ce4bhn92rcd13ifvqgrg","pricing_plan_id":"cebpf4jnsgd1na2vs0mg"},{"bike_id":"ceb2afe2-ec71-45e0-b6e1-4ce988215eeb","system_id":"levelo_inurba_marseille","lat":43.30464,"lon":5.37906,"is_reserved":false,"is_disabled":false,"rental_uris":{"android":"levelo://app?vid=ceb2afe2-ec71-45e0-b6e1-4ce988215eeb","ios":"levelo://app?vid=ceb2afe2-ec71-45e0-b6e1-4ce988215eeb"},"vehicle_type_id":"4","last_reported":1730016724,"current_range_meters":39200,"station_id":"ce4bgup2rcd13ifvqcn0","pricing_plan_id":"cebpf4jnsgd1na2vs0mg"},{"bike_id":"f1254c5b-0261-4eca-961d-336db34963c4","system_id":"levelo_inurba_marseille","lat":43.2694,"lon":5.40235,"is_reserved":false,"is_disabled":false,"rental_uris":{"android":"levelo://app?vid=f1254c5b-0261-4eca-961d-336db34963c4","ios":"levelo://app?vid=f1254c5b-0261-4eca-961d-336db34963c4"},"vehicle_type_id":"4","last_reported":1730016724,"current_range_meters":21600,"station_id":"cjm6bp8fraef2m0cb0m0","pricing_plan_id":"cebpf4jnsgd1na2vs0mg"},{"bike_id":"9c5a010a-4c2f-4de5-8313-fb780aa533cb","system_id":"levelo_inurba_marseille","lat":43.293915,"lon":5.401617,"is_reserved":false,"is_disabled":false,"rental_uris":{"android":"levelo://app?vid=9c5a010a-4c2f-4de5-8313-fb780aa533cb","ios":"levelo://app?vid=9c5a010a-4c2f-4de5-8313-fb780aa533cb"},"vehicle_type_id":"4","last_reported":1730016724,"current_range_meters":32800,"station_id":"ce4bh312rcd13ifvqdk0","pricing_plan_id":"cebpf4jnsgd1na2vs0mg"},{"bike_id":"b3c71d30-6ded-428e-8293-1451c253108f","system_id":"levelo_inurba_marseille","lat":43.29895,"lon":5.43664,"is_reserved":false,"is_disabled":false,"rental_uris":{"android":"levelo://app?vid=b3c71d30-6ded-428e-8293-1451c253108f","ios":"levelo://app?vid=b3c71d30-6ded-428e-8293-1451c253108f"},"vehicle_type_id":"4","last_reported":1730016724,"current_range_meters":30800,"station_id":"ce4bhpp2rcd13ifvqhfg","pricing_plan_id":"cebpf4jnsgd1na2vs0mg"},{"bike_id":"ec1ef2fd-0187-4063-a08a-f08e31fd67e9","system_id":"levelo_inurba_marseille","lat":43.24996,"lon":5.38906,"is_reserved":false,"is_disabled":false,"rental_uris":{"android":"levelo://app?vid=ec1ef2fd-0187-4063-a08a-f08e31fd67e9","ios":"levelo://app?vid=ec1ef2fd-0187-4063-a08a-f08e31fd67e9"},"vehicle_type_id":"4","last_reported":1730016724,"current_range_meters":32400,"station_id":"ce4bhgp2rcd13ifvqfd0","pricing_plan_id":"cebpf4jnsgd1na2vs0mg"},{"bike_id":"e7724ef7-2c56-40d1-a107-98b66e372f66","system_id":"levelo_inurba_marseille","lat":43.28612,"lon":5.35097,"is_reserved":false,"is_disabled":false,"rental_uris":{"android":"levelo://app?vid=e7724ef7-2c56-40d1-a107-98b66e372f66","ios":"levelo://app?vid=e7724ef7-2c56-40d1-a107-98b66e372f66"},"vehicle_type_id":"4","last_reported":1730016724,"current_range_meters":9200,"station_id":"ce4bhch2rcd13ifvqeug","pricing_plan_id":"cebpf4jnsgd1na2vs0mg"},{"bike_id":"b54a1450-a5e2-4400-8ed0-f6ad27dc90fa","system_id":"levelo_inurba_marseille","lat":43.27311,"lon":5.39081,"is_reserved":false,"is_disabled":false,"rental_uris":{"android":"levelo://app?vid=b54a1450-a5e2-4400-8ed0-f6ad27dc90fa","ios":"levelo://app?vid=b54a1450-a5e2-4400-8ed0-f6ad27dc90fa"},"vehicle_type_id":"4","last_reported":1730016724,"current_range_meters":14000,"station_id":"ce4bhgp2rcd13ifvqfe0","pricing_plan_id":"cebpf4jnsgd1na2vs0mg"},{"bike_id":"03fca2ad-58fd-4eb4-89bc-902a93181aaf","system_id":"levelo_inurba_marseille","lat":43.27652,"lon":5.38851,"is_reserved":false,"is_disabled":false,"rental_uris":{"android":"levelo://app?vid=03fca2ad-58fd-4eb4-89bc-902a93181aaf","ios":"levelo://app?vid=03fca2ad-58fd-4eb4-89bc-902a93181aaf"},"vehicle_type_id":"4","last_reported":1730016724,"current_range_meters":38000,"station_id":"ce4bhi12rcd13ifvqfo0","pricing_plan_id":"cebpf4jnsgd1na2vs0mg"},{"bike_id":"bf74c18a-9570-4971-a107-83f74c935f83","system_id":"levelo_inurba_marseille","lat":43.30304,"lon":5.36897,"is_reserved":false,"is_disabled":false,"rental_uris":{"android":"levelo://app?vid=bf74c18a-9570-4971-a107-83f74c935f83","ios":"levelo://app?vid=bf74c18a-9570-4971-a107-83f74c935f83"},"vehicle_type_id":"4","last_reported":1730016724,"current_range_meters":28800,"station_id":"ce4bgqh2rcd13ifvqc5g","pricing_plan_id":"cebpf4jnsgd1na2vs0mg"},{"bike_id":"ed2cead2-9c13-422d-8800-5f69b1982c12","system_id":"levelo_inurba_marseille","lat":43.30428,"lon":5.38892,"is_reserved":false,"is_disabled":false,"rental_uris":{"android":"levelo://app?vid=ed2cead2-9c13-422d-8800-5f69b1982c12","ios":"levelo://app?vid=ed2cead2-9c13-422d-8800-5f69b1982c12"},"vehicle_type_id":"4","last_reported":1730016724,"current_range_meters":10800,"station_id":"ce4bgk12rcd13ifvqbi0","pricing_plan_id":"cebpf4jnsgd1na2vs0mg"},{"bike_id":"ca7bb878-8f7e-4507-bae1-33c3bcc62b87","system_id":"levelo_inurba_marseille","lat":43.30072,"lon":5.38852,"is_reserved":false,"is_disabled":false,"rental_uris":{"android":"levelo://app?vid=ca7bb878-8f7e-4507-bae1-33c3bcc62b87","ios":"levelo://app?vid=ca7bb878-8f7e-4507-bae1-33c3bcc62b87"},"vehicle_type_id":"4","last_reported":1730016724,"current_range_meters":18000,"station_id":"ce4bhbh2rcd13ifvqepg","pricing_plan_id":"cebpf4jnsgd1na2vs0mg"},{"bike_id":"356a8e33-4ab0-42f2-95a5-274f32429f87","system_id":"levelo_inurba_marseille","lat":43.30147,"lon":5.3808,"is_reserved":false,"is_disabled":false,"rental_uris":{"android":"levelo://app?vid=356a8e33-4ab0-42f2-95a5-274f32429f87","ios":"levelo://app?vid=356a8e33-4ab0-42f2-95a5-274f32429f87"},"vehicle_type_id":"4","last_reported":1730016724,"current_range_meters":12400,"station_id":"ce4bgjp2rcd13ifvqbh0","pricing_plan_id":"cebpf4jnsgd1na2vs0mg"},{"bike_id":"263f93c9-144a-4508-b60e-cbaf71ba2571","system_id":"levelo_inurba_marseille","lat":43.24175,"lon":5.39718,"is_reserved":false,"is_disabled":false,"rental_uris":{"android":"levelo://app?vid=263f93c9-144a-4508-b60e-cbaf71ba2571","ios":"levelo://app?vid=263f93c9-144a-4508-b60e-cbaf71ba2571"},"vehicle_type_id":"4","last_reported":1730016724,"current_range_meters":37600,"station_id":"ce4bhn12rcd13ifvqgpg","pricing_plan_id":"cebpf4jnsgd1na2vs0mg"},{"bike_id":"f9dd0103-b045-4d3e-97f0-feaf4a2d3923","system_id":"levelo_inurba_marseille","lat":43.25001,"lon":5.38907,"is_reserved":false,"is_disabled":false,"rental_uris":{"android":"levelo://app?vid=f9dd0103-b045-4d3e-97f0-feaf4a2d3923","ios":"levelo://app?vid=f9dd0103-b045-4d3e-97f0-feaf4a2d3923"},"vehicle_type_id":"4","last_reported":1730016724,"current_range_meters":6400,"station_id":"ce4bhgp2rcd13ifvqfd0","pricing_plan_id":"cebpf4jnsgd1na2vs0mg"},{"bike_id":"f8484144-a349-4d49-90ad-46ec5c86bd80","system_id":"levelo_inurba_marseille","lat":43.28477,"lon":5.38425,"is_reserved":false,"is_disabled":false,"rental_uris":{"android":"levelo://app?vid=f8484144-a349-4d49-90ad-46ec5c86bd80","ios":"levelo://app?vid=f8484144-a349-4d49-90ad-46ec5c86bd80"},"vehicle_type_id":"4","last_reported":1730016724,"current_range_meters":16000,"station_id":"ce4bh512rcd13ifvqe3g","pricing_plan_id":"cebpf4jnsgd1na2vs0mg"},{"bike_id":"f35bff84-2694-4e18-9465-7d2a42e494d5","system_id":"levelo_inurba_marseille","lat":43.30644,"lon":5.40082,"is_reserved":false,"is_disabled":false,"rental_uris":{"android":"levelo://app?vid=f35bff84-2694-4e18-9465-7d2a42e494d5","ios":"levelo://app?vid=f35bff84-2694-4e18-9465-7d2a42e494d5"},"vehicle_type_id":"4","last_reported":1730016724,"current_range_meters":32000,"station_id":"ce4bh112rcd13ifvqda0","pricing_plan_id":"cebpf4jnsgd1na2vs0mg"},{"bike_id":"c7493202-7ba4-4657-a88f-5b1ffe0cc379","system_id":"levelo_inurba_marseille","lat":43.25725,"lon":5.41101,"is_reserved":false,"is_disabled":false,"rental_uris":{"android":"levelo://app?vid=c7493202-7ba4-4657-a88f-5b1ffe0cc379","ios":"levelo://app?vid=c7493202-7ba4-4657-a88f-5b1ffe0cc379"},"vehicle_type_id":"4","last_reported":1730016724,"current_range_meters":37600,"station_id":"ce4bhkp2rcd13ifvqgd0","pricing_plan_id":"cebpf4jnsgd1na2vs0mg"},{"bike_id":"fdb7a2ea-1502-497e-9330-45cbda59e4b8","system_id":"levelo_inurba_marseille","lat":43.25932,"lon":5.40907,"is_reserved":false,"is_disabled":false,"rental_uris":{"android":"levelo://app?vid=fdb7a2ea-1502-497e-9330-45cbda59e4b8","ios":"levelo://app?vid=fdb7a2ea-1502-497e-9330-45cbda59e4b8"},"vehicle_type_id":"4","last_reported":1730016724,"current_range_meters":38400,"station_id":"ce4bhm92rcd13ifvqglg","pricing_plan_id":"cebpf4jnsgd1na2vs0mg"},{"bike_id":"adca9b34-2a5e-4d6f-a753-6c263a8a2218","system_id":"levelo_inurba_marseille","lat":43.28847,"lon":5.35848,"is_reserved":false,"is_disabled":false,"rental_uris":{"android":"levelo://app?vid=adca9b34-2a5e-4d6f-a753-6c263a8a2218","ios":"levelo://app?vid=adca9b34-2a5e-4d6f-a753-6c263a8a2218"},"vehicle_type_id":"4","last_reported":1730016724,"current_range_meters":38800,"station_id":"ce4bhb12rcd13ifvqem0","pricing_plan_id":"cebpf4jnsgd1na2vs0mg"},{"bike_id":"fbabd65a-eb4c-4079-98ce-24263a2a8430","system_id":"levelo_inurba_marseille","lat":43.24655,"lon":5.38899,"is_reserved":false,"is_disabled":false,"rental_uris":{"android":"levelo://app?vid=fbabd65a-eb4c-4079-98ce-24263a2a8430","ios":"levelo://app?vid=fbabd65a-eb4c-4079-98ce-24263a2a8430"},"vehicle_type_id":"4","last_reported":1730016724,"current_range_meters":38800,"station_id":"ce4bhg12rcd13ifvqf60","pricing_plan_id":"cebpf4jnsgd1na2vs0mg"},{"bike_id":"98e33aa4-2131-4227-b5ee-7452ffb51601","system_id":"levelo_inurba_marseille","lat":43.30296,"lon":5.36903,"is_reserved":false,"is_disabled":false,"rental_uris":{"android":"levelo://app?vid=98e33aa4-2131-4227-b5ee-7452ffb51601","ios":"levelo://app?vid=98e33aa4-2131-4227-b5ee-7452ffb51601"},"vehicle_type_id":"4","last_reported":1730016724,"current_range_meters":39200,"station_id":"ce4bgqh2rcd13ifvqc5g","pricing_plan_id":"cebpf4jnsgd1na2vs0mg"},{"bike_id":"aee92c65-2561-40c9-a8cd-512679de5c62","system_id":"levelo_inurba_marseille","lat":43.28713,"lon":5.37944,"is_reserved":false,"is_disabled":false,"rental_uris":{"android":"levelo://app?vid=aee92c65-2561-40c9-a8cd-512679de5c62","ios":"levelo://app?vid=aee92c65-2561-40c9-a8cd-512679de5c62"},"vehicle_type_id":"4","last_reported":1730016724,"current_range_meters":23200,"station_id":"ce4bh9p2rcd13ifvqec0","pricing_plan_id":"cebpf4jnsgd1na2vs0mg"},{"bike_id":"8e05c1c9-c561-470b-83c7-44b67333075d","system_id":"levelo_inurba_marseille","lat":43.29271,"lon":5.38449,"is_reserved":false,"is_disabled":false,"rental_uris":{"android":"levelo://app?vid=8e05c1c9-c561-470b-83c7-44b67333075d","ios":"levelo://app?vid=8e05c1c9-c561-470b-83c7-44b67333075d"},"vehicle_type_id":"4","last_reported":1730016724,"current_range_meters":37600,"station_id":"ce4bh692rcd13ifvqea0","pricing_plan_id":"cebpf4jnsgd1na2vs0mg"},{"bike_id":"b3b80d53-4198-4a51-a57d-a6ff1e361e88","system_id":"levelo_inurba_marseille","lat":43.28146,"lon":5.42643,"is_reserved":false,"is_disabled":false,"rental_uris":{"android":"levelo://app?vid=b3b80d53-4198-4a51-a57d-a6ff1e361e88","ios":"levelo://app?vid=b3b80d53-4198-4a51-a57d-a6ff1e361e88"},"vehicle_type_id":"4","last_reported":1730016724,"current_range_meters":38800,"station_id":"ce4bhnh2rcd13ifvqgug","pricing_plan_id":"cebpf4jnsgd1na2vs0mg"},{"bike_id":"0ecf5e07-d4ac-4f2c-bd1b-3acf9f99ddc6","system_id":"levelo_inurba_marseille","lat":43.2602,"lon":5.37544,"is_reserved":false,"is_disabled":false,"rental_uris":{"android":"levelo://app?vid=0ecf5e07-d4ac-4f2c-bd1b-3acf9f99ddc6","ios":"levelo://app?vid=0ecf5e07-d4ac-4f2c-bd1b-3acf9f99ddc6"},"vehicle_type_id":"4","last_reported":1730016724,"current_range_meters":36800,"station_id":"ce4bhgh2rcd13ifvqfa0","pricing_plan_id":"cebpf4jnsgd1na2vs0mg"},{"bike_id":"48e66b17-4371-4e17-9d32-8d4b1940654f","system_id":"levelo_inurba_marseille","lat":43.29859,"lon":5.39736,"is_reserved":false,"is_disabled":false,"rental_uris":{"android":"levelo://app?vid=48e66b17-4371-4e17-9d32-8d4b1940654f","ios":"levelo://app?vid=48e66b17-4371-4e17-9d32-8d4b1940654f"},"vehicle_type_id":"4","last_reported":1730016724,"current_range_meters":37600,"station_id":"ce4bh0h2rcd13ifvqd50","pricing_plan_id":"cebpf4jnsgd1na2vs0mg"},{"bike_id":"3440d9b5-3e68-45f4-98be-6b0e41381653","system_id":"levelo_inurba_marseille","lat":43.28443,"lon":5.39192,"is_reserved":false,"is_disabled":false,"rental_uris":{"android":"levelo://app?vid=3440d9b5-3e68-45f4-98be-6b0e41381653","ios":"levelo://app?vid=3440d9b5-3e68-45f4-98be-6b0e41381653"},"vehicle_type_id":"4","last_reported":1730016724,"current_range_meters":23200,"station_id":"ce4bhoh2rcd13ifvqh5g","pricing_plan_id":"cebpf4jnsgd1na2vs0mg"},{"bike_id":"961a5055-8cb5-4d95-ac0a-035d3b947247","system_id":"levelo_inurba_marseille","lat":43.29348,"lon":5.45552,"is_reserved":false,"is_disabled":false,"rental_uris":{"android":"levelo://app?vid=961a5055-8cb5-4d95-ac0a-035d3b947247","ios":"levelo://app?vid=961a5055-8cb5-4d95-ac0a-035d3b947247"},"vehicle_type_id":"4","last_reported":1730016724,"current_range_meters":27600,"station_id":"","pricing_plan_id":"cebpf4jnsgd1na2vs0mg"},{"bike_id":"dd0d410c-225e-4546-94b2-23604facd63a","system_id":"levelo_inurba_marseille","lat":43.30184,"lon":5.3662,"is_reserved":false,"is_disabled":false,"rental_uris":{"android":"levelo://app?vid=dd0d410c-225e-4546-94b2-23604facd63a","ios":"levelo://app?vid=dd0d410c-225e-4546-94b2-23604facd63a"},"vehicle_type_id":"4","last_reported":1730016724,"current_range_meters":40000,"station_id":"ce4bgrh2rcd13ifvqc8g","pricing_plan_id":"cebpf4jnsgd1na2vs0mg"},{"bike_id":"c4f16691-f8e1-494d-b2b9-e447f16bf18a","system_id":"levelo_inurba_marseille","lat":43.25822,"lon":5.39436,"is_reserved":false,"is_disabled":false,"rental_uris":{"android":"levelo://app?vid=c4f16691-f8e1-494d-b2b9-e447f16bf18a","ios":"levelo://app?vid=c4f16691-f8e1-494d-b2b9-e447f16bf18a"},"vehicle_type_id":"4","last_reported":1730016724,"current_range_meters":20800,"station_id":"ce4bhip2rcd13ifvqft0","pricing_plan_id":"cebpf4jnsgd1na2vs0mg"},{"bike_id":"3234b305-f139-46c9-bef1-143cfb0ad813","system_id":"levelo_inurba_marseille","lat":43.25106,"lon":5.40314,"is_reserved":false,"is_disabled":false,"rental_uris":{"android":"levelo://app?vid=3234b305-f139-46c9-bef1-143cfb0ad813","ios":"levelo://app?vid=3234b305-f139-46c9-bef1-143cfb0ad813"},"vehicle_type_id":"4","last_reported":1730016724,"current_range_meters":38000,"station_id":"ce4bhlh2rcd13ifvqgig","pricing_plan_id":"cebpf4jnsgd1na2vs0mg"},{"bike_id":"8d1224ea-8c67-414f-8e8e-8dff85dd0343","system_id":"levelo_inurba_marseille","lat":43.24996,"lon":5.38923,"is_reserved":false,"is_disabled":false,"rental_uris":{"android":"levelo://app?vid=8d1224ea-8c67-414f-8e8e-8dff85dd0343","ios":"levelo://app?vid=8d1224ea-8c67-414f-8e8e-8dff85dd0343"},"vehicle_type_id":"4","last_reported":1730016724,"current_range_meters":37600,"station_id":"ce4bhgp2rcd13ifvqfd0","pricing_plan_id":"cebpf4jnsgd1na2vs0mg"},{"bike_id":"9befed88-9f8c-464c-b07b-093bd97066bb","system_id":"levelo_inurba_marseille","lat":43.29805,"lon":5.37136,"is_reserved":false,"is_disabled":false,"rental_uris":{"android":"levelo://app?vid=9befed88-9f8c-464c-b07b-093bd97066bb","ios":"levelo://app?vid=9befed88-9f8c-464c-b07b-093bd97066bb"},"vehicle_type_id":"4","last_reported":1730016724,"current_range_meters":20400,"station_id":"","pricing_plan_id":"cebpf4jnsgd1na2vs0mg"},{"bike_id":"29f7371e-02dc-4b25-a649-b19f3dbb6ba0","system_id":"levelo_inurba_marseille","lat":43.30974,"lon":5.39286,"is_reserved":false,"is_disabled":false,"rental_uris":{"android":"levelo://app?vid=29f7371e-02dc-4b25-a649-b19f3dbb6ba0","ios":"levelo://app?vid=29f7371e-02dc-4b25-a649-b19f3dbb6ba0"},"vehicle_type_id":"4","last_reported":1730016724,"current_range_meters":2800,"station_id":"","pricing_plan_id":"cebpf4jnsgd1na2vs0mg"},{"bike_id":"f37e3b02-a49c-4c4e-b112-f9c8c24edf90","system_id":"levelo_inurba_marseille","lat":43.23189,"lon":5.35559,"is_reserved":false,"is_disabled":false,"rental_uris":{"android":"levelo://app?vid=f37e3b02-a49c-4c4e-b112-f9c8c24edf90","ios":"levelo://app?vid=f37e3b02-a49c-4c4e-b112-f9c8c24edf90"},"vehicle_type_id":"4","last_reported":1730016724,"current_range_meters":17600,"station_id":"ce4bhu92rcd13ifvqi70","pricing_plan_id":"cebpf4jnsgd1na2vs0mg"},{"bike_id":"601b34eb-bb27-49aa-bc78-4cf12d6bde95","system_id":"levelo_inurba_marseille","lat":43.28267,"lon":5.35068,"is_reserved":false,"is_disabled":false,"rental_uris":{"android":"levelo://app?vid=601b34eb-bb27-49aa-bc78-4cf12d6bde95","ios":"levelo://app?vid=601b34eb-bb27-49aa-bc78-4cf12d6bde95"},"vehicle_type_id":"4","last_reported":1730016724,"current_range_meters":27200,"station_id":"ce4bhbp2rcd13ifvqerg","pricing_plan_id":"cebpf4jnsgd1na2vs0mg"},{"bike_id":"4a661545-b127-4b84-ba3b-696eee6f5399","system_id":"levelo_inurba_marseille","lat":43.28939,"lon":5.39617,"is_reserved":false,"is_disabled":false,"rental_uris":{"android":"levelo://app?vid=4a661545-b127-4b84-ba3b-696eee6f5399","ios":"levelo://app?vid=4a661545-b127-4b84-ba3b-696eee6f5399"},"vehicle_type_id":"4","last_reported":1730016724,"current_range_meters":38800,"station_id":"ce4bh3h2rcd13ifvqdn0","pricing_plan_id":"cebpf4jnsgd1na2vs0mg"},{"bike_id":"a59968fc-ad27-40f1-894d-9a296b1a2539","system_id":"levelo_inurba_marseille","lat":43.28933,"lon":5.36632,"is_reserved":false,"is_disabled":false,"rental_uris":{"android":"levelo://app?vid=a59968fc-ad27-40f1-894d-9a296b1a2539","ios":"levelo://app?vid=a59968fc-ad27-40f1-894d-9a296b1a2539"},"vehicle_type_id":"4","last_reported":1730016724,"current_range_meters":34000,"station_id":"ce4bhap2rcd13ifvqek0","pricing_plan_id":"cebpf4jnsgd1na2vs0mg"},{"bike_id":"e8f7756b-9b3c-46b3-ab7c-fb2ca8edfd78","system_id":"levelo_inurba_marseille","lat":43.30594,"lon":5.39359,"is_reserved":false,"is_disabled":false,"rental_uris":{"android":"levelo://app?vid=e8f7756b-9b3c-46b3-ab7c-fb2ca8edfd78","ios":"levelo://app?vid=e8f7756b-9b3c-46b3-ab7c-fb2ca8edfd78"},"vehicle_type_id":"4","last_reported":1730016724,"current_range_meters":39200,"station_id":"ce4bh0p2rcd13ifvqd80","pricing_plan_id":"cebpf4jnsgd1na2vs0mg"},{"bike_id":"a4d2aac1-98f7-4ee9-bb54-2720ee698eac","system_id":"levelo_inurba_marseille","lat":43.25579,"lon":5.38239,"is_reserved":false,"is_disabled":false,"rental_uris":{"android":"levelo://app?vid=a4d2aac1-98f7-4ee9-bb54-2720ee698eac","ios":"levelo://app?vid=a4d2aac1-98f7-4ee9-bb54-2720ee698eac"},"vehicle_type_id":"4","last_reported":1730016724,"current_range_meters":32000,"station_id":"ce4bhih2rcd13ifvqfs0","pricing_plan_id":"cebpf4jnsgd1na2vs0mg"},{"bike_id":"dad2718b-ffdf-4024-8a84-70e058921ae1","system_id":"levelo_inurba_marseille","lat":43.26052,"lon":5.39395,"is_reserved":false,"is_disabled":false,"rental_uris":{"android":"levelo://app?vid=dad2718b-ffdf-4024-8a84-70e058921ae1","ios":"levelo://app?vid=dad2718b-ffdf-4024-8a84-70e058921ae1"},"vehicle_type_id":"4","last_reported":1730016724,"current_range_meters":28800,"station_id":"ce4bhh92rcd13ifvqfj0","pricing_plan_id":"cebpf4jnsgd1na2vs0mg"},{"bike_id":"5c8d47df-cace-44d5-9922-d4ea86fc841f","system_id":"levelo_inurba_marseille","lat":43.2396,"lon":5.36625,"is_reserved":false,"is_disabled":false,"rental_uris":{"android":"levelo://app?vid=5c8d47df-cace-44d5-9922-d4ea86fc841f","ios":"levelo://app?vid=5c8d47df-cace-44d5-9922-d4ea86fc841f"},"vehicle_type_id":"4","last_reported":1730016724,"current_range_meters":38800,"station_id":"ce4bhi12rcd13ifvqfp0","pricing_plan_id":"cebpf4jnsgd1na2vs0mg"},{"bike_id":"4ec8ea4e-83cb-477a-a0c0-642421c6cc58","system_id":"levelo_inurba_marseille","lat":43.23189,"lon":5.39988,"is_reserved":false,"is_disabled":false,"rental_uris":{"android":"levelo://app?vid=4ec8ea4e-83cb-477a-a0c0-642421c6cc58","ios":"levelo://app?vid=4ec8ea4e-83cb-477a-a0c0-642421c6cc58"},"vehicle_type_id":"4","last_reported":1730016724,"current_range_meters":12000,"station_id":"ce4bhn12rcd13ifvqgqg","pricing_plan_id":"cebpf4jnsgd1na2vs0mg"},{"bike_id":"ee6b2608-9027-41b7-a594-abeda6889556","system_id":"levelo_inurba_marseille","lat":43.27489,"lon":5.42447,"is_reserved":false,"is_disabled":false,"rental_uris":{"android":"levelo://app?vid=ee6b2608-9027-41b7-a594-abeda6889556","ios":"levelo://app?vid=ee6b2608-9027-41b7-a594-abeda6889556"},"vehicle_type_id":"4","last_reported":1730016724,"current_range_meters":25600,"station_id":"ce4bhn92rcd13ifvqgrg","pricing_plan_id":"cebpf4jnsgd1na2vs0mg"},{"bike_id":"9aa41e00-f663-4e06-bfa4-9df421bd44ae","system_id":"levelo_inurba_marseille","lat":43.29561,"lon":5.39978,"is_reserved":false,"is_disabled":false,"rental_uris":{"android":"levelo://app?vid=9aa41e00-f663-4e06-bfa4-9df421bd44ae","ios":"levelo://app?vid=9aa41e00-f663-4e06-bfa4-9df421bd44ae"},"vehicle_type_id":"4","last_reported":1730016724,"current_range_meters":33600,"station_id":"ce4bh312rcd13ifvqdj0","pricing_plan_id":"cebpf4jnsgd1na2vs0mg"},{"bike_id":"634fa0ef-e7c5-4411-ba71-8fc084888fcb","system_id":"levelo_inurba_marseille","lat":43.27487,"lon":5.42457,"is_reserved":false,"is_disabled":false,"rental_uris":{"android":"levelo://app?vid=634fa0ef-e7c5-4411-ba71-8fc084888fcb","ios":"levelo://app?vid=634fa0ef-e7c5-4411-ba71-8fc084888fcb"},"vehicle_type_id":"4","last_reported":1730016724,"current_range_meters":28000,"station_id":"ce4bhn92rcd13ifvqgrg","pricing_plan_id":"cebpf4jnsgd1na2vs0mg"},{"bike_id":"63dffe58-b321-4992-b66b-9f28a3e3e3b4","system_id":"levelo_inurba_marseille","lat":43.29964,"lon":5.41311,"is_reserved":false,"is_disabled":false,"rental_uris":{"android":"levelo://app?vid=63dffe58-b321-4992-b66b-9f28a3e3e3b4","ios":"levelo://app?vid=63dffe58-b321-4992-b66b-9f28a3e3e3b4"},"vehicle_type_id":"4","last_reported":1730016724,"current_range_meters":40000,"station_id":"ce4bhp12rcd13ifvqh9g","pricing_plan_id":"cebpf4jnsgd1na2vs0mg"},{"bike_id":"4cbdf7c2-edd1-4df4-bbed-82f8f91945a4","system_id":"levelo_inurba_marseille","lat":43.27423,"lon":5.39408,"is_reserved":false,"is_disabled":false,"rental_uris":{"android":"levelo://app?vid=4cbdf7c2-edd1-4df4-bbed-82f8f91945a4","ios":"levelo://app?vid=4cbdf7c2-edd1-4df4-bbed-82f8f91945a4"},"vehicle_type_id":"4","last_reported":1730016724,"current_range_meters":27600,"station_id":"ce4bhdp2rcd13ifvqf20","pricing_plan_id":"cebpf4jnsgd1na2vs0mg"},{"bike_id":"d4a063d0-710a-490f-9214-5d9a82ceb523","system_id":"levelo_inurba_marseille","lat":43.28702,"lon":5.37398,"is_reserved":false,"is_disabled":false,"rental_uris":{"android":"levelo://app?vid=d4a063d0-710a-490f-9214-5d9a82ceb523","ios":"levelo://app?vid=d4a063d0-710a-490f-9214-5d9a82ceb523"},"vehicle_type_id":"4","last_reported":1730016724,"current_range_meters":36800,"station_id":"ce4bh3p2rcd13ifvqdq0","pricing_plan_id":"cebpf4jnsgd1na2vs0mg"},{"bike_id":"719d1461-e2a6-4b2b-ac03-cde830308ac8","system_id":"levelo_inurba_marseille","lat":43.29036,"lon":5.37574,"is_reserved":false,"is_disabled":false,"rental_uris":{"android":"levelo://app?vid=719d1461-e2a6-4b2b-ac03-cde830308ac8","ios":"levelo://app?vid=719d1461-e2a6-4b2b-ac03-cde830308ac8"},"vehicle_type_id":"4","last_reported":1730016724,"current_range_meters":39200,"station_id":"ce4bh692rcd13ifvqe90","pricing_plan_id":"cebpf4jnsgd1na2vs0mg"},{"bike_id":"b3395865-638c-409f-8ba5-b009807c2e9a","system_id":"levelo_inurba_marseille","lat":43.2994,"lon":5.36551,"is_reserved":false,"is_disabled":false,"rental_uris":{"android":"levelo://app?vid=b3395865-638c-409f-8ba5-b009807c2e9a","ios":"levelo://app?vid=b3395865-638c-409f-8ba5-b009807c2e9a"},"vehicle_type_id":"4","last_reported":1730016724,"current_range_meters":36800,"station_id":"ce4bgm92rcd13ifvqbr0","pricing_plan_id":"cebpf4jnsgd1na2vs0mg"},{"bike_id":"8fcb918e-c684-4146-82f8-8259b79ff376","system_id":"levelo_inurba_marseille","lat":43.26213,"lon":5.37439,"is_reserved":false,"is_disabled":false,"rental_uris":{"android":"levelo://app?vid=8fcb918e-c684-4146-82f8-8259b79ff376","ios":"levelo://app?vid=8fcb918e-c684-4146-82f8-8259b79ff376"},"vehicle_type_id":"4","last_reported":1730016724,"current_range_meters":28000,"station_id":"ce4bhgp2rcd13ifvqfc0","pricing_plan_id":"cebpf4jnsgd1na2vs0mg"},{"bike_id":"cc0aae01-c914-41df-b1ad-a6a66487281f","system_id":"levelo_inurba_marseille","lat":43.2861,"lon":5.35107,"is_reserved":false,"is_disabled":false,"rental_uris":{"android":"levelo://app?vid=cc0aae01-c914-41df-b1ad-a6a66487281f","ios":"levelo://app?vid=cc0aae01-c914-41df-b1ad-a6a66487281f"},"vehicle_type_id":"4","last_reported":1730016724,"current_range_meters":25200,"station_id":"ce4bhch2rcd13ifvqeug","pricing_plan_id":"cebpf4jnsgd1na2vs0mg"},{"bike_id":"1db32e2e-6598-4668-aed6-79d6577c821b","system_id":"levelo_inurba_marseille","lat":43.31329,"lon":5.39699,"is_reserved":false,"is_disabled":false,"rental_uris":{"android":"levelo://app?vid=1db32e2e-6598-4668-aed6-79d6577c821b","ios":"levelo://app?vid=1db32e2e-6598-4668-aed6-79d6577c821b"},"vehicle_type_id":"4","last_reported":1730016724,"current_range_meters":24800,"station_id":"ce4bgvp2rcd13ifvqcu0","pricing_plan_id":"cebpf4jnsgd1na2vs0mg"},{"bike_id":"7f83f86c-9509-4708-a905-1775f231cea5","system_id":"levelo_inurba_marseille","lat":43.31501,"lon":5.37296,"is_reserved":false,"is_disabled":false,"rental_uris":{"android":"levelo://app?vid=7f83f86c-9509-4708-a905-1775f231cea5","ios":"levelo://app?vid=7f83f86c-9509-4708-a905-1775f231cea5"},"vehicle_type_id":"4","last_reported":1730016724,"current_range_meters":37600,"station_id":"ce4bgt12rcd13ifvqcd0","pricing_plan_id":"cebpf4jnsgd1na2vs0mg"},{"bike_id":"73e38111-430c-4f29-a67c-192b36984fb5","system_id":"levelo_inurba_marseille","lat":43.272762,"lon":5.390827,"is_reserved":false,"is_disabled":false,"rental_uris":{"android":"levelo://app?vid=73e38111-430c-4f29-a67c-192b36984fb5","ios":"levelo://app?vid=73e38111-430c-4f29-a67c-192b36984fb5"},"vehicle_type_id":"4","last_reported":1730016724,"current_range_meters":16800,"station_id":"ce4bhgp2rcd13ifvqfe0","pricing_plan_id":"cebpf4jnsgd1na2vs0mg"},{"bike_id":"b425a53a-2ca1-45d6-9375-1a007f59f76d","system_id":"levelo_inurba_marseille","lat":43.27419,"lon":5.39412,"is_reserved":false,"is_disabled":false,"rental_uris":{"android":"levelo://app?vid=b425a53a-2ca1-45d6-9375-1a007f59f76d","ios":"levelo://app?vid=b425a53a-2ca1-45d6-9375-1a007f59f76d"},"vehicle_type_id":"4","last_reported":1730016724,"current_range_meters":15200,"station_id":"ce4bhdp2rcd13ifvqf20","pricing_plan_id":"cebpf4jnsgd1na2vs0mg"},{"bike_id":"c821523e-88fe-4141-b5a0-443ea337915b","system_id":"levelo_inurba_marseille","lat":43.31538,"lon":5.38041,"is_reserved":false,"is_disabled":false,"rental_uris":{"android":"levelo://app?vid=c821523e-88fe-4141-b5a0-443ea337915b","ios":"levelo://app?vid=c821523e-88fe-4141-b5a0-443ea337915b"},"vehicle_type_id":"4","last_reported":1730016724,"current_range_meters":20000,"station_id":"ce4bhsp2rcd13ifvqi50","pricing_plan_id":"cebpf4jnsgd1na2vs0mg"},{"bike_id":"d78c6e46-c5ec-463d-abb4-cc8adc32798a","system_id":"levelo_inurba_marseille","lat":43.31169,"lon":5.38725,"is_reserved":false,"is_disabled":false,"rental_uris":{"android":"levelo://app?vid=d78c6e46-c5ec-463d-abb4-cc8adc32798a","ios":"levelo://app?vid=d78c6e46-c5ec-463d-abb4-cc8adc32798a"},"vehicle_type_id":"4","last_reported":1730016724,"current_range_meters":39200,"station_id":"ce4bgv12rcd13ifvqcp0","pricing_plan_id":"cebpf4jnsgd1na2vs0mg"},{"bike_id":"4d275aca-4cd9-4c88-9392-9d35d9e00c8b","system_id":"levelo_inurba_marseille","lat":43.29569,"lon":5.39967,"is_reserved":false,"is_disabled":false,"rental_uris":{"android":"levelo://app?vid=4d275aca-4cd9-4c88-9392-9d35d9e00c8b","ios":"levelo://app?vid=4d275aca-4cd9-4c88-9392-9d35d9e00c8b"},"vehicle_type_id":"4","last_reported":1730016724,"current_range_meters":28000,"station_id":"ce4bh312rcd13ifvqdj0","pricing_plan_id":"cebpf4jnsgd1na2vs0mg"},{"bike_id":"a1b80174-51e4-493d-96af-04d40eab308b","system_id":"levelo_inurba_marseille","lat":43.28073,"lon":5.39649,"is_reserved":false,"is_disabled":false,"rental_uris":{"android":"levelo://app?vid=a1b80174-51e4-493d-96af-04d40eab308b","ios":"levelo://app?vid=a1b80174-51e4-493d-96af-04d40eab308b"},"vehicle_type_id":"4","last_reported":1730016724,"current_range_meters":40000,"station_id":"ce4bho12rcd13ifvqh2g","pricing_plan_id":"cebpf4jnsgd1na2vs0mg"},{"bike_id":"2fdd8efd-807f-43c0-a5f8-acb8d352d834","system_id":"levelo_inurba_marseille","lat":43.32367,"lon":5.38885,"is_reserved":false,"is_disabled":false,"rental_uris":{"android":"levelo://app?vid=2fdd8efd-807f-43c0-a5f8-acb8d352d834","ios":"levelo://app?vid=2fdd8efd-807f-43c0-a5f8-acb8d352d834"},"vehicle_type_id":"4","last_reported":1730016724,"current_range_meters":6000,"station_id":"ce4bhqp2rcd13ifvqhog","pricing_plan_id":"cebpf4jnsgd1na2vs0mg"},{"bike_id":"43df6f01-ce4c-441f-bf0c-95fe2920d7eb","system_id":"levelo_inurba_marseille","lat":43.26556,"lon":5.38999,"is_reserved":false,"is_disabled":false,"rental_uris":{"android":"levelo://app?vid=43df6f01-ce4c-441f-bf0c-95fe2920d7eb","ios":"levelo://app?vid=43df6f01-ce4c-441f-bf0c-95fe2920d7eb"},"vehicle_type_id":"4","last_reported":1730016724,"current_range_meters":28800,"station_id":"ce4bhe12rcd13ifvqf30","pricing_plan_id":"cebpf4jnsgd1na2vs0mg"},{"bike_id":"9d039bc7-534f-4e39-877f-fa94b0396e59","system_id":"levelo_inurba_marseille","lat":43.27182,"lon":5.40995,"is_reserved":false,"is_disabled":false,"rental_uris":{"android":"levelo://app?vid=9d039bc7-534f-4e39-877f-fa94b0396e59","ios":"levelo://app?vid=9d039bc7-534f-4e39-877f-fa94b0396e59"},"vehicle_type_id":"4","last_reported":1730016724,"current_range_meters":38400,"station_id":"ce4bhl12rcd13ifvqgf0","pricing_plan_id":"cebpf4jnsgd1na2vs0mg"},{"bike_id":"59cf5278-0bb9-48eb-9f54-5c0fbb1e820a","system_id":"levelo_inurba_marseille","lat":43.27049,"lon":5.40265,"is_reserved":false,"is_disabled":false,"rental_uris":{"android":"levelo://app?vid=59cf5278-0bb9-48eb-9f54-5c0fbb1e820a","ios":"levelo://app?vid=59cf5278-0bb9-48eb-9f54-5c0fbb1e820a"},"vehicle_type_id":"4","last_reported":1730016724,"current_range_meters":38000,"station_id":"ce4bhk92rcd13ifvqgc0","pricing_plan_id":"cebpf4jnsgd1na2vs0mg"},{"bike_id":"8598d374-617e-45fe-b533-f94f0241ccf1","system_id":"levelo_inurba_marseille","lat":43.30939,"lon":5.39045,"is_reserved":false,"is_disabled":false,"rental_uris":{"android":"levelo://app?vid=8598d374-617e-45fe-b533-f94f0241ccf1","ios":"levelo://app?vid=8598d374-617e-45fe-b533-f94f0241ccf1"},"vehicle_type_id":"4","last_reported":1730016724,"current_range_meters":38800,"station_id":"ce4bgup2rcd13ifvqco0","pricing_plan_id":"cebpf4jnsgd1na2vs0mg"},{"bike_id":"9f7b53c7-8723-4a76-bcff-3660bf828fb8","system_id":"levelo_inurba_marseille","lat":43.27207,"lon":5.39179,"is_reserved":false,"is_disabled":false,"rental_uris":{"android":"levelo://app?vid=9f7b53c7-8723-4a76-bcff-3660bf828fb8","ios":"levelo://app?vid=9f7b53c7-8723-4a76-bcff-3660bf828fb8"},"vehicle_type_id":"4","last_reported":1730016724,"current_range_meters":24000,"station_id":"ce4bhhp2rcd13ifvqfm0","pricing_plan_id":"cebpf4jnsgd1na2vs0mg"},{"bike_id":"b0913355-e7c9-4023-b7aa-874aebb7bed4","system_id":"levelo_inurba_marseille","lat":43.297853,"lon":5.371136,"is_reserved":false,"is_disabled":false,"rental_uris":{"android":"levelo://app?vid=b0913355-e7c9-4023-b7aa-874aebb7bed4","ios":"levelo://app?vid=b0913355-e7c9-4023-b7aa-874aebb7bed4"},"vehicle_type_id":"4","last_reported":1730016724,"current_range_meters":9600,"station_id":"ce4bgop2rcd13ifvqc1g","pricing_plan_id":"cebpf4jnsgd1na2vs0mg"},{"bike_id":"04cdc2b1-385c-471f-973f-4590eae8ca2b","system_id":"levelo_inurba_marseille","lat":43.30459,"lon":5.37913,"is_reserved":false,"is_disabled":false,"rental_uris":{"android":"levelo://app?vid=04cdc2b1-385c-471f-973f-4590eae8ca2b","ios":"levelo://app?vid=04cdc2b1-385c-471f-973f-4590eae8ca2b"},"vehicle_type_id":"4","last_reported":1730016724,"current_range_meters":31200,"station_id":"ce4bgup2rcd13ifvqcn0","pricing_plan_id":"cebpf4jnsgd1na2vs0mg"},{"bike_id":"f5865feb-85b3-4c38-a999-3a02be0f562a","system_id":"levelo_inurba_marseille","lat":43.25719,"lon":5.41114,"is_reserved":false,"is_disabled":false,"rental_uris":{"android":"levelo://app?vid=f5865feb-85b3-4c38-a999-3a02be0f562a","ios":"levelo://app?vid=f5865feb-85b3-4c38-a999-3a02be0f562a"},"vehicle_type_id":"4","last_reported":1730016724,"current_range_meters":39200,"station_id":"ce4bhkp2rcd13ifvqgd0","pricing_plan_id":"cebpf4jnsgd1na2vs0mg"},{"bike_id":"710f7389-2667-4039-afca-5979199aa55c","system_id":"levelo_inurba_marseille","lat":43.2572,"lon":5.41112,"is_reserved":false,"is_disabled":false,"rental_uris":{"android":"levelo://app?vid=710f7389-2667-4039-afca-5979199aa55c","ios":"levelo://app?vid=710f7389-2667-4039-afca-5979199aa55c"},"vehicle_type_id":"4","last_reported":1730016724,"current_range_meters":38400,"station_id":"ce4bhkp2rcd13ifvqgd0","pricing_plan_id":"cebpf4jnsgd1na2vs0mg"},{"bike_id":"315552ae-12d3-4b73-b5ec-d1580a4accf3","system_id":"levelo_inurba_marseille","lat":43.31273,"lon":5.4017,"is_reserved":false,"is_disabled":false,"rental_uris":{"android":"levelo://app?vid=315552ae-12d3-4b73-b5ec-d1580a4accf3","ios":"levelo://app?vid=315552ae-12d3-4b73-b5ec-d1580a4accf3"},"vehicle_type_id":"4","last_reported":1730016724,"current_range_meters":38800,"station_id":"ce4bh092rcd13ifvqd30","pricing_plan_id":"cebpf4jnsgd1na2vs0mg"},{"bike_id":"d4b0d68a-ae82-42a1-b0da-b39254ee1044","system_id":"levelo_inurba_marseille","lat":43.23198,"lon":5.35547,"is_reserved":false,"is_disabled":false,"rental_uris":{"android":"levelo://app?vid=d4b0d68a-ae82-42a1-b0da-b39254ee1044","ios":"levelo://app?vid=d4b0d68a-ae82-42a1-b0da-b39254ee1044"},"vehicle_type_id":"4","last_reported":1730016724,"current_range_meters":11600,"station_id":"ce4bhu92rcd13ifvqi70","pricing_plan_id":"cebpf4jnsgd1na2vs0mg"},{"bike_id":"c5492a8f-254e-4854-8ee2-b5fb3012bb13","system_id":"levelo_inurba_marseille","lat":43.30141,"lon":5.3806,"is_reserved":false,"is_disabled":false,"rental_uris":{"android":"levelo://app?vid=c5492a8f-254e-4854-8ee2-b5fb3012bb13","ios":"levelo://app?vid=c5492a8f-254e-4854-8ee2-b5fb3012bb13"},"vehicle_type_id":"4","last_reported":1730016724,"current_range_meters":28400,"station_id":"ce4bgjp2rcd13ifvqbh0","pricing_plan_id":"cebpf4jnsgd1na2vs0mg"},{"bike_id":"7cdd88d2-5824-40fa-8faf-90ef733261c2","system_id":"levelo_inurba_marseille","lat":43.23964,"lon":5.3664,"is_reserved":false,"is_disabled":false,"rental_uris":{"android":"levelo://app?vid=7cdd88d2-5824-40fa-8faf-90ef733261c2","ios":"levelo://app?vid=7cdd88d2-5824-40fa-8faf-90ef733261c2"},"vehicle_type_id":"4","last_reported":1730016724,"current_range_meters":17200,"station_id":"ce4bhi12rcd13ifvqfp0","pricing_plan_id":"cebpf4jnsgd1na2vs0mg"},{"bike_id":"19f69231-8e11-4184-871e-b2819d917f85","system_id":"levelo_inurba_marseille","lat":43.27998,"lon":5.40012,"is_reserved":false,"is_disabled":false,"rental_uris":{"android":"levelo://app?vid=19f69231-8e11-4184-871e-b2819d917f85","ios":"levelo://app?vid=19f69231-8e11-4184-871e-b2819d917f85"},"vehicle_type_id":"4","last_reported":1730016724,"current_range_meters":4400,"station_id":"ce4bho92rcd13ifvqh4g","pricing_plan_id":"cebpf4jnsgd1na2vs0mg"},{"bike_id":"3e1205ab-0bc6-479c-9e06-2c971082cf74","system_id":"levelo_inurba_marseille","lat":43.32051,"lon":5.41548,"is_reserved":false,"is_disabled":false,"rental_uris":{"android":"levelo://app?vid=3e1205ab-0bc6-479c-9e06-2c971082cf74","ios":"levelo://app?vid=3e1205ab-0bc6-479c-9e06-2c971082cf74"},"vehicle_type_id":"4","last_reported":1730016724,"current_range_meters":12400,"station_id":"ce4bhq92rcd13ifvqhkg","pricing_plan_id":"cebpf4jnsgd1na2vs0mg"},{"bike_id":"8a7ea3b3-7c19-4f13-a31a-07202c98e2c3","system_id":"levelo_inurba_marseille","lat":43.32482,"lon":5.36561,"is_reserved":false,"is_disabled":false,"rental_uris":{"android":"levelo://app?vid=8a7ea3b3-7c19-4f13-a31a-07202c98e2c3","ios":"levelo://app?vid=8a7ea3b3-7c19-4f13-a31a-07202c98e2c3"},"vehicle_type_id":"4","last_reported":1730016724,"current_range_meters":22800,"station_id":"ce4bhs12rcd13ifvqhvg","pricing_plan_id":"cebpf4jnsgd1na2vs0mg"},{"bike_id":"04518ea9-c53f-40a3-80da-3e58bba4a32f","system_id":"levelo_inurba_marseille","lat":43.2293,"lon":5.35377,"is_reserved":false,"is_disabled":false,"rental_uris":{"android":"levelo://app?vid=04518ea9-c53f-40a3-80da-3e58bba4a32f","ios":"levelo://app?vid=04518ea9-c53f-40a3-80da-3e58bba4a32f"},"vehicle_type_id":"4","last_reported":1730016724,"current_range_meters":28400,"station_id":"cpo3532slgdg3j2ikp40","pricing_plan_id":"cebpf4jnsgd1na2vs0mg"},{"bike_id":"37715975-b7d7-45ae-87a1-9fd2bf4e6777","system_id":"levelo_inurba_marseille","lat":43.23961,"lon":5.36631,"is_reserved":false,"is_disabled":false,"rental_uris":{"android":"levelo://app?vid=37715975-b7d7-45ae-87a1-9fd2bf4e6777","ios":"levelo://app?vid=37715975-b7d7-45ae-87a1-9fd2bf4e6777"},"vehicle_type_id":"4","last_reported":1730016724,"current_range_meters":8800,"station_id":"ce4bhi12rcd13ifvqfp0","pricing_plan_id":"cebpf4jnsgd1na2vs0mg"},{"bike_id":"a929bb97-02ec-400c-aafd-a4d93e575497","system_id":"levelo_inurba_marseille","lat":43.24163,"lon":5.36399,"is_reserved":false,"is_disabled":false,"rental_uris":{"android":"levelo://app?vid=a929bb97-02ec-400c-aafd-a4d93e575497","ios":"levelo://app?vid=a929bb97-02ec-400c-aafd-a4d93e575497"},"vehicle_type_id":"4","last_reported":1730016724,"current_range_meters":30000,"station_id":"cpo36qri1sfpv3e86is0","pricing_plan_id":"cebpf4jnsgd1na2vs0mg"},{"bike_id":"1a504bb3-387b-4e83-ae89-5c5ddfebd1d6","system_id":"levelo_inurba_marseille","lat":43.26932,"lon":5.38905,"is_reserved":false,"is_disabled":false,"rental_uris":{"android":"levelo://app?vid=1a504bb3-387b-4e83-ae89-5c5ddfebd1d6","ios":"levelo://app?vid=1a504bb3-387b-4e83-ae89-5c5ddfebd1d6"},"vehicle_type_id":"4","last_reported":1730016724,"current_range_meters":38800,"station_id":"ce4bhhh2rcd13ifvqfl0","pricing_plan_id":"cebpf4jnsgd1na2vs0mg"},{"bike_id":"c99defe0-8efc-4702-86ff-f4db4c3ca963","system_id":"levelo_inurba_marseille","lat":43.27429,"lon":5.39409,"is_reserved":false,"is_disabled":false,"rental_uris":{"android":"levelo://app?vid=c99defe0-8efc-4702-86ff-f4db4c3ca963","ios":"levelo://app?vid=c99defe0-8efc-4702-86ff-f4db4c3ca963"},"vehicle_type_id":"4","last_reported":1730016724,"current_range_meters":40000,"station_id":"ce4bhdp2rcd13ifvqf20","pricing_plan_id":"cebpf4jnsgd1na2vs0mg"},{"bike_id":"4d97ec87-d892-442d-aeaf-addf705456aa","system_id":"levelo_inurba_marseille","lat":43.30468,"lon":5.37901,"is_reserved":false,"is_disabled":false,"rental_uris":{"android":"levelo://app?vid=4d97ec87-d892-442d-aeaf-addf705456aa","ios":"levelo://app?vid=4d97ec87-d892-442d-aeaf-addf705456aa"},"vehicle_type_id":"4","last_reported":1730016724,"current_range_meters":38800,"station_id":"ce4bgup2rcd13ifvqcn0","pricing_plan_id":"cebpf4jnsgd1na2vs0mg"},{"bike_id":"56bc4aeb-dbe7-4a88-bc5e-6dae0d8b7504","system_id":"levelo_inurba_marseille","lat":43.29051,"lon":5.39956,"is_reserved":false,"is_disabled":false,"rental_uris":{"android":"levelo://app?vid=56bc4aeb-dbe7-4a88-bc5e-6dae0d8b7504","ios":"levelo://app?vid=56bc4aeb-dbe7-4a88-bc5e-6dae0d8b7504"},"vehicle_type_id":"4","last_reported":1730016724,"current_range_meters":38800,"station_id":"ce4bh392rcd13ifvqdm0","pricing_plan_id":"cebpf4jnsgd1na2vs0mg"},