{"last_updated":1702883231,"ttl":30,"version":"2.2","data":{"bikes":[{"bike_id":"2a35484a-0926-4daa-abd1-ee8694286426","system_id":"levelo_inurba_marseille","lat":43.31341,"lon":5.367098,"is_reserved":false,"is_disabled":false,"rental_uris":{"android":"levelo://app?vid=2a35484a-0926-4daa-abd1-ee8694286426","ios":"levelo://app?vid=2a35484a-0926-4daa-abd1-ee8694286426"},"vehicle_type_id":"4","last_reported":1702883231,"current_range_meters":7200,"station_id":"ce4bgr92rcd13ifvqc6g","pricing_plan_id":"free"},{"bike_id":"e223c69a-1d61-4a03-811f-5db9cad1005b","system_id":"levelo_inurba_marseille","lat":43.31341,"lon":5.367098,"is_reserved":false,"is_disabled":false,"rental_uris":{"android":"levelo://app?vid=e223c69a-1d61-4a03-811f-5db9cad1005b","ios":"levelo://app?vid=e223c69a-1d61-4a03-811f-5db9cad1005b"},"vehicle_type_id":"4","last_reported":1702883231,"current_range_meters":20000,"station_id":"ce4bgr92rcd13ifvqc6g","pricing_plan_id":"free"},{"bike_id":"4fc9f832-7db8-4188-af64-2e5c98dde42e","system_id":"levelo_inurba_marseille","lat":43.313391,"lon":5.36706,"is_reserved":false,"is_disabled":false,"rental_uris":{"android":"levelo://app?vid=4fc9f832-7db8-4188-af64-2e5c98dde42e","ios":"levelo://app?vid=4fc9f832-7db8-4188-af64-2e5c98dde42e"},"vehicle_type_id":"4","last_reported":1702883231,"current_range_meters":20400,"station_id":"ce4bgr92rcd13ifvqc6g","pricing_plan_id":"free"},{"bike_id":"ef921b55-07d2-4424-8c5e-0f7833f31ba6","system_id":"levelo_inurba_marseille","lat":43.31237,"lon":5.36872,"is_reserved":false,"is_disabled":false,"rental_uris":{"android":"levelo://app?vid=ef921b55-07d2-4424-8c5e-0f7833f31ba6","ios":"levelo://app?vid=ef921b55-07d2-4424-8c5e-0f7833f31ba6"},"vehicle_type_id":"4","last_reported":1702883231,"current_range_meters":28800,"station_id":"ce4bgl92rcd13ifvqbq0","pricing_plan_id":"free"},{"bike_id":"47726aa0-e745-4d9c-9908-3d4ddab2a909","system_id":"levelo_inurba_marseille","lat":43.309076,"lon":5.368465,"is_reserved":false,"is_disabled":false,"rental_uris":{"android":"levelo://app?vid=47726aa0-e745-4d9c-9908-3d4ddab2a909","ios":"levelo://app?vid=47726aa0-e745-4d9c-9908-3d4ddab2a909"},"vehicle_type_id":"4","last_reported":1702883231,"current_range_meters":22400,"station_id":"ce4bgn92rcd13ifvqbvg","pricing_plan_id":"free"},{"bike_id":"4be0d896-382d-4122-9024-6701b04f81a6","system_id":"levelo_inurba_marseille","lat":43.314811,"lon":5.373103,"is_reserved":false,"is_disabled":false,"rental_uris":{"android":"levelo://app?vid=4be0d896-382d-4122-9024-6701b04f81a6","ios":"levelo://app?vid=4be0d896-382d-4122-9024-6701b04f81a6"},"vehicle_type_id":"4","last_reported":1702883231,"current_range_meters":16400,"station_id":"ce4bgt12rcd13ifvqcd0","pricing_plan_id":"free"},{"bike_id":"e958910f-2286-4458-ba07-437c45257b36","system_id":"levelo_inurba_marseille","lat":43.314747,"lon":5.373139,"is_reserved":false,"is_disabled":false,"rental_uris":{"android":"levelo://app?vid=e958910f-2286-4458-ba07-437c45257b36","ios":"levelo://app?vid=e958910f-2286-4458-ba07-437c45257b36"},"vehicle_type_id":"4","last_reported":1702883231,"current_range_meters":13600,"station_id":"ce4bgt12rcd13ifvqcd0","pricing_plan_id":"free"},{"bike_id":"66b2ee81-2c3b-4a2d-a0b6-aca3952325f3","system_id":"levelo_inurba_marseille","lat":43.314811,"lon":5.373104,"is_reserved":false,"is_disabled":false,"rental_uris":{"android":"levelo://app?vid=66b2ee81-2c3b-4a2d-a0b6-aca3952325f3","ios":"levelo://app?vid=66b2ee81-2c3b-4a2d-a0b6-aca3952325f3"},"vehicle_type_id":"4","last_reported":1702883231,"current_range_meters":24400,"station_id":"ce4bgt12rcd13ifvqcd0","pricing_plan_id":"free"},{"bike_id":"566e8ea1-5abc-4cbb-9a74-7d4af53b25e1","system_id":"levelo_inurba_marseille","lat":43.309039,"lon":5.371797,"is_reserved":false,"is_disabled":false,"rental_uris":{"android":"levelo://app?vid=566e8ea1-5abc-4cbb-9a74-7d4af53b25e1","ios":"levelo://app?vid=566e8ea1-5abc-4cbb-9a74-7d4af53b25e1"},"vehicle_type_id":"4","last_reported":1702883231,"current_range_meters":28400,"station_id":"ce4bguh2rcd13ifvqckg","pricing_plan_id":"free"},{"bike_id":"d6f7d70f-0d29-42b2-9a3f-5b8f2b4be101","system_id":"levelo_inurba_marseille","lat":43.305706,"lon":5.365654,"is_reserved":false,"is_disabled":false,"rental_uris":{"android":"levelo://app?vid=d6f7d70f-0d29-42b2-9a3f-5b8f2b4be101","ios":"levelo://app?vid=d6f7d70f-0d29-42b2-9a3f-5b8f2b4be101"},"vehicle_type_id":"4","last_reported":1702883231,"current_range_meters":24800,"station_id":"ce4bgs12rcd13ifvqcag","pricing_plan_id":"free"},{"bike_id":"955e4ab2-16e5-44e8-a986-a2f50ff96c06","system_id":"levelo_inurba_marseille","lat":43.305382,"lon":5.365389,"is_reserved":false,"is_disabled":false,"rental_uris":{"android":"levelo://app?vid=955e4ab2-16e5-44e8-a986-a2f50ff96c06","ios":"levelo://app?vid=955e4ab2-16e5-44e8-a986-a2f50ff96c06"},"vehicle_type_id":"4","last_reported":1702883231,"current_range_meters":8800,"station_id":"","pricing_plan_id":"free"},{"bike_id":"05fa78bb-31b8-4484-a9b9-352b2251b854","system_id":"levelo_inurba_marseille","lat":43.305706,"lon":5.365654,"is_reserved":false,"is_disabled":false,"rental_uris":{"android":"levelo://app?vid=05fa78bb-31b8-4484-a9b9-352b2251b854","ios":"levelo://app?vid=05fa78bb-31b8-4484-a9b9-352b2251b854"},"vehicle_type_id":"4","last_reported":1702883231,"current_range_meters":26000,"station_id":"ce4bgs12rcd13ifvqcag","pricing_plan_id":"free"},{"bike_id":"b0b99c70-b632-42f9-b551-96866bee2bba","system_id":"levelo_inurba_marseille","lat":43.31118,"lon":5.3776,"is_reserved":false,"is_disabled":false,"rental_uris":{"android":"levelo://app?vid=b0b99c70-b632-42f9-b551-96866bee2bba","ios":"levelo://app?vid=b0b99c70-b632-42f9-b551-96866bee2bba"},"vehicle_type_id":"4","last_reported":1702883231,"current_range_meters":17200,"station_id":"ce4bgt92rcd13ifvqcg0","pricing_plan_id":"free"},{"bike_id":"1073fb61-f133-4e31-9df2-1a8b563ba3d5","system_id":"levelo_inurba_marseille","lat":43.311125,"lon":5.377624,"is_reserved":false,"is_disabled":false,"rental_uris":{"android":"levelo://app?vid=1073fb61-f133-4e31-9df2-1a8b563ba3d5","ios":"levelo://app?vid=1073fb61-f133-4e31-9df2-1a8b563ba3d5"},"vehicle_type_id":"4","last_reported":1702883231,"current_range_meters":31600,"station_id":"ce4bgt92rcd13ifvqcg0","pricing_plan_id":"free"},{"bike_id":"e9ba45b5-8fae-4a08-87b6-e10637948fac","system_id":"levelo_inurba_marseille","lat":43.311125,"lon":5.377624,"is_reserved":false,"is_disabled":false,"rental_uris":{"android":"levelo://app?vid=e9ba45b5-8fae-4a08-87b6-e10637948fac","ios":"levelo://app?vid=e9ba45b5-8fae-4a08-87b6-e10637948fac"},"vehicle_type_id":"4","last_reported":1702883231,"current_range_meters":27600,"station_id":"ce4bgt92rcd13ifvqcg0","pricing_plan_id":"free"},{"bike_id":"2d77c001-7afb-4669-b011-a67d6516267f","system_id":"levelo_inurba_marseille","lat":43.311125,"lon":5.377624,"is_reserved":false,"is_disabled":false,"rental_uris":{"android":"levelo://app?vid=2d77c001-7afb-4669-b011-a67d6516267f","ios":"levelo://app?vid=2d77c001-7afb-4669-b011-a67d6516267f"},"vehicle_type_id":"4","last_reported":1702883231,"current_range_meters":7200,"station_id":"ce4bgt92rcd13ifvqcg0","pricing_plan_id":"free"},{"bike_id":"17f8cba8-6e7f-47cd-8138-39115847d6e2","system_id":"levelo_inurba_marseille","lat":43.31119,"lon":5.37771,"is_reserved":false,"is_disabled":false,"rental_uris":{"android":"levelo://app?vid=17f8cba8-6e7f-47cd-8138-39115847d6e2","ios":"levelo://app?vid=17f8cba8-6e7f-47cd-8138-39115847d6e2"},"vehicle_type_id":"4","last_reported":1702883231,"current_range_meters":19600,"station_id":"ce4bgt92rcd13ifvqcg0","pricing_plan_id":"free"},{"bike_id":"e965d98e-5725-40c8-9334-792ca22b51ec","system_id":"levelo_inurba_marseille","lat":43.317075,"lon":5.377367,"is_reserved":false,"is_disabled":false,"rental_uris":{"android":"levelo://app?vid=e965d98e-5725-40c8-9334-792ca22b51ec","ios":"levelo://app?vid=e965d98e-5725-40c8-9334-792ca22b51ec"},"vehicle_type_id":"4","last_reported":1702883231,"current_range_meters":31200,"station_id":"ce4bgth2rcd13ifvqch0","pricing_plan_id":"free"},{"bike_id":"13b51e69-8c60-4c04-adb8-cb3cf2213dbe","system_id":"levelo_inurba_marseille","lat":43.303046,"lon":5.368981,"is_reserved":false,"is_disabled":false,"rental_uris":{"android":"levelo://app?vid=13b51e69-8c60-4c04-adb8-cb3cf2213dbe","ios":"levelo://app?vid=13b51e69-8c60-4c04-adb8-cb3cf2213dbe"},"vehicle_type_id":"4","last_reported":1702883231,"current_range_meters":14800,"station_id":"ce4bgqh2rcd13ifvqc5g","pricing_plan_id":"free"},{"bike_id":"8ce2544a-9b0d-4e8d-8dc8-f2ce1d445c3d","system_id":"levelo_inurba_marseille","lat":43.315293,"lon":5.380349,"is_reserved":false,"is_disabled":false,"rental_uris":{"android":"levelo://app?vid=8ce2544a-9b0d-4e8d-8dc8-f2ce1d445c3d","ios":"levelo://app?vid=8ce2544a-9b0d-4e8d-8dc8-f2ce1d445c3d"},"vehicle_type_id":"4","last_reported":1702883231,"current_range_meters":8400,"station_id":"ce4bhsp2rcd13ifvqi50","pricing_plan_id":"free"},{"bike_id":"5650f8c8-fde4-4d58-bb11-5ad39159d6a5","system_id":"levelo_inurba_marseille","lat":43.31542,"lon":5.38025,"is_reserved":false,"is_disabled":false,"rental_uris":{"android":"levelo://app?vid=5650f8c8-fde4-4d58-bb11-5ad39159d6a5","ios":"levelo://app?vid=5650f8c8-fde4-4d58-bb11-5ad39159d6a5"},"vehicle_type_id":"4","last_reported":1702883231,"current_range_meters":5200,"station_id":"ce4bhsp2rcd13ifvqi50","pricing_plan_id":"free"},{"bike_id":"6184867d-303d-45f4-b28e-40be6430edd8","system_id":"levelo_inurba_marseille","lat":43.308012,"lon":5.381511,"is_reserved":false,"is_disabled":false,"rental_uris":{"android":"levelo://app?vid=6184867d-303d-45f4-b28e-40be6430edd8","ios":"levelo://app?vid=6184867d-303d-45f4-b28e-40be6430edd8"},"vehicle_type_id":"4","last_reported":1702883231,"current_range_meters":23200,"station_id":"ce4bgt12rcd13ifvqce0","pricing_plan_id":"free"},{"bike_id":"67ddea87-bd62-4cd2-b2af-71babfa29758","system_id":"levelo_inurba_marseille","lat":43.304606,"lon":5.379026,"is_reserved":false,"is_disabled":false,"rental_uris":{"android":"levelo://app?vid=67ddea87-bd62-4cd2-b2af-71babfa29758","ios":"levelo://app?vid=67ddea87-bd62-4cd2-b2af-71babfa29758"},"vehicle_type_id":"4","last_reported":1702883231,"current_range_meters":22000,"station_id":"ce4bgup2rcd13ifvqcn0","pricing_plan_id":"free"},{"bike_id":"5c0a27a4-cc48-4398-bdbc-735d8f024934","system_id":"levelo_inurba_marseille","lat":43.304606,"lon":5.379026,"is_reserved":false,"is_disabled":false,"rental_uris":{"android":"levelo://app?vid=5c0a27a4-cc48-4398-bdbc-735d8f024934","ios":"levelo://app?vid=5c0a27a4-cc48-4398-bdbc-735d8f024934"},"vehicle_type_id":"4","last_reported":1702883231,"current_range_meters":6800,"station_id":"ce4bgup2rcd13ifvqcn0","pricing_plan_id":"free"},{"bike_id":"9f35d947-10b1-41b4-abd8-e5e536eaf2a7","system_id":"levelo_inurba_marseille","lat":43.304606,"lon":5.379026,"is_reserved":false,"is_disabled":false,"rental_uris":{"android":"levelo://app?vid=9f35d947-10b1-41b4-abd8-e5e536eaf2a7","ios":"levelo://app?vid=9f35d947-10b1-41b4-abd8-e5e536eaf2a7"},"vehicle_type_id":"4","last_reported":1702883231,"current_range_meters":31600,"station_id":"ce4bgup2rcd13ifvqcn0","pricing_plan_id":"free"},{"bike_id":"05284ac9-bcb1-4291-a311-f102572c9454","system_id":"levelo_inurba_marseille","lat":43.304606,"lon":5.379026,"is_reserved":false,"is_disabled":false,"rental_uris":{"android":"levelo://app?vid=05284ac9-bcb1-4291-a311-f102572c9454","ios":"levelo://app?vid=05284ac9-bcb1-4291-a311-f102572c9454"},"vehicle_type_id":"4","last_reported":1702883231,"current_range_meters":22000,"station_id":"ce4bgup2rcd13ifvqcn0","pricing_plan_id":"free"},{"bike_id":"b15f0e44-7250-48d9-baf4-cf77585b7cad","system_id":"levelo_inurba_marseille","lat":43.304606,"lon":5.379026,"is_reserved":false,"is_disabled":false,"rental_uris":{"android":"levelo://app?vid=b15f0e44-7250-48d9-baf4-cf77585b7cad","ios":"levelo://app?vid=b15f0e44-7250-48d9-baf4-cf77585b7cad"},"vehicle_type_id":"4","last_reported":1702883231,"current_range_meters":23200,"station_id":"ce4bgup2rcd13ifvqcn0","pricing_plan_id":"free"},{"bike_id":"fbac1374-f241-4639-b0b6-238a722d205f","system_id":"levelo_inurba_marseille","lat":43.30461,"lon":5.37902,"is_reserved":false,"is_disabled":false,"rental_uris":{"android":"levelo://app?vid=fbac1374-f241-4639-b0b6-238a722d205f","ios":"levelo://app?vid=fbac1374-f241-4639-b0b6-238a722d205f"},"vehicle_type_id":"4","last_reported":1702883231,"current_range_meters":24400,"station_id":"ce4bgup2rcd13ifvqcn0","pricing_plan_id":"free"},{"bike_id":"ee6b8273-32e0-4e69-8668-83c28ee01a2e","system_id":"levelo_inurba_marseille","lat":43.304606,"lon":5.379026,"is_reserved":false,"is_disabled":false,"rental_uris":{"android":"levelo://app?vid=ee6b8273-32e0-4e69-8668-83c28ee01a2e","ios":"levelo://app?vid=ee6b8273-32e0-4e69-8668-83c28ee01a2e"},"vehicle_type_id":"4","last_reported":1702883231,"current_range_meters":12400,"station_id":"ce4bgup2rcd13ifvqcn0","pricing_plan_id":"free"},{"bike_id":"1ffce1cf-4f7c-4dce-8523-d35b5a8761e6","system_id":"levelo_inurba_marseille","lat":43.304606,"lon":5.379026,"is_reserved":false,"is_disabled":false,"rental_uris":{"android":"levelo://app?vid=1ffce1cf-4f7c-4dce-8523-d35b5a8761e6","ios":"levelo://app?vid=1ffce1cf-4f7c-4dce-8523-d35b5a8761e6"},"vehicle_type_id":"4","last_reported":1702883231,"current_range_meters":31600,"station_id":"ce4bgup2rcd13ifvqcn0","pricing_plan_id":"free"},{"bike_id":"359889d5-1fca-41da-883e-c4d905ca2f81","system_id":"levelo_inurba_marseille","lat":43.304606,"lon":5.379026,"is_reserved":false,"is_disabled":false,"rental_uris":{"android":"levelo://app?vid=359889d5-1fca-41da-883e-c4d905ca2f81","ios":"levelo://app?vid=359889d5-1fca-41da-883e-c4d905ca2f81"},"vehicle_type_id":"4","last_reported":1702883231,"current_range_meters":31600,"station_id":"ce4bgup2rcd13ifvqcn0","pricing_plan_id":"free"},{"bike_id":"b352d04a-a243-4d7c-b515-76aa47bf239c","system_id":"levelo_inurba_marseille","lat":43.304606,"lon":5.379026,"is_reserved":false,"is_disabled":false,"rental_uris":{"android":"levelo://app?vid=b352d04a-a243-4d7c-b515-76aa47bf239c","ios":"levelo://app?vid=b352d04a-a243-4d7c-b515-76aa47bf239c"},"vehicle_type_id":"4","last_reported":1702883231,"current_range_meters":5200,"station_id":"ce4bgup2rcd13ifvqcn0","pricing_plan_id":"free"},{"bike_id":"ae753b3d-962b-4ee7-8751-f5fcc70b8619","system_id":"levelo_inurba_marseille","lat":43.304606,"lon":5.379026,"is_reserved":false,"is_disabled":false,"rental_uris":{"android":"levelo://app?vid=ae753b3d-962b-4ee7-8751-f5fcc70b8619","ios":"levelo://app?vid=ae753b3d-962b-4ee7-8751-f5fcc70b8619"},"vehicle_type_id":"4","last_reported":1702883231,"current_range_meters":31600,"station_id":"ce4bgup2rcd13ifvqcn0","pricing_plan_id":"free"},{"bike_id":"95280525-6632-4635-9833-660d53a8ed8f","system_id":"levelo_inurba_marseille","lat":43.301429,"lon":5.37413,"is_reserved":false,"is_disabled":false,"rental_uris":{"android":"levelo://app?vid=95280525-6632-4635-9833-660d53a8ed8f","ios":"levelo://app?vid=95280525-6632-4635-9833-660d53a8ed8f"},"vehicle_type_id":"4","last_reported":1702883231,"current_range_meters":24000,"station_id":"ce4bgs92rcd13ifvqcc0","pricing_plan_id":"free"},{"bike_id":"37b6c6fa-a415-4430-a2d6-5a569f2382f1","system_id":"levelo_inurba_marseille","lat":43.299222,"lon":5.365554,"is_reserved":false,"is_disabled":false,"rental_uris":{"android":"levelo://app?vid=37b6c6fa-a415-4430-a2d6-5a569f2382f1","ios":"levelo://app?vid=37b6c6fa-a415-4430-a2d6-5a569f2382f1"},"vehicle_type_id":"4","last_reported":1702883231,"current_range_meters":22800,"station_id":"ce4bgm92rcd13ifvqbr0","pricing_plan_id":"free"},{"bike_id":"2d076ae7-a0bf-4edf-b045-e31f3b6eddb1","system_id":"levelo_inurba_marseille","lat":43.299222,"lon":5.365554,"is_reserved":false,"is_disabled":false,"rental_uris":{"android":"levelo://app?vid=2d076ae7-a0bf-4edf-b045-e31f3b6eddb1","ios":"levelo://app?vid=2d076ae7-a0bf-4edf-b045-e31f3b6eddb1"},"vehicle_type_id":"4","last_reported":1702883231,"current_range_meters":15200,"station_id":"ce4bgm92rcd13ifvqbr0","pricing_plan_id":"free"},{"bike_id":"c4e77394-aef9-4077-b745-e99148625344","system_id":"levelo_inurba_marseille","lat":43.32733,"lon":5.36707,"is_reserved":false,"is_disabled":false,"rental_uris":{"android":"levelo://app?vid=c4e77394-aef9-4077-b745-e99148625344","ios":"levelo://app?vid=c4e77394-aef9-4077-b745-e99148625344"},"vehicle_type_id":"4","last_reported":1702883231,"current_range_meters":16000,"station_id":"","pricing_plan_id":"free"},{"bike_id":"819cb438-2e9c-4e0b-902b-5e19ef554d5c","system_id":"levelo_inurba_marseille","lat":43.305418,"lon":5.384422,"is_reserved":false,"is_disabled":false,"rental_uris":{"android":"levelo://app?vid=819cb438-2e9c-4e0b-902b-5e19ef554d5c","ios":"levelo://app?vid=819cb438-2e9c-4e0b-902b-5e19ef554d5c"},"vehicle_type_id":"4","last_reported":1702883231,"current_range_meters":7200,"station_id":"","pricing_plan_id":"free"},{"bike_id":"c3e352f7-b2cc-4172-902d-71dece9975d2","system_id":"levelo_inurba_marseille","lat":43.297794,"lon":5.370888,"is_reserved":false,"is_disabled":false,"rental_uris":{"android":"levelo://app?vid=c3e352f7-b2cc-4172-902d-71dece9975d2","ios":"levelo://app?vid=c3e352f7-b2cc-4172-902d-71dece9975d2"},"vehicle_type_id":"4","last_reported":1702883231,"current_range_meters":29600,"station_id":"ce4bgop2rcd13ifvqc1g","pricing_plan_id":"free"},{"bike_id":"0170d5ee-7e91-4f5c-8732-7765424383a0","system_id":"levelo_inurba_marseille","lat":43.297794,"lon":5.370888,"is_reserved":false,"is_disabled":false,"rental_uris":{"android":"levelo://app?vid=0170d5ee-7e91-4f5c-8732-7765424383a0","ios":"levelo://app?vid=0170d5ee-7e91-4f5c-8732-7765424383a0"},"vehicle_type_id":"4","last_reported":1702883231,"current_range_meters":28000,"station_id":"ce4bgop2rcd13ifvqc1g","pricing_plan_id":"free"},{"bike_id":"b71be933-e47a-4a04-86c7-28b5bcf36fd0","system_id":"levelo_inurba_marseille","lat":43.29773,"lon":5.37122,"is_reserved":false,"is_disabled":false,"rental_uris":{"android":"levelo://app?vid=b71be933-e47a-4a04-86c7-28b5bcf36fd0","ios":"levelo://app?vid=b71be933-e47a-4a04-86c7-28b5bcf36fd0"},"vehicle_type_id":"4","last_reported":1702883231,"current_range_meters":26000,"station_id":"ce4bgop2rcd13ifvqc1g","pricing_plan_id":"free"},{"bike_id":"3737aebe-1cce-415b-8132-94746ed5f00f","system_id":"levelo_inurba_marseille","lat":43.32297,"lon":5.38268,"is_reserved":false,"is_disabled":false,"rental_uris":{"android":"levelo://app?vid=3737aebe-1cce-415b-8132-94746ed5f00f","ios":"levelo://app?vid=3737aebe-1cce-415b-8132-94746ed5f00f"},"vehicle_type_id":"4","last_reported":1702883231,"current_range_meters":800,"station_id":"ce4bhr12rcd13ifvqhqg","pricing_plan_id":"free"},{"bike_id":"1c4e0be7-4a56-4d58-8b2f-9899334fc7b6","system_id":"levelo_inurba_marseille","lat":43.3283,"lon":5.36688,"is_reserved":false,"is_disabled":false,"rental_uris":{"android":"levelo://app?vid=1c4e0be7-4a56-4d58-8b2f-9899334fc7b6","ios":"levelo://app?vid=1c4e0be7-4a56-4d58-8b2f-9899334fc7b6"},"vehicle_type_id":"4","last_reported":1702883231,"current_range_meters":22800,"station_id":"ce4bhs92rcd13ifvqi0g","pricing_plan_id":"free"},{"bike_id":"53be6625-df3c-4f29-8b39-8f2b2225213b","system_id":"levelo_inurba_marseille","lat":43.292311,"lon":5.360731,"is_reserved":false,"is_disabled":false,"rental_uris":{"android":"levelo://app?vid=53be6625-df3c-4f29-8b39-8f2b2225213b","ios":"levelo://app?vid=53be6625-df3c-4f29-8b39-8f2b2225213b"},"vehicle_type_id":"4","last_reported":1702883231,"current_range_meters":10800,"station_id":"ce4bhbh2rcd13ifvqeqg","pricing_plan_id":"free"},{"bike_id":"0d55991f-7608-4fbf-8942-4104a1ae95a4","system_id":"levelo_inurba_marseille","lat":43.299028,"lon":5.381509,"is_reserved":false,"is_disabled":false,"rental_uris":{"android":"levelo://app?vid=0d55991f-7608-4fbf-8942-4104a1ae95a4","ios":"levelo://app?vid=0d55991f-7608-4fbf-8942-4104a1ae95a4"},"vehicle_type_id":"4","last_reported":1702883231,"current_range_meters":24800,"station_id":"ce4bgj12rcd13ifvqbc0","pricing_plan_id":"free"},{"bike_id":"bdd87849-02fd-4b8c-9ccc-79532bab6056","system_id":"levelo_inurba_marseille","lat":43.304274,"lon":5.388873,"is_reserved":false,"is_disabled":false,"rental_uris":{"android":"levelo://app?vid=bdd87849-02fd-4b8c-9ccc-79532bab6056","ios":"levelo://app?vid=bdd87849-02fd-4b8c-9ccc-79532bab6056"},"vehicle_type_id":"4","last_reported":1702883231,"current_range_meters":19600,"station_id":"ce4bgk12rcd13ifvqbi0","pricing_plan_id":"free"},{"bike_id":"ecfc24b5-2653-4d9a-ad76-302f1bcabb78","system_id":"levelo_inurba_marseille","lat":43.304274,"lon":5.388873,"is_reserved":false,"is_disabled":false,"rental_uris":{"android":"levelo://app?vid=ecfc24b5-2653-4d9a-ad76-302f1bcabb78","ios":"levelo://app?vid=ecfc24b5-2653-4d9a-ad76-302f1bcabb78"},"vehicle_type_id":"4","last_reported":1702883231,"current_range_meters":22800,"station_id":"ce4bgk12rcd13ifvqbi0","pricing_plan_id":"free"},{"bike_id":"05d7f3be-024a-4d1b-8f0e-2a42c60c2a49","system_id":"levelo_inurba_marseille","lat":43.299717,"lon":5.384845,"is_reserved":false,"is_disabled":false,"rental_uris":{"android":"levelo://app?vid=05d7f3be-024a-4d1b-8f0e-2a42c60c2a49","ios":"levelo://app?vid=05d7f3be-024a-4d1b-8f0e-2a42c60c2a49"},"vehicle_type_id":"4","last_reported":1702883231,"current_range_meters":13600,"station_id":"ce4bgj92rcd13ifvqbd0","pricing_plan_id":"free"},{"bike_id":"c4f9bc29-7317-49d5-8bdc-66e7c764e3ea","system_id":"levelo_inurba_marseille","lat":43.32368,"lon":5.38878,"is_reserved":false,"is_disabled":false,"rental_uris":{"android":"levelo://app?vid=c4f9bc29-7317-49d5-8bdc-66e7c764e3ea","ios":"levelo://app?vid=c4f9bc29-7317-49d5-8bdc-66e7c764e3ea"},"vehicle_type_id":"4","last_reported":1702883231,"current_range_meters":0,"station_id":"ce4bhqp2rcd13ifvqhog","pricing_plan_id":"free"},{"bike_id":"e7e68b5d-84b7-44d9-84ed-f5701d4f8869","system_id":"levelo_inurba_marseille","lat":43.29601,"lon":5.381084,"is_reserved":false,"is_disabled":false,"rental_uris":{"android":"levelo://app?vid=e7e68b5d-84b7-44d9-84ed-f5701d4f8869","ios":"levelo://app?vid=e7e68b5d-84b7-44d9-84ed-f5701d4f8869"},"vehicle_type_id":"4","last_reported":1702883231,"current_range_meters":30800,"station_id":"ce4bgl12rcd13ifvqbo0","pricing_plan_id":"free"},{"bike_id":"339c3db2-5c73-49ec-b2f3-96715ca34b8f","system_id":"levelo_inurba_marseille","lat":43.29311,"lon":5.37162,"is_reserved":false,"is_disabled":false,"rental_uris":{"android":"levelo://app?vid=339c3db2-5c73-49ec-b2f3-96715ca34b8f","ios":"levelo://app?vid=339c3db2-5c73-49ec-b2f3-96715ca34b8f"},"vehicle_type_id":"4","last_reported":1702883231,"current_range_meters":2000,"station_id":"ce4bgh92rcd13ifvqb40","pricing_plan_id":"free"},{"bike_id":"a903608a-15f4-46cd-9b67-60400db80b4b","system_id":"levelo_inurba_marseille","lat":43.29285,"lon":5.36865,"is_reserved":false,"is_disabled":false,"rental_uris":{"android":"levelo://app?vid=a903608a-15f4-46cd-9b67-60400db80b4b","ios":"levelo://app?vid=a903608a-15f4-46cd-9b67-60400db80b4b"},"vehicle_type_id":"4","last_reported":1702883231,"current_range_meters":27600,"station_id":"ce4bhbp2rcd13ifvqesg","pricing_plan_id":"free"},{"bike_id":"f66fe947-025e-426b-b4fb-282b47281e0a","system_id":"levelo_inurba_marseille","lat":43.305994,"lon":5.393687,"is_reserved":false,"is_disabled":false,"rental_uris":{"android":"levelo://app?vid=f66fe947-025e-426b-b4fb-282b47281e0a","ios":"levelo://app?vid=f66fe947-025e-426b-b4fb-282b47281e0a"},"vehicle_type_id":"4","last_reported":1702883231,"current_range_meters":31600,"station_id":"ce4bh0p2rcd13ifvqd80","pricing_plan_id":"free"},{"bike_id":"fd293354-493e-4d2c-8a0e-25854af2057e","system_id":"levelo_inurba_marseille","lat":43.309038,"lon":5.396546,"is_reserved":false,"is_disabled":false,"rental_uris":{"android":"levelo://app?vid=fd293354-493e-4d2c-8a0e-25854af2057e","ios":"levelo://app?vid=fd293354-493e-4d2c-8a0e-25854af2057e"},"vehicle_type_id":"4","last_reported":1702883231,"current_range_meters":20400,"station_id":"ce4bh012rcd13ifvqcv0","pricing_plan_id":"free"},{"bike_id":"eea8a5a1-463d-4f33-aa4b-8823a6b8e9c6","system_id":"levelo_inurba_marseille","lat":43.294153,"lon":5.386305,"is_reserved":false,"is_disabled":false,"rental_uris":{"android":"levelo://app?vid=eea8a5a1-463d-4f33-aa4b-8823a6b8e9c6","ios":"levelo://app?vid=eea8a5a1-463d-4f33-aa4b-8823a6b8e9c6"},"vehicle_type_id":"4","last_reported":1702883231,"current_range_meters":20000,"station_id":"ce4bh2h2rcd13ifvqdh0","pricing_plan_id":"free"},{"bike_id":"4c61b836-c1dc-4ada-b8e8-c583f5d164eb","system_id":"levelo_inurba_marseille","lat":43.28945,"lon":5.36639,"is_reserved":false,"is_disabled":false,"rental_uris":{"android":"levelo://app?vid=4c61b836-c1dc-4ada-b8e8-c583f5d164eb","ios":"levelo://app?vid=4c61b836-c1dc-4ada-b8e8-c583f5d164eb"},"vehicle_type_id":"4","last_reported":1702883231,"current_range_meters":29600,"station_id":"ce4bhap2rcd13ifvqek0","pricing_plan_id":"free"},{"bike_id":"ca729cec-061e-4415-9d4e-6e26ce983281","system_id":"levelo_inurba_marseille","lat":43.28948,"lon":5.36412,"is_reserved":false,"is_disabled":false,"rental_uris":{"android":"levelo://app?vid=ca729cec-061e-4415-9d4e-6e26ce983281","ios":"levelo://app?vid=ca729cec-061e-4415-9d4e-6e26ce983281"},"vehicle_type_id":"4","last_reported":1702883231,"current_range_meters":15600,"station_id":"ce4bhc92rcd13ifvqetg","pricing_plan_id":"free"},{"bike_id":"963ed346-5833-4f1e-8ee9-4154b938edf0","system_id":"levelo_inurba_marseille","lat":43.289184,"lon":5.366408,"is_reserved":false,"is_disabled":false,"rental_uris":{"android":"levelo://app?vid=963ed346-5833-4f1e-8ee9-4154b938edf0","ios":"levelo://app?vid=963ed346-5833-4f1e-8ee9-4154b938edf0"},"vehicle_type_id":"4","last_reported":1702883231,"current_range_meters":18400,"station_id":"ce4bhap2rcd13ifvqek0","pricing_plan_id":"free"},{"bike_id":"1994377a-f55f-4ca1-a265-37ea5e3a8048","system_id":"levelo_inurba_marseille","lat":43.289445,"lon":5.363993,"is_reserved":false,"is_disabled":false,"rental_uris":{"android":"levelo://app?vid=1994377a-f55f-4ca1-a265-37ea5e3a8048","ios":"levelo://app?vid=1994377a-f55f-4ca1-a265-37ea5e3a8048"},"vehicle_type_id":"4","last_reported":1702883231,"current_range_meters":20400,"station_id":"ce4bhc92rcd13ifvqetg","pricing_plan_id":"free"},{"bike_id":"6cbdd0e4-fdb8-48e8-a7ae-4f8e37475f11","system_id":"levelo_inurba_marseille","lat":43.28943,"lon":5.36418,"is_reserved":false,"is_disabled":false,"rental_uris":{"android":"levelo://app?vid=6cbdd0e4-fdb8-48e8-a7ae-4f8e37475f11","ios":"levelo://app?vid=6cbdd0e4-fdb8-48e8-a7ae-4f8e37475f11"},"vehicle_type_id":"4","last_reported":1702883231,"current_range_meters":21600,"station_id":"ce4bhc92rcd13ifvqetg","pricing_plan_id":"free"},{"bike_id":"42f67f8c-27f0-42c6-9fea-b3f411b2f4e4","system_id":"levelo_inurba_marseille","lat":43.28942,"lon":5.3642,"is_reserved":false,"is_disabled":false,"rental_uris":{"android":"levelo://app?vid=42f67f8c-27f0-42c6-9fea-b3f411b2f4e4","ios":"levelo://app?vid=42f67f8c-27f0-42c6-9fea-b3f411b2f4e4"},"vehicle_type_id":"4","last_reported":1702883231,"current_range_meters":26000,"station_id":"ce4bhc92rcd13ifvqetg","pricing_plan_id":"free"},{"bike_id":"113a3e9b-7883-4999-b36a-9e553a204c23","system_id":"levelo_inurba_marseille","lat":43.290104,"lon":5.356111,"is_reserved":false,"is_disabled":false,"rental_uris":{"android":"levelo://app?vid=113a3e9b-7883-4999-b36a-9e553a204c23","ios":"levelo://app?vid=113a3e9b-7883-4999-b36a-9e553a204c23"},"vehicle_type_id":"4","last_reported":1702883231,"current_range_meters":2000,"station_id":"ce4bhb92rcd13ifvqen0","pricing_plan_id":"free"},{"bike_id":"0f0efcce-30bf-48e1-969e-c8d8b731264a","system_id":"levelo_inurba_marseille","lat":43.330442,"lon":5.389148,"is_reserved":false,"is_disabled":false,"rental_uris":{"android":"levelo://app?vid=0f0efcce-30bf-48e1-969e-c8d8b731264a","ios":"levelo://app?vid=0f0efcce-30bf-48e1-969e-c8d8b731264a"},"vehicle_type_id":"4","last_reported":1702883231,"current_range_meters":8800,"station_id":"ce4bhr92rcd13ifvqhrg","pricing_plan_id":"free"},{"bike_id":"5fa34a05-5c55-4873-a568-038c0fe9a5d6","system_id":"levelo_inurba_marseille","lat":43.330442,"lon":5.389148,"is_reserved":false,"is_disabled":false,"rental_uris":{"android":"levelo://app?vid=5fa34a05-5c55-4873-a568-038c0fe9a5d6","ios":"levelo://app?vid=5fa34a05-5c55-4873-a568-038c0fe9a5d6"},"vehicle_type_id":"4","last_reported":1702883231,"current_range_meters":7200,"station_id":"ce4bhr92rcd13ifvqhrg","pricing_plan_id":"free"},{"bike_id":"bd605482-10ff-4c14-a468-587499908f2d","system_id":"levelo_inurba_marseille","lat":43.290104,"lon":5.356111,"is_reserved":false,"is_disabled":false,"rental_uris":{"android":"levelo://app?vid=bd605482-10ff-4c14-a468-587499908f2d","ios":"levelo://app?vid=bd605482-10ff-4c14-a468-587499908f2d"},"vehicle_type_id":"4","last_reported":1702883231,"current_range_meters":12400,"station_id":"ce4bhb92rcd13ifvqen0","pricing_plan_id":"free"},{"bike_id":"7a568c61-25bb-4604-ab74-a610ce24ec11","system_id":"levelo_inurba_marseille","lat":43.290104,"lon":5.356111,"is_reserved":false,"is_disabled":false,"rental_uris":{"android":"levelo://app?vid=7a568c61-25bb-4604-ab74-a610ce24ec11","ios":"levelo://app?vid=7a568c61-25bb-4604-ab74-a610ce24ec11"},"vehicle_type_id":"4","last_reported":1702883231,"current_range_meters":31600,"station_id":"ce4bhb92rcd13ifvqen0","pricing_plan_id":"free"},{"bike_id":"cec1dec0-78d1-4393-b158-9d4e0d6195bc","system_id":"levelo_inurba_marseille","lat":43.290103,"lon":5.356114,"is_reserved":false,"is_disabled":false,"rental_uris":{"android":"levelo://app?vid=cec1dec0-78d1-4393-b158-9d4e0d6195bc","ios":"levelo://app?vid=cec1dec0-78d1-4393-b158-9d4e0d6195bc"},"vehicle_type_id":"4","last_reported":1702883231,"current_range_meters":22800,"station_id":"ce4bhb92rcd13ifvqen0","pricing_plan_id":"free"},{"bike_id":"35b0dd03-10fc-414c-80a9-167476ee6b07","system_id":"levelo_inurba_marseille","lat":43.29791,"lon":5.39351,"is_reserved":false,"is_disabled":false,"rental_uris":{"android":"levelo://app?vid=35b0dd03-10fc-414c-80a9-167476ee6b07","ios":"levelo://app?vid=35b0dd03-10fc-414c-80a9-167476ee6b07"},"vehicle_type_id":"4","last_reported":1702883231,"current_range_meters":27600,"station_id":"chh1huq6cuj3fo74tm60","pricing_plan_id":"free"},{"bike_id":"e3da9deb-d482-437b-b5e8-2379633eb957","system_id":"levelo_inurba_marseille","lat":43.289743,"lon":5.378304,"is_reserved":false,"is_disabled":false,"rental_uris":{"android":"levelo://app?vid=e3da9deb-d482-437b-b5e8-2379633eb957","ios":"levelo://app?vid=e3da9deb-d482-437b-b5e8-2379633eb957"},"vehicle_type_id":"4","last_reported":1702883231,"current_range_meters":6800,"station_id":"ce4bh9p2rcd13ifvqed0","pricing_plan_id":"free"},{"bike_id":"c5e69f48-de42-405b-90a0-aa64856d62d1","system_id":"levelo_inurba_marseille","lat":43.29516,"lon":5.39041,"is_reserved":false,"is_disabled":false,"rental_uris":{"android":"levelo://app?vid=c5e69f48-de42-405b-90a0-aa64856d62d1","ios":"levelo://app?vid=c5e69f48-de42-405b-90a0-aa64856d62d1"},"vehicle_type_id":"4","last_reported":1702883231,"current_range_meters":28000,"station_id":"ce4bh3p2rcd13ifvqdp0","pricing_plan_id":"free"},{"bike_id":"8f803f60-a3c2-4395-8253-1fe41b62ffad","system_id":"levelo_inurba_marseille","lat":43.2901,"lon":5.381269,"is_reserved":false,"is_disabled":false,"rental_uris":{"android":"levelo://app?vid=8f803f60-a3c2-4395-8253-1fe41b62ffad","ios":"levelo://app?vid=8f803f60-a3c2-4395-8253-1fe41b62ffad"},"vehicle_type_id":"4","last_reported":1702883231,"current_range_meters":12400,"station_id":"ce4bh4p2rcd13ifvqe1g","pricing_plan_id":"free"},{"bike_id":"3712c165-529a-460b-942b-a677f5063342","system_id":"levelo_inurba_marseille","lat":43.295115,"lon":5.394085,"is_reserved":false,"is_disabled":false,"rental_uris":{"android":"levelo://app?vid=3712c165-529a-460b-942b-a677f5063342","ios":"levelo://app?vid=3712c165-529a-460b-942b-a677f5063342"},"vehicle_type_id":"4","last_reported":1702883231,"current_range_meters":8800,"station_id":"ce4bh292rcd13ifvqdf0","pricing_plan_id":"free"},{"bike_id":"a4604c84-6f26-4d3e-8f16-8929a83a942c","system_id":"levelo_inurba_marseille","lat":43.302759,"lon":5.400793,"is_reserved":false,"is_disabled":false,"rental_uris":{"android":"levelo://app?vid=a4604c84-6f26-4d3e-8f16-8929a83a942c","ios":"levelo://app?vid=a4604c84-6f26-4d3e-8f16-8929a83a942c"},"vehicle_type_id":"4","last_reported":1702883231,"current_range_meters":26400,"station_id":"ce4bgvh2rcd13ifvqcs0","pricing_plan_id":"free"},{"bike_id":"e221ee01-c339-438d-8a18-c96c3193c7d9","system_id":"levelo_inurba_marseille","lat":43.290345,"lon":5.38646,"is_reserved":false,"is_disabled":false,"rental_uris":{"android":"levelo://app?vid=e221ee01-c339-438d-8a18-c96c3193c7d9","ios":"levelo://app?vid=e221ee01-c339-438d-8a18-c96c3193c7d9"},"vehicle_type_id":"4","last_reported":1702883231,"current_range_meters":26400,"station_id":"ce4bh4p2rcd13ifvqe0g","pricing_plan_id":"free"},{"bike_id":"00aca91f-e004-460f-ab73-78187b4b13dc","system_id":"levelo_inurba_marseille","lat":43.291994,"lon":5.392907,"is_reserved":false,"is_disabled":false,"rental_uris":{"android":"levelo://app?vid=00aca91f-e004-460f-ab73-78187b4b13dc","ios":"levelo://app?vid=00aca91f-e004-460f-ab73-78187b4b13dc"},"vehicle_type_id":"4","last_reported":1702883231,"current_range_meters":27200,"station_id":"ce4bh192rcd13ifvqdd0","pricing_plan_id":"free"},{"bike_id":"a6418043-0018-46fe-9da9-258b56f2fdb2","system_id":"levelo_inurba_marseille","lat":43.283998,"lon":5.375062,"is_reserved":false,"is_disabled":false,"rental_uris":{"android":"levelo://app?vid=a6418043-0018-46fe-9da9-258b56f2fdb2","ios":"levelo://app?vid=a6418043-0018-46fe-9da9-258b56f2fdb2"},"vehicle_type_id":"4","last_reported":1702883231,"current_range_meters":16400,"station_id":"ce4bh412rcd13ifvqds0","pricing_plan_id":"free"},{"bike_id":"f84a64f5-0a34-4973-9f97-876d73774066","system_id":"levelo_inurba_marseille","lat":43.283998,"lon":5.375062,"is_reserved":false,"is_disabled":false,"rental_uris":{"android":"levelo://app?vid=f84a64f5-0a34-4973-9f97-876d73774066","ios":"levelo://app?vid=f84a64f5-0a34-4973-9f97-876d73774066"},"vehicle_type_id":"4","last_reported":1702883231,"current_range_meters":21600,"station_id":"ce4bh412rcd13ifvqds0","pricing_plan_id":"free"},{"bike_id":"2dfa5049-0e1b-4839-b5c3-156910a65dbd","system_id":"levelo_inurba_marseille","lat":43.33218,"lon":5.397067,"is_reserved":false,"is_disabled":false,"rental_uris":{"android":"levelo://app?vid=2dfa5049-0e1b-4839-b5c3-156910a65dbd","ios":"levelo://app?vid=2dfa5049-0e1b-4839-b5c3-156910a65dbd"},"vehicle_type_id":"4","last_reported":1702883231,"current_range_meters":6400,"station_id":"","pricing_plan_id":"free"},{"bike_id":"6480e3eb-5ac1-43a1-aa3e-a31ac65b063e","system_id":"levelo_inurba_marseille","lat":43.284,"lon":5.37529,"is_reserved":false,"is_disabled":false,"rental_uris":{"android":"levelo://app?vid=6480e3eb-5ac1-43a1-aa3e-a31ac65b063e","ios":"levelo://app?vid=6480e3eb-5ac1-43a1-aa3e-a31ac65b063e"},"vehicle_type_id":"4","last_reported":1702883231,"current_range_meters":12800,"station_id":"ce4bh412rcd13ifvqds0","pricing_plan_id":"free"},{"bike_id":"b56ecf4c-30f7-4d5f-9c3b-2c913d1565d9","system_id":"levelo_inurba_marseille","lat":43.310785,"lon":5.424305,"is_reserved":false,"is_disabled":false,"rental_uris":{"android":"levelo://app?vid=b56ecf4c-30f7-4d5f-9c3b-2c913d1565d9","ios":"levelo://app?vid=b56ecf4c-30f7-4d5f-9c3b-2c913d1565d9"},"vehicle_type_id":"4","last_reported":1702883231,"current_range_meters":6000,"station_id":"ce4bhp92rcd13ifvqhag","pricing_plan_id":"free"},{"bike_id":"288f1460-e9bb-46b4-b599-24b616d73c39","system_id":"levelo_inurba_marseille","lat":43.286595,"lon":5.386795,"is_reserved":false,"is_disabled":false,"rental_uris":{"android":"levelo://app?vid=288f1460-e9bb-46b4-b599-24b616d73c39","ios":"levelo://app?vid=288f1460-e9bb-46b4-b599-24b616d73c39"},"vehicle_type_id":"4","last_reported":1702883231,"current_range_meters":26800,"station_id":"ce4bh492rcd13ifvqdug","pricing_plan_id":"free"},{"bike_id":"19765569-0262-4a3d-8813-442a663aea74","system_id":"levelo_inurba_marseille","lat":43.319179,"lon":5.407725,"is_reserved":false,"is_disabled":false,"rental_uris":{"android":"levelo://app?vid=19765569-0262-4a3d-8813-442a663aea74","ios":"levelo://app?vid=19765569-0262-4a3d-8813-442a663aea74"},"vehicle_type_id":"4","last_reported":1702883231,"current_range_meters":9600,"station_id":"ce4bhq12rcd13ifvqhig","pricing_plan_id":"free"},{"bike_id":"e6e8def3-4d43-4d3d-b4c8-e06233981f99","system_id":"levelo_inurba_marseille","lat":43.323464,"lon":5.406297,"is_reserved":false,"is_disabled":false,"rental_uris":{"android":"levelo://app?vid=e6e8def3-4d43-4d3d-b4c8-e06233981f99","ios":"levelo://app?vid=e6e8def3-4d43-4d3d-b4c8-e06233981f99"},"vehicle_type_id":"4","last_reported":1702883231,"current_range_meters":28400,"station_id":"ce4bhq92rcd13ifvqhjg","pricing_plan_id":"free"},{"bike_id":"a4045ef3-0a0e-4936-90af-0610ac43b96a","system_id":"levelo_inurba_marseille","lat":43.284787,"lon":5.384116,"is_reserved":false,"is_disabled":false,"rental_uris":{"android":"levelo://app?vid=a4045ef3-0a0e-4936-90af-0610ac43b96a","ios":"levelo://app?vid=a4045ef3-0a0e-4936-90af-0610ac43b96a"},"vehicle_type_id":"4","last_reported":1702883231,"current_range_meters":28000,"station_id":"ce4bh512rcd13ifvqe3g","pricing_plan_id":"free"},{"bike_id":"83ff003f-7741-491a-818b-54a51f084036","system_id":"levelo_inurba_marseille","lat":43.283498,"lon":5.380948,"is_reserved":false,"is_disabled":false,"rental_uris":{"android":"levelo://app?vid=83ff003f-7741-491a-818b-54a51f084036","ios":"levelo://app?vid=83ff003f-7741-491a-818b-54a51f084036"},"vehicle_type_id":"4","last_reported":1702883231,"current_range_meters":31200,"station_id":"ce4bh412rcd13ifvqdr0","pricing_plan_id":"free"},{"bike_id":"eb8b752d-8443-473c-aa8c-01fa136d2df7","system_id":"levelo_inurba_marseille","lat":43.283494,"lon":5.380945,"is_reserved":false,"is_disabled":false,"rental_uris":{"android":"levelo://app?vid=eb8b752d-8443-473c-aa8c-01fa136d2df7","ios":"levelo://app?vid=eb8b752d-8443-473c-aa8c-01fa136d2df7"},"vehicle_type_id":"4","last_reported":1702883231,"current_range_meters":27600,"station_id":"ce4bh412rcd13ifvqdr0","pricing_plan_id":"free"},{"bike_id":"0fa2065f-00c5-4a87-8cd4-abfceb5055c2","system_id":"levelo_inurba_marseille","lat":43.283494,"lon":5.380945,"is_reserved":false,"is_disabled":false,"rental_uris":{"android":"levelo://app?vid=0fa2065f-00c5-4a87-8cd4-abfceb5055c2","ios":"levelo://app?vid=0fa2065f-00c5-4a87-8cd4-abfceb5055c2"},"vehicle_type_id":"4","last_reported":1702883231,"current_range_meters":15200,"station_id":"ce4bh412rcd13ifvqdr0","pricing_plan_id":"free"},{"bike_id":"15c1172d-43f9-422a-8821-c7b55aff2fd3","system_id":"levelo_inurba_marseille","lat":43.283494,"lon":5.380945,"is_reserved":false,"is_disabled":false,"rental_uris":{"android":"levelo://app?vid=15c1172d-43f9-422a-8821-c7b55aff2fd3","ios":"levelo://app?vid=15c1172d-43f9-422a-8821-c7b55aff2fd3"},"vehicle_type_id":"4","last_reported":1702883231,"current_range_meters":14000,"station_id":"ce4bh412rcd13ifvqdr0","pricing_plan_id":"free"},{"bike_id":"850d648c-d90b-43de-9eab-d7f487c268bd","system_id":"levelo_inurba_marseille","lat":43.284183,"lon":5.349923,"is_reserved":false,"is_disabled":false,"rental_uris":{"android":"levelo://app?vid=850d648c-d90b-43de-9eab-d7f487c268bd","ios":"levelo://app?vid=850d648c-d90b-43de-9eab-d7f487c268bd"},"vehicle_type_id":"4","last_reported":1702883231,"current_range_meters":27600,"station_id":"ce4bhbh2rcd13ifvqepg","pricing_plan_id":"free"},{"bike_id":"cac7aac6-207d-4577-a6b4-b048a235c7e4","system_id":"levelo_inurba_marseille","lat":43.289363,"lon":5.396322,"is_reserved":false,"is_disabled":false,"rental_uris":{"android":"levelo://app?vid=cac7aac6-207d-4577-a6b4-b048a235c7e4","ios":"levelo://app?vid=cac7aac6-207d-4577-a6b4-b048a235c7e4"},"vehicle_type_id":"4","last_reported":1702883231,"current_range_meters":27200,"station_id":"ce4bh3h2rcd13ifvqdn0","pricing_plan_id":"free"},{"bike_id":"f7021558-e3de-41d4-97c6-74b7ccde7345","system_id":"levelo_inurba_marseille","lat":43.282745,"lon":5.350685,"is_reserved":false,"is_disabled":false,"rental_uris":{"android":"levelo://app?vid=f7021558-e3de-41d4-97c6-74b7ccde7345","ios":"levelo://app?vid=f7021558-e3de-41d4-97c6-74b7ccde7345"},"vehicle_type_id":"4","last_reported":1702883231,"current_range_meters":17600,"station_id":"ce4bhbp2rcd13ifvqerg","pricing_plan_id":"free"},{"bike_id":"dd45b3ee-ae3c-431b-9dcb-21b45ce007ad","system_id":"levelo_inurba_marseille","lat":43.282713,"lon":5.350786,"is_reserved":false,"is_disabled":false,"rental_uris":{"android":"levelo://app?vid=dd45b3ee-ae3c-431b-9dcb-21b45ce007ad","ios":"levelo://app?vid=dd45b3ee-ae3c-431b-9dcb-21b45ce007ad"},"vehicle_type_id":"4","last_reported":1702883231,"current_range_meters":24000,"station_id":"ce4bhbp2rcd13ifvqerg","pricing_plan_id":"free"},{"bike_id":"f62e0aea-cc3b-4424-890d-1915d166eb7e","system_id":"levelo_inurba_marseille","lat":43.283502,"lon":5.386471,"is_reserved":false,"is_disabled":false,"rental_uris":{"android":"levelo://app?vid=f62e0aea-cc3b-4424-890d-1915d166eb7e","ios":"levelo://app?vid=f62e0aea-cc3b-4424-890d-1915d166eb7e"},"vehicle_type_id":"4","last_reported":1702883231,"current_range_meters":20400,"station_id":"ce4bh492rcd13ifvqdvg","pricing_plan_id":"free"},{"bike_id":"1a87b588-80d8-4773-b144-3f6aaaefb1c6","system_id":"levelo_inurba_marseille","lat":43.28039,"lon":5.36944,"is_reserved":false,"is_disabled":false,"rental_uris":{"android":"levelo://app?vid=1a87b588-80d8-4773-b144-3f6aaaefb1c6","ios":"levelo://app?vid=1a87b588-80d8-4773-b144-3f6aaaefb1c6"},"vehicle_type_id":"4","last_reported":1702883231,"current_range_meters":22400,"station_id":"ce4bha12rcd13ifvqef0","pricing_plan_id":"free"},{"bike_id":"0805c00c-13e8-44d3-8139-42a5c5fa3ac2","system_id":"levelo_inurba_marseille","lat":43.280382,"lon":5.369291,"is_reserved":false,"is_disabled":false,"rental_uris":{"android":"levelo://app?vid=0805c00c-13e8-44d3-8139-42a5c5fa3ac2","ios":"levelo://app?vid=0805c00c-13e8-44d3-8139-42a5c5fa3ac2"},"vehicle_type_id":"4","last_reported":1702883231,"current_range_meters":30400,"station_id":"ce4bha12rcd13ifvqef0","pricing_plan_id":"free"},{"bike_id":"570a61e5-d62a-4ce9-99ef-dfe8e1a0ee3f","system_id":"levelo_inurba_marseille","lat":43.290422,"lon":5.399414,"is_reserved":false,"is_disabled":false,"rental_uris":{"android":"levelo://app?vid=570a61e5-d62a-4ce9-99ef-dfe8e1a0ee3f","ios":"levelo://app?vid=570a61e5-d62a-4ce9-99ef-dfe8e1a0ee3f"},"vehicle_type_id":"4","last_reported":1702883231,"current_range_meters":23200,"station_id":"ce4bh392rcd13ifvqdm0","pricing_plan_id":"free"},{"bike_id":"b61f78e0-1c25-442e-a781-4ccab93bebb2","system_id":"levelo_inurba_marseille","lat":43.29043,"lon":5.39945,"is_reserved":false,"is_disabled":false,"rental_uris":{"android":"levelo://app?vid=b61f78e0-1c25-442e-a781-4ccab93bebb2","ios":"levelo://app?vid=b61f78e0-1c25-442e-a781-4ccab93bebb2"},"vehicle_type_id":"4","last_reported":1702883231,"current_range_meters":21600,"station_id":"ce4bh392rcd13ifvqdm0","pricing_plan_id":"free"},{"bike_id":"d40f29ea-c2f5-4d58-b22e-e8df5689f4d1","system_id":"levelo_inurba_marseille","lat":43.290412,"lon":5.399633,"is_reserved":false,"is_disabled":false,"rental_uris":{"android":"levelo://app?vid=d40f29ea-c2f5-4d58-b22e-e8df5689f4d1","ios":"levelo://app?vid=d40f29ea-c2f5-4d58-b22e-e8df5689f4d1"},"vehicle_type_id":"4","last_reported":1702883231,"current_range_meters":4000,"station_id":"ce4bh392rcd13ifvqdm0","pricing_plan_id":"free"},{"bike_id":"1f1734d8-756c-4b41-b22a-b31d49b239dd","system_id":"levelo_inurba_marseille","lat":43.29038,"lon":5.39954,"is_reserved":false,"is_disabled":false,"rental_uris":{"android":"levelo://app?vid=1f1734d8-756c-4b41-b22a-b31d49b239dd","ios":"levelo://app?vid=1f1734d8-756c-4b41-b22a-b31d49b239dd"},"vehicle_type_id":"4","last_reported":1702883231,"current_range_meters":31200,"station_id":"ce4bh392rcd13ifvqdm0","pricing_plan_id":"free"},{"bike_id":"ccfe3ea9-ad0f-4d62-88e4-2e44ec878168","system_id":"levelo_inurba_marseille","lat":43.29041,"lon":5.399634,"is_reserved":false,"is_disabled":false,"rental_uris":{"android":"levelo://app?vid=ccfe3ea9-ad0f-4d62-88e4-2e44ec878168","ios":"levelo://app?vid=ccfe3ea9-ad0f-4d62-88e4-2e44ec878168"},"vehicle_type_id":"4","last_reported":1702883231,"current_range_meters":28800,"station_id":"ce4bh392rcd13ifvqdm0","pricing_plan_id":"free"},{"bike_id":"6892b9ba-1c6c-401c-acb6-568f72b4aa4b","system_id":"levelo_inurba_marseille","lat":43.29036,"lon":5.39969,"is_reserved":false,"is_disabled":false,"rental_uris":{"android":"levelo://app?vid=6892b9ba-1c6c-401c-acb6-568f72b4aa4b","ios":"levelo://app?vid=6892b9ba-1c6c-401c-acb6-568f72b4aa4b"},"vehicle_type_id":"4","last_reported":1702883231,"current_range_meters":24000,"station_id":"ce4bh392rcd13ifvqdm0","pricing_plan_id":"free"},{"bike_id":"0c8a2c35-6f53-4341-bd12-feddd7c4326d","system_id":"levelo_inurba_marseille","lat":43.290345,"lon":5.399705,"is_reserved":false,"is_disabled":false,"rental_uris":{"android":"levelo://app?vid=0c8a2c35-6f53-4341-bd12-feddd7c4326d","ios":"levelo://app?vid=0c8a2c35-6f53-4341-bd12-feddd7c4326d"},"vehicle_type_id":"4","last_reported":1702883231,"current_range_meters":21200,"station_id":"ce4bh392rcd13ifvqdm0","pricing_plan_id":"free"},{"bike_id":"f842766b-08f2-468d-aefc-748dbbd5e7cd","system_id":"levelo_inurba_marseille","lat":43.29031,"lon":5.39969,"is_reserved":false,"is_disabled":false,"rental_uris":{"android":"levelo://app?vid=f842766b-08f2-468d-aefc-748dbbd5e7cd","ios":"levelo://app?vid=f842766b-08f2-468d-aefc-748dbbd5e7cd"},"vehicle_type_id":"4","last_reported":1702883231,"current_range_meters":26000,"station_id":"ce4bh392rcd13ifvqdm0","pricing_plan_id":"free"},{"bike_id":"ad16ced4-a113-4e3a-ac32-ad8c2027e995","system_id":"levelo_inurba_marseille","lat":43.290273,"lon":5.399884,"is_reserved":false,"is_disabled":false,"rental_uris":{"android":"levelo://app?vid=ad16ced4-a113-4e3a-ac32-ad8c2027e995","ios":"levelo://app?vid=ad16ced4-a113-4e3a-ac32-ad8c2027e995"},"vehicle_type_id":"4","last_reported":1702883231,"current_range_meters":30800,"station_id":"ce4bh392rcd13ifvqdm0","pricing_plan_id":"free"},{"bike_id":"b1bba2b6-372d-49dd-b13b-1b4d710db23d","system_id":"levelo_inurba_marseille","lat":43.32405,"lon":5.4097,"is_reserved":false,"is_disabled":false,"rental_uris":{"android":"levelo://app?vid=b1bba2b6-372d-49dd-b13b-1b4d710db23d","ios":"levelo://app?vid=b1bba2b6-372d-49dd-b13b-1b4d710db23d"},"vehicle_type_id":"4","last_reported":1702883231,"current_range_meters":28800,"station_id":"","pricing_plan_id":"free"},{"bike_id":"50e322d7-b1dd-4b44-8297-f56e3719c536","system_id":"levelo_inurba_marseille","lat":43.279742,"lon":5.38744,"is_reserved":false,"is_disabled":false,"rental_uris":{"android":"levelo://app?vid=50e322d7-b1dd-4b44-8297-f56e3719c536","ios":"levelo://app?vid=50e322d7-b1dd-4b44-8297-f56e3719c536"},"vehicle_type_id":"4","last_reported":1702883231,"current_range_meters":6000,"station_id":"ce4bhg12rcd13ifvqf80","pricing_plan_id":"free"},{"bike_id":"b6e81f1c-e589-4e81-aab2-cd49086287d4","system_id":"levelo_inurba_marseille","lat":43.279742,"lon":5.38744,"is_reserved":false,"is_disabled":false,"rental_uris":{"android":"levelo://app?vid=b6e81f1c-e589-4e81-aab2-cd49086287d4","ios":"levelo://app?vid=b6e81f1c-e589-4e81-aab2-cd49086287d4"},"vehicle_type_id":"4","last_reported":1702883231,"current_range_meters":25600,"station_id":"ce4bhg12rcd13ifvqf80","pricing_plan_id":"free"},{"bike_id":"cf75a6d8-3502-4f9e-a4e1-9961562d262f","system_id":"levelo_inurba_marseille","lat":43.325233,"lon":5.414318,"is_reserved":false,"is_disabled":false,"rental_uris":{"android":"levelo://app?vid=cf75a6d8-3502-4f9e-a4e1-9961562d262f","ios":"levelo://app?vid=cf75a6d8-3502-4f9e-a4e1-9961562d262f"},"vehicle_type_id":"4","last_reported":1702883231,"current_range_meters":25600,"station_id":"ce4bhq12rcd13ifvqhhg","pricing_plan_id":"free"},{"bike_id":"55f3a22b-f67e-4333-a1f3-7fbb50e28717","system_id":"levelo_inurba_marseille","lat":43.292571,"lon":5.409107,"is_reserved":false,"is_disabled":false,"rental_uris":{"android":"levelo://app?vid=55f3a22b-f67e-4333-a1f3-7fbb50e28717","ios":"levelo://app?vid=55f3a22b-f67e-4333-a1f3-7fbb50e28717"},"vehicle_type_id":"4","last_reported":1702883231,"current_range_meters":31600,"station_id":"ce4bh192rcd13ifvqdc0","pricing_plan_id":"free"},{"bike_id":"9783b029-37a4-4b0f-b2eb-c8b4f0a0e6a4","system_id":"levelo_inurba_marseille","lat":43.325233,"lon":5.414318,"is_reserved":false,"is_disabled":false,"rental_uris":{"android":"levelo://app?vid=9783b029-37a4-4b0f-b2eb-c8b4f0a0e6a4","ios":"levelo://app?vid=9783b029-37a4-4b0f-b2eb-c8b4f0a0e6a4"},"vehicle_type_id":"4","last_reported":1702883231,"current_range_meters":28400,"station_id":"ce4bhq12rcd13ifvqhhg","pricing_plan_id":"free"},{"bike_id":"1c2d0826-7dc1-4775-aefb-7d1af9c4fca0","system_id":"levelo_inurba_marseille","lat":43.292569,"lon":5.409107,"is_reserved":false,"is_disabled":false,"rental_uris":{"android":"levelo://app?vid=1c2d0826-7dc1-4775-aefb-7d1af9c4fca0","ios":"levelo://app?vid=1c2d0826-7dc1-4775-aefb-7d1af9c4fca0"},"vehicle_type_id":"4","last_reported":1702883231,"current_range_meters":18400,"station_id":"ce4bh192rcd13ifvqdc0","pricing_plan_id":"free"},{"bike_id":"8b89a6cf-b837-45b4-ae98-4ba2c5780b41","system_id":"levelo_inurba_marseille","lat":43.325243,"lon":5.414326,"is_reserved":false,"is_disabled":false,"rental_uris":{"android":"levelo://app?vid=8b89a6cf-b837-45b4-ae98-4ba2c5780b41","ios":"levelo://app?vid=8b89a6cf-b837-45b4-ae98-4ba2c5780b41"},"vehicle_type_id":"4","last_reported":1702883231,"current_range_meters":27600,"station_id":"ce4bhq12rcd13ifvqhhg","pricing_plan_id":"free"},{"bike_id":"86d2f5c5-630e-4ab8-a5c7-ebfc36dd185a","system_id":"levelo_inurba_marseille","lat":43.276165,"lon":5.36114,"is_reserved":false,"is_disabled":false,"rental_uris":{"android":"levelo://app?vid=86d2f5c5-630e-4ab8-a5c7-ebfc36dd185a","ios":"levelo://app?vid=86d2f5c5-630e-4ab8-a5c7-ebfc36dd185a"},"vehicle_type_id":"4","last_reported":1702883231,"current_range_meters":22400,"station_id":"ce4bgj92rcd13ifvqbe0","pricing_plan_id":"free"},{"bike_id":"da7888f8-ae16-4325-abc9-8e05de5b6ab5","system_id":"levelo_inurba_marseille","lat":43.27616,"lon":5.36108,"is_reserved":false,"is_disabled":false,"rental_uris":{"android":"levelo://app?vid=da7888f8-ae16-4325-abc9-8e05de5b6ab5","ios":"levelo://app?vid=da7888f8-ae16-4325-abc9-8e05de5b6ab5"},"vehicle_type_id":"4","last_reported":1702883231,"current_range_meters":12800,"station_id":"ce4bgj92rcd13ifvqbe0","pricing_plan_id":"free"},{"bike_id":"a803af6a-6f18-4a80-a53f-88028abe7744","system_id":"levelo_inurba_marseille","lat":43.325233,"lon":5.414318,"is_reserved":false,"is_disabled":false,"rental_uris":{"android":"levelo://app?vid=a803af6a-6f18-4a80-a53f-88028abe7744","ios":"levelo://app?vid=a803af6a-6f18-4a80-a53f-88028abe7744"},"vehicle_type_id":"4","last_reported":1702883231,"current_range_meters":31600,"station_id":"ce4bhq12rcd13ifvqhhg","pricing_plan_id":"free"},{"bike_id":"6439764e-1017-4b79-b1ee-0830cac99bcd","system_id":"levelo_inurba_marseille","lat":43.325233,"lon":5.414318,"is_reserved":false,"is_disabled":false,"rental_uris":{"android":"levelo://app?vid=6439764e-1017-4b79-b1ee-0830cac99bcd","ios":"levelo://app?vid=6439764e-1017-4b79-b1ee-0830cac99bcd"},"vehicle_type_id":"4","last_reported":1702883231,"current_range_meters":27200,"station_id":"ce4bhq12rcd13ifvqhhg","pricing_plan_id":"free"},{"bike_id":"58ada6ab-d1f9-466f-8fbb-598d5159b236","system_id":"levelo_inurba_marseille","lat":43.27379,"lon":5.36255,"is_reserved":false,"is_disabled":false,"rental_uris":{"android":"levelo://app?vid=58ada6ab-d1f9-466f-8fbb-598d5159b236","ios":"levelo://app?vid=58ada6ab-d1f9-466f-8fbb-598d5159b236"},"vehicle_type_id":"4","last_reported":1702883231,"current_range_meters":27200,"station_id":"ce4bhbh2rcd13ifvqeo0","pricing_plan_id":"free"},{"bike_id":"e0cd3a40-1fd5-431f-8ec2-5e2a03862373","system_id":"levelo_inurba_marseille","lat":43.336134,"lon":5.410341,"is_reserved":false,"is_disabled":false,"rental_uris":{"android":"levelo://app?vid=e0cd3a40-1fd5-431f-8ec2-5e2a03862373","ios":"levelo://app?vid=e0cd3a40-1fd5-431f-8ec2-5e2a03862373"},"vehicle_type_id":"4","last_reported":1702883231,"current_range_meters":31600,"station_id":"ce4bhqh2rcd13ifvqhmg","pricing_plan_id":"free"},{"bike_id":"73bab7f4-fb2d-40ae-8e6d-6d9b2737007d","system_id":"levelo_inurba_marseille","lat":43.336134,"lon":5.410341,"is_reserved":false,"is_disabled":false,"rental_uris":{"android":"levelo://app?vid=73bab7f4-fb2d-40ae-8e6d-6d9b2737007d","ios":"levelo://app?vid=73bab7f4-fb2d-40ae-8e6d-6d9b2737007d"},"vehicle_type_id":"4","last_reported":1702883231,"current_range_meters":28400,"station_id":"ce4bhqh2rcd13ifvqhmg","pricing_plan_id":"free"},{"bike_id":"9d472012-eed1-4527-8c81-76cacbe40e57","system_id":"levelo_inurba_marseille","lat":43.336134,"lon":5.410341,"is_reserved":false,"is_disabled":false,"rental_uris":{"android":"levelo://app?vid=9d472012-eed1-4527-8c81-76cacbe40e57","ios":"levelo://app?vid=9d472012-eed1-4527-8c81-76cacbe40e57"},"vehicle_type_id":"4","last_reported":1702883231,"current_range_meters":17200,"station_id":"ce4bhqh2rcd13ifvqhmg","pricing_plan_id":"free"},{"bike_id":"295c28c4-735e-457f-9433-970fe94ae9da","system_id":"levelo_inurba_marseille","lat":43.336134,"lon":5.410341,"is_reserved":false,"is_disabled":false,"rental_uris":{"android":"levelo://app?vid=295c28c4-735e-457f-9433-970fe94ae9da","ios":"levelo://app?vid=295c28c4-735e-457f-9433-970fe94ae9da"},"vehicle_type_id":"4","last_reported":1702883231,"current_range_meters":20800,"station_id":"ce4bhqh2rcd13ifvqhmg","pricing_plan_id":"free"},{"bike_id":"cbd17d66-b1f4-4562-a574-309bcde1e874","system_id":"levelo_inurba_marseille","lat":43.279952,"lon":5.400085,"is_reserved":false,"is_disabled":false,"rental_uris":{"android":"levelo://app?vid=cbd17d66-b1f4-4562-a574-309bcde1e874","ios":"levelo://app?vid=cbd17d66-b1f4-4562-a574-309bcde1e874"},"vehicle_type_id":"4","last_reported":1702883231,"current_range_meters":30800,"station_id":"ce4bho92rcd13ifvqh4g","pricing_plan_id":"free"},{"bike_id":"ba23a49f-f752-40f9-b881-d731ba920e07","system_id":"levelo_inurba_marseille","lat":43.325395,"lon":5.421229,"is_reserved":false,"is_disabled":false,"rental_uris":{"android":"levelo://app?vid=ba23a49f-f752-40f9-b881-d731ba920e07","ios":"levelo://app?vid=ba23a49f-f752-40f9-b881-d731ba920e07"},"vehicle_type_id":"4","last_reported":1702883231,"current_range_meters":29200,"station_id":"","pricing_plan_id":"free"},{"bike_id":"5a820917-d3f1-4eb5-933c-bfc2eae402e7","system_id":"levelo_inurba_marseille","lat":43.340804,"lon":5.410219,"is_reserved":false,"is_disabled":false,"rental_uris":{"android":"levelo://app?vid=5a820917-d3f1-4eb5-933c-bfc2eae402e7","ios":"levelo://app?vid=5a820917-d3f1-4eb5-933c-bfc2eae402e7"},"vehicle_type_id":"4","last_reported":1702883231,"current_range_meters":31600,"station_id":"ce4bhqh2rcd13ifvqhlg","pricing_plan_id":"free"},{"bike_id":"52ad25d1-85ee-4e91-82a9-532d7f28246e","system_id":"levelo_inurba_marseille","lat":43.340804,"lon":5.410219,"is_reserved":false,"is_disabled":false,"rental_uris":{"android":"levelo://app?vid=52ad25d1-85ee-4e91-82a9-532d7f28246e","ios":"levelo://app?vid=52ad25d1-85ee-4e91-82a9-532d7f28246e"},"vehicle_type_id":"4","last_reported":1702883231,"current_range_meters":25200,"station_id":"ce4bhqh2rcd13ifvqhlg","pricing_plan_id":"free"},{"bike_id":"3ca2c2d2-99b0-4aa6-a05d-e30f02e6a7fb","system_id":"levelo_inurba_marseille","lat":43.276092,"lon":5.395289,"is_reserved":false,"is_disabled":false,"rental_uris":{"android":"levelo://app?vid=3ca2c2d2-99b0-4aa6-a05d-e30f02e6a7fb","ios":"levelo://app?vid=3ca2c2d2-99b0-4aa6-a05d-e30f02e6a7fb"},"vehicle_type_id":"4","last_reported":1702883231,"current_range_meters":14400,"station_id":"","pricing_plan_id":"free"},{"bike_id":"bf57570b-13f5-4aa7-b54e-ec0258270857","system_id":"levelo_inurba_marseille","lat":43.274103,"lon":5.394016,"is_reserved":false,"is_disabled":false,"rental_uris":{"android":"levelo://app?vid=bf57570b-13f5-4aa7-b54e-ec0258270857","ios":"levelo://app?vid=bf57570b-13f5-4aa7-b54e-ec0258270857"},"vehicle_type_id":"4","last_reported":1702883231,"current_range_meters":30400,"station_id":"ce4bhdp2rcd13ifvqf20","pricing_plan_id":"free"},{"bike_id":"ee26fdec-c456-46d9-87d2-5beda42841e4","system_id":"levelo_inurba_marseille","lat":43.274099,"lon":5.394019,"is_reserved":false,"is_disabled":false,"rental_uris":{"android":"levelo://app?vid=ee26fdec-c456-46d9-87d2-5beda42841e4","ios":"levelo://app?vid=ee26fdec-c456-46d9-87d2-5beda42841e4"},"vehicle_type_id":"4","last_reported":1702883231,"current_range_meters":20000,"station_id":"ce4bhdp2rcd13ifvqf20","pricing_plan_id":"free"},{"bike_id":"27e2ef33-286c-4332-b1a9-71016ce44dee","system_id":"levelo_inurba_marseille","lat":43.30417,"lon":5.42537,"is_reserved":false,"is_disabled":false,"rental_uris":{"android":"levelo://app?vid=27e2ef33-286c-4332-b1a9-71016ce44dee","ios":"levelo://app?vid=27e2ef33-286c-4332-b1a9-71016ce44dee"},"vehicle_type_id":"4","last_reported":1702883231,"current_range_meters":0,"station_id":"ce4bhoh2rcd13ifvqh6g","pricing_plan_id":"free"},{"bike_id":"bd889d21-a0bd-40b0-b41b-49629447ae8d","system_id":"levelo_inurba_marseille","lat":43.295511,"lon":5.422926,"is_reserved":false,"is_disabled":false,"rental_uris":{"android":"levelo://app?vid=bd889d21-a0bd-40b0-b41b-49629447ae8d","ios":"levelo://app?vid=bd889d21-a0bd-40b0-b41b-49629447ae8d"},"vehicle_type_id":"4","last_reported":1702883231,"current_range_meters":31600,"station_id":"ce4bhph2rcd13ifvqhdg","pricing_plan_id":"free"},{"bike_id":"6ce46d8b-eab3-4509-bce2-112ff2d1c3b6","system_id":"levelo_inurba_marseille","lat":43.295523,"lon":5.422926,"is_reserved":false,"is_disabled":false,"rental_uris":{"android":"levelo://app?vid=6ce46d8b-eab3-4509-bce2-112ff2d1c3b6","ios":"levelo://app?vid=6ce46d8b-eab3-4509-bce2-112ff2d1c3b6"},"vehicle_type_id":"4","last_reported":1702883231,"current_range_meters":31200,"station_id":"ce4bhph2rcd13ifvqhdg","pricing_plan_id":"free"},{"bike_id":"34132faa-b6c8-4bc8-bb2b-2e126b5f036e","system_id":"levelo_inurba_marseille","lat":43.295511,"lon":5.422926,"is_reserved":false,"is_disabled":false,"rental_uris":{"android":"levelo://app?vid=34132faa-b6c8-4bc8-bb2b-2e126b5f036e","ios":"levelo://app?vid=34132faa-b6c8-4bc8-bb2b-2e126b5f036e"},"vehicle_type_id":"4","last_reported":1702883231,"current_range_meters":4400,"station_id":"ce4bhph2rcd13ifvqhdg","pricing_plan_id":"free"},{"bike_id":"628a1844-4de6-4ff8-b7b8-44bb12a39376","system_id":"levelo_inurba_marseille","lat":43.295511,"lon":5.422926,"is_reserved":false,"is_disabled":false,"rental_uris":{"android":"levelo://app?vid=628a1844-4de6-4ff8-b7b8-44bb12a39376","ios":"levelo://app?vid=628a1844-4de6-4ff8-b7b8-44bb12a39376"},"vehicle_type_id":"4","last_reported":1702883231,"current_range_meters":15600,"station_id":"ce4bhph2rcd13ifvqhdg","pricing_plan_id":"free"},{"bike_id":"7c5e5a9a-9f39-4a14-9573-d5b8ab599dd5","system_id":"levelo_inurba_marseille","lat":43.27188,"lon":5.39224,"is_reserved":false,"is_disabled":false,"rental_uris":{"android":"levelo://app?vid=7c5e5a9a-9f39-4a14-9573-d5b8ab599dd5","ios":"levelo://app?vid=7c5e5a9a-9f39-4a14-9573-d5b8ab599dd5"},"vehicle_type_id":"4","last_reported":1702883231,"current_range_meters":15200,"station_id":"ce4bhhp2rcd13ifvqfm0","pricing_plan_id":"free"},{"bike_id":"49484e60-f8f7-4099-a194-850e2e238bf1","system_id":"levelo_inurba_marseille","lat":43.278128,"lon":5.407195,"is_reserved":false,"is_disabled":false,"rental_uris":{"android":"levelo://app?vid=49484e60-f8f7-4099-a194-850e2e238bf1","ios":"levelo://app?vid=49484e60-f8f7-4099-a194-850e2e238bf1"},"vehicle_type_id":"4","last_reported":1702883231,"current_range_meters":31600,"station_id":"ce4bhnh2rcd13ifvqgtg","pricing_plan_id":"free"},{"bike_id":"2c7a4f9f-bdaf-4205-9580-4d41af4f984e","system_id":"levelo_inurba_marseille","lat":43.269467,"lon":5.386439,"is_reserved":false,"is_disabled":false,"rental_uris":{"android":"levelo://app?vid=2c7a4f9f-bdaf-4205-9580-4d41af4f984e","ios":"levelo://app?vid=2c7a4f9f-bdaf-4205-9580-4d41af4f984e"},"vehicle_type_id":"4","last_reported":1702883231,"current_range_meters":10000,"station_id":"ce4bhh92rcd13ifvqfh0","pricing_plan_id":"free"},{"bike_id":"4e28060e-9452-47f9-ab79-c1e996b11afa","system_id":"levelo_inurba_marseille","lat":43.269467,"lon":5.386439,"is_reserved":false,"is_disabled":false,"rental_uris":{"android":"levelo://app?vid=4e28060e-9452-47f9-ab79-c1e996b11afa","ios":"levelo://app?vid=4e28060e-9452-47f9-ab79-c1e996b11afa"},"vehicle_type_id":"4","last_reported":1702883231,"current_range_meters":4000,"station_id":"ce4bhh92rcd13ifvqfh0","pricing_plan_id":"free"},{"bike_id":"a6014306-5700-4349-89fb-040ccd3df968","system_id":"levelo_inurba_marseille","lat":43.269467,"lon":5.386439,"is_reserved":false,"is_disabled":false,"rental_uris":{"android":"levelo://app?vid=a6014306-5700-4349-89fb-040ccd3df968","ios":"levelo://app?vid=a6014306-5700-4349-89fb-040ccd3df968"},"vehicle_type_id":"4","last_reported":1702883231,"current_range_meters":30800,"station_id":"ce4bhh92rcd13ifvqfh0","pricing_plan_id":"free"},{"bike_id":"aac0bd5b-e64d-4456-9a99-fd2727b7d938","system_id":"levelo_inurba_marseille","lat":43.27947,"lon":5.41051,"is_reserved":false,"is_disabled":false,"rental_uris":{"android":"levelo://app?vid=aac0bd5b-e64d-4456-9a99-fd2727b7d938","ios":"levelo://app?vid=aac0bd5b-e64d-4456-9a99-fd2727b7d938"},"vehicle_type_id":"4","last_reported":1702883231,"current_range_meters":0,"station_id":"ce4bhnp2rcd13ifvqh0g","pricing_plan_id":"free"},{"bike_id":"db774753-4382-453e-a138-c32d538f9839","system_id":"levelo_inurba_marseille","lat":43.358673,"lon":5.356887,"is_reserved":false,"is_disabled":false,"rental_uris":{"android":"levelo://app?vid=db774753-4382-453e-a138-c32d538f9839","ios":"levelo://app?vid=db774753-4382-453e-a138-c32d538f9839"},"vehicle_type_id":"4","last_reported":1702883231,"current_range_meters":10400,"station_id":"","pricing_plan_id":"free"},{"bike_id":"895ed91a-a9a2-4a4f-a162-0a886a239682","system_id":"levelo_inurba_marseille","lat":43.2656,"lon":5.37283,"is_reserved":false,"is_disabled":false,"rental_uris":{"android":"levelo://app?vid=895ed91a-a9a2-4a4f-a162-0a886a239682","ios":"levelo://app?vid=895ed91a-a9a2-4a4f-a162-0a886a239682"},"vehicle_type_id":"4","last_reported":1702883231,"current_range_meters":28800,"station_id":"ce4bhg12rcd13ifvqf70","pricing_plan_id":"free"},{"bike_id":"716c9dd2-78bf-494e-a669-c8e867d5bdf2","system_id":"levelo_inurba_marseille","lat":43.2656,"lon":5.37284,"is_reserved":false,"is_disabled":false,"rental_uris":{"android":"levelo://app?vid=716c9dd2-78bf-494e-a669-c8e867d5bdf2","ios":"levelo://app?vid=716c9dd2-78bf-494e-a669-c8e867d5bdf2"},"vehicle_type_id":"4","last_reported":1702883231,"current_range_meters":24000,"station_id":"ce4bhg12rcd13ifvqf70","pricing_plan_id":"free"},{"bike_id":"90b4af50-401d-4568-ab83-d4feae404bd8","system_id":"levelo_inurba_marseille","lat":43.26558,"lon":5.37286,"is_reserved":false,"is_disabled":false,"rental_uris":{"android":"levelo://app?vid=90b4af50-401d-4568-ab83-d4feae404bd8","ios":"levelo://app?vid=90b4af50-401d-4568-ab83-d4feae404bd8"},"vehicle_type_id":"4","last_reported":1702883231,"current_range_meters":26000,"station_id":"ce4bhg12rcd13ifvqf70","pricing_plan_id":"free"},{"bike_id":"901bb220-0a30-44c2-a6f6-f06de372c421","system_id":"levelo_inurba_marseille","lat":43.26558,"lon":5.37287,"is_reserved":false,"is_disabled":false,"rental_uris":{"android":"levelo://app?vid=901bb220-0a30-44c2-a6f6-f06de372c421","ios":"levelo://app?vid=901bb220-0a30-44c2-a6f6-f06de372c421"},"vehicle_type_id":"4","last_reported":1702883231,"current_range_meters":28800,"station_id":"ce4bhg12rcd13ifvqf70","pricing_plan_id":"free"},{"bike_id":"ed21043a-159f-4571-8443-060395876ac8","system_id":"levelo_inurba_marseille","lat":43.265714,"lon":5.372891,"is_reserved":false,"is_disabled":false,"rental_uris":{"android":"levelo://app?vid=ed21043a-159f-4571-8443-060395876ac8","ios":"levelo://app?vid=ed21043a-159f-4571-8443-060395876ac8"},"vehicle_type_id":"4","last_reported":1702883231,"current_range_meters":29200,"station_id":"ce4bhg12rcd13ifvqf70","pricing_plan_id":"free"},{"bike_id":"1ac06528-e4d9-49db-8c40-00fe5cad7349","system_id":"levelo_inurba_marseille","lat":43.265714,"lon":5.372891,"is_reserved":false,"is_disabled":false,"rental_uris":{"android":"levelo://app?vid=1ac06528-e4d9-49db-8c40-00fe5cad7349","ios":"levelo://app?vid=1ac06528-e4d9-49db-8c40-00fe5cad7349"},"vehicle_type_id":"4","last_reported":1702883231,"current_range_meters":11600,"station_id":"ce4bhg12rcd13ifvqf70","pricing_plan_id":"free"},{"bike_id":"6c5b5142-8085-4891-bc53-c596acef58b4","system_id":"levelo_inurba_marseille","lat":43.265714,"lon":5.372891,"is_reserved":false,"is_disabled":false,"rental_uris":{"android":"levelo://app?vid=6c5b5142-8085-4891-bc53-c596acef58b4","ios":"levelo://app?vid=6c5b5142-8085-4891-bc53-c596acef58b4"},"vehicle_type_id":"4","last_reported":1702883231,"current_range_meters":28400,"station_id":"ce4bhg12rcd13ifvqf70","pricing_plan_id":"free"},{"bike_id":"763ab4bc-621f-4599-8fca-8cd5990ef533","system_id":"levelo_inurba_marseille","lat":43.265714,"lon":5.372891,"is_reserved":false,"is_disabled":false,"rental_uris":{"android":"levelo://app?vid=763ab4bc-621f-4599-8fca-8cd5990ef533","ios":"levelo://app?vid=763ab4bc-621f-4599-8fca-8cd5990ef533"},"vehicle_type_id":"4","last_reported":1702883231,"current_range_meters":21600,"station_id":"ce4bhg12rcd13ifvqf70","pricing_plan_id":"free"},{"bike_id":"915367ca-16a6-47a0-ab91-f37f8d0c62e1","system_id":"levelo_inurba_marseille","lat":43.27996,"lon":5.416624,"is_reserved":false,"is_disabled":false,"rental_uris":{"android":"levelo://app?vid=915367ca-16a6-47a0-ab91-f37f8d0c62e1","ios":"levelo://app?vid=915367ca-16a6-47a0-ab91-f37f8d0c62e1"},"vehicle_type_id":"4","last_reported":1702883231,"current_range_meters":20000,"station_id":"ce4bho12rcd13ifvqh1g","pricing_plan_id":"free"},{"bike_id":"65775943-c61b-4f6b-8d98-0189049620fe","system_id":"levelo_inurba_marseille","lat":43.27996,"lon":5.416624,"is_reserved":false,"is_disabled":false,"rental_uris":{"android":"levelo://app?vid=65775943-c61b-4f6b-8d98-0189049620fe","ios":"levelo://app?vid=65775943-c61b-4f6b-8d98-0189049620fe"},"vehicle_type_id":"4","last_reported":1702883231,"current_range_meters":1200,"station_id":"ce4bho12rcd13ifvqh1g","pricing_plan_id":"free"},{"bike_id":"02079aec-e424-4f31-8cf2-a54be127de43","system_id":"levelo_inurba_marseille","lat":43.27996,"lon":5.416624,"is_reserved":false,"is_disabled":false,"rental_uris":{"android":"levelo://app?vid=02079aec-e424-4f31-8cf2-a54be127de43","ios":"levelo://app?vid=02079aec-e424-4f31-8cf2-a54be127de43"},"vehicle_type_id":"4","last_reported":1702883231,"current_range_meters":400,"station_id":"ce4bho12rcd13ifvqh1g","pricing_plan_id":"free"},{"bike_id":"6abfd672-edce-4506-8ac1-6a27b1d3fe2a","system_id":"levelo_inurba_marseille","lat":43.27996,"lon":5.416624,"is_reserved":false,"is_disabled":false,"rental_uris":{"android":"levelo://app?vid=6abfd672-edce-4506-8ac1-6a27b1d3fe2a","ios":"levelo://app?vid=6abfd672-edce-4506-8ac1-6a27b1d3fe2a"},"vehicle_type_id":"4","last_reported":1702883231,"current_range_meters":31600,"station_id":"ce4bho12rcd13ifvqh1g","pricing_plan_id":"free"},{"bike_id":"8a149746-d52c-4b6b-a094-dae4fcf50de5","system_id":"levelo_inurba_marseille","lat":43.267966,"lon":5.393976,"is_reserved":false,"is_disabled":false,"rental_uris":{"android":"levelo://app?vid=8a149746-d52c-4b6b-a094-dae4fcf50de5","ios":"levelo://app?vid=8a149746-d52c-4b6b-a094-dae4fcf50de5"},"vehicle_type_id":"4","last_reported":1702883231,"current_range_meters":17200,"station_id":"ce4bhh12rcd13ifvqfg0","pricing_plan_id":"free"},{"bike_id":"6abfc991-c753-403f-b700-283e07d37441","system_id":"levelo_inurba_marseille","lat":43.267966,"lon":5.393976,"is_reserved":false,"is_disabled":false,"rental_uris":{"android":"levelo://app?vid=6abfc991-c753-403f-b700-283e07d37441","ios":"levelo://app?vid=6abfc991-c753-403f-b700-283e07d37441"},"vehicle_type_id":"4","last_reported":1702883231,"current_range_meters":30800,"station_id":"ce4bhh12rcd13ifvqfg0","pricing_plan_id":"free"},{"bike_id":"58f56a40-9ad9-4329-b20f-f5c225a2753a","system_id":"levelo_inurba_marseille","lat":43.26572,"lon":5.39016,"is_reserved":false,"is_disabled":false,"rental_uris":{"android":"levelo://app?vid=58f56a40-9ad9-4329-b20f-f5c225a2753a","ios":"levelo://app?vid=58f56a40-9ad9-4329-b20f-f5c225a2753a"},"vehicle_type_id":"4","last_reported":1702883231,"current_range_meters":20800,"station_id":"ce4bhe12rcd13ifvqf30","pricing_plan_id":"free"},{"bike_id":"70a17b7c-7a3a-44e2-b69b-6a28362fbb4f","system_id":"levelo_inurba_marseille","lat":43.26569,"lon":5.39018,"is_reserved":false,"is_disabled":false,"rental_uris":{"android":"levelo://app?vid=70a17b7c-7a3a-44e2-b69b-6a28362fbb4f","ios":"levelo://app?vid=70a17b7c-7a3a-44e2-b69b-6a28362fbb4f"},"vehicle_type_id":"4","last_reported":1702883231,"current_range_meters":1600,"station_id":"ce4bhe12rcd13ifvqf30","pricing_plan_id":"free"},{"bike_id":"7a6af108-6355-4d85-9213-ca56151380c7","system_id":"levelo_inurba_marseille","lat":43.262012,"lon":5.379307,"is_reserved":false,"is_disabled":false,"rental_uris":{"android":"levelo://app?vid=7a6af108-6355-4d85-9213-ca56151380c7","ios":"levelo://app?vid=7a6af108-6355-4d85-9213-ca56151380c7"},"vehicle_type_id":"4","last_reported":1702883231,"current_range_meters":30400,"station_id":"ce4bhjp2rcd13ifvqg90","pricing_plan_id":"free"},{"bike_id":"401c3d2e-e4f6-41cf-b169-f6c01e61aa12","system_id":"levelo_inurba_marseille","lat":43.298768,"lon":5.43643,"is_reserved":false,"is_disabled":false,"rental_uris":{"android":"levelo://app?vid=401c3d2e-e4f6-41cf-b169-f6c01e61aa12","ios":"levelo://app?vid=401c3d2e-e4f6-41cf-b169-f6c01e61aa12"},"vehicle_type_id":"4","last_reported":1702883231,"current_range_meters":31600,"station_id":"ce4bhpp2rcd13ifvqhfg","pricing_plan_id":"free"},{"bike_id":"56bd6f6b-8a67-44c3-971c-fc9d8fe731fc","system_id":"levelo_inurba_marseille","lat":43.298768,"lon":5.43643,"is_reserved":false,"is_disabled":false,"rental_uris":{"android":"levelo://app?vid=56bd6f6b-8a67-44c3-971c-fc9d8fe731fc","ios":"levelo://app?vid=56bd6f6b-8a67-44c3-971c-fc9d8fe731fc"},"vehicle_type_id":"4","last_reported":1702883231,"current_range_meters":31600,"station_id":"ce4bhpp2rcd13ifvqhfg","pricing_plan_id":"free"},{"bike_id":"0fb74b89-115a-44e5-bf69-7c778a4aa163","system_id":"levelo_inurba_marseille","lat":43.298918,"lon":5.436674,"is_reserved":false,"is_disabled":false,"rental_uris":{"android":"levelo://app?vid=0fb74b89-115a-44e5-bf69-7c778a4aa163","ios":"levelo://app?vid=0fb74b89-115a-44e5-bf69-7c778a4aa163"},"vehicle_type_id":"4","last_reported":1702883231,"current_range_meters":24000,"station_id":"ce4bhpp2rcd13ifvqhfg","pricing_plan_id":"free"},{"bike_id":"c2167490-6be9-498c-b423-bd4d5928adb2","system_id":"levelo_inurba_marseille","lat":43.298934,"lon":5.436687,"is_reserved":false,"is_disabled":false,"rental_uris":{"android":"levelo://app?vid=c2167490-6be9-498c-b423-bd4d5928adb2","ios":"levelo://app?vid=c2167490-6be9-498c-b423-bd4d5928adb2"},"vehicle_type_id":"4","last_reported":1702883231,"current_range_meters":28400,"station_id":"ce4bhpp2rcd13ifvqhfg","pricing_plan_id":"free"},{"bike_id":"2737255d-fa68-4586-9e3b-54a6ad3d9547","system_id":"levelo_inurba_marseille","lat":43.275028,"lon":5.424534,"is_reserved":false,"is_disabled":false,"rental_uris":{"android":"levelo://app?vid=2737255d-fa68-4586-9e3b-54a6ad3d9547","ios":"levelo://app?vid=2737255d-fa68-4586-9e3b-54a6ad3d9547"},"vehicle_type_id":"4","last_reported":1702883231,"current_range_meters":20400,"station_id":"ce4bhn92rcd13ifvqgrg","pricing_plan_id":"free"},{"bike_id":"4d2f94b6-89fd-4934-b631-4bde17164171","system_id":"levelo_inurba_marseille","lat":43.26023,"lon":5.3755,"is_reserved":false,"is_disabled":false,"rental_uris":{"android":"levelo://app?vid=4d2f94b6-89fd-4934-b631-4bde17164171","ios":"levelo://app?vid=4d2f94b6-89fd-4934-b631-4bde17164171"},"vehicle_type_id":"4","last_reported":1702883231,"current_range_meters":28000,"station_id":"ce4bhgh2rcd13ifvqfa0","pricing_plan_id":"free"},{"bike_id":"41cd7846-2148-4afe-91de-7a56ff1d7c12","system_id":"levelo_inurba_marseille","lat":43.281548,"lon":5.42643,"is_reserved":false,"is_disabled":false,"rental_uris":{"android":"levelo://app?vid=41cd7846-2148-4afe-91de-7a56ff1d7c12","ios":"levelo://app?vid=41cd7846-2148-4afe-91de-7a56ff1d7c12"},"vehicle_type_id":"4","last_reported":1702883231,"current_range_meters":2400,"station_id":"ce4bhnh2rcd13ifvqgug","pricing_plan_id":"free"},{"bike_id":"451ace61-3c5d-48ea-9527-21e3f5af5823","system_id":"levelo_inurba_marseille","lat":43.281548,"lon":5.42643,"is_reserved":false,"is_disabled":false,"rental_uris":{"android":"levelo://app?vid=451ace61-3c5d-48ea-9527-21e3f5af5823","ios":"levelo://app?vid=451ace61-3c5d-48ea-9527-21e3f5af5823"},"vehicle_type_id":"4","last_reported":1702883231,"current_range_meters":13200,"station_id":"ce4bhnh2rcd13ifvqgug","pricing_plan_id":"free"},{"bike_id":"77bcf387-8f1d-48c5-b8d1-c23d5160fc93","system_id":"levelo_inurba_marseille","lat":43.25881,"lon":5.38875,"is_reserved":false,"is_disabled":false,"rental_uris":{"android":"levelo://app?vid=77bcf387-8f1d-48c5-b8d1-c23d5160fc93","ios":"levelo://app?vid=77bcf387-8f1d-48c5-b8d1-c23d5160fc93"},"vehicle_type_id":"4","last_reported":1702883231,"current_range_meters":18400,"station_id":"","pricing_plan_id":"free"},{"bike_id":"75c648ad-bb5c-498c-8702-26f3c1000389","system_id":"levelo_inurba_marseille","lat":43.275028,"lon":5.424534,"is_reserved":false,"is_disabled":false,"rental_uris":{"android":"levelo://app?vid=75c648ad-bb5c-498c-8702-26f3c1000389","ios":"levelo://app?vid=75c648ad-bb5c-498c-8702-26f3c1000389"},"vehicle_type_id":"4","last_reported":1702883231,"current_range_meters":20800,"station_id":"ce4bhn92rcd13ifvqgrg","pricing_plan_id":"free"},{"bike_id":"152e125e-7225-4ec6-8728-7823316384b7","system_id":"levelo_inurba_marseille","lat":43.275028,"lon":5.424534,"is_reserved":false,"is_disabled":false,"rental_uris":{"android":"levelo://app?vid=152e125e-7225-4ec6-8728-7823316384b7","ios":"levelo://app?vid=152e125e-7225-4ec6-8728-7823316384b7"},"vehicle_type_id":"4","last_reported":1702883231,"current_range_meters":23200,"station_id":"ce4bhn92rcd13ifvqgrg","pricing_plan_id":"free"},{"bike_id":"6a198bc7-c88f-4264-bd28-798ff934092f","system_id":"levelo_inurba_marseille","lat":43.275028,"lon":5.424534,"is_reserved":false,"is_disabled":false,"rental_uris":{"android":"levelo://app?vid=6a198bc7-c88f-4264-bd28-798ff934092f","ios":"levelo://app?vid=6a198bc7-c88f-4264-bd28-798ff934092f"},"vehicle_type_id":"4","last_reported":1702883231,"current_range_meters":26000,"station_id":"ce4bhn92rcd13ifvqgrg","pricing_plan_id":"free"},{"bike_id":"798bb3bc-2292-4785-8d78-de07a7b640e4","system_id":"levelo_inurba_marseille","lat":43.275028,"lon":5.424534,"is_reserved":false,"is_disabled":false,"rental_uris":{"android":"levelo://app?vid=798bb3bc-2292-4785-8d78-de07a7b640e4","ios":"levelo://app?vid=798bb3bc-2292-4785-8d78-de07a7b640e4"},"vehicle_type_id":"4","last_reported":1702883231,"current_range_meters":19200,"station_id":"ce4bhn92rcd13ifvqgrg","pricing_plan_id":"free"},{"bike_id":"b9e168a5-bfcd-4bea-9c6f-dd7e3cd7ad17","system_id":"levelo_inurba_marseille","lat":43.275028,"lon":5.424534,"is_reserved":false,"is_disabled":false,"rental_uris":{"android":"levelo://app?vid=b9e168a5-bfcd-4bea-9c6f-dd7e3cd7ad17","ios":"levelo://app?vid=b9e168a5-bfcd-4bea-9c6f-dd7e3cd7ad17"},"vehicle_type_id":"4","last_reported":1702883231,"current_range_meters":24400,"station_id":"ce4bhn92rcd13ifvqgrg","pricing_plan_id":"free"},{"bike_id":"82e1bcac-6eee-4604-b918-7a993f253195","system_id":"levelo_inurba_marseille","lat":43.275028,"lon":5.424534,"is_reserved":false,"is_disabled":false,"rental_uris":{"android":"levelo://app?vid=82e1bcac-6eee-4604-b918-7a993f253195","ios":"levelo://app?vid=82e1bcac-6eee-4604-b918-7a993f253195"},"vehicle_type_id":"4","last_reported":1702883231,"current_range_meters":24000,"station_id":"ce4bhn92rcd13ifvqgrg","pricing_plan_id":"free"},{"bike_id":"e82b9179-ac15-4808-988e-5b39d7493a22","system_id":"levelo_inurba_marseille","lat":43.275028,"lon":5.424534,"is_reserved":false,"is_disabled":false,"rental_uris":{"android":"levelo://app?vid=e82b9179-ac15-4808-988e-5b39d7493a22","ios":"levelo://app?vid=e82b9179-ac15-4808-988e-5b39d7493a22"},"vehicle_type_id":"4","last_reported":1702883231,"current_range_meters":23200,"station_id":"ce4bhn92rcd13ifvqgrg","pricing_plan_id":"free"},{"bike_id":"b41d8c65-a328-409e-a2f2-8750a4fd551a","system_id":"levelo_inurba_marseille","lat":43.275028,"lon":5.424534,"is_reserved":false,"is_disabled":false,"rental_uris":{"android":"levelo://app?vid=b41d8c65-a328-409e-a2f2-8750a4fd551a","ios":"levelo://app?vid=b41d8c65-a328-409e-a2f2-8750a4fd551a"},"vehicle_type_id":"4","last_reported":1702883231,"current_range_meters":6400,"station_id":"ce4bhn92rcd13ifvqgrg","pricing_plan_id":"free"},{"bike_id":"9d996e84-0694-4cd4-b5da-e9c86eaccfc0","system_id":"levelo_inurba_marseille","lat":43.275028,"lon":5.424534,"is_reserved":false,"is_disabled":false,"rental_uris":{"android":"levelo://app?vid=9d996e84-0694-4cd4-b5da-e9c86eaccfc0","ios":"levelo://app?vid=9d996e84-0694-4cd4-b5da-e9c86eaccfc0"},"vehicle_type_id":"4","last_reported":1702883231,"current_range_meters":12800,"station_id":"ce4bhn92rcd13ifvqgrg","pricing_plan_id":"free"},{"bike_id":"45baab9e-6fe0-4451-8ff2-5be7fb590c65","system_id":"levelo_inurba_marseille","lat":43.275028,"lon":5.424534,"is_reserved":false,"is_disabled":false,"rental_uris":{"android":"levelo://app?vid=45baab9e-6fe0-4451-8ff2-5be7fb590c65","ios":"levelo://app?vid=45baab9e-6fe0-4451-8ff2-5be7fb590c65"},"vehicle_type_id":"4","last_reported":1702883231,"current_range_meters":1600,"station_id":"ce4bhn92rcd13ifvqgrg","pricing_plan_id":"free"},{"bike_id":"ff00ffc6-1f36-457c-a38b-c213194d2ed3","system_id":"levelo_inurba_marseille","lat":43.275028,"lon":5.424534,"is_reserved":false,"is_disabled":false,"rental_uris":{"android":"levelo://app?vid=ff00ffc6-1f36-457c-a38b-c213194d2ed3","ios":"levelo://app?vid=ff00ffc6-1f36-457c-a38b-c213194d2ed3"},"vehicle_type_id":"4","last_reported":1702883231,"current_range_meters":800,"station_id":"ce4bhn92rcd13ifvqgrg","pricing_plan_id":"free"},{"bike_id":"d2007443-4338-42cb-923c-147041d30edf","system_id":"levelo_inurba_marseille","lat":43.275028,"lon":5.424534,"is_reserved":false,"is_disabled":false,"rental_uris":{"android":"levelo://app?vid=d2007443-4338-42cb-923c-147041d30edf","ios":"levelo://app?vid=d2007443-4338-42cb-923c-147041d30edf"},"vehicle_type_id":"4","last_reported":1702883231,"current_range_meters":31600,"station_id":"ce4bhn92rcd13ifvqgrg","pricing_plan_id":"free"},{"bike_id":"8ce65bd2-6385-4b97-8ac6-1877d7ca4f72","system_id":"levelo_inurba_marseille","lat":43.26088,"lon":5.39766,"is_reserved":false,"is_disabled":false,"rental_uris":{"android":"levelo://app?vid=8ce65bd2-6385-4b97-8ac6-1877d7ca4f72","ios":"levelo://app?vid=8ce65bd2-6385-4b97-8ac6-1877d7ca4f72"},"vehicle_type_id":"4","last_reported":1702883231,"current_range_meters":30000,"station_id":"","pricing_plan_id":"free"},{"bike_id":"6a24c9c2-0536-4d05-8056-8d8332f4bc28","system_id":"levelo_inurba_marseille","lat":43.275028,"lon":5.424534,"is_reserved":false,"is_disabled":false,"rental_uris":{"android":"levelo://app?vid=6a24c9c2-0536-4d05-8056-8d8332f4bc28","ios":"levelo://app?vid=6a24c9c2-0536-4d05-8056-8d8332f4bc28"},"vehicle_type_id":"4","last_reported":1702883231,"current_range_meters":31200,"station_id":"ce4bhn92rcd13ifvqgrg","pricing_plan_id":"free"},{"bike_id":"76e3fff9-a0c9-433b-8aed-24ad46435ac0","system_id":"levelo_inurba_marseille","lat":43.258224,"lon":5.394369,"is_reserved":false,"is_disabled":false,"rental_uris":{"android":"levelo://app?vid=76e3fff9-a0c9-433b-8aed-24ad46435ac0","ios":"levelo://app?vid=76e3fff9-a0c9-433b-8aed-24ad46435ac0"},"vehicle_type_id":"4","last_reported":1702883231,"current_range_meters":21600,"station_id":"ce4bhip2rcd13ifvqft0","pricing_plan_id":"free"},{"bike_id":"930e67bd-e030-4f3b-9df9-06489f2c815a","system_id":"levelo_inurba_marseille","lat":43.258224,"lon":5.394369,"is_reserved":false,"is_disabled":false,"rental_uris":{"android":"levelo://app?vid=930e67bd-e030-4f3b-9df9-06489f2c815a","ios":"levelo://app?vid=930e67bd-e030-4f3b-9df9-06489f2c815a"},"vehicle_type_id":"4","last_reported":1702883231,"current_range_meters":26400,"station_id":"ce4bhip2rcd13ifvqft0","pricing_plan_id":"free"},{"bike_id":"8f8ca80d-0df0-4f47-a7b5-5fe6d60e1474","system_id":"levelo_inurba_marseille","lat":43.25578,"lon":5.38235,"is_reserved":false,"is_disabled":false,"rental_uris":{"android":"levelo://app?vid=8f8ca80d-0df0-4f47-a7b5-5fe6d60e1474","ios":"levelo://app?vid=8f8ca80d-0df0-4f47-a7b5-5fe6d60e1474"},"vehicle_type_id":"4","last_reported":1702883231,"current_range_meters":22400,"station_id":"ce4bhih2rcd13ifvqfs0","pricing_plan_id":"free"},{"bike_id":"cdb4c6d3-a579-481e-ab78-1a443dd49b7f","system_id":"levelo_inurba_marseille","lat":43.255,"lon":5.37651,"is_reserved":false,"is_disabled":false,"rental_uris":{"android":"levelo://app?vid=cdb4c6d3-a579-481e-ab78-1a443dd49b7f","ios":"levelo://app?vid=cdb4c6d3-a579-481e-ab78-1a443dd49b7f"},"vehicle_type_id":"4","last_reported":1702883231,"current_range_meters":27600,"station_id":"ce4bhh12rcd13ifvqff0","pricing_plan_id":"free"},{"bike_id":"d65d5cad-06cc-48de-9c11-31495e8550f3","system_id":"levelo_inurba_marseille","lat":43.258658,"lon":5.398935,"is_reserved":false,"is_disabled":false,"rental_uris":{"android":"levelo://app?vid=d65d5cad-06cc-48de-9c11-31495e8550f3","ios":"levelo://app?vid=d65d5cad-06cc-48de-9c11-31495e8550f3"},"vehicle_type_id":"4","last_reported":1702883231,"current_range_meters":26800,"station_id":"ce4bhl92rcd13ifvqghg","pricing_plan_id":"free"},{"bike_id":"7b9dbebe-a91a-4333-86e7-f71bb8ba3e5e","system_id":"levelo_inurba_marseille","lat":43.25933,"lon":5.4091,"is_reserved":false,"is_disabled":false,"rental_uris":{"android":"levelo://app?vid=7b9dbebe-a91a-4333-86e7-f71bb8ba3e5e","ios":"levelo://app?vid=7b9dbebe-a91a-4333-86e7-f71bb8ba3e5e"},"vehicle_type_id":"4","last_reported":1702883231,"current_range_meters":16800,"station_id":"ce4bhm92rcd13ifvqglg","pricing_plan_id":"free"},{"bike_id":"61a4c449-70c1-4d31-941e-a3fe596474dd","system_id":"levelo_inurba_marseille","lat":43.259278,"lon":5.409126,"is_reserved":false,"is_disabled":false,"rental_uris":{"android":"levelo://app?vid=61a4c449-70c1-4d31-941e-a3fe596474dd","ios":"levelo://app?vid=61a4c449-70c1-4d31-941e-a3fe596474dd"},"vehicle_type_id":"4","last_reported":1702883231,"current_range_meters":29200,"station_id":"ce4bhm92rcd13ifvqglg","pricing_plan_id":"free"},{"bike_id":"5de7e0c6-dc2a-4ef0-8d20-99060be737bc","system_id":"levelo_inurba_marseille","lat":43.250009,"lon":5.389195,"is_reserved":false,"is_disabled":false,"rental_uris":{"android":"levelo://app?vid=5de7e0c6-dc2a-4ef0-8d20-99060be737bc","ios":"levelo://app?vid=5de7e0c6-dc2a-4ef0-8d20-99060be737bc"},"vehicle_type_id":"4","last_reported":1702883231,"current_range_meters":25200,"station_id":"ce4bhgp2rcd13ifvqfd0","pricing_plan_id":"free"},{"bike_id":"5e449f49-ca13-4ef8-9235-6524d074cf26","system_id":"levelo_inurba_marseille","lat":43.250023,"lon":5.38919,"is_reserved":false,"is_disabled":false,"rental_uris":{"android":"levelo://app?vid=5e449f49-ca13-4ef8-9235-6524d074cf26","ios":"levelo://app?vid=5e449f49-ca13-4ef8-9235-6524d074cf26"},"vehicle_type_id":"4","last_reported":1702883231,"current_range_meters":21200,"station_id":"ce4bhgp2rcd13ifvqfd0","pricing_plan_id":"free"},{"bike_id":"940581e8-38b2-41b0-b88a-e70262ef0848","system_id":"levelo_inurba_marseille","lat":43.25102,"lon":5.403214,"is_reserved":false,"is_disabled":false,"rental_uris":{"android":"levelo://app?vid=940581e8-38b2-41b0-b88a-e70262ef0848","ios":"levelo://app?vid=940581e8-38b2-41b0-b88a-e70262ef0848"},"vehicle_type_id":"4","last_reported":1702883231,"current_range_meters":18400,"station_id":"ce4bhlh2rcd13ifvqgig","pricing_plan_id":"free"},{"bike_id":"d8ceb2a8-18be-43c6-956b-be6402a8c876","system_id":"levelo_inurba_marseille","lat":43.25107,"lon":5.40322,"is_reserved":false,"is_disabled":false,"rental_uris":{"android":"levelo://app?vid=d8ceb2a8-18be-43c6-956b-be6402a8c876","ios":"levelo://app?vid=d8ceb2a8-18be-43c6-956b-be6402a8c876"},"vehicle_type_id":"4","last_reported":1702883231,"current_range_meters":0,"station_id":"ce4bhlh2rcd13ifvqgig","pricing_plan_id":"free"},{"bike_id":"20ecf436-3d75-4000-bfd1-f5ef49ceb726","system_id":"levelo_inurba_marseille","lat":43.25102,"lon":5.403214,"is_reserved":false,"is_disabled":false,"rental_uris":{"android":"levelo://app?vid=20ecf436-3d75-4000-bfd1-f5ef49ceb726","ios":"levelo://app?vid=20ecf436-3d75-4000-bfd1-f5ef49ceb726"},"vehicle_type_id":"4","last_reported":1702883231,"current_range_meters":8400,"station_id":"ce4bhlh2rcd13ifvqgig","pricing_plan_id":"free"},{"bike_id":"f392f14d-f32c-4167-a8f6-d6eb07ecbc11","system_id":"levelo_inurba_marseille","lat":43.246467,"lon":5.388984,"is_reserved":false,"is_disabled":false,"rental_uris":{"android":"levelo://app?vid=f392f14d-f32c-4167-a8f6-d6eb07ecbc11","ios":"levelo://app?vid=f392f14d-f32c-4167-a8f6-d6eb07ecbc11"},"vehicle_type_id":"4","last_reported":1702883231,"current_range_meters":28800,"station_id":"ce4bhg12rcd13ifvqf60","pricing_plan_id":"free"},{"bike_id":"a5f2392d-98ce-4d82-a2c5-f7f7da287637","system_id":"levelo_inurba_marseille","lat":43.243884,"lon":5.370737,"is_reserved":false,"is_disabled":false,"rental_uris":{"android":"levelo://app?vid=a5f2392d-98ce-4d82-a2c5-f7f7da287637","ios":"levelo://app?vid=a5f2392d-98ce-4d82-a2c5-f7f7da287637"},"vehicle_type_id":"4","last_reported":1702883231,"current_range_meters":8000,"station_id":"ce4bhhh2rcd13ifvqfk0","pricing_plan_id":"free"},{"bike_id":"6c1f0348-7ca4-45e5-a4cf-6b68ada7fd4d","system_id":"levelo_inurba_marseille","lat":43.245581,"lon":5.395069,"is_reserved":false,"is_disabled":false,"rental_uris":{"android":"levelo://app?vid=6c1f0348-7ca4-45e5-a4cf-6b68ada7fd4d","ios":"levelo://app?vid=6c1f0348-7ca4-45e5-a4cf-6b68ada7fd4d"},"vehicle_type_id":"4","last_reported":1702883231,"current_range_meters":24400,"station_id":"ce4bhlp2rcd13ifvqgjg","pricing_plan_id":"free"},{"bike_id":"2115f94b-71dc-4041-95fe-b8d2ad58e69c","system_id":"levelo_inurba_marseille","lat":43.245487,"lon":5.395227,"is_reserved":false,"is_disabled":false,"rental_uris":{"android":"levelo://app?vid=2115f94b-71dc-4041-95fe-b8d2ad58e69c","ios":"levelo://app?vid=2115f94b-71dc-4041-95fe-b8d2ad58e69c"},"vehicle_type_id":"4","last_reported":1702883231,"current_range_meters":12800,"station_id":"ce4bhlp2rcd13ifvqgjg","pricing_plan_id":"free"},{"bike_id":"4e0974c1-7c4e-427b-9aa5-13837c049286","system_id":"levelo_inurba_marseille","lat":43.240623,"lon":5.377642,"is_reserved":false,"is_disabled":false,"rental_uris":{"android":"levelo://app?vid=4e0974c1-7c4e-427b-9aa5-13837c049286","ios":"levelo://app?vid=4e0974c1-7c4e-427b-9aa5-13837c049286"},"vehicle_type_id":"4","last_reported":1702883231,"current_range_meters":23600,"station_id":"ce4bhnp2rcd13ifvqgvg","pricing_plan_id":"free"},{"bike_id":"6a2b9560-32a2-4a66-840d-df41e2022019","system_id":"levelo_inurba_marseille","lat":43.24077,"lon":5.37758,"is_reserved":false,"is_disabled":false,"rental_uris":{"android":"levelo://app?vid=6a2b9560-32a2-4a66-840d-df41e2022019","ios":"levelo://app?vid=6a2b9560-32a2-4a66-840d-df41e2022019"},"vehicle_type_id":"4","last_reported":1702883231,"current_range_meters":26800,"station_id":"ce4bhnp2rcd13ifvqgvg","pricing_plan_id":"free"},{"bike_id":"e78bc2af-e73f-494a-9aa6-6c457810cee4","system_id":"levelo_inurba_marseille","lat":43.24077,"lon":5.37758,"is_reserved":false,"is_disabled":false,"rental_uris":{"android":"levelo://app?vid=e78bc2af-e73f-494a-9aa6-6c457810cee4","ios":"levelo://app?vid=e78bc2af-e73f-494a-9aa6-6c457810cee4"},"vehicle_type_id":"4","last_reported":1702883231,"current_range_meters":14000,"station_id":"ce4bhnp2rcd13ifvqgvg","pricing_plan_id":"free"},{"bike_id":"2eff520d-0ff3-41f2-9ac1-37fcd441767c","system_id":"levelo_inurba_marseille","lat":43.24075,"lon":5.37757,"is_reserved":false,"is_disabled":false,"rental_uris":{"android":"levelo://app?vid=2eff520d-0ff3-41f2-9ac1-37fcd441767c","ios":"levelo://app?vid=2eff520d-0ff3-41f2-9ac1-37fcd441767c"},"vehicle_type_id":"4","last_reported":1702883231,"current_range_meters":20000,"station_id":"ce4bhnp2rcd13ifvqgvg","pricing_plan_id":"free"},{"bike_id":"87a97936-15e6-498e-8834-01329c279da4","system_id":"levelo_inurba_marseille","lat":43.24074,"lon":5.37762,"is_reserved":false,"is_disabled":false,"rental_uris":{"android":"levelo://app?vid=87a97936-15e6-498e-8834-01329c279da4","ios":"levelo://app?vid=87a97936-15e6-498e-8834-01329c279da4"},"vehicle_type_id":"4","last_reported":1702883231,"current_range_meters":27200,"station_id":"ce4bhnp2rcd13ifvqgvg","pricing_plan_id":"free"},{"bike_id":"93da6ba6-09bc-42c3-9941-50a719734970","system_id":"levelo_inurba_marseille","lat":43.24074,"lon":5.37764,"is_reserved":false,"is_disabled":false,"rental_uris":{"android":"levelo://app?vid=93da6ba6-09bc-42c3-9941-50a719734970","ios":"levelo://app?vid=93da6ba6-09bc-42c3-9941-50a719734970"},"vehicle_type_id":"4","last_reported":1702883231,"current_range_meters":13200,"station_id":"ce4bhnp2rcd13ifvqgvg","pricing_plan_id":"free"},{"bike_id":"849f6ac6-1bfe-4a72-baca-b54c80e1f546","system_id":"levelo_inurba_marseille","lat":43.240623,"lon":5.377642,"is_reserved":false,"is_disabled":false,"rental_uris":{"android":"levelo://app?vid=849f6ac6-1bfe-4a72-baca-b54c80e1f546","ios":"levelo://app?vid=849f6ac6-1bfe-4a72-baca-b54c80e1f546"},"vehicle_type_id":"4","last_reported":1702883231,"current_range_meters":27200,"station_id":"ce4bhnp2rcd13ifvqgvg","pricing_plan_id":"free"},{"bike_id":"961c2a3e-3ff3-4105-9e41-c0331b80848a","system_id":"levelo_inurba_marseille","lat":43.240623,"lon":5.377642,"is_reserved":false,"is_disabled":false,"rental_uris":{"android":"levelo://app?vid=961c2a3e-3ff3-4105-9e41-c0331b80848a","ios":"levelo://app?vid=961c2a3e-3ff3-4105-9e41-c0331b80848a"},"vehicle_type_id":"4","last_reported":1702883231,"current_range_meters":20800,"station_id":"ce4bhnp2rcd13ifvqgvg","pricing_plan_id":"free"},{"bike_id":"98cbe604-ea29-4ffb-8b6b-c83ac358b30f","system_id":"levelo_inurba_marseille","lat":43.240623,"lon":5.377642,"is_reserved":false,"is_disabled":false,"rental_uris":{"android":"levelo://app?vid=98cbe604-ea29-4ffb-8b6b-c83ac358b30f","ios":"levelo://app?vid=98cbe604-ea29-4ffb-8b6b-c83ac358b30f"},"vehicle_type_id":"4","last_reported":1702883231,"current_range_meters":4000,"station_id":"ce4bhnp2rcd13ifvqgvg","pricing_plan_id":"free"},{"bike_id":"2b0ce332-97bb-4c92-961a-331302cd0b08","system_id":"levelo_inurba_marseille","lat":43.240623,"lon":5.377642,"is_reserved":false,"is_disabled":false,"rental_uris":{"android":"levelo://app?vid=2b0ce332-97bb-4c92-961a-331302cd0b08","ios":"levelo://app?vid=2b0ce332-97bb-4c92-961a-331302cd0b08"},"vehicle_type_id":"4","last_reported":1702883231,"current_range_meters":0,"station_id":"ce4bhnp2rcd13ifvqgvg","pricing_plan_id":"free"},{"bike_id":"630cf2f9-baf1-4860-be47-7a66ce2ac839","system_id":"levelo_inurba_marseille","lat":43.239588,"lon":5.366238,"is_reserved":false,"is_disabled":false,"rental_uris":{"android":"levelo://app?vid=630cf2f9-baf1-4860-be47-7a66ce2ac839","ios":"levelo://app?vid=630cf2f9-baf1-4860-be47-7a66ce2ac839"},"vehicle_type_id":"4","last_reported":1702883231,"current_range_meters":21600,"station_id":"ce4bhi12rcd13ifvqfp0","pricing_plan_id":"free"},{"bike_id":"79c1c098-22a9-4d18-b134-c5729b437973","system_id":"levelo_inurba_marseille","lat":43.24155,"lon":5.39358,"is_reserved":false,"is_disabled":false,"rental_uris":{"android":"levelo://app?vid=79c1c098-22a9-4d18-b134-c5729b437973","ios":"levelo://app?vid=79c1c098-22a9-4d18-b134-c5729b437973"},"vehicle_type_id":"4","last_reported":1702883231,"current_range_meters":17600,"station_id":"","pricing_plan_id":"free"},{"bike_id":"83e81e69-db0f-47f9-a374-f01b664427a3","system_id":"levelo_inurba_marseille","lat":43.241782,"lon":5.397261,"is_reserved":false,"is_disabled":false,"rental_uris":{"android":"levelo://app?vid=83e81e69-db0f-47f9-a374-f01b664427a3","ios":"levelo://app?vid=83e81e69-db0f-47f9-a374-f01b664427a3"},"vehicle_type_id":"4","last_reported":1702883231,"current_range_meters":28400,"station_id":"ce4bhn12rcd13ifvqgpg","pricing_plan_id":"free"},{"bike_id":"7544b8c0-a29f-44c5-8842-21760cbddff8","system_id":"levelo_inurba_marseille","lat":43.241782,"lon":5.397261,"is_reserved":false,"is_disabled":false,"rental_uris":{"android":"levelo://app?vid=7544b8c0-a29f-44c5-8842-21760cbddff8","ios":"levelo://app?vid=7544b8c0-a29f-44c5-8842-21760cbddff8"},"vehicle_type_id":"4","last_reported":1702883231,"current_range_meters":30800,"station_id":"ce4bhn12rcd13ifvqgpg","pricing_plan_id":"free"},{"bike_id":"8fa8dcad-9213-4682-9e78-bced4d248910","system_id":"levelo_inurba_marseille","lat":43.23197,"lon":5.35549,"is_reserved":false,"is_disabled":false,"rental_uris":{"android":"levelo://app?vid=8fa8dcad-9213-4682-9e78-bced4d248910","ios":"levelo://app?vid=8fa8dcad-9213-4682-9e78-bced4d248910"},"vehicle_type_id":"4","last_reported":1702883231,"current_range_meters":9200,"station_id":"ce4bhu92rcd13ifvqi70","pricing_plan_id":"free"},{"bike_id":"deb8549c-895f-4c6d-b68c-130ea343f1e6","system_id":"levelo_inurba_marseille","lat":43.23193,"lon":5.3556,"is_reserved":false,"is_disabled":false,"rental_uris":{"android":"levelo://app?vid=deb8549c-895f-4c6d-b68c-130ea343f1e6","ios":"levelo://app?vid=deb8549c-895f-4c6d-b68c-130ea343f1e6"},"vehicle_type_id":"4","last_reported":1702883231,"current_range_meters":16800,"station_id":"ce4bhu92rcd13ifvqi70","pricing_plan_id":"free"},{"bike_id":"6407938b-389d-4533-9ecb-2228594d1ac0","system_id":"levelo_inurba_marseille","lat":43.23193,"lon":5.35546,"is_reserved":false,"is_disabled":false,"rental_uris":{"android":"levelo://app?vid=6407938b-389d-4533-9ecb-2228594d1ac0","ios":"levelo://app?vid=6407938b-389d-4533-9ecb-2228594d1ac0"},"vehicle_type_id":"4","last_reported":1702883231,"current_range_meters":12800,"station_id":"ce4bhu92rcd13ifvqi70","pricing_plan_id":"free"},{"bike_id":"d9e90a00-4eaf-4c9c-9eec-79e0be0c0bc3","system_id":"levelo_inurba_marseille","lat":43.23193,"lon":5.399769,"is_reserved":false,"is_disabled":false,"rental_uris":{"android":"levelo://app?vid=d9e90a00-4eaf-4c9c-9eec-79e0be0c0bc3","ios":"levelo://app?vid=d9e90a00-4eaf-4c9c-9eec-79e0be0c0bc3"},"vehicle_type_id":"4","last_reported":1702883231,"current_range_meters":10000,"station_id":"ce4bhn12rcd13ifvqgqg","pricing_plan_id":"free"},{"bike_id":"56e5134b-2d66-4511-b569-3c4bfa4ce73d","system_id":"levelo_inurba_marseille","lat":43.231903,"lon":5.399802,"is_reserved":false,"is_disabled":false,"rental_uris":{"android":"levelo://app?vid=56e5134b-2d66-4511-b569-3c4bfa4ce73d","ios":"levelo://app?vid=56e5134b-2d66-4511-b569-3c4bfa4ce73d"},"vehicle_type_id":"4","last_reported":1702883231,"current_range_meters":0,"station_id":"ce4bhn12rcd13ifvqgqg","pricing_plan_id":"free"},{"bike_id":"3ee0ea00-8e05-48c0-a38d-caf8a81146cd","system_id":"levelo_inurba_marseille","lat":43.231794,"lon":5.400052,"is_reserved":false,"is_disabled":false,"rental_uris":{"android":"levelo://app?vid=3ee0ea00-8e05-48c0-a38d-caf8a81146cd","ios":"levelo://app?vid=3ee0ea00-8e05-48c0-a38d-caf8a81146cd"},"vehicle_type_id":"4","last_reported":1702883231,"current_range_meters":31200,"station_id":"ce4bhn12rcd13ifvqgqg","pricing_plan_id":"free"},{"bike_id":"d5206a6c-92a9-4a75-8859-313a2b40fcd2","system_id":"levelo_inurba_marseille","lat":43.231793,"lon":5.400044,"is_reserved":false,"is_disabled":false,"rental_uris":{"android":"levelo://app?vid=d5206a6c-92a9-4a75-8859-313a2b40fcd2","ios":"levelo://app?vid=d5206a6c-92a9-4a75-8859-313a2b40fcd2"},"vehicle_type_id":"4","last_reported":1702883231,"current_range_meters":31600,"station_id":"ce4bhn12rcd13ifvqgqg","pricing_plan_id":"free"},{"bike_id":"9eda3020-71fa-42b3-86ef-c71f0f5d8c14","system_id":"levelo_inurba_marseille","lat":43.231794,"lon":5.400052,"is_reserved":false,"is_disabled":false,"rental_uris":{"android":"levelo://app?vid=9eda3020-71fa-42b3-86ef-c71f0f5d8c14","ios":"levelo://app?vid=9eda3020-71fa-42b3-86ef-c71f0f5d8c14"},"vehicle_type_id":"4","last_reported":1702883231,"current_range_meters":8800,"station_id":"ce4bhn12rcd13ifvqgqg","pricing_plan_id":"free"},{"bike_id":"f24eb76b-d777-4231-a0c9-e86572250025","system_id":"levelo_inurba_marseille","lat":43.231793,"lon":5.400044,"is_reserved":false,"is_disabled":false,"rental_uris":{"android":"levelo://app?vid=f24eb76b-d777-4231-a0c9-e86572250025","ios":"levelo://app?vid=f24eb76b-d777-4231-a0c9-e86572250025"},"vehicle_type_id":"4","last_reported":1702883231,"current_range_meters":14000,"station_id":"ce4bhn12rcd13ifvqgqg","pricing_plan_id":"free"},{"bike_id":"a0a25d8d-07fa-47e8-a43b-30fb24b3ce53","system_id":"levelo_inurba_marseille","lat":43.231794,"lon":5.400052,"is_reserved":false,"is_disabled":false,"rental_uris":{"android":"levelo://app?vid=a0a25d8d-07fa-47e8-a43b-30fb24b3ce53","ios":"levelo://app?vid=a0a25d8d-07fa-47e8-a43b-30fb24b3ce53"},"vehicle_type_id":"4","last_reported":1702883231,"current_range_meters":12000,"station_id":"ce4bhn12rcd13ifvqgqg","pricing_plan_id":"free"},{"bike_id":"82b0b121-d2e6-4f04-8530-97cda8a0fbcd","system_id":"levelo_inurba_marseille","lat":43.231794,"lon":5.400052,"is_reserved":false,"is_disabled":false,"rental_uris":{"android":"levelo://app?vid=82b0b121-d2e6-4f04-8530-97cda8a0fbcd","ios":"levelo://app?vid=82b0b121-d2e6-4f04-8530-97cda8a0fbcd"},"vehicle_type_id":"4","last_reported":1702883231,"current_range_meters":30800,"station_id":"ce4bhn12rcd13ifvqgqg","pricing_plan_id":"free"},{"bike_id":"1fda6d9b-238c-4d92-b885-31f562a03362","system_id":"levelo_inurba_marseille","lat":43.231562,"lon":5.436933,"is_reserved":false,"is_disabled":false,"rental_uris":{"android":"levelo://app?vid=1fda6d9b-238c-4d92-b885-31f562a03362","ios":"levelo://app?vid=1fda6d9b-238c-4d92-b885-31f562a03362"},"vehicle_type_id":"4","last_reported":1702883231,"current_range_meters":23200,"station_id":"ce4bhmp2rcd13ifvqgog","pricing_plan_id":"free"},{"bike_id":"d5b5365d-ae87-4306-bbc5-b0c9d03f1445","system_id":"levelo_inurba_marseille","lat":43.231562,"lon":5.436933,"is_reserved":false,"is_disabled":false,"rental_uris":{"android":"levelo://app?vid=d5b5365d-ae87-4306-bbc5-b0c9d03f1445","ios":"levelo://app?vid=d5b5365d-ae87-4306-bbc5-b0c9d03f1445"},"vehicle_type_id":"4","last_reported":1702883231,"current_range_meters":22000,"station_id":"ce4bhmp2rcd13ifvqgog","pricing_plan_id":"free"},{"bike_id":"7dc70694-c42e-4a80-984c-9fe82f81c13d","system_id":"levelo_inurba_marseille","lat":43.231562,"lon":5.436933,"is_reserved":false,"is_disabled":false,"rental_uris":{"android":"levelo://app?vid=7dc70694-c42e-4a80-984c-9fe82f81c13d","ios":"levelo://app?vid=7dc70694-c42e-4a80-984c-9fe82f81c13d"},"vehicle_type_id":"4","last_reported":1702883231,"current_range_meters":27200,"station_id":"ce4bhmp2rcd13ifvqgog","pricing_plan_id":"free"},{"bike_id":"8d9e658d-7c45-43df-9c2b-c900491175b0","system_id":"levelo_inurba_marseille","lat":43.231562,"lon":5.436933,"is_reserved":false,"is_disabled":false,"rental_uris":{"android":"levelo://app?vid=8d9e658d-7c45-43df-9c2b-c900491175b0","ios":"levelo://app?vid=8d9e658d-7c45-43df-9c2b-c900491175b0"},"vehicle_type_id":"4","last_reported":1702883231,"current_range_meters":10000,"station_id":"ce4bhmp2rcd13ifvqgog","pricing_plan_id":"free"},{"bike_id":"66400aee-e87a-41ea-af35-36de2b576622","system_id":"levelo_inurba_marseille","lat":43.231562,"lon":5.436933,"is_reserved":false,"is_disabled":false,"rental_uris":{"android":"levelo://app?vid=66400aee-e87a-41ea-af35-36de2b576622","ios":"levelo://app?vid=66400aee-e87a-41ea-af35-36de2b576622"},"vehicle_type_id":"4","last_reported":1702883231,"current_range_meters":24800,"station_id":"ce4bhmp2rcd13ifvqgog","pricing_plan_id":"free"},