{"last_updated":1753892077,"ttl":60,"version":"2.2","data":{"bikes":[{"bike_id":"48eb652e-e28a-4e47-9bc3-a2c72de4d747","system_id":"levelo_inurba_marseille","lat":43.30177,"lon":5.38093,"is_reserved":false,"is_disabled":true,"rental_uris":{"android":"levelo://app?vid=48eb652e-e28a-4e47-9bc3-a2c72de4d747","ios":"levelo://app?vid=48eb652e-e28a-4e47-9bc3-a2c72de4d747"},"vehicle_type_id":"4","last_reported":1753892077,"current_range_meters":2800,"station_id":"","pricing_plan_id":"cebpf4jnsgd1na2vs0mg"},{"bike_id":"9bea51f2-fe52-45f8-aaf8-09b6591f9680","system_id":"levelo_inurba_marseille","lat":43.3095,"lon":5.39022,"is_reserved":false,"is_disabled":false,"rental_uris":{"android":"levelo://app?vid=9bea51f2-fe52-45f8-aaf8-09b6591f9680","ios":"levelo://app?vid=9bea51f2-fe52-45f8-aaf8-09b6591f9680"},"vehicle_type_id":"4","last_reported":1753892077,"current_range_meters":2800,"station_id":"ce4bgup2rcd13ifvqco0","pricing_plan_id":"cebpf4jnsgd1na2vs0mg"},{"bike_id":"80915a30-ef88-4d81-b5d1-969d1c17a42d","system_id":"levelo_inurba_marseille","lat":43.30439,"lon":5.40818,"is_reserved":false,"is_disabled":false,"rental_uris":{"android":"levelo://app?vid=80915a30-ef88-4d81-b5d1-969d1c17a42d","ios":"levelo://app?vid=80915a30-ef88-4d81-b5d1-969d1c17a42d"},"vehicle_type_id":"4","last_reported":1753892077,"current_range_meters":3200,"station_id":"","pricing_plan_id":"cebpf4jnsgd1na2vs0mg"},{"bike_id":"8a569b31-55c0-441f-9435-5ac594ac9c22","system_id":"levelo_inurba_marseille","lat":43.297302,"lon":5.374166,"is_reserved":false,"is_disabled":false,"rental_uris":{"android":"levelo://app?vid=8a569b31-55c0-441f-9435-5ac594ac9c22","ios":"levelo://app?vid=8a569b31-55c0-441f-9435-5ac594ac9c22"},"vehicle_type_id":"4","last_reported":1753892077,"current_range_meters":3200,"station_id":"","pricing_plan_id":"cebpf4jnsgd1na2vs0mg"},{"bike_id":"a507edfd-0c01-4faf-851c-6e15b101ab91","system_id":"levelo_inurba_marseille","lat":43.28229,"lon":5.3908,"is_reserved":false,"is_disabled":false,"rental_uris":{"android":"levelo://app?vid=a507edfd-0c01-4faf-851c-6e15b101ab91","ios":"levelo://app?vid=a507edfd-0c01-4faf-851c-6e15b101ab91"},"vehicle_type_id":"4","last_reported":1753892077,"current_range_meters":3200,"station_id":"ce4bhn92rcd13ifvqgsg","pricing_plan_id":"cebpf4jnsgd1na2vs0mg"},{"bike_id":"15f028b1-f7d5-4957-84e6-9420d8217b12","system_id":"levelo_inurba_marseille","lat":43.29004,"lon":5.35614,"is_reserved":false,"is_disabled":false,"rental_uris":{"android":"levelo://app?vid=15f028b1-f7d5-4957-84e6-9420d8217b12","ios":"levelo://app?vid=15f028b1-f7d5-4957-84e6-9420d8217b12"},"vehicle_type_id":"4","last_reported":1753892077,"current_range_meters":3200,"station_id":"ce4bhb92rcd13ifvqen0","pricing_plan_id":"cebpf4jnsgd1na2vs0mg"},{"bike_id":"15d390e8-0f28-4c4f-8976-7510fcabab5f","system_id":"levelo_inurba_marseille","lat":43.28702,"lon":5.39986,"is_reserved":false,"is_disabled":false,"rental_uris":{"android":"levelo://app?vid=15d390e8-0f28-4c4f-8976-7510fcabab5f","ios":"levelo://app?vid=15d390e8-0f28-4c4f-8976-7510fcabab5f"},"vehicle_type_id":"4","last_reported":1753892077,"current_range_meters":3600,"station_id":"ce4bho92rcd13ifvqh3g","pricing_plan_id":"cebpf4jnsgd1na2vs0mg"},{"bike_id":"95dd70e4-879c-49e7-b318-a6c71b22a43e","system_id":"levelo_inurba_marseille","lat":43.2703,"lon":5.39295,"is_reserved":false,"is_disabled":false,"rental_uris":{"android":"levelo://app?vid=95dd70e4-879c-49e7-b318-a6c71b22a43e","ios":"levelo://app?vid=95dd70e4-879c-49e7-b318-a6c71b22a43e"},"vehicle_type_id":"4","last_reported":1753892077,"current_range_meters":3600,"station_id":"","pricing_plan_id":"cebpf4jnsgd1na2vs0mg"},{"bike_id":"209c73e6-1f69-4d13-9fed-77cb46eecd05","system_id":"levelo_inurba_marseille","lat":43.34681,"lon":5.38065,"is_reserved":false,"is_disabled":false,"rental_uris":{"android":"levelo://app?vid=209c73e6-1f69-4d13-9fed-77cb46eecd05","ios":"levelo://app?vid=209c73e6-1f69-4d13-9fed-77cb46eecd05"},"vehicle_type_id":"4","last_reported":1753892077,"current_range_meters":3600,"station_id":"","pricing_plan_id":"cebpf4jnsgd1na2vs0mg"},{"bike_id":"8e8d862c-1057-402a-8844-1b67ea06b778","system_id":"levelo_inurba_marseille","lat":43.27557,"lon":5.3842,"is_reserved":false,"is_disabled":false,"rental_uris":{"android":"levelo://app?vid=8e8d862c-1057-402a-8844-1b67ea06b778","ios":"levelo://app?vid=8e8d862c-1057-402a-8844-1b67ea06b778"},"vehicle_type_id":"4","last_reported":1753892077,"current_range_meters":3600,"station_id":"ce4bhh92rcd13ifvqfi0","pricing_plan_id":"cebpf4jnsgd1na2vs0mg"},{"bike_id":"665ab380-e986-44df-9b3d-230cd2b797dd","system_id":"levelo_inurba_marseille","lat":43.28615,"lon":5.35106,"is_reserved":false,"is_disabled":false,"rental_uris":{"android":"levelo://app?vid=665ab380-e986-44df-9b3d-230cd2b797dd","ios":"levelo://app?vid=665ab380-e986-44df-9b3d-230cd2b797dd"},"vehicle_type_id":"4","last_reported":1753892077,"current_range_meters":4000,"station_id":"ce4bhch2rcd13ifvqeug","pricing_plan_id":"cebpf4jnsgd1na2vs0mg"},{"bike_id":"181c8049-4fb7-4c27-a6b2-7bb8fea4f09f","system_id":"levelo_inurba_marseille","lat":43.29532,"lon":5.39268,"is_reserved":false,"is_disabled":false,"rental_uris":{"android":"levelo://app?vid=181c8049-4fb7-4c27-a6b2-7bb8fea4f09f","ios":"levelo://app?vid=181c8049-4fb7-4c27-a6b2-7bb8fea4f09f"},"vehicle_type_id":"4","last_reported":1753892077,"current_range_meters":4000,"station_id":"","pricing_plan_id":"cebpf4jnsgd1na2vs0mg"},{"bike_id":"dcadda2f-13b8-4f82-bef5-27b05eb7287a","system_id":"levelo_inurba_marseille","lat":43.23181,"lon":5.39992,"is_reserved":false,"is_disabled":false,"rental_uris":{"android":"levelo://app?vid=dcadda2f-13b8-4f82-bef5-27b05eb7287a","ios":"levelo://app?vid=dcadda2f-13b8-4f82-bef5-27b05eb7287a"},"vehicle_type_id":"4","last_reported":1753892077,"current_range_meters":4000,"station_id":"ce4bhn12rcd13ifvqgqg","pricing_plan_id":"cebpf4jnsgd1na2vs0mg"},{"bike_id":"7ead535a-e7f2-4489-9051-59e4f5eeec8a","system_id":"levelo_inurba_marseille","lat":43.30669,"lon":5.37349,"is_reserved":false,"is_disabled":false,"rental_uris":{"android":"levelo://app?vid=7ead535a-e7f2-4489-9051-59e4f5eeec8a","ios":"levelo://app?vid=7ead535a-e7f2-4489-9051-59e4f5eeec8a"},"vehicle_type_id":"4","last_reported":1753892077,"current_range_meters":4400,"station_id":"","pricing_plan_id":"cebpf4jnsgd1na2vs0mg"},{"bike_id":"a3258a54-baaa-44e5-81e2-fcc231912702","system_id":"levelo_inurba_marseille","lat":43.26568,"lon":5.39015,"is_reserved":false,"is_disabled":false,"rental_uris":{"android":"levelo://app?vid=a3258a54-baaa-44e5-81e2-fcc231912702","ios":"levelo://app?vid=a3258a54-baaa-44e5-81e2-fcc231912702"},"vehicle_type_id":"4","last_reported":1753892077,"current_range_meters":4400,"station_id":"ce4bhe12rcd13ifvqf30","pricing_plan_id":"cebpf4jnsgd1na2vs0mg"},{"bike_id":"ca538d06-b8c5-4455-acd3-aa1ee1f57388","system_id":"levelo_inurba_marseille","lat":43.217527,"lon":5.346009,"is_reserved":false,"is_disabled":false,"rental_uris":{"android":"levelo://app?vid=ca538d06-b8c5-4455-acd3-aa1ee1f57388","ios":"levelo://app?vid=ca538d06-b8c5-4455-acd3-aa1ee1f57388"},"vehicle_type_id":"4","last_reported":1753892077,"current_range_meters":4400,"station_id":"","pricing_plan_id":"cebpf4jnsgd1na2vs0mg"},{"bike_id":"a93cb036-b427-4b21-834d-daf4b587ee50","system_id":"levelo_inurba_marseille","lat":43.2656,"lon":5.37283,"is_reserved":false,"is_disabled":false,"rental_uris":{"android":"levelo://app?vid=a93cb036-b427-4b21-834d-daf4b587ee50","ios":"levelo://app?vid=a93cb036-b427-4b21-834d-daf4b587ee50"},"vehicle_type_id":"4","last_reported":1753892077,"current_range_meters":4400,"station_id":"ce4bhg12rcd13ifvqf70","pricing_plan_id":"cebpf4jnsgd1na2vs0mg"},{"bike_id":"3783c80f-1841-4a06-9ca0-dea22fa7b863","system_id":"levelo_inurba_marseille","lat":43.23192,"lon":5.35555,"is_reserved":false,"is_disabled":false,"rental_uris":{"android":"levelo://app?vid=3783c80f-1841-4a06-9ca0-dea22fa7b863","ios":"levelo://app?vid=3783c80f-1841-4a06-9ca0-dea22fa7b863"},"vehicle_type_id":"4","last_reported":1753892077,"current_range_meters":4800,"station_id":"ce4bhu92rcd13ifvqi70","pricing_plan_id":"cebpf4jnsgd1na2vs0mg"},{"bike_id":"149fbe11-3bce-47a0-b584-c7c7bd6bb12f","system_id":"levelo_inurba_marseille","lat":43.21627,"lon":5.34443,"is_reserved":false,"is_disabled":false,"rental_uris":{"android":"levelo://app?vid=149fbe11-3bce-47a0-b584-c7c7bd6bb12f","ios":"levelo://app?vid=149fbe11-3bce-47a0-b584-c7c7bd6bb12f"},"vehicle_type_id":"4","last_reported":1753892077,"current_range_meters":4800,"station_id":"","pricing_plan_id":"cebpf4jnsgd1na2vs0mg"},{"bike_id":"882bdff1-651a-41c1-9ab0-596f43205cf1","system_id":"levelo_inurba_marseille","lat":43.337444,"lon":5.374475,"is_reserved":false,"is_disabled":false,"rental_uris":{"android":"levelo://app?vid=882bdff1-651a-41c1-9ab0-596f43205cf1","ios":"levelo://app?vid=882bdff1-651a-41c1-9ab0-596f43205cf1"},"vehicle_type_id":"4","last_reported":1753892077,"current_range_meters":5600,"station_id":"ce4bgkp2rcd13ifvqbmg","pricing_plan_id":"cebpf4jnsgd1na2vs0mg"},{"bike_id":"5ebaeaf4-56d8-4708-8d19-94ff5006316e","system_id":"levelo_inurba_marseille","lat":43.26034,"lon":5.37549,"is_reserved":false,"is_disabled":false,"rental_uris":{"android":"levelo://app?vid=5ebaeaf4-56d8-4708-8d19-94ff5006316e","ios":"levelo://app?vid=5ebaeaf4-56d8-4708-8d19-94ff5006316e"},"vehicle_type_id":"4","last_reported":1753892077,"current_range_meters":6000,"station_id":"ce4bhgh2rcd13ifvqfa0","pricing_plan_id":"cebpf4jnsgd1na2vs0mg"},{"bike_id":"9c449c61-5fa7-4ee0-aaf8-258e47dd8bca","system_id":"levelo_inurba_marseille","lat":43.28268,"lon":5.3507,"is_reserved":false,"is_disabled":false,"rental_uris":{"android":"levelo://app?vid=9c449c61-5fa7-4ee0-aaf8-258e47dd8bca","ios":"levelo://app?vid=9c449c61-5fa7-4ee0-aaf8-258e47dd8bca"},"vehicle_type_id":"4","last_reported":1753892077,"current_range_meters":6000,"station_id":"ce4bhbp2rcd13ifvqerg","pricing_plan_id":"cebpf4jnsgd1na2vs0mg"},{"bike_id":"d4b0442d-37e3-4887-8827-87b59f4e9086","system_id":"levelo_inurba_marseille","lat":43.2977,"lon":5.38108,"is_reserved":false,"is_disabled":false,"rental_uris":{"android":"levelo://app?vid=d4b0442d-37e3-4887-8827-87b59f4e9086","ios":"levelo://app?vid=d4b0442d-37e3-4887-8827-87b59f4e9086"},"vehicle_type_id":"4","last_reported":1753892077,"current_range_meters":6000,"station_id":"","pricing_plan_id":"cebpf4jnsgd1na2vs0mg"},{"bike_id":"76662f36-f0fd-46ef-ad4f-50cbdbe0feb3","system_id":"levelo_inurba_marseille","lat":43.31329,"lon":5.39691,"is_reserved":false,"is_disabled":false,"rental_uris":{"android":"levelo://app?vid=76662f36-f0fd-46ef-ad4f-50cbdbe0feb3","ios":"levelo://app?vid=76662f36-f0fd-46ef-ad4f-50cbdbe0feb3"},"vehicle_type_id":"4","last_reported":1753892077,"current_range_meters":6400,"station_id":"ce4bgvp2rcd13ifvqcu0","pricing_plan_id":"cebpf4jnsgd1na2vs0mg"},{"bike_id":"d800c7f1-d262-47dd-bbdd-357a39219e7e","system_id":"levelo_inurba_marseille","lat":43.23186,"lon":5.39983,"is_reserved":false,"is_disabled":false,"rental_uris":{"android":"levelo://app?vid=d800c7f1-d262-47dd-bbdd-357a39219e7e","ios":"levelo://app?vid=d800c7f1-d262-47dd-bbdd-357a39219e7e"},"vehicle_type_id":"4","last_reported":1753892077,"current_range_meters":6400,"station_id":"ce4bhn12rcd13ifvqgqg","pricing_plan_id":"cebpf4jnsgd1na2vs0mg"},{"bike_id":"707c62d1-44b9-47b0-87f1-17af132f5add","system_id":"levelo_inurba_marseille","lat":43.27358,"lon":5.392971,"is_reserved":false,"is_disabled":false,"rental_uris":{"android":"levelo://app?vid=707c62d1-44b9-47b0-87f1-17af132f5add","ios":"levelo://app?vid=707c62d1-44b9-47b0-87f1-17af132f5add"},"vehicle_type_id":"4","last_reported":1753892077,"current_range_meters":8800,"station_id":"ce4bhhp2rcd13ifvqfm0","pricing_plan_id":"cebpf4jnsgd1na2vs0mg"},{"bike_id":"73bf2fb3-1c60-426d-8146-c5ab0de28d1f","system_id":"levelo_inurba_marseille","lat":43.29226,"lon":5.36057,"is_reserved":false,"is_disabled":false,"rental_uris":{"android":"levelo://app?vid=73bf2fb3-1c60-426d-8146-c5ab0de28d1f","ios":"levelo://app?vid=73bf2fb3-1c60-426d-8146-c5ab0de28d1f"},"vehicle_type_id":"4","last_reported":1753892077,"current_range_meters":6400,"station_id":"ce4bhbh2rcd13ifvqeqg","pricing_plan_id":"cebpf4jnsgd1na2vs0mg"},{"bike_id":"0e961d94-060f-4288-ae6e-408e51167b75","system_id":"levelo_inurba_marseille","lat":43.28414,"lon":5.34978,"is_reserved":false,"is_disabled":false,"rental_uris":{"android":"levelo://app?vid=0e961d94-060f-4288-ae6e-408e51167b75","ios":"levelo://app?vid=0e961d94-060f-4288-ae6e-408e51167b75"},"vehicle_type_id":"4","last_reported":1753892077,"current_range_meters":6400,"station_id":"ce4bhbh2rcd13ifvqepg","pricing_plan_id":"cebpf4jnsgd1na2vs0mg"},{"bike_id":"02db7cb1-3bde-4001-9009-b776831133b6","system_id":"levelo_inurba_marseille","lat":43.2842,"lon":5.34985,"is_reserved":false,"is_disabled":true,"rental_uris":{"android":"levelo://app?vid=02db7cb1-3bde-4001-9009-b776831133b6","ios":"levelo://app?vid=02db7cb1-3bde-4001-9009-b776831133b6"},"vehicle_type_id":"4","last_reported":1753892077,"current_range_meters":6800,"station_id":"ce4bhbh2rcd13ifvqepg","pricing_plan_id":"cebpf4jnsgd1na2vs0mg"},{"bike_id":"37fcf059-83b8-4b6e-bc28-0c83f77e3c05","system_id":"levelo_inurba_marseille","lat":43.22557,"lon":5.34759,"is_reserved":false,"is_disabled":false,"rental_uris":{"android":"levelo://app?vid=37fcf059-83b8-4b6e-bc28-0c83f77e3c05","ios":"levelo://app?vid=37fcf059-83b8-4b6e-bc28-0c83f77e3c05"},"vehicle_type_id":"4","last_reported":1753892077,"current_range_meters":6800,"station_id":"","pricing_plan_id":"cebpf4jnsgd1na2vs0mg"},{"bike_id":"7e4a0d00-0d9a-4f5f-84b1-5c2ccf9f1b2f","system_id":"levelo_inurba_marseille","lat":43.320288,"lon":5.415689,"is_reserved":false,"is_disabled":true,"rental_uris":{"android":"levelo://app?vid=7e4a0d00-0d9a-4f5f-84b1-5c2ccf9f1b2f","ios":"levelo://app?vid=7e4a0d00-0d9a-4f5f-84b1-5c2ccf9f1b2f"},"vehicle_type_id":"4","last_reported":1753892077,"current_range_meters":6800,"station_id":"ce4bhq92rcd13ifvqhkg","pricing_plan_id":"cebpf4jnsgd1na2vs0mg"},{"bike_id":"cbe4d0ea-fd7d-4ab2-afba-0721bcd3c808","system_id":"levelo_inurba_marseille","lat":43.29279,"lon":5.36843,"is_reserved":false,"is_disabled":false,"rental_uris":{"android":"levelo://app?vid=cbe4d0ea-fd7d-4ab2-afba-0721bcd3c808","ios":"levelo://app?vid=cbe4d0ea-fd7d-4ab2-afba-0721bcd3c808"},"vehicle_type_id":"4","last_reported":1753892077,"current_range_meters":6800,"station_id":"ce4bhbp2rcd13ifvqesg","pricing_plan_id":"cebpf4jnsgd1na2vs0mg"},{"bike_id":"f3e809da-43d0-430c-99aa-317d87f748f5","system_id":"levelo_inurba_marseille","lat":43.292242,"lon":5.360759,"is_reserved":false,"is_disabled":false,"rental_uris":{"android":"levelo://app?vid=f3e809da-43d0-430c-99aa-317d87f748f5","ios":"levelo://app?vid=f3e809da-43d0-430c-99aa-317d87f748f5"},"vehicle_type_id":"4","last_reported":1753892077,"current_range_meters":7200,"station_id":"ce4bhbh2rcd13ifvqeqg","pricing_plan_id":"cebpf4jnsgd1na2vs0mg"},{"bike_id":"193fbe35-35a7-45cb-999d-e2b4052dcc70","system_id":"levelo_inurba_marseille","lat":43.26032,"lon":5.37547,"is_reserved":false,"is_disabled":false,"rental_uris":{"android":"levelo://app?vid=193fbe35-35a7-45cb-999d-e2b4052dcc70","ios":"levelo://app?vid=193fbe35-35a7-45cb-999d-e2b4052dcc70"},"vehicle_type_id":"4","last_reported":1753892077,"current_range_meters":7200,"station_id":"ce4bhgh2rcd13ifvqfa0","pricing_plan_id":"cebpf4jnsgd1na2vs0mg"},{"bike_id":"6c3b2264-7899-4d4d-8d19-769122cf7cd9","system_id":"levelo_inurba_marseille","lat":43.30237,"lon":5.40033,"is_reserved":false,"is_disabled":false,"rental_uris":{"android":"levelo://app?vid=6c3b2264-7899-4d4d-8d19-769122cf7cd9","ios":"levelo://app?vid=6c3b2264-7899-4d4d-8d19-769122cf7cd9"},"vehicle_type_id":"4","last_reported":1753892077,"current_range_meters":8000,"station_id":"ce4bgvh2rcd13ifvqcs0","pricing_plan_id":"cebpf4jnsgd1na2vs0mg"},{"bike_id":"ac64ad0e-3b5a-4659-a315-7851bd419cce","system_id":"levelo_inurba_marseille","lat":43.2816,"lon":5.42641,"is_reserved":false,"is_disabled":false,"rental_uris":{"android":"levelo://app?vid=ac64ad0e-3b5a-4659-a315-7851bd419cce","ios":"levelo://app?vid=ac64ad0e-3b5a-4659-a315-7851bd419cce"},"vehicle_type_id":"4","last_reported":1753892077,"current_range_meters":10000,"station_id":"ce4bhnh2rcd13ifvqgug","pricing_plan_id":"cebpf4jnsgd1na2vs0mg"},{"bike_id":"c9e5cf98-36fd-4b86-b6b1-31cf99619f3e","system_id":"levelo_inurba_marseille","lat":43.23181,"lon":5.400041,"is_reserved":false,"is_disabled":true,"rental_uris":{"android":"levelo://app?vid=c9e5cf98-36fd-4b86-b6b1-31cf99619f3e","ios":"levelo://app?vid=c9e5cf98-36fd-4b86-b6b1-31cf99619f3e"},"vehicle_type_id":"4","last_reported":1753892077,"current_range_meters":7200,"station_id":"ce4bhn12rcd13ifvqgqg","pricing_plan_id":"cebpf4jnsgd1na2vs0mg"},{"bike_id":"773a2503-609f-4bad-a1c3-11c97bbd6d39","system_id":"levelo_inurba_marseille","lat":43.21752,"lon":5.34608,"is_reserved":false,"is_disabled":false,"rental_uris":{"android":"levelo://app?vid=773a2503-609f-4bad-a1c3-11c97bbd6d39","ios":"levelo://app?vid=773a2503-609f-4bad-a1c3-11c97bbd6d39"},"vehicle_type_id":"4","last_reported":1753892077,"current_range_meters":7200,"station_id":"","pricing_plan_id":"cebpf4jnsgd1na2vs0mg"},{"bike_id":"0fa51763-caaf-4438-bf53-976fe495f0ad","system_id":"levelo_inurba_marseille","lat":43.28443,"lon":5.39208,"is_reserved":false,"is_disabled":false,"rental_uris":{"android":"levelo://app?vid=0fa51763-caaf-4438-bf53-976fe495f0ad","ios":"levelo://app?vid=0fa51763-caaf-4438-bf53-976fe495f0ad"},"vehicle_type_id":"4","last_reported":1753892077,"current_range_meters":6800,"station_id":"ce4bhoh2rcd13ifvqh5g","pricing_plan_id":"cebpf4jnsgd1na2vs0mg"},{"bike_id":"c3e91ff9-8894-40e6-be6d-28a87b320d18","system_id":"levelo_inurba_marseille","lat":43.30155,"lon":5.380977,"is_reserved":false,"is_disabled":true,"rental_uris":{"android":"levelo://app?vid=c3e91ff9-8894-40e6-be6d-28a87b320d18","ios":"levelo://app?vid=c3e91ff9-8894-40e6-be6d-28a87b320d18"},"vehicle_type_id":"4","last_reported":1753892077,"current_range_meters":8000,"station_id":"ce4bgjp2rcd13ifvqbh0","pricing_plan_id":"cebpf4jnsgd1na2vs0mg"},{"bike_id":"b5e469a6-8e8f-4b1a-91cc-e9f6f04151ad","system_id":"levelo_inurba_marseille","lat":43.295785,"lon":5.436862,"is_reserved":false,"is_disabled":false,"rental_uris":{"android":"levelo://app?vid=b5e469a6-8e8f-4b1a-91cc-e9f6f04151ad","ios":"levelo://app?vid=b5e469a6-8e8f-4b1a-91cc-e9f6f04151ad"},"vehicle_type_id":"4","last_reported":1753892077,"current_range_meters":8000,"station_id":"","pricing_plan_id":"cebpf4jnsgd1na2vs0mg"},{"bike_id":"3322b68b-349f-402d-b2f7-732a2c813377","system_id":"levelo_inurba_marseille","lat":43.29622,"lon":5.37715,"is_reserved":false,"is_disabled":false,"rental_uris":{"android":"levelo://app?vid=3322b68b-349f-402d-b2f7-732a2c813377","ios":"levelo://app?vid=3322b68b-349f-402d-b2f7-732a2c813377"},"vehicle_type_id":"4","last_reported":1753892077,"current_range_meters":8000,"station_id":"ce4bgi92rcd13ifvqb90","pricing_plan_id":"cebpf4jnsgd1na2vs0mg"},{"bike_id":"1913bfbe-a4f5-4379-b712-64d37b78e005","system_id":"levelo_inurba_marseille","lat":43.28278,"lon":5.35069,"is_reserved":false,"is_disabled":false,"rental_uris":{"android":"levelo://app?vid=1913bfbe-a4f5-4379-b712-64d37b78e005","ios":"levelo://app?vid=1913bfbe-a4f5-4379-b712-64d37b78e005"},"vehicle_type_id":"4","last_reported":1753892077,"current_range_meters":8400,"station_id":"ce4bhbp2rcd13ifvqerg","pricing_plan_id":"cebpf4jnsgd1na2vs0mg"},{"bike_id":"879d7193-558e-495e-9ecf-87a40ae53225","system_id":"levelo_inurba_marseille","lat":43.28277,"lon":5.35092,"is_reserved":false,"is_disabled":false,"rental_uris":{"android":"levelo://app?vid=879d7193-558e-495e-9ecf-87a40ae53225","ios":"levelo://app?vid=879d7193-558e-495e-9ecf-87a40ae53225"},"vehicle_type_id":"4","last_reported":1753892077,"current_range_meters":8400,"station_id":"ce4bhbp2rcd13ifvqerg","pricing_plan_id":"cebpf4jnsgd1na2vs0mg"},{"bike_id":"a55047f4-17fe-4379-b26b-191f23a4c639","system_id":"levelo_inurba_marseille","lat":43.28262,"lon":5.35082,"is_reserved":false,"is_disabled":false,"rental_uris":{"android":"levelo://app?vid=a55047f4-17fe-4379-b26b-191f23a4c639","ios":"levelo://app?vid=a55047f4-17fe-4379-b26b-191f23a4c639"},"vehicle_type_id":"4","last_reported":1753892077,"current_range_meters":8400,"station_id":"ce4bhbp2rcd13ifvqerg","pricing_plan_id":"cebpf4jnsgd1na2vs0mg"},{"bike_id":"0dc99cab-1546-4588-8ef9-e9c6ae8e0a6f","system_id":"levelo_inurba_marseille","lat":43.23063,"lon":5.35499,"is_reserved":false,"is_disabled":true,"rental_uris":{"android":"levelo://app?vid=0dc99cab-1546-4588-8ef9-e9c6ae8e0a6f","ios":"levelo://app?vid=0dc99cab-1546-4588-8ef9-e9c6ae8e0a6f"},"vehicle_type_id":"4","last_reported":1753892077,"current_range_meters":8400,"station_id":"cpo3342slgdg3j2ifvpg","pricing_plan_id":"cebpf4jnsgd1na2vs0mg"},{"bike_id":"5cf9be68-e297-4080-8ccf-412cc317cb6b","system_id":"levelo_inurba_marseille","lat":43.286161,"lon":5.351085,"is_reserved":false,"is_disabled":false,"rental_uris":{"android":"levelo://app?vid=5cf9be68-e297-4080-8ccf-412cc317cb6b","ios":"levelo://app?vid=5cf9be68-e297-4080-8ccf-412cc317cb6b"},"vehicle_type_id":"4","last_reported":1753892077,"current_range_meters":8400,"station_id":"ce4bhch2rcd13ifvqeug","pricing_plan_id":"cebpf4jnsgd1na2vs0mg"},{"bike_id":"a93be6ee-29bf-4fe6-b5d9-6132967cf415","system_id":"levelo_inurba_marseille","lat":43.31072,"lon":5.38365,"is_reserved":false,"is_disabled":false,"rental_uris":{"android":"levelo://app?vid=a93be6ee-29bf-4fe6-b5d9-6132967cf415","ios":"levelo://app?vid=a93be6ee-29bf-4fe6-b5d9-6132967cf415"},"vehicle_type_id":"4","last_reported":1753892077,"current_range_meters":8400,"station_id":"ce4bgv92rcd13ifvqcr0","pricing_plan_id":"cebpf4jnsgd1na2vs0mg"},{"bike_id":"ea017aba-6af6-46ef-88a7-8467708524ee","system_id":"levelo_inurba_marseille","lat":43.21197,"lon":5.35083,"is_reserved":false,"is_disabled":false,"rental_uris":{"android":"levelo://app?vid=ea017aba-6af6-46ef-88a7-8467708524ee","ios":"levelo://app?vid=ea017aba-6af6-46ef-88a7-8467708524ee"},"vehicle_type_id":"4","last_reported":1753892077,"current_range_meters":8800,"station_id":"st_cvj6sg6p6f1abm77japg","pricing_plan_id":"cebpf4jnsgd1na2vs0mg"},{"bike_id":"b0f2b2c1-b378-4164-a22b-6eceaa434acc","system_id":"levelo_inurba_marseille","lat":43.29231,"lon":5.4276,"is_reserved":false,"is_disabled":false,"rental_uris":{"android":"levelo://app?vid=b0f2b2c1-b378-4164-a22b-6eceaa434acc","ios":"levelo://app?vid=b0f2b2c1-b378-4164-a22b-6eceaa434acc"},"vehicle_type_id":"4","last_reported":1753892077,"current_range_meters":8800,"station_id":"","pricing_plan_id":"cebpf4jnsgd1na2vs0mg"},{"bike_id":"e137dc03-26cf-440c-b3ea-1ea522645199","system_id":"levelo_inurba_marseille","lat":43.280815,"lon":5.396626,"is_reserved":false,"is_disabled":false,"rental_uris":{"android":"levelo://app?vid=e137dc03-26cf-440c-b3ea-1ea522645199","ios":"levelo://app?vid=e137dc03-26cf-440c-b3ea-1ea522645199"},"vehicle_type_id":"4","last_reported":1753892077,"current_range_meters":8800,"station_id":"","pricing_plan_id":"cebpf4jnsgd1na2vs0mg"},{"bike_id":"46d4d4cc-5f79-4397-a7a8-a280db7afc9f","system_id":"levelo_inurba_marseille","lat":43.276109,"lon":5.360934,"is_reserved":false,"is_disabled":false,"rental_uris":{"android":"levelo://app?vid=46d4d4cc-5f79-4397-a7a8-a280db7afc9f","ios":"levelo://app?vid=46d4d4cc-5f79-4397-a7a8-a280db7afc9f"},"vehicle_type_id":"4","last_reported":1753892077,"current_range_meters":9200,"station_id":"ce4bgj92rcd13ifvqbe0","pricing_plan_id":"cebpf4jnsgd1na2vs0mg"},{"bike_id":"04f4c16b-332d-4b7b-8e54-badd5f66fc26","system_id":"levelo_inurba_marseille","lat":43.284424,"lon":5.380572,"is_reserved":false,"is_disabled":false,"rental_uris":{"android":"levelo://app?vid=04f4c16b-332d-4b7b-8e54-badd5f66fc26","ios":"levelo://app?vid=04f4c16b-332d-4b7b-8e54-badd5f66fc26"},"vehicle_type_id":"4","last_reported":1753892077,"current_range_meters":9200,"station_id":"ce4bh412rcd13ifvqdr0","pricing_plan_id":"cebpf4jnsgd1na2vs0mg"},{"bike_id":"0e36fba3-4a0e-495d-884f-00d86bc6564b","system_id":"levelo_inurba_marseille","lat":43.30154,"lon":5.38091,"is_reserved":false,"is_disabled":false,"rental_uris":{"android":"levelo://app?vid=0e36fba3-4a0e-495d-884f-00d86bc6564b","ios":"levelo://app?vid=0e36fba3-4a0e-495d-884f-00d86bc6564b"},"vehicle_type_id":"4","last_reported":1753892077,"current_range_meters":9600,"station_id":"ce4bgjp2rcd13ifvqbh0","pricing_plan_id":"cebpf4jnsgd1na2vs0mg"},{"bike_id":"f9020c41-282b-4b19-878b-c75e14d7e3ca","system_id":"levelo_inurba_marseille","lat":43.27613,"lon":5.36109,"is_reserved":false,"is_disabled":false,"rental_uris":{"android":"levelo://app?vid=f9020c41-282b-4b19-878b-c75e14d7e3ca","ios":"levelo://app?vid=f9020c41-282b-4b19-878b-c75e14d7e3ca"},"vehicle_type_id":"4","last_reported":1753892077,"current_range_meters":9600,"station_id":"ce4bgj92rcd13ifvqbe0","pricing_plan_id":"cebpf4jnsgd1na2vs0mg"},{"bike_id":"f8a72686-275c-427d-953c-ff6bf27d6124","system_id":"levelo_inurba_marseille","lat":43.29029,"lon":5.39985,"is_reserved":false,"is_disabled":true,"rental_uris":{"android":"levelo://app?vid=f8a72686-275c-427d-953c-ff6bf27d6124","ios":"levelo://app?vid=f8a72686-275c-427d-953c-ff6bf27d6124"},"vehicle_type_id":"4","last_reported":1753892077,"current_range_meters":9600,"station_id":"ce4bh392rcd13ifvqdm0","pricing_plan_id":"cebpf4jnsgd1na2vs0mg"},{"bike_id":"703f000e-47c9-47d1-a239-c6fda92abf88","system_id":"levelo_inurba_marseille","lat":43.32112,"lon":5.36763,"is_reserved":false,"is_disabled":false,"rental_uris":{"android":"levelo://app?vid=703f000e-47c9-47d1-a239-c6fda92abf88","ios":"levelo://app?vid=703f000e-47c9-47d1-a239-c6fda92abf88"},"vehicle_type_id":"4","last_reported":1753892077,"current_range_meters":9600,"station_id":"ce4bhrh2rcd13ifvqhug","pricing_plan_id":"cebpf4jnsgd1na2vs0mg"},{"bike_id":"f953cfea-b903-4ec1-9b44-19c5b28d4b19","system_id":"levelo_inurba_marseille","lat":43.28618,"lon":5.3511,"is_reserved":false,"is_disabled":false,"rental_uris":{"android":"levelo://app?vid=f953cfea-b903-4ec1-9b44-19c5b28d4b19","ios":"levelo://app?vid=f953cfea-b903-4ec1-9b44-19c5b28d4b19"},"vehicle_type_id":"4","last_reported":1753892077,"current_range_meters":9600,"station_id":"ce4bhch2rcd13ifvqeug","pricing_plan_id":"cebpf4jnsgd1na2vs0mg"},{"bike_id":"e39c7d67-6ecf-4940-a6d2-c8620d0beb7c","system_id":"levelo_inurba_marseille","lat":43.29879,"lon":5.39725,"is_reserved":false,"is_disabled":false,"rental_uris":{"android":"levelo://app?vid=e39c7d67-6ecf-4940-a6d2-c8620d0beb7c","ios":"levelo://app?vid=e39c7d67-6ecf-4940-a6d2-c8620d0beb7c"},"vehicle_type_id":"4","last_reported":1753892077,"current_range_meters":9600,"station_id":"ce4bh0h2rcd13ifvqd50","pricing_plan_id":"cebpf4jnsgd1na2vs0mg"},{"bike_id":"00de3457-bb26-4f86-be97-d29604933a4d","system_id":"levelo_inurba_marseille","lat":43.28644,"lon":5.37183,"is_reserved":false,"is_disabled":false,"rental_uris":{"android":"levelo://app?vid=00de3457-bb26-4f86-be97-d29604933a4d","ios":"levelo://app?vid=00de3457-bb26-4f86-be97-d29604933a4d"},"vehicle_type_id":"4","last_reported":1753892077,"current_range_meters":9600,"station_id":"","pricing_plan_id":"cebpf4jnsgd1na2vs0mg"},{"bike_id":"82e813f5-5449-4fc0-96ff-a2548aaf84bb","system_id":"levelo_inurba_marseille","lat":43.29534,"lon":5.39394,"is_reserved":false,"is_disabled":false,"rental_uris":{"android":"levelo://app?vid=82e813f5-5449-4fc0-96ff-a2548aaf84bb","ios":"levelo://app?vid=82e813f5-5449-4fc0-96ff-a2548aaf84bb"},"vehicle_type_id":"4","last_reported":1753892077,"current_range_meters":10000,"station_id":"ce4bh292rcd13ifvqdf0","pricing_plan_id":"cebpf4jnsgd1na2vs0mg"},{"bike_id":"ee752c53-3360-479e-8f1d-02162d0abd3b","system_id":"levelo_inurba_marseille","lat":43.31079,"lon":5.42431,"is_reserved":false,"is_disabled":false,"rental_uris":{"android":"levelo://app?vid=ee752c53-3360-479e-8f1d-02162d0abd3b","ios":"levelo://app?vid=ee752c53-3360-479e-8f1d-02162d0abd3b"},"vehicle_type_id":"4","last_reported":1753892077,"current_range_meters":10000,"station_id":"ce4bhp92rcd13ifvqhag","pricing_plan_id":"cebpf4jnsgd1na2vs0mg"},{"bike_id":"80f70f2d-1165-4eed-9adc-8951e01a6a06","system_id":"levelo_inurba_marseille","lat":43.286166,"lon":5.351099,"is_reserved":false,"is_disabled":false,"rental_uris":{"android":"levelo://app?vid=80f70f2d-1165-4eed-9adc-8951e01a6a06","ios":"levelo://app?vid=80f70f2d-1165-4eed-9adc-8951e01a6a06"},"vehicle_type_id":"4","last_reported":1753892077,"current_range_meters":10000,"station_id":"ce4bhch2rcd13ifvqeug","pricing_plan_id":"cebpf4jnsgd1na2vs0mg"},{"bike_id":"f1ccfa9e-3c4b-4fae-8ae3-e3cbe6d863f7","system_id":"levelo_inurba_marseille","lat":43.2738,"lon":5.36234,"is_reserved":false,"is_disabled":false,"rental_uris":{"android":"levelo://app?vid=f1ccfa9e-3c4b-4fae-8ae3-e3cbe6d863f7","ios":"levelo://app?vid=f1ccfa9e-3c4b-4fae-8ae3-e3cbe6d863f7"},"vehicle_type_id":"4","last_reported":1753892077,"current_range_meters":10000,"station_id":"ce4bhbh2rcd13ifvqeo0","pricing_plan_id":"cebpf4jnsgd1na2vs0mg"},{"bike_id":"6f765dfa-a5b6-4b71-a391-83384de4524e","system_id":"levelo_inurba_marseille","lat":43.29913,"lon":5.38145,"is_reserved":false,"is_disabled":false,"rental_uris":{"android":"levelo://app?vid=6f765dfa-a5b6-4b71-a391-83384de4524e","ios":"levelo://app?vid=6f765dfa-a5b6-4b71-a391-83384de4524e"},"vehicle_type_id":"4","last_reported":1753892077,"current_range_meters":10800,"station_id":"ce4bgj12rcd13ifvqbc0","pricing_plan_id":"cebpf4jnsgd1na2vs0mg"},{"bike_id":"be38f10c-d56a-4fdb-bcaf-930aaff9fca7","system_id":"levelo_inurba_marseille","lat":43.27834,"lon":5.39205,"is_reserved":false,"is_disabled":false,"rental_uris":{"android":"levelo://app?vid=be38f10c-d56a-4fdb-bcaf-930aaff9fca7","ios":"levelo://app?vid=be38f10c-d56a-4fdb-bcaf-930aaff9fca7"},"vehicle_type_id":"4","last_reported":1753892077,"current_range_meters":10000,"station_id":"ce4bhjp2rcd13ifvqga0","pricing_plan_id":"cebpf4jnsgd1na2vs0mg"},{"bike_id":"ccac54c4-96f5-494a-86ac-dcf6f6a4f07c","system_id":"levelo_inurba_marseille","lat":43.21196,"lon":5.35071,"is_reserved":false,"is_disabled":false,"rental_uris":{"android":"levelo://app?vid=ccac54c4-96f5-494a-86ac-dcf6f6a4f07c","ios":"levelo://app?vid=ccac54c4-96f5-494a-86ac-dcf6f6a4f07c"},"vehicle_type_id":"4","last_reported":1753892077,"current_range_meters":10800,"station_id":"st_cvj6sg6p6f1abm77japg","pricing_plan_id":"cebpf4jnsgd1na2vs0mg"},{"bike_id":"88a73391-90aa-41ad-877f-587bbbcbe907","system_id":"levelo_inurba_marseille","lat":43.28271,"lon":5.35058,"is_reserved":false,"is_disabled":false,"rental_uris":{"android":"levelo://app?vid=88a73391-90aa-41ad-877f-587bbbcbe907","ios":"levelo://app?vid=88a73391-90aa-41ad-877f-587bbbcbe907"},"vehicle_type_id":"4","last_reported":1753892077,"current_range_meters":10800,"station_id":"ce4bhbp2rcd13ifvqerg","pricing_plan_id":"cebpf4jnsgd1na2vs0mg"},{"bike_id":"f8c6bb99-ba0d-4469-81d4-5789a8295473","system_id":"levelo_inurba_marseille","lat":43.28422,"lon":5.3498,"is_reserved":false,"is_disabled":false,"rental_uris":{"android":"levelo://app?vid=f8c6bb99-ba0d-4469-81d4-5789a8295473","ios":"levelo://app?vid=f8c6bb99-ba0d-4469-81d4-5789a8295473"},"vehicle_type_id":"4","last_reported":1753892077,"current_range_meters":10800,"station_id":"ce4bhbh2rcd13ifvqepg","pricing_plan_id":"cebpf4jnsgd1na2vs0mg"},{"bike_id":"8f60ce4a-6996-489a-a3ab-1f51b81c2c79","system_id":"levelo_inurba_marseille","lat":43.24171,"lon":5.36397,"is_reserved":false,"is_disabled":false,"rental_uris":{"android":"levelo://app?vid=8f60ce4a-6996-489a-a3ab-1f51b81c2c79","ios":"levelo://app?vid=8f60ce4a-6996-489a-a3ab-1f51b81c2c79"},"vehicle_type_id":"4","last_reported":1753892077,"current_range_meters":10800,"station_id":"cpo36qri1sfpv3e86is0","pricing_plan_id":"cebpf4jnsgd1na2vs0mg"},{"bike_id":"ca25497e-e7ca-4743-b538-5eed32885805","system_id":"levelo_inurba_marseille","lat":43.30595,"lon":5.39349,"is_reserved":false,"is_disabled":false,"rental_uris":{"android":"levelo://app?vid=ca25497e-e7ca-4743-b538-5eed32885805","ios":"levelo://app?vid=ca25497e-e7ca-4743-b538-5eed32885805"},"vehicle_type_id":"4","last_reported":1753892077,"current_range_meters":11200,"station_id":"ce4bh0p2rcd13ifvqd80","pricing_plan_id":"cebpf4jnsgd1na2vs0mg"},{"bike_id":"070717ca-3d46-482a-9942-f4710fa14bd2","system_id":"levelo_inurba_marseille","lat":43.27613,"lon":5.36117,"is_reserved":false,"is_disabled":false,"rental_uris":{"android":"levelo://app?vid=070717ca-3d46-482a-9942-f4710fa14bd2","ios":"levelo://app?vid=070717ca-3d46-482a-9942-f4710fa14bd2"},"vehicle_type_id":"4","last_reported":1753892077,"current_range_meters":11200,"station_id":"ce4bgj92rcd13ifvqbe0","pricing_plan_id":"cebpf4jnsgd1na2vs0mg"},{"bike_id":"e236d7a4-6073-4d46-aac9-db11371bd360","system_id":"levelo_inurba_marseille","lat":43.28408,"lon":5.34999,"is_reserved":false,"is_disabled":false,"rental_uris":{"android":"levelo://app?vid=e236d7a4-6073-4d46-aac9-db11371bd360","ios":"levelo://app?vid=e236d7a4-6073-4d46-aac9-db11371bd360"},"vehicle_type_id":"4","last_reported":1753892077,"current_range_meters":11200,"station_id":"ce4bhbh2rcd13ifvqepg","pricing_plan_id":"cebpf4jnsgd1na2vs0mg"},{"bike_id":"58d60ef7-501e-48a0-a97f-c0e09ff3aab0","system_id":"levelo_inurba_marseille","lat":43.222792,"lon":5.345958,"is_reserved":false,"is_disabled":false,"rental_uris":{"android":"levelo://app?vid=58d60ef7-501e-48a0-a97f-c0e09ff3aab0","ios":"levelo://app?vid=58d60ef7-501e-48a0-a97f-c0e09ff3aab0"},"vehicle_type_id":"4","last_reported":1753892077,"current_range_meters":11200,"station_id":"ce4bhp92rcd13ifvqhag","pricing_plan_id":"cebpf4jnsgd1na2vs0mg"},{"bike_id":"a123e3e4-263d-4cdf-a385-b17478a576cc","system_id":"levelo_inurba_marseille","lat":43.30149,"lon":5.38093,"is_reserved":false,"is_disabled":false,"rental_uris":{"android":"levelo://app?vid=a123e3e4-263d-4cdf-a385-b17478a576cc","ios":"levelo://app?vid=a123e3e4-263d-4cdf-a385-b17478a576cc"},"vehicle_type_id":"4","last_reported":1753892077,"current_range_meters":11200,"station_id":"ce4bgjp2rcd13ifvqbh0","pricing_plan_id":"cebpf4jnsgd1na2vs0mg"},{"bike_id":"5fdeab66-ff2a-4660-8fe8-cacaa04824fe","system_id":"levelo_inurba_marseille","lat":43.28927,"lon":5.36391,"is_reserved":false,"is_disabled":false,"rental_uris":{"android":"levelo://app?vid=5fdeab66-ff2a-4660-8fe8-cacaa04824fe","ios":"levelo://app?vid=5fdeab66-ff2a-4660-8fe8-cacaa04824fe"},"vehicle_type_id":"4","last_reported":1753892077,"current_range_meters":11200,"station_id":"ce4bhc92rcd13ifvqetg","pricing_plan_id":"cebpf4jnsgd1na2vs0mg"},{"bike_id":"5f2c329e-f2c7-42ad-8f42-e95dfce5b61a","system_id":"levelo_inurba_marseille","lat":43.23064,"lon":5.35489,"is_reserved":false,"is_disabled":false,"rental_uris":{"android":"levelo://app?vid=5f2c329e-f2c7-42ad-8f42-e95dfce5b61a","ios":"levelo://app?vid=5f2c329e-f2c7-42ad-8f42-e95dfce5b61a"},"vehicle_type_id":"4","last_reported":1753892077,"current_range_meters":11600,"station_id":"cpo3342slgdg3j2ifvpg","pricing_plan_id":"cebpf4jnsgd1na2vs0mg"},{"bike_id":"23cb5642-15b1-4dff-8751-77349dab4204","system_id":"levelo_inurba_marseille","lat":43.229386,"lon":5.353817,"is_reserved":false,"is_disabled":false,"rental_uris":{"android":"levelo://app?vid=23cb5642-15b1-4dff-8751-77349dab4204","ios":"levelo://app?vid=23cb5642-15b1-4dff-8751-77349dab4204"},"vehicle_type_id":"4","last_reported":1753892077,"current_range_meters":11600,"station_id":"cpo3532slgdg3j2ikp40","pricing_plan_id":"cebpf4jnsgd1na2vs0mg"},{"bike_id":"723b789a-f6dc-4638-9a2b-a4d57fddd063","system_id":"levelo_inurba_marseille","lat":43.29652,"lon":5.3715,"is_reserved":false,"is_disabled":false,"rental_uris":{"android":"levelo://app?vid=723b789a-f6dc-4638-9a2b-a4d57fddd063","ios":"levelo://app?vid=723b789a-f6dc-4638-9a2b-a4d57fddd063"},"vehicle_type_id":"4","last_reported":1753892077,"current_range_meters":12000,"station_id":"ce4bgnh2rcd13ifvqc0g","pricing_plan_id":"cebpf4jnsgd1na2vs0mg"},{"bike_id":"868a8985-ec0c-455e-9822-6fe21f6d7c90","system_id":"levelo_inurba_marseille","lat":43.2841,"lon":5.34979,"is_reserved":false,"is_disabled":false,"rental_uris":{"android":"levelo://app?vid=868a8985-ec0c-455e-9822-6fe21f6d7c90","ios":"levelo://app?vid=868a8985-ec0c-455e-9822-6fe21f6d7c90"},"vehicle_type_id":"4","last_reported":1753892077,"current_range_meters":11600,"station_id":"ce4bhbh2rcd13ifvqepg","pricing_plan_id":"cebpf4jnsgd1na2vs0mg"},{"bike_id":"f129605f-c561-462b-9dd8-38b1fae764e6","system_id":"levelo_inurba_marseille","lat":43.32365,"lon":5.36756,"is_reserved":false,"is_disabled":false,"rental_uris":{"android":"levelo://app?vid=f129605f-c561-462b-9dd8-38b1fae764e6","ios":"levelo://app?vid=f129605f-c561-462b-9dd8-38b1fae764e6"},"vehicle_type_id":"4","last_reported":1753892077,"current_range_meters":11600,"station_id":"ce4bhsh2rcd13ifvqi2g","pricing_plan_id":"cebpf4jnsgd1na2vs0mg"},{"bike_id":"6c530f22-14a5-4ecf-b312-4642c2d6b9fb","system_id":"levelo_inurba_marseille","lat":43.2828,"lon":5.35082,"is_reserved":false,"is_disabled":false,"rental_uris":{"android":"levelo://app?vid=6c530f22-14a5-4ecf-b312-4642c2d6b9fb","ios":"levelo://app?vid=6c530f22-14a5-4ecf-b312-4642c2d6b9fb"},"vehicle_type_id":"4","last_reported":1753892077,"current_range_meters":11600,"station_id":"ce4bhbp2rcd13ifvqerg","pricing_plan_id":"cebpf4jnsgd1na2vs0mg"},{"bike_id":"246689eb-d5e2-42fd-a765-9f1bd7b2aed7","system_id":"levelo_inurba_marseille","lat":43.27951,"lon":5.417936,"is_reserved":false,"is_disabled":false,"rental_uris":{"android":"levelo://app?vid=246689eb-d5e2-42fd-a765-9f1bd7b2aed7","ios":"levelo://app?vid=246689eb-d5e2-42fd-a765-9f1bd7b2aed7"},"vehicle_type_id":"4","last_reported":1753892077,"current_range_meters":11600,"station_id":"ce4bho12rcd13ifvqh1g","pricing_plan_id":"cebpf4jnsgd1na2vs0mg"},{"bike_id":"135ab1ea-fc9a-4785-9240-6bfa3adf7c7c","system_id":"levelo_inurba_marseille","lat":43.32258,"lon":5.36635,"is_reserved":false,"is_disabled":false,"rental_uris":{"android":"levelo://app?vid=135ab1ea-fc9a-4785-9240-6bfa3adf7c7c","ios":"levelo://app?vid=135ab1ea-fc9a-4785-9240-6bfa3adf7c7c"},"vehicle_type_id":"4","last_reported":1753892077,"current_range_meters":12000,"station_id":"","pricing_plan_id":"cebpf4jnsgd1na2vs0mg"},{"bike_id":"9c4d2b5a-9d67-4dde-a231-18721b53c8ba","system_id":"levelo_inurba_marseille","lat":43.269614,"lon":5.386251,"is_reserved":false,"is_disabled":false,"rental_uris":{"android":"levelo://app?vid=9c4d2b5a-9d67-4dde-a231-18721b53c8ba","ios":"levelo://app?vid=9c4d2b5a-9d67-4dde-a231-18721b53c8ba"},"vehicle_type_id":"4","last_reported":1753892077,"current_range_meters":12000,"station_id":"ce4bhh92rcd13ifvqfh0","pricing_plan_id":"cebpf4jnsgd1na2vs0mg"},{"bike_id":"16efcfa0-4839-45b4-b22d-a69de6ad00b2","system_id":"levelo_inurba_marseille","lat":43.30881,"lon":5.39649,"is_reserved":false,"is_disabled":false,"rental_uris":{"android":"levelo://app?vid=16efcfa0-4839-45b4-b22d-a69de6ad00b2","ios":"levelo://app?vid=16efcfa0-4839-45b4-b22d-a69de6ad00b2"},"vehicle_type_id":"4","last_reported":1753892077,"current_range_meters":11600,"station_id":"ce4bh012rcd13ifvqcv0","pricing_plan_id":"cebpf4jnsgd1na2vs0mg"},{"bike_id":"8f41ed9d-1778-4af7-b2ad-fd1607beff4e","system_id":"levelo_inurba_marseille","lat":43.22521,"lon":5.34773,"is_reserved":false,"is_disabled":false,"rental_uris":{"android":"levelo://app?vid=8f41ed9d-1778-4af7-b2ad-fd1607beff4e","ios":"levelo://app?vid=8f41ed9d-1778-4af7-b2ad-fd1607beff4e"},"vehicle_type_id":"4","last_reported":1753892077,"current_range_meters":12000,"station_id":"st_cvj5dfep6f1abm77gieg","pricing_plan_id":"cebpf4jnsgd1na2vs0mg"},{"bike_id":"056e4f3d-4ab7-42da-9834-2ca05b8a0f52","system_id":"levelo_inurba_marseille","lat":43.31495,"lon":5.3683,"is_reserved":false,"is_disabled":false,"rental_uris":{"android":"levelo://app?vid=056e4f3d-4ab7-42da-9834-2ca05b8a0f52","ios":"levelo://app?vid=056e4f3d-4ab7-42da-9834-2ca05b8a0f52"},"vehicle_type_id":"4","last_reported":1753892077,"current_range_meters":12000,"station_id":"","pricing_plan_id":"cebpf4jnsgd1na2vs0mg"},{"bike_id":"7fc208ed-e911-4d82-a986-8e995f97f293","system_id":"levelo_inurba_marseille","lat":43.28277,"lon":5.35073,"is_reserved":false,"is_disabled":false,"rental_uris":{"android":"levelo://app?vid=7fc208ed-e911-4d82-a986-8e995f97f293","ios":"levelo://app?vid=7fc208ed-e911-4d82-a986-8e995f97f293"},"vehicle_type_id":"4","last_reported":1753892077,"current_range_meters":12000,"station_id":"ce4bhbp2rcd13ifvqerg","pricing_plan_id":"cebpf4jnsgd1na2vs0mg"},{"bike_id":"bdfdeadf-c86d-4fda-b457-6373280784ba","system_id":"levelo_inurba_marseille","lat":43.25121,"lon":5.4032,"is_reserved":false,"is_disabled":false,"rental_uris":{"android":"levelo://app?vid=bdfdeadf-c86d-4fda-b457-6373280784ba","ios":"levelo://app?vid=bdfdeadf-c86d-4fda-b457-6373280784ba"},"vehicle_type_id":"4","last_reported":1753892077,"current_range_meters":12400,"station_id":"ce4bhlh2rcd13ifvqgig","pricing_plan_id":"cebpf4jnsgd1na2vs0mg"},{"bike_id":"cb8dc39f-653f-4d69-b8be-bfb814a57d6d","system_id":"levelo_inurba_marseille","lat":43.26193,"lon":5.37449,"is_reserved":false,"is_disabled":false,"rental_uris":{"android":"levelo://app?vid=cb8dc39f-653f-4d69-b8be-bfb814a57d6d","ios":"levelo://app?vid=cb8dc39f-653f-4d69-b8be-bfb814a57d6d"},"vehicle_type_id":"4","last_reported":1753892077,"current_range_meters":12400,"station_id":"ce4bhgp2rcd13ifvqfc0","pricing_plan_id":"cebpf4jnsgd1na2vs0mg"},{"bike_id":"887f6f93-0eac-4bcd-a75b-a8c98047a14d","system_id":"levelo_inurba_marseille","lat":43.211954,"lon":5.350714,"is_reserved":false,"is_disabled":false,"rental_uris":{"android":"levelo://app?vid=887f6f93-0eac-4bcd-a75b-a8c98047a14d","ios":"levelo://app?vid=887f6f93-0eac-4bcd-a75b-a8c98047a14d"},"vehicle_type_id":"4","last_reported":1753892077,"current_range_meters":12400,"station_id":"","pricing_plan_id":"cebpf4jnsgd1na2vs0mg"},{"bike_id":"85d95a9a-bae1-4127-a50f-dff98ce29fd5","system_id":"levelo_inurba_marseille","lat":43.32463,"lon":5.37433,"is_reserved":false,"is_disabled":false,"rental_uris":{"android":"levelo://app?vid=85d95a9a-bae1-4127-a50f-dff98ce29fd5","ios":"levelo://app?vid=85d95a9a-bae1-4127-a50f-dff98ce29fd5"},"vehicle_type_id":"4","last_reported":1753892077,"current_range_meters":12400,"station_id":"","pricing_plan_id":"cebpf4jnsgd1na2vs0mg"},{"bike_id":"9a859fee-02c5-417c-8722-d9eb65339368","system_id":"levelo_inurba_marseille","lat":43.28936,"lon":5.36641,"is_reserved":false,"is_disabled":false,"rental_uris":{"android":"levelo://app?vid=9a859fee-02c5-417c-8722-d9eb65339368","ios":"levelo://app?vid=9a859fee-02c5-417c-8722-d9eb65339368"},"vehicle_type_id":"4","last_reported":1753892077,"current_range_meters":13600,"station_id":"ce4bhap2rcd13ifvqek0","pricing_plan_id":"cebpf4jnsgd1na2vs0mg"},{"bike_id":"671701a9-7243-46ba-9df9-fa49b6935265","system_id":"levelo_inurba_marseille","lat":43.2599,"lon":5.3723,"is_reserved":false,"is_disabled":false,"rental_uris":{"android":"levelo://app?vid=671701a9-7243-46ba-9df9-fa49b6935265","ios":"levelo://app?vid=671701a9-7243-46ba-9df9-fa49b6935265"},"vehicle_type_id":"4","last_reported":1753892077,"current_range_meters":12400,"station_id":"","pricing_plan_id":"cebpf4jnsgd1na2vs0mg"},{"bike_id":"24ddc855-9db1-447b-8cc7-fb33f85a47fb","system_id":"levelo_inurba_marseille","lat":43.30595,"lon":5.37213,"is_reserved":false,"is_disabled":false,"rental_uris":{"android":"levelo://app?vid=24ddc855-9db1-447b-8cc7-fb33f85a47fb","ios":"levelo://app?vid=24ddc855-9db1-447b-8cc7-fb33f85a47fb"},"vehicle_type_id":"4","last_reported":1753892077,"current_range_meters":12400,"station_id":"ce4bgqh2rcd13ifvqc4g","pricing_plan_id":"cebpf4jnsgd1na2vs0mg"},{"bike_id":"43d63219-1aa2-4c91-90fe-88b28ddfbee3","system_id":"levelo_inurba_marseille","lat":43.29033,"lon":5.38139,"is_reserved":false,"is_disabled":true,"rental_uris":{"android":"levelo://app?vid=43d63219-1aa2-4c91-90fe-88b28ddfbee3","ios":"levelo://app?vid=43d63219-1aa2-4c91-90fe-88b28ddfbee3"},"vehicle_type_id":"4","last_reported":1753892077,"current_range_meters":12400,"station_id":"ce4bh4p2rcd13ifvqe1g","pricing_plan_id":"cebpf4jnsgd1na2vs0mg"},{"bike_id":"a6a46ae2-d764-44ee-baf2-a76e49bd9084","system_id":"levelo_inurba_marseille","lat":43.269883,"lon":5.403045,"is_reserved":false,"is_disabled":false,"rental_uris":{"android":"levelo://app?vid=a6a46ae2-d764-44ee-baf2-a76e49bd9084","ios":"levelo://app?vid=a6a46ae2-d764-44ee-baf2-a76e49bd9084"},"vehicle_type_id":"4","last_reported":1753892077,"current_range_meters":12400,"station_id":"","pricing_plan_id":"cebpf4jnsgd1na2vs0mg"},{"bike_id":"c686771c-e4d6-4ee5-934b-f3ca190b833e","system_id":"levelo_inurba_marseille","lat":43.32765,"lon":5.39204,"is_reserved":false,"is_disabled":false,"rental_uris":{"android":"levelo://app?vid=c686771c-e4d6-4ee5-934b-f3ca190b833e","ios":"levelo://app?vid=c686771c-e4d6-4ee5-934b-f3ca190b833e"},"vehicle_type_id":"4","last_reported":1753892077,"current_range_meters":12400,"station_id":"","pricing_plan_id":"cebpf4jnsgd1na2vs0mg"},{"bike_id":"5ff7b424-be72-460e-9279-c80ac3b388ac","system_id":"levelo_inurba_marseille","lat":43.23151,"lon":5.39937,"is_reserved":false,"is_disabled":false,"rental_uris":{"android":"levelo://app?vid=5ff7b424-be72-460e-9279-c80ac3b388ac","ios":"levelo://app?vid=5ff7b424-be72-460e-9279-c80ac3b388ac"},"vehicle_type_id":"4","last_reported":1753892077,"current_range_meters":12400,"station_id":"ce4bhn12rcd13ifvqgqg","pricing_plan_id":"cebpf4jnsgd1na2vs0mg"},{"bike_id":"5e89c3d6-3c69-4ae2-8c32-b66a6479c5eb","system_id":"levelo_inurba_marseille","lat":43.26791,"lon":5.3942,"is_reserved":false,"is_disabled":true,"rental_uris":{"android":"levelo://app?vid=5e89c3d6-3c69-4ae2-8c32-b66a6479c5eb","ios":"levelo://app?vid=5e89c3d6-3c69-4ae2-8c32-b66a6479c5eb"},"vehicle_type_id":"4","last_reported":1753892077,"current_range_meters":12400,"station_id":"ce4bhh12rcd13ifvqfg0","pricing_plan_id":"cebpf4jnsgd1na2vs0mg"},{"bike_id":"3d60e95a-8706-4e13-b31f-ac7a913f607a","system_id":"levelo_inurba_marseille","lat":43.22973,"lon":5.35384,"is_reserved":false,"is_disabled":false,"rental_uris":{"android":"levelo://app?vid=3d60e95a-8706-4e13-b31f-ac7a913f607a","ios":"levelo://app?vid=3d60e95a-8706-4e13-b31f-ac7a913f607a"},"vehicle_type_id":"4","last_reported":1753892077,"current_range_meters":12800,"station_id":"","pricing_plan_id":"cebpf4jnsgd1na2vs0mg"},{"bike_id":"11a93133-b90d-48f7-99db-4877088b034d","system_id":"levelo_inurba_marseille","lat":43.29442,"lon":5.39742,"is_reserved":false,"is_disabled":false,"rental_uris":{"android":"levelo://app?vid=11a93133-b90d-48f7-99db-4877088b034d","ios":"levelo://app?vid=11a93133-b90d-48f7-99db-4877088b034d"},"vehicle_type_id":"4","last_reported":1753892077,"current_range_meters":13600,"station_id":"ce4bh3h2rcd13ifvqdo0","pricing_plan_id":"cebpf4jnsgd1na2vs0mg"},{"bike_id":"9a96198c-07c7-4b35-8a70-3f8f7bd8f1e5","system_id":"levelo_inurba_marseille","lat":43.30161,"lon":5.38077,"is_reserved":false,"is_disabled":false,"rental_uris":{"android":"levelo://app?vid=9a96198c-07c7-4b35-8a70-3f8f7bd8f1e5","ios":"levelo://app?vid=9a96198c-07c7-4b35-8a70-3f8f7bd8f1e5"},"vehicle_type_id":"4","last_reported":1753892077,"current_range_meters":13600,"station_id":"ce4bgjp2rcd13ifvqbh0","pricing_plan_id":"cebpf4jnsgd1na2vs0mg"},{"bike_id":"b44d763b-4f92-4731-b76a-85ebcd91acd5","system_id":"levelo_inurba_marseille","lat":43.30201,"lon":5.3712,"is_reserved":false,"is_disabled":false,"rental_uris":{"android":"levelo://app?vid=b44d763b-4f92-4731-b76a-85ebcd91acd5","ios":"levelo://app?vid=b44d763b-4f92-4731-b76a-85ebcd91acd5"},"vehicle_type_id":"4","last_reported":1753892077,"current_range_meters":13600,"station_id":"","pricing_plan_id":"cebpf4jnsgd1na2vs0mg"},{"bike_id":"ae6c8428-e39e-40be-9df7-f418521aa777","system_id":"levelo_inurba_marseille","lat":43.22934,"lon":5.35377,"is_reserved":false,"is_disabled":false,"rental_uris":{"android":"levelo://app?vid=ae6c8428-e39e-40be-9df7-f418521aa777","ios":"levelo://app?vid=ae6c8428-e39e-40be-9df7-f418521aa777"},"vehicle_type_id":"4","last_reported":1753892077,"current_range_meters":13600,"station_id":"cpo3532slgdg3j2ikp40","pricing_plan_id":"cebpf4jnsgd1na2vs0mg"},{"bike_id":"116d91c8-22c6-44b9-ad68-dfbfbe9e23dc","system_id":"levelo_inurba_marseille","lat":43.32511,"lon":5.36556,"is_reserved":false,"is_disabled":false,"rental_uris":{"android":"levelo://app?vid=116d91c8-22c6-44b9-ad68-dfbfbe9e23dc","ios":"levelo://app?vid=116d91c8-22c6-44b9-ad68-dfbfbe9e23dc"},"vehicle_type_id":"4","last_reported":1753892077,"current_range_meters":13600,"station_id":"ce4bhs12rcd13ifvqhvg","pricing_plan_id":"cebpf4jnsgd1na2vs0mg"},{"bike_id":"d47c83fe-60dd-4f74-aea0-e8f423db3f4f","system_id":"levelo_inurba_marseille","lat":43.23179,"lon":5.39989,"is_reserved":false,"is_disabled":false,"rental_uris":{"android":"levelo://app?vid=d47c83fe-60dd-4f74-aea0-e8f423db3f4f","ios":"levelo://app?vid=d47c83fe-60dd-4f74-aea0-e8f423db3f4f"},"vehicle_type_id":"4","last_reported":1753892077,"current_range_meters":13600,"station_id":"ce4bhn12rcd13ifvqgqg","pricing_plan_id":"cebpf4jnsgd1na2vs0mg"},{"bike_id":"f1a16245-a719-4096-a1c1-ba4840f24ff3","system_id":"levelo_inurba_marseille","lat":43.28421,"lon":5.34985,"is_reserved":false,"is_disabled":false,"rental_uris":{"android":"levelo://app?vid=f1a16245-a719-4096-a1c1-ba4840f24ff3","ios":"levelo://app?vid=f1a16245-a719-4096-a1c1-ba4840f24ff3"},"vehicle_type_id":"4","last_reported":1753892077,"current_range_meters":13600,"station_id":"ce4bhbh2rcd13ifvqepg","pricing_plan_id":"cebpf4jnsgd1na2vs0mg"},{"bike_id":"6066b886-7a08-4fa7-bb08-ef5f17a3bf72","system_id":"levelo_inurba_marseille","lat":43.23199,"lon":5.35553,"is_reserved":false,"is_disabled":false,"rental_uris":{"android":"levelo://app?vid=6066b886-7a08-4fa7-bb08-ef5f17a3bf72","ios":"levelo://app?vid=6066b886-7a08-4fa7-bb08-ef5f17a3bf72"},"vehicle_type_id":"4","last_reported":1753892077,"current_range_meters":13600,"station_id":"ce4bhu92rcd13ifvqi70","pricing_plan_id":"cebpf4jnsgd1na2vs0mg"},{"bike_id":"5c9160ef-4dfa-47d2-93ef-2b30f19b283e","system_id":"levelo_inurba_marseille","lat":43.22942,"lon":5.35373,"is_reserved":false,"is_disabled":false,"rental_uris":{"android":"levelo://app?vid=5c9160ef-4dfa-47d2-93ef-2b30f19b283e","ios":"levelo://app?vid=5c9160ef-4dfa-47d2-93ef-2b30f19b283e"},"vehicle_type_id":"4","last_reported":1753892077,"current_range_meters":13600,"station_id":"cpo3532slgdg3j2ikp40","pricing_plan_id":"cebpf4jnsgd1na2vs0mg"},{"bike_id":"140b5c63-3faf-431f-9c0c-101a9c1749ac","system_id":"levelo_inurba_marseille","lat":43.25826,"lon":5.39433,"is_reserved":false,"is_disabled":false,"rental_uris":{"android":"levelo://app?vid=140b5c63-3faf-431f-9c0c-101a9c1749ac","ios":"levelo://app?vid=140b5c63-3faf-431f-9c0c-101a9c1749ac"},"vehicle_type_id":"4","last_reported":1753892077,"current_range_meters":13600,"station_id":"ce4bhip2rcd13ifvqft0","pricing_plan_id":"cebpf4jnsgd1na2vs0mg"},{"bike_id":"7185a3fe-1ac9-4c70-9e84-e5229cf3aab0","system_id":"levelo_inurba_marseille","lat":43.23976,"lon":5.36624,"is_reserved":false,"is_disabled":false,"rental_uris":{"android":"levelo://app?vid=7185a3fe-1ac9-4c70-9e84-e5229cf3aab0","ios":"levelo://app?vid=7185a3fe-1ac9-4c70-9e84-e5229cf3aab0"},"vehicle_type_id":"4","last_reported":1753892077,"current_range_meters":13600,"station_id":"ce4bhi12rcd13ifvqfp0","pricing_plan_id":"cebpf4jnsgd1na2vs0mg"},{"bike_id":"79487424-22bb-4578-99a4-da7f1480cf68","system_id":"levelo_inurba_marseille","lat":43.27383,"lon":5.36245,"is_reserved":false,"is_disabled":false,"rental_uris":{"android":"levelo://app?vid=79487424-22bb-4578-99a4-da7f1480cf68","ios":"levelo://app?vid=79487424-22bb-4578-99a4-da7f1480cf68"},"vehicle_type_id":"4","last_reported":1753892077,"current_range_meters":13600,"station_id":"ce4bhbh2rcd13ifvqeo0","pricing_plan_id":"cebpf4jnsgd1na2vs0mg"},{"bike_id":"49ac42e3-46a9-464c-add5-aa76569577fd","system_id":"levelo_inurba_marseille","lat":43.26235,"lon":5.37426,"is_reserved":false,"is_disabled":false,"rental_uris":{"android":"levelo://app?vid=49ac42e3-46a9-464c-add5-aa76569577fd","ios":"levelo://app?vid=49ac42e3-46a9-464c-add5-aa76569577fd"},"vehicle_type_id":"4","last_reported":1753892077,"current_range_meters":14000,"station_id":"","pricing_plan_id":"cebpf4jnsgd1na2vs0mg"},{"bike_id":"5bcc0932-58f4-42ae-859c-d56aac2c8456","system_id":"levelo_inurba_marseille","lat":43.24168,"lon":5.36393,"is_reserved":false,"is_disabled":false,"rental_uris":{"android":"levelo://app?vid=5bcc0932-58f4-42ae-859c-d56aac2c8456","ios":"levelo://app?vid=5bcc0932-58f4-42ae-859c-d56aac2c8456"},"vehicle_type_id":"4","last_reported":1753892077,"current_range_meters":14000,"station_id":"cpo36qri1sfpv3e86is0","pricing_plan_id":"cebpf4jnsgd1na2vs0mg"},{"bike_id":"97e0cc1c-fa5d-41b9-8b72-3eed848ec1f7","system_id":"levelo_inurba_marseille","lat":43.330295,"lon":5.390706,"is_reserved":false,"is_disabled":false,"rental_uris":{"android":"levelo://app?vid=97e0cc1c-fa5d-41b9-8b72-3eed848ec1f7","ios":"levelo://app?vid=97e0cc1c-fa5d-41b9-8b72-3eed848ec1f7"},"vehicle_type_id":"4","last_reported":1753892077,"current_range_meters":14000,"station_id":"ce4bhr92rcd13ifvqhrg","pricing_plan_id":"cebpf4jnsgd1na2vs0mg"},{"bike_id":"5f72df66-2d68-4c6e-a917-44e1dcfede98","system_id":"levelo_inurba_marseille","lat":43.229343,"lon":5.353896,"is_reserved":false,"is_disabled":false,"rental_uris":{"android":"levelo://app?vid=5f72df66-2d68-4c6e-a917-44e1dcfede98","ios":"levelo://app?vid=5f72df66-2d68-4c6e-a917-44e1dcfede98"},"vehicle_type_id":"4","last_reported":1753892077,"current_range_meters":14000,"station_id":"cpo3532slgdg3j2ikp40","pricing_plan_id":"cebpf4jnsgd1na2vs0mg"},{"bike_id":"d130f90a-03bf-4ed8-8bbf-eb39d2429cc9","system_id":"levelo_inurba_marseille","lat":43.29563,"lon":5.37489,"is_reserved":false,"is_disabled":false,"rental_uris":{"android":"levelo://app?vid=d130f90a-03bf-4ed8-8bbf-eb39d2429cc9","ios":"levelo://app?vid=d130f90a-03bf-4ed8-8bbf-eb39d2429cc9"},"vehicle_type_id":"4","last_reported":1753892077,"current_range_meters":14000,"station_id":"ce4bgh92rcd13ifvqb50","pricing_plan_id":"cebpf4jnsgd1na2vs0mg"},{"bike_id":"fcca274c-368c-4e82-a894-79b4c3c0206c","system_id":"levelo_inurba_marseille","lat":43.24662,"lon":5.38165,"is_reserved":false,"is_disabled":false,"rental_uris":{"android":"levelo://app?vid=fcca274c-368c-4e82-a894-79b4c3c0206c","ios":"levelo://app?vid=fcca274c-368c-4e82-a894-79b4c3c0206c"},"vehicle_type_id":"4","last_reported":1753892077,"current_range_meters":14000,"station_id":"ce4bhih2rcd13ifvqfr0","pricing_plan_id":"cebpf4jnsgd1na2vs0mg"},{"bike_id":"a05992f6-1f51-4dbf-8921-4ad77bab57e9","system_id":"levelo_inurba_marseille","lat":43.24181,"lon":5.36379,"is_reserved":false,"is_disabled":false,"rental_uris":{"android":"levelo://app?vid=a05992f6-1f51-4dbf-8921-4ad77bab57e9","ios":"levelo://app?vid=a05992f6-1f51-4dbf-8921-4ad77bab57e9"},"vehicle_type_id":"4","last_reported":1753892077,"current_range_meters":14000,"station_id":"cpo36qri1sfpv3e86is0","pricing_plan_id":"cebpf4jnsgd1na2vs0mg"},{"bike_id":"be22c650-9905-4955-b309-3454b57a3239","system_id":"levelo_inurba_marseille","lat":43.263761,"lon":5.377321,"is_reserved":false,"is_disabled":false,"rental_uris":{"android":"levelo://app?vid=be22c650-9905-4955-b309-3454b57a3239","ios":"levelo://app?vid=be22c650-9905-4955-b309-3454b57a3239"},"vehicle_type_id":"4","last_reported":1753892077,"current_range_meters":14000,"station_id":"ce4bhgp2rcd13ifvqfc0","pricing_plan_id":"cebpf4jnsgd1na2vs0mg"},{"bike_id":"f4dd1d6b-69f7-4979-8b59-33b6c8a3403c","system_id":"levelo_inurba_marseille","lat":43.27415,"lon":5.3625,"is_reserved":false,"is_disabled":false,"rental_uris":{"android":"levelo://app?vid=f4dd1d6b-69f7-4979-8b59-33b6c8a3403c","ios":"levelo://app?vid=f4dd1d6b-69f7-4979-8b59-33b6c8a3403c"},"vehicle_type_id":"4","last_reported":1753892077,"current_range_meters":14400,"station_id":"","pricing_plan_id":"cebpf4jnsgd1na2vs0mg"},{"bike_id":"10503ad0-e4f8-4204-a0d5-08850e13176f","system_id":"levelo_inurba_marseille","lat":43.243892,"lon":5.370521,"is_reserved":false,"is_disabled":false,"rental_uris":{"android":"levelo://app?vid=10503ad0-e4f8-4204-a0d5-08850e13176f","ios":"levelo://app?vid=10503ad0-e4f8-4204-a0d5-08850e13176f"},"vehicle_type_id":"4","last_reported":1753892077,"current_range_meters":14400,"station_id":"ce4bhhh2rcd13ifvqfk0","pricing_plan_id":"cebpf4jnsgd1na2vs0mg"},{"bike_id":"b051c4c5-73d7-48dc-8e20-89f4b56aed4e","system_id":"levelo_inurba_marseille","lat":43.306076,"lon":5.372295,"is_reserved":false,"is_disabled":false,"rental_uris":{"android":"levelo://app?vid=b051c4c5-73d7-48dc-8e20-89f4b56aed4e","ios":"levelo://app?vid=b051c4c5-73d7-48dc-8e20-89f4b56aed4e"},"vehicle_type_id":"4","last_reported":1753892077,"current_range_meters":14000,"station_id":"ce4bgqh2rcd13ifvqc4g","pricing_plan_id":"cebpf4jnsgd1na2vs0mg"},{"bike_id":"19295018-235d-4f62-9c12-0203c908e699","system_id":"levelo_inurba_marseille","lat":43.2293,"lon":5.35386,"is_reserved":false,"is_disabled":false,"rental_uris":{"android":"levelo://app?vid=19295018-235d-4f62-9c12-0203c908e699","ios":"levelo://app?vid=19295018-235d-4f62-9c12-0203c908e699"},"vehicle_type_id":"4","last_reported":1753892077,"current_range_meters":14400,"station_id":"cpo3532slgdg3j2ikp40","pricing_plan_id":"cebpf4jnsgd1na2vs0mg"},{"bike_id":"b064da52-d0b8-4352-bf44-87fcabe9efdf","system_id":"levelo_inurba_marseille","lat":43.26952,"lon":5.38629,"is_reserved":false,"is_disabled":false,"rental_uris":{"android":"levelo://app?vid=b064da52-d0b8-4352-bf44-87fcabe9efdf","ios":"levelo://app?vid=b064da52-d0b8-4352-bf44-87fcabe9efdf"},"vehicle_type_id":"4","last_reported":1753892077,"current_range_meters":14400,"station_id":"ce4bhh92rcd13ifvqfh0","pricing_plan_id":"cebpf4jnsgd1na2vs0mg"},{"bike_id":"258208fd-626e-4fa2-a64c-19fbd71af95f","system_id":"levelo_inurba_marseille","lat":43.3011,"lon":5.39085,"is_reserved":false,"is_disabled":true,"rental_uris":{"android":"levelo://app?vid=258208fd-626e-4fa2-a64c-19fbd71af95f","ios":"levelo://app?vid=258208fd-626e-4fa2-a64c-19fbd71af95f"},"vehicle_type_id":"4","last_reported":1753892077,"current_range_meters":14400,"station_id":"ce4bh192rcd13ifvqdb0","pricing_plan_id":"cebpf4jnsgd1na2vs0mg"},{"bike_id":"c442ac33-a2b5-4387-acbb-6b4a8565aa94","system_id":"levelo_inurba_marseille","lat":43.30787,"lon":5.37663,"is_reserved":false,"is_disabled":false,"rental_uris":{"android":"levelo://app?vid=c442ac33-a2b5-4387-acbb-6b4a8565aa94","ios":"levelo://app?vid=c442ac33-a2b5-4387-acbb-6b4a8565aa94"},"vehicle_type_id":"4","last_reported":1753892077,"current_range_meters":14400,"station_id":"ce4bgv92rcd13ifvqcq0","pricing_plan_id":"cebpf4jnsgd1na2vs0mg"},{"bike_id":"0143bc07-02f9-46ea-8811-3bf1158d74e2","system_id":"levelo_inurba_marseille","lat":43.24173,"lon":5.36394,"is_reserved":false,"is_disabled":false,"rental_uris":{"android":"levelo://app?vid=0143bc07-02f9-46ea-8811-3bf1158d74e2","ios":"levelo://app?vid=0143bc07-02f9-46ea-8811-3bf1158d74e2"},"vehicle_type_id":"4","last_reported":1753892077,"current_range_meters":14400,"station_id":"cpo36qri1sfpv3e86is0","pricing_plan_id":"cebpf4jnsgd1na2vs0mg"},{"bike_id":"daabd21d-fe72-4bef-9caa-c5886e1b6fe4","system_id":"levelo_inurba_marseille","lat":43.316881,"lon":5.37258,"is_reserved":false,"is_disabled":false,"rental_uris":{"android":"levelo://app?vid=daabd21d-fe72-4bef-9caa-c5886e1b6fe4","ios":"levelo://app?vid=daabd21d-fe72-4bef-9caa-c5886e1b6fe4"},"vehicle_type_id":"4","last_reported":1753892077,"current_range_meters":14400,"station_id":"","pricing_plan_id":"cebpf4jnsgd1na2vs0mg"},{"bike_id":"527fe8fd-9242-49c7-929e-138dfdc51cec","system_id":"levelo_inurba_marseille","lat":43.23158,"lon":5.43705,"is_reserved":false,"is_disabled":false,"rental_uris":{"android":"levelo://app?vid=527fe8fd-9242-49c7-929e-138dfdc51cec","ios":"levelo://app?vid=527fe8fd-9242-49c7-929e-138dfdc51cec"},"vehicle_type_id":"4","last_reported":1753892077,"current_range_meters":14400,"station_id":"ce4bhmp2rcd13ifvqgog","pricing_plan_id":"cebpf4jnsgd1na2vs0mg"},{"bike_id":"ed00654e-fc40-4882-9823-4af446a51700","system_id":"levelo_inurba_marseille","lat":43.26201,"lon":5.37448,"is_reserved":false,"is_disabled":false,"rental_uris":{"android":"levelo://app?vid=ed00654e-fc40-4882-9823-4af446a51700","ios":"levelo://app?vid=ed00654e-fc40-4882-9823-4af446a51700"},"vehicle_type_id":"4","last_reported":1753892077,"current_range_meters":14800,"station_id":"ce4bhgp2rcd13ifvqfc0","pricing_plan_id":"cebpf4jnsgd1na2vs0mg"},{"bike_id":"d6e73d77-7eaf-429e-8e60-c6d22d59faca","system_id":"levelo_inurba_marseille","lat":43.27911,"lon":5.38004,"is_reserved":false,"is_disabled":false,"rental_uris":{"android":"levelo://app?vid=d6e73d77-7eaf-429e-8e60-c6d22d59faca","ios":"levelo://app?vid=d6e73d77-7eaf-429e-8e60-c6d22d59faca"},"vehicle_type_id":"4","last_reported":1753892077,"current_range_meters":14800,"station_id":"ce4bhf92rcd13ifvqf50","pricing_plan_id":"cebpf4jnsgd1na2vs0mg"},{"bike_id":"2e1bdbd1-042c-4bf4-b623-908b6301c20d","system_id":"levelo_inurba_marseille","lat":43.28142,"lon":5.44217,"is_reserved":false,"is_disabled":false,"rental_uris":{"android":"levelo://app?vid=2e1bdbd1-042c-4bf4-b623-908b6301c20d","ios":"levelo://app?vid=2e1bdbd1-042c-4bf4-b623-908b6301c20d"},"vehicle_type_id":"4","last_reported":1753892077,"current_range_meters":14800,"station_id":"","pricing_plan_id":"cebpf4jnsgd1na2vs0mg"},{"bike_id":"92d1b695-1582-4bc5-8902-512e73b8e6b0","system_id":"levelo_inurba_marseille","lat":43.23048,"lon":5.35493,"is_reserved":false,"is_disabled":false,"rental_uris":{"android":"levelo://app?vid=92d1b695-1582-4bc5-8902-512e73b8e6b0","ios":"levelo://app?vid=92d1b695-1582-4bc5-8902-512e73b8e6b0"},"vehicle_type_id":"4","last_reported":1753892077,"current_range_meters":14800,"station_id":"cpo3342slgdg3j2ifvpg","pricing_plan_id":"cebpf4jnsgd1na2vs0mg"},{"bike_id":"807ee3ac-ec42-44be-a33b-e36724ceb7c0","system_id":"levelo_inurba_marseille","lat":43.308,"lon":5.38164,"is_reserved":false,"is_disabled":true,"rental_uris":{"android":"levelo://app?vid=807ee3ac-ec42-44be-a33b-e36724ceb7c0","ios":"levelo://app?vid=807ee3ac-ec42-44be-a33b-e36724ceb7c0"},"vehicle_type_id":"4","last_reported":1753892077,"current_range_meters":14800,"station_id":"ce4bgt12rcd13ifvqce0","pricing_plan_id":"cebpf4jnsgd1na2vs0mg"},{"bike_id":"5feb7f37-0e9a-4a59-a279-7fca31683544","system_id":"levelo_inurba_marseille","lat":43.23967,"lon":5.36633,"is_reserved":false,"is_disabled":false,"rental_uris":{"android":"levelo://app?vid=5feb7f37-0e9a-4a59-a279-7fca31683544","ios":"levelo://app?vid=5feb7f37-0e9a-4a59-a279-7fca31683544"},"vehicle_type_id":"4","last_reported":1753892077,"current_range_meters":14800,"station_id":"ce4bhi12rcd13ifvqfp0","pricing_plan_id":"cebpf4jnsgd1na2vs0mg"},{"bike_id":"8c438bbf-257a-4d8c-a171-570453c804e2","system_id":"levelo_inurba_marseille","lat":43.24167,"lon":5.36398,"is_reserved":false,"is_disabled":false,"rental_uris":{"android":"levelo://app?vid=8c438bbf-257a-4d8c-a171-570453c804e2","ios":"levelo://app?vid=8c438bbf-257a-4d8c-a171-570453c804e2"},"vehicle_type_id":"4","last_reported":1753892077,"current_range_meters":15200,"station_id":"cpo36qri1sfpv3e86is0","pricing_plan_id":"cebpf4jnsgd1na2vs0mg"},{"bike_id":"4c4f4114-34e6-499b-aff2-08980e060824","system_id":"levelo_inurba_marseille","lat":43.29788,"lon":5.39346,"is_reserved":false,"is_disabled":false,"rental_uris":{"android":"levelo://app?vid=4c4f4114-34e6-499b-aff2-08980e060824","ios":"levelo://app?vid=4c4f4114-34e6-499b-aff2-08980e060824"},"vehicle_type_id":"4","last_reported":1753892077,"current_range_meters":14800,"station_id":"chh1huq6cuj3fo74tm60","pricing_plan_id":"cebpf4jnsgd1na2vs0mg"},{"bike_id":"1a0ca16f-4b93-4052-acd5-440501907ad3","system_id":"levelo_inurba_marseille","lat":43.23194,"lon":5.35544,"is_reserved":false,"is_disabled":false,"rental_uris":{"android":"levelo://app?vid=1a0ca16f-4b93-4052-acd5-440501907ad3","ios":"levelo://app?vid=1a0ca16f-4b93-4052-acd5-440501907ad3"},"vehicle_type_id":"4","last_reported":1753892077,"current_range_meters":15200,"station_id":"ce4bhu92rcd13ifvqi70","pricing_plan_id":"cebpf4jnsgd1na2vs0mg"},{"bike_id":"d076e265-2a54-4297-9670-5745543050ab","system_id":"levelo_inurba_marseille","lat":43.28407,"lon":5.35,"is_reserved":false,"is_disabled":false,"rental_uris":{"android":"levelo://app?vid=d076e265-2a54-4297-9670-5745543050ab","ios":"levelo://app?vid=d076e265-2a54-4297-9670-5745543050ab"},"vehicle_type_id":"4","last_reported":1753892077,"current_range_meters":15200,"station_id":"ce4bhbh2rcd13ifvqepg","pricing_plan_id":"cebpf4jnsgd1na2vs0mg"},{"bike_id":"b89ad748-f7c1-4685-8c85-3009b186b7d0","system_id":"levelo_inurba_marseille","lat":43.248143,"lon":5.374613,"is_reserved":false,"is_disabled":false,"rental_uris":{"android":"levelo://app?vid=b89ad748-f7c1-4685-8c85-3009b186b7d0","ios":"levelo://app?vid=b89ad748-f7c1-4685-8c85-3009b186b7d0"},"vehicle_type_id":"4","last_reported":1753892077,"current_range_meters":15200,"station_id":"ce4bhgh2rcd13ifvqfb0","pricing_plan_id":"cebpf4jnsgd1na2vs0mg"},{"bike_id":"43dc7d70-ecf0-4580-8826-e0c1641b34f1","system_id":"levelo_inurba_marseille","lat":43.31113,"lon":5.37767,"is_reserved":false,"is_disabled":false,"rental_uris":{"android":"levelo://app?vid=43dc7d70-ecf0-4580-8826-e0c1641b34f1","ios":"levelo://app?vid=43dc7d70-ecf0-4580-8826-e0c1641b34f1"},"vehicle_type_id":"4","last_reported":1753892077,"current_range_meters":16000,"station_id":"ce4bgt92rcd13ifvqcg0","pricing_plan_id":"cebpf4jnsgd1na2vs0mg"},{"bike_id":"fc72750c-8629-412d-8606-ffe7b2eda556","system_id":"levelo_inurba_marseille","lat":43.27496,"lon":5.42452,"is_reserved":false,"is_disabled":false,"rental_uris":{"android":"levelo://app?vid=fc72750c-8629-412d-8606-ffe7b2eda556","ios":"levelo://app?vid=fc72750c-8629-412d-8606-ffe7b2eda556"},"vehicle_type_id":"4","last_reported":1753892077,"current_range_meters":16000,"station_id":"ce4bhn92rcd13ifvqgrg","pricing_plan_id":"cebpf4jnsgd1na2vs0mg"},{"bike_id":"6590494b-43e7-43e0-b312-c754fd5ea433","system_id":"levelo_inurba_marseille","lat":43.29054,"lon":5.4298,"is_reserved":false,"is_disabled":false,"rental_uris":{"android":"levelo://app?vid=6590494b-43e7-43e0-b312-c754fd5ea433","ios":"levelo://app?vid=6590494b-43e7-43e0-b312-c754fd5ea433"},"vehicle_type_id":"4","last_reported":1753892077,"current_range_meters":16000,"station_id":"","pricing_plan_id":"cebpf4jnsgd1na2vs0mg"},{"bike_id":"f2341e27-b123-4f17-9580-d96bdf02af15","system_id":"levelo_inurba_marseille","lat":43.29567,"lon":5.3752,"is_reserved":false,"is_disabled":false,"rental_uris":{"android":"levelo://app?vid=f2341e27-b123-4f17-9580-d96bdf02af15","ios":"levelo://app?vid=f2341e27-b123-4f17-9580-d96bdf02af15"},"vehicle_type_id":"4","last_reported":1753892077,"current_range_meters":16800,"station_id":"ce4bgh92rcd13ifvqb50","pricing_plan_id":"cebpf4jnsgd1na2vs0mg"},{"bike_id":"2c4400c7-2bd6-4d8f-805d-b1037b3fe518","system_id":"levelo_inurba_marseille","lat":43.22517,"lon":5.34778,"is_reserved":false,"is_disabled":false,"rental_uris":{"android":"levelo://app?vid=2c4400c7-2bd6-4d8f-805d-b1037b3fe518","ios":"levelo://app?vid=2c4400c7-2bd6-4d8f-805d-b1037b3fe518"},"vehicle_type_id":"4","last_reported":1753892077,"current_range_meters":16000,"station_id":"st_cvj5dfep6f1abm77gieg","pricing_plan_id":"cebpf4jnsgd1na2vs0mg"},{"bike_id":"36c11242-6e7f-4d89-97be-c2933f4606a5","system_id":"levelo_inurba_marseille","lat":43.2621,"lon":5.37441,"is_reserved":false,"is_disabled":false,"rental_uris":{"android":"levelo://app?vid=36c11242-6e7f-4d89-97be-c2933f4606a5","ios":"levelo://app?vid=36c11242-6e7f-4d89-97be-c2933f4606a5"},"vehicle_type_id":"4","last_reported":1753892077,"current_range_meters":16000,"station_id":"ce4bhgp2rcd13ifvqfc0","pricing_plan_id":"cebpf4jnsgd1na2vs0mg"},{"bike_id":"27b9c343-0788-46cc-8a44-f364779e80d4","system_id":"levelo_inurba_marseille","lat":43.27059,"lon":5.4026,"is_reserved":false,"is_disabled":false,"rental_uris":{"android":"levelo://app?vid=27b9c343-0788-46cc-8a44-f364779e80d4","ios":"levelo://app?vid=27b9c343-0788-46cc-8a44-f364779e80d4"},"vehicle_type_id":"4","last_reported":1753892077,"current_range_meters":16000,"station_id":"ce4bhk92rcd13ifvqgc0","pricing_plan_id":"cebpf4jnsgd1na2vs0mg"},{"bike_id":"6edee4fe-46f2-43ea-a18a-6ec975f8373c","system_id":"levelo_inurba_marseille","lat":43.28853,"lon":5.358465,"is_reserved":false,"is_disabled":false,"rental_uris":{"android":"levelo://app?vid=6edee4fe-46f2-43ea-a18a-6ec975f8373c","ios":"levelo://app?vid=6edee4fe-46f2-43ea-a18a-6ec975f8373c"},"vehicle_type_id":"4","last_reported":1753892077,"current_range_meters":16000,"station_id":"","pricing_plan_id":"cebpf4jnsgd1na2vs0mg"},{"bike_id":"de51aa0b-260c-4c1e-8b5a-1392239894a3","system_id":"levelo_inurba_marseille","lat":43.24089,"lon":5.37773,"is_reserved":false,"is_disabled":false,"rental_uris":{"android":"levelo://app?vid=de51aa0b-260c-4c1e-8b5a-1392239894a3","ios":"levelo://app?vid=de51aa0b-260c-4c1e-8b5a-1392239894a3"},"vehicle_type_id":"4","last_reported":1753892077,"current_range_meters":16000,"station_id":"ce4bhnp2rcd13ifvqgvg","pricing_plan_id":"cebpf4jnsgd1na2vs0mg"},{"bike_id":"ef5844ee-86b6-4482-a278-3baedbcd8784","system_id":"levelo_inurba_marseille","lat":43.29793,"lon":5.38087,"is_reserved":false,"is_disabled":false,"rental_uris":{"android":"levelo://app?vid=ef5844ee-86b6-4482-a278-3baedbcd8784","ios":"levelo://app?vid=ef5844ee-86b6-4482-a278-3baedbcd8784"},"vehicle_type_id":"4","last_reported":1753892077,"current_range_meters":17200,"station_id":"ce4bgip2rcd13ifvqbb0","pricing_plan_id":"cebpf4jnsgd1na2vs0mg"},{"bike_id":"d40a0971-8b0d-4f10-8d92-fd558d78eae4","system_id":"levelo_inurba_marseille","lat":43.28263,"lon":5.35083,"is_reserved":false,"is_disabled":false,"rental_uris":{"android":"levelo://app?vid=d40a0971-8b0d-4f10-8d92-fd558d78eae4","ios":"levelo://app?vid=d40a0971-8b0d-4f10-8d92-fd558d78eae4"},"vehicle_type_id":"4","last_reported":1753892077,"current_range_meters":16400,"station_id":"ce4bhbp2rcd13ifvqerg","pricing_plan_id":"cebpf4jnsgd1na2vs0mg"},{"bike_id":"30d425b9-6532-4584-ae56-a015f4c9f632","system_id":"levelo_inurba_marseille","lat":43.29186,"lon":5.36015,"is_reserved":false,"is_disabled":false,"rental_uris":{"android":"levelo://app?vid=30d425b9-6532-4584-ae56-a015f4c9f632","ios":"levelo://app?vid=30d425b9-6532-4584-ae56-a015f4c9f632"},"vehicle_type_id":"4","last_reported":1753892077,"current_range_meters":16400,"station_id":"","pricing_plan_id":"cebpf4jnsgd1na2vs0mg"},{"bike_id":"b866b0af-a86c-463f-9c2f-a93be3dd7f10","system_id":"levelo_inurba_marseille","lat":43.28449,"lon":5.39207,"is_reserved":false,"is_disabled":false,"rental_uris":{"android":"levelo://app?vid=b866b0af-a86c-463f-9c2f-a93be3dd7f10","ios":"levelo://app?vid=b866b0af-a86c-463f-9c2f-a93be3dd7f10"},"vehicle_type_id":"4","last_reported":1753892077,"current_range_meters":16400,"station_id":"ce4bhoh2rcd13ifvqh5g","pricing_plan_id":"cebpf4jnsgd1na2vs0mg"},{"bike_id":"a48a5c83-9006-49af-bdd9-090cfce3dc6e","system_id":"levelo_inurba_marseille","lat":43.27374,"lon":5.36237,"is_reserved":false,"is_disabled":false,"rental_uris":{"android":"levelo://app?vid=a48a5c83-9006-49af-bdd9-090cfce3dc6e","ios":"levelo://app?vid=a48a5c83-9006-49af-bdd9-090cfce3dc6e"},"vehicle_type_id":"4","last_reported":1753892077,"current_range_meters":16400,"station_id":"ce4bhbh2rcd13ifvqeo0","pricing_plan_id":"cebpf4jnsgd1na2vs0mg"},{"bike_id":"42def24e-0a17-4aab-b576-3fa28034a480","system_id":"levelo_inurba_marseille","lat":43.28604,"lon":5.3511,"is_reserved":false,"is_disabled":false,"rental_uris":{"android":"levelo://app?vid=42def24e-0a17-4aab-b576-3fa28034a480","ios":"levelo://app?vid=42def24e-0a17-4aab-b576-3fa28034a480"},"vehicle_type_id":"4","last_reported":1753892077,"current_range_meters":16400,"station_id":"ce4bhch2rcd13ifvqeug","pricing_plan_id":"cebpf4jnsgd1na2vs0mg"},{"bike_id":"52aa1d0d-4466-44b5-a116-ec1102c8f422","system_id":"levelo_inurba_marseille","lat":43.328897,"lon":5.360715,"is_reserved":false,"is_disabled":false,"rental_uris":{"android":"levelo://app?vid=52aa1d0d-4466-44b5-a116-ec1102c8f422","ios":"levelo://app?vid=52aa1d0d-4466-44b5-a116-ec1102c8f422"},"vehicle_type_id":"4","last_reported":1753892077,"current_range_meters":16400,"station_id":"","pricing_plan_id":"cebpf4jnsgd1na2vs0mg"},{"bike_id":"6e4d5259-5a7e-41ad-a6e7-3597972b8f7b","system_id":"levelo_inurba_marseille","lat":43.29781,"lon":5.39337,"is_reserved":false,"is_disabled":false,"rental_uris":{"android":"levelo://app?vid=6e4d5259-5a7e-41ad-a6e7-3597972b8f7b","ios":"levelo://app?vid=6e4d5259-5a7e-41ad-a6e7-3597972b8f7b"},"vehicle_type_id":"4","last_reported":1753892077,"current_range_meters":16800,"station_id":"chh1huq6cuj3fo74tm60","pricing_plan_id":"cebpf4jnsgd1na2vs0mg"},{"bike_id":"c9719ab0-282f-4f01-8e29-72bfdb1d5a5e","system_id":"levelo_inurba_marseille","lat":43.28705,"lon":5.39993,"is_reserved":false,"is_disabled":false,"rental_uris":{"android":"levelo://app?vid=c9719ab0-282f-4f01-8e29-72bfdb1d5a5e","ios":"levelo://app?vid=c9719ab0-282f-4f01-8e29-72bfdb1d5a5e"},"vehicle_type_id":"4","last_reported":1753892077,"current_range_meters":16800,"station_id":"ce4bho92rcd13ifvqh3g","pricing_plan_id":"cebpf4jnsgd1na2vs0mg"},{"bike_id":"e0b7cca9-a1e4-4c41-8dd5-0c08c31f86d8","system_id":"levelo_inurba_marseille","lat":43.27382,"lon":5.36259,"is_reserved":false,"is_disabled":false,"rental_uris":{"android":"levelo://app?vid=e0b7cca9-a1e4-4c41-8dd5-0c08c31f86d8","ios":"levelo://app?vid=e0b7cca9-a1e4-4c41-8dd5-0c08c31f86d8"},"vehicle_type_id":"4","last_reported":1753892077,"current_range_meters":16800,"station_id":"ce4bhbh2rcd13ifvqeo0","pricing_plan_id":"cebpf4jnsgd1na2vs0mg"},{"bike_id":"cd135ec5-1f0e-488f-a7bf-0e94c2e06e6f","system_id":"levelo_inurba_marseille","lat":43.21193,"lon":5.35058,"is_reserved":false,"is_disabled":false,"rental_uris":{"android":"levelo://app?vid=cd135ec5-1f0e-488f-a7bf-0e94c2e06e6f","ios":"levelo://app?vid=cd135ec5-1f0e-488f-a7bf-0e94c2e06e6f"},"vehicle_type_id":"4","last_reported":1753892077,"current_range_meters":16800,"station_id":"st_cvj6sg6p6f1abm77japg","pricing_plan_id":"cebpf4jnsgd1na2vs0mg"},{"bike_id":"eda5d373-1798-4d25-8bad-08cefd7a644c","system_id":"levelo_inurba_marseille","lat":43.29511,"lon":5.39401,"is_reserved":false,"is_disabled":false,"rental_uris":{"android":"levelo://app?vid=eda5d373-1798-4d25-8bad-08cefd7a644c","ios":"levelo://app?vid=eda5d373-1798-4d25-8bad-08cefd7a644c"},"vehicle_type_id":"4","last_reported":1753892077,"current_range_meters":16800,"station_id":"ce4bh292rcd13ifvqdf0","pricing_plan_id":"cebpf4jnsgd1na2vs0mg"},{"bike_id":"61ce16ec-9adf-465d-b350-68a3ac024d37","system_id":"levelo_inurba_marseille","lat":43.241773,"lon":5.397231,"is_reserved":false,"is_disabled":false,"rental_uris":{"android":"levelo://app?vid=61ce16ec-9adf-465d-b350-68a3ac024d37","ios":"levelo://app?vid=61ce16ec-9adf-465d-b350-68a3ac024d37"},"vehicle_type_id":"4","last_reported":1753892077,"current_range_meters":16800,"station_id":"ce4bhn12rcd13ifvqgpg","pricing_plan_id":"cebpf4jnsgd1na2vs0mg"},{"bike_id":"fa3aaadb-2999-4c99-ad0b-eff3f9ff3b2b","system_id":"levelo_inurba_marseille","lat":43.30308,"lon":5.369175,"is_reserved":false,"is_disabled":false,"rental_uris":{"android":"levelo://app?vid=fa3aaadb-2999-4c99-ad0b-eff3f9ff3b2b","ios":"levelo://app?vid=fa3aaadb-2999-4c99-ad0b-eff3f9ff3b2b"},"vehicle_type_id":"4","last_reported":1753892077,"current_range_meters":16800,"station_id":"ce4bgqh2rcd13ifvqc5g","pricing_plan_id":"cebpf4jnsgd1na2vs0mg"},{"bike_id":"05ff34a3-1d28-4ef5-9bd4-343d9b654e87","system_id":"levelo_inurba_marseille","lat":43.311798,"lon":5.387131,"is_reserved":false,"is_disabled":false,"rental_uris":{"android":"levelo://app?vid=05ff34a3-1d28-4ef5-9bd4-343d9b654e87","ios":"levelo://app?vid=05ff34a3-1d28-4ef5-9bd4-343d9b654e87"},"vehicle_type_id":"4","last_reported":1753892077,"current_range_meters":17200,"station_id":"ce4bgv12rcd13ifvqcp0","pricing_plan_id":"cebpf4jnsgd1na2vs0mg"},{"bike_id":"f605ff71-c624-4936-a518-95ee9acc86fd","system_id":"levelo_inurba_marseille","lat":43.22523,"lon":5.34785,"is_reserved":false,"is_disabled":false,"rental_uris":{"android":"levelo://app?vid=f605ff71-c624-4936-a518-95ee9acc86fd","ios":"levelo://app?vid=f605ff71-c624-4936-a518-95ee9acc86fd"},"vehicle_type_id":"4","last_reported":1753892077,"current_range_meters":17200,"station_id":"st_cvj5dfep6f1abm77gieg","pricing_plan_id":"cebpf4jnsgd1na2vs0mg"},{"bike_id":"5672b545-467c-4b90-9ce0-8b09b0fac6eb","system_id":"levelo_inurba_marseille","lat":43.24156,"lon":5.36404,"is_reserved":false,"is_disabled":false,"rental_uris":{"android":"levelo://app?vid=5672b545-467c-4b90-9ce0-8b09b0fac6eb","ios":"levelo://app?vid=5672b545-467c-4b90-9ce0-8b09b0fac6eb"},"vehicle_type_id":"4","last_reported":1753892077,"current_range_meters":17200,"station_id":"cpo36qri1sfpv3e86is0","pricing_plan_id":"cebpf4jnsgd1na2vs0mg"},{"bike_id":"439707c2-9437-47ca-b61a-dfcd0186823f","system_id":"levelo_inurba_marseille","lat":43.31119,"lon":5.3779,"is_reserved":false,"is_disabled":false,"rental_uris":{"android":"levelo://app?vid=439707c2-9437-47ca-b61a-dfcd0186823f","ios":"levelo://app?vid=439707c2-9437-47ca-b61a-dfcd0186823f"},"vehicle_type_id":"4","last_reported":1753892077,"current_range_meters":17200,"station_id":"ce4bgt92rcd13ifvqcg0","pricing_plan_id":"cebpf4jnsgd1na2vs0mg"},{"bike_id":"46327a3a-b112-4747-b636-17ebf6146226","system_id":"levelo_inurba_marseille","lat":43.30153,"lon":5.38089,"is_reserved":false,"is_disabled":false,"rental_uris":{"android":"levelo://app?vid=46327a3a-b112-4747-b636-17ebf6146226","ios":"levelo://app?vid=46327a3a-b112-4747-b636-17ebf6146226"},"vehicle_type_id":"4","last_reported":1753892077,"current_range_meters":17200,"station_id":"ce4bgjp2rcd13ifvqbh0","pricing_plan_id":"cebpf4jnsgd1na2vs0mg"},{"bike_id":"9ba35275-496d-4de5-b1cb-283f4fb21d6e","system_id":"levelo_inurba_marseille","lat":43.281621,"lon":5.427632,"is_reserved":false,"is_disabled":false,"rental_uris":{"android":"levelo://app?vid=9ba35275-496d-4de5-b1cb-283f4fb21d6e","ios":"levelo://app?vid=9ba35275-496d-4de5-b1cb-283f4fb21d6e"},"vehicle_type_id":"4","last_reported":1753892077,"current_range_meters":17200,"station_id":"ce4bhnh2rcd13ifvqgug","pricing_plan_id":"cebpf4jnsgd1na2vs0mg"},{"bike_id":"a8bb325e-fced-474d-adcd-a25f64016430","system_id":"levelo_inurba_marseille","lat":43.22514,"lon":5.34774,"is_reserved":false,"is_disabled":false,"rental_uris":{"android":"levelo://app?vid=a8bb325e-fced-474d-adcd-a25f64016430","ios":"levelo://app?vid=a8bb325e-fced-474d-adcd-a25f64016430"},"vehicle_type_id":"4","last_reported":1753892077,"current_range_meters":17200,"station_id":"","pricing_plan_id":"cebpf4jnsgd1na2vs0mg"},{"bike_id":"3a4c9dab-20db-4aa5-830b-03ca041c0311","system_id":"levelo_inurba_marseille","lat":43.3044,"lon":5.3889,"is_reserved":false,"is_disabled":false,"rental_uris":{"android":"levelo://app?vid=3a4c9dab-20db-4aa5-830b-03ca041c0311","ios":"levelo://app?vid=3a4c9dab-20db-4aa5-830b-03ca041c0311"},"vehicle_type_id":"4","last_reported":1753892077,"current_range_meters":17200,"station_id":"ce4bgk12rcd13ifvqbi0","pricing_plan_id":"cebpf4jnsgd1na2vs0mg"},{"bike_id":"4c2bf997-b251-432d-8804-c30ec6e82341","system_id":"levelo_inurba_marseille","lat":43.29258,"lon":5.3844,"is_reserved":false,"is_disabled":false,"rental_uris":{"android":"levelo://app?vid=4c2bf997-b251-432d-8804-c30ec6e82341","ios":"levelo://app?vid=4c2bf997-b251-432d-8804-c30ec6e82341"},"vehicle_type_id":"4","last_reported":1753892077,"current_range_meters":17200,"station_id":"ce4bh692rcd13ifvqea0","pricing_plan_id":"cebpf4jnsgd1na2vs0mg"},{"bike_id":"3cecb3be-9781-41f4-9ab1-14f8e6202c32","system_id":"levelo_inurba_marseille","lat":43.22508,"lon":5.34777,"is_reserved":false,"is_disabled":false,"rental_uris":{"android":"levelo://app?vid=3cecb3be-9781-41f4-9ab1-14f8e6202c32","ios":"levelo://app?vid=3cecb3be-9781-41f4-9ab1-14f8e6202c32"},"vehicle_type_id":"4","last_reported":1753892077,"current_range_meters":17200,"station_id":"","pricing_plan_id":"cebpf4jnsgd1na2vs0mg"},{"bike_id":"2093a2b7-8bbc-4356-896c-88cd021ab676","system_id":"levelo_inurba_marseille","lat":43.286149,"lon":5.351071,"is_reserved":false,"is_disabled":false,"rental_uris":{"android":"levelo://app?vid=2093a2b7-8bbc-4356-896c-88cd021ab676","ios":"levelo://app?vid=2093a2b7-8bbc-4356-896c-88cd021ab676"},"vehicle_type_id":"4","last_reported":1753892077,"current_range_meters":17200,"station_id":"ce4bhch2rcd13ifvqeug","pricing_plan_id":"cebpf4jnsgd1na2vs0mg"},{"bike_id":"6f945904-e30e-4baa-be01-1bd0424776dc","system_id":"levelo_inurba_marseille","lat":43.23204,"lon":5.3555,"is_reserved":false,"is_disabled":false,"rental_uris":{"android":"levelo://app?vid=6f945904-e30e-4baa-be01-1bd0424776dc","ios":"levelo://app?vid=6f945904-e30e-4baa-be01-1bd0424776dc"},"vehicle_type_id":"4","last_reported":1753892077,"current_range_meters":17200,"station_id":"ce4bhu92rcd13ifvqi70","pricing_plan_id":"cebpf4jnsgd1na2vs0mg"},{"bike_id":"fa1279e6-9024-40dc-b47f-981f4cd686f9","system_id":"levelo_inurba_marseille","lat":43.29582,"lon":5.36746,"is_reserved":false,"is_disabled":false,"rental_uris":{"android":"levelo://app?vid=fa1279e6-9024-40dc-b47f-981f4cd686f9","ios":"levelo://app?vid=fa1279e6-9024-40dc-b47f-981f4cd686f9"},"vehicle_type_id":"4","last_reported":1753892077,"current_range_meters":17200,"station_id":"ce4bgph2rcd13ifvqc2g","pricing_plan_id":"cebpf4jnsgd1na2vs0mg"},{"bike_id":"34be742c-6e59-4c4c-a509-950f8293f589","system_id":"levelo_inurba_marseille","lat":43.22934,"lon":5.35387,"is_reserved":false,"is_disabled":false,"rental_uris":{"android":"levelo://app?vid=34be742c-6e59-4c4c-a509-950f8293f589","ios":"levelo://app?vid=34be742c-6e59-4c4c-a509-950f8293f589"},"vehicle_type_id":"4","last_reported":1753892077,"current_range_meters":17200,"station_id":"cpo3532slgdg3j2ikp40","pricing_plan_id":"cebpf4jnsgd1na2vs0mg"},{"bike_id":"82421548-9820-4ad4-b3c2-dfb64180eb25","system_id":"levelo_inurba_marseille","lat":43.21204,"lon":5.35087,"is_reserved":false,"is_disabled":false,"rental_uris":{"android":"levelo://app?vid=82421548-9820-4ad4-b3c2-dfb64180eb25","ios":"levelo://app?vid=82421548-9820-4ad4-b3c2-dfb64180eb25"},"vehicle_type_id":"4","last_reported":1753892077,"current_range_meters":17200,"station_id":"st_cvj6sg6p6f1abm77japg","pricing_plan_id":"cebpf4jnsgd1na2vs0mg"},{"bike_id":"8ceb8177-49c2-4df6-a058-dd99d52a359b","system_id":"levelo_inurba_marseille","lat":43.30253,"lon":5.40078,"is_reserved":false,"is_disabled":false,"rental_uris":{"android":"levelo://app?vid=8ceb8177-49c2-4df6-a058-dd99d52a359b","ios":"levelo://app?vid=8ceb8177-49c2-4df6-a058-dd99d52a359b"},"vehicle_type_id":"4","last_reported":1753892077,"current_range_meters":17600,"station_id":"ce4bgvh2rcd13ifvqcs0","pricing_plan_id":"cebpf4jnsgd1na2vs0mg"},{"bike_id":"b879b8fc-7c17-42d7-b1e3-d28ef5c9d887","system_id":"levelo_inurba_marseille","lat":43.30151,"lon":5.38091,"is_reserved":false,"is_disabled":false,"rental_uris":{"android":"levelo://app?vid=b879b8fc-7c17-42d7-b1e3-d28ef5c9d887","ios":"levelo://app?vid=b879b8fc-7c17-42d7-b1e3-d28ef5c9d887"},"vehicle_type_id":"4","last_reported":1753892077,"current_range_meters":17600,"station_id":"ce4bgjp2rcd13ifvqbh0","pricing_plan_id":"cebpf4jnsgd1na2vs0mg"},{"bike_id":"2f55d4f4-e017-494b-83ef-a61716d381e4","system_id":"levelo_inurba_marseille","lat":43.24204,"lon":5.36368,"is_reserved":false,"is_disabled":false,"rental_uris":{"android":"levelo://app?vid=2f55d4f4-e017-494b-83ef-a61716d381e4","ios":"levelo://app?vid=2f55d4f4-e017-494b-83ef-a61716d381e4"},"vehicle_type_id":"4","last_reported":1753892077,"current_range_meters":17600,"station_id":"cpo36qri1sfpv3e86is0","pricing_plan_id":"cebpf4jnsgd1na2vs0mg"},{"bike_id":"b565b853-9616-4ab3-9cae-8b1d09dd4831","system_id":"levelo_inurba_marseille","lat":43.22505,"lon":5.3477,"is_reserved":false,"is_disabled":false,"rental_uris":{"android":"levelo://app?vid=b565b853-9616-4ab3-9cae-8b1d09dd4831","ios":"levelo://app?vid=b565b853-9616-4ab3-9cae-8b1d09dd4831"},"vehicle_type_id":"4","last_reported":1753892077,"current_range_meters":17600,"station_id":"st_cvj5dfep6f1abm77gieg","pricing_plan_id":"cebpf4jnsgd1na2vs0mg"},{"bike_id":"9f5fba08-5d1a-4a60-9f27-a4f6e760f703","system_id":"levelo_inurba_marseille","lat":43.323654,"lon":5.367644,"is_reserved":false,"is_disabled":false,"rental_uris":{"android":"levelo://app?vid=9f5fba08-5d1a-4a60-9f27-a4f6e760f703","ios":"levelo://app?vid=9f5fba08-5d1a-4a60-9f27-a4f6e760f703"},"vehicle_type_id":"4","last_reported":1753892077,"current_range_meters":17600,"station_id":"ce4bhsh2rcd13ifvqi2g","pricing_plan_id":"cebpf4jnsgd1na2vs0mg"},{"bike_id":"5d4a7941-5970-4d22-be23-b64251ecdbd3","system_id":"levelo_inurba_marseille","lat":43.29048,"lon":5.37574,"is_reserved":false,"is_disabled":false,"rental_uris":{"android":"levelo://app?vid=5d4a7941-5970-4d22-be23-b64251ecdbd3","ios":"levelo://app?vid=5d4a7941-5970-4d22-be23-b64251ecdbd3"},"vehicle_type_id":"4","last_reported":1753892077,"current_range_meters":17600,"station_id":"ce4bh692rcd13ifvqe90","pricing_plan_id":"cebpf4jnsgd1na2vs0mg"},{"bike_id":"a030ae09-6e44-424a-89e0-ce5f69840465","system_id":"levelo_inurba_marseille","lat":43.21761,"lon":5.3461,"is_reserved":false,"is_disabled":false,"rental_uris":{"android":"levelo://app?vid=a030ae09-6e44-424a-89e0-ce5f69840465","ios":"levelo://app?vid=a030ae09-6e44-424a-89e0-ce5f69840465"},"vehicle_type_id":"4","last_reported":1753892077,"current_range_meters":17600,"station_id":"st_cvj6r9ubvosntc0bgbag","pricing_plan_id":"cebpf4jnsgd1na2vs0mg"},{"bike_id":"c48e6e64-9d08-4fca-a774-7cc6169cfde3","system_id":"levelo_inurba_marseille","lat":43.29816,"lon":5.38302,"is_reserved":false,"is_disabled":false,"rental_uris":{"android":"levelo://app?vid=c48e6e64-9d08-4fca-a774-7cc6169cfde3","ios":"levelo://app?vid=c48e6e64-9d08-4fca-a774-7cc6169cfde3"},"vehicle_type_id":"4","last_reported":1753892077,"current_range_meters":18000,"station_id":"","pricing_plan_id":"cebpf4jnsgd1na2vs0mg"},{"bike_id":"4f311b95-16d0-4152-9b03-677da880350c","system_id":"levelo_inurba_marseille","lat":43.2396,"lon":5.36604,"is_reserved":false,"is_disabled":false,"rental_uris":{"android":"levelo://app?vid=4f311b95-16d0-4152-9b03-677da880350c","ios":"levelo://app?vid=4f311b95-16d0-4152-9b03-677da880350c"},"vehicle_type_id":"4","last_reported":1753892077,"current_range_meters":18000,"station_id":"ce4bhi12rcd13ifvqfp0","pricing_plan_id":"cebpf4jnsgd1na2vs0mg"},{"bike_id":"b079df62-3ca9-4808-9670-9e305069fbb1","system_id":"levelo_inurba_marseille","lat":43.29278,"lon":5.40121,"is_reserved":false,"is_disabled":false,"rental_uris":{"android":"levelo://app?vid=b079df62-3ca9-4808-9670-9e305069fbb1","ios":"levelo://app?vid=b079df62-3ca9-4808-9670-9e305069fbb1"},"vehicle_type_id":"4","last_reported":1753892077,"current_range_meters":18000,"station_id":"ce4bh312rcd13ifvqdk0","pricing_plan_id":"cebpf4jnsgd1na2vs0mg"},{"bike_id":"11c2c9e9-5775-4b9d-8884-125c2cd4be28","system_id":"levelo_inurba_marseille","lat":43.23066,"lon":5.35492,"is_reserved":false,"is_disabled":false,"rental_uris":{"android":"levelo://app?vid=11c2c9e9-5775-4b9d-8884-125c2cd4be28","ios":"levelo://app?vid=11c2c9e9-5775-4b9d-8884-125c2cd4be28"},"vehicle_type_id":"4","last_reported":1753892077,"current_range_meters":18000,"station_id":"cpo3342slgdg3j2ifvpg","pricing_plan_id":"cebpf4jnsgd1na2vs0mg"},{"bike_id":"d0e68786-d337-4e6e-9ee9-8bd9daa48758","system_id":"levelo_inurba_marseille","lat":43.2481,"lon":5.37464,"is_reserved":false,"is_disabled":false,"rental_uris":{"android":"levelo://app?vid=d0e68786-d337-4e6e-9ee9-8bd9daa48758","ios":"levelo://app?vid=d0e68786-d337-4e6e-9ee9-8bd9daa48758"},"vehicle_type_id":"4","last_reported":1753892077,"current_range_meters":18000,"station_id":"ce4bhgh2rcd13ifvqfb0","pricing_plan_id":"cebpf4jnsgd1na2vs0mg"},{"bike_id":"df69ebd7-1e38-4308-8c98-38ea760b92c7","system_id":"levelo_inurba_marseille","lat":43.313293,"lon":5.396945,"is_reserved":false,"is_disabled":false,"rental_uris":{"android":"levelo://app?vid=df69ebd7-1e38-4308-8c98-38ea760b92c7","ios":"levelo://app?vid=df69ebd7-1e38-4308-8c98-38ea760b92c7"},"vehicle_type_id":"4","last_reported":1753892077,"current_range_meters":18000,"station_id":"ce4bgvp2rcd13ifvqcu0","pricing_plan_id":"cebpf4jnsgd1na2vs0mg"},{"bike_id":"20782440-32e2-4e26-a85a-d8b01db73401","system_id":"levelo_inurba_marseille","lat":43.24165,"lon":5.36384,"is_reserved":false,"is_disabled":false,"rental_uris":{"android":"levelo://app?vid=20782440-32e2-4e26-a85a-d8b01db73401","ios":"levelo://app?vid=20782440-32e2-4e26-a85a-d8b01db73401"},"vehicle_type_id":"4","last_reported":1753892077,"current_range_meters":18000,"station_id":"cpo36qri1sfpv3e86is0","pricing_plan_id":"cebpf4jnsgd1na2vs0mg"},{"bike_id":"06096d39-031a-4759-9875-87d96f950e18","system_id":"levelo_inurba_marseille","lat":43.31072,"lon":5.38365,"is_reserved":false,"is_disabled":false,"rental_uris":{"android":"levelo://app?vid=06096d39-031a-4759-9875-87d96f950e18","ios":"levelo://app?vid=06096d39-031a-4759-9875-87d96f950e18"},"vehicle_type_id":"4","last_reported":1753892077,"current_range_meters":18000,"station_id":"ce4bgv92rcd13ifvqcr0","pricing_plan_id":"cebpf4jnsgd1na2vs0mg"},{"bike_id":"dbb48988-0d7c-43f5-bf2a-51b88faba259","system_id":"levelo_inurba_marseille","lat":43.28274,"lon":5.350762,"is_reserved":false,"is_disabled":false,"rental_uris":{"android":"levelo://app?vid=dbb48988-0d7c-43f5-bf2a-51b88faba259","ios":"levelo://app?vid=dbb48988-0d7c-43f5-bf2a-51b88faba259"},"vehicle_type_id":"4","last_reported":1753892077,"current_range_meters":18000,"station_id":"ce4bhbp2rcd13ifvqerg","pricing_plan_id":"cebpf4jnsgd1na2vs0mg"},{"bike_id":"28c64cea-c94e-4cae-a465-dac3abbafe26","system_id":"levelo_inurba_marseille","lat":43.28273,"lon":5.35055,"is_reserved":false,"is_disabled":false,"rental_uris":{"android":"levelo://app?vid=28c64cea-c94e-4cae-a465-dac3abbafe26","ios":"levelo://app?vid=28c64cea-c94e-4cae-a465-dac3abbafe26"},"vehicle_type_id":"4","last_reported":1753892077,"current_range_meters":18000,"station_id":"ce4bhbp2rcd13ifvqerg","pricing_plan_id":"cebpf4jnsgd1na2vs0mg"},{"bike_id":"f4d4f9ad-2a91-4211-98aa-f1c7dca60998","system_id":"levelo_inurba_marseille","lat":43.32055,"lon":5.41525,"is_reserved":false,"is_disabled":false,"rental_uris":{"android":"levelo://app?vid=f4d4f9ad-2a91-4211-98aa-f1c7dca60998","ios":"levelo://app?vid=f4d4f9ad-2a91-4211-98aa-f1c7dca60998"},"vehicle_type_id":"4","last_reported":1753892077,"current_range_meters":18000,"station_id":"ce4bhq92rcd13ifvqhkg","pricing_plan_id":"cebpf4jnsgd1na2vs0mg"},{"bike_id":"55bf355c-8c8a-4339-b38b-30b6f9dd8dd7","system_id":"levelo_inurba_marseille","lat":43.28626,"lon":5.35092,"is_reserved":false,"is_disabled":false,"rental_uris":{"android":"levelo://app?vid=55bf355c-8c8a-4339-b38b-30b6f9dd8dd7","ios":"levelo://app?vid=55bf355c-8c8a-4339-b38b-30b6f9dd8dd7"},"vehicle_type_id":"4","last_reported":1753892077,"current_range_meters":18000,"station_id":"ce4bhch2rcd13ifvqeug","pricing_plan_id":"cebpf4jnsgd1na2vs0mg"},{"bike_id":"ae9b0dc1-8464-425a-ada5-b8d7aa445a9f","system_id":"levelo_inurba_marseille","lat":43.22514,"lon":5.34781,"is_reserved":false,"is_disabled":false,"rental_uris":{"android":"levelo://app?vid=ae9b0dc1-8464-425a-ada5-b8d7aa445a9f","ios":"levelo://app?vid=ae9b0dc1-8464-425a-ada5-b8d7aa445a9f"},"vehicle_type_id":"4","last_reported":1753892077,"current_range_meters":18000,"station_id":"st_cvj5dfep6f1abm77gieg","pricing_plan_id":"cebpf4jnsgd1na2vs0mg"},{"bike_id":"5dfc7ccc-a2cb-41dd-93be-96a443b2c64c","system_id":"levelo_inurba_marseille","lat":43.28406,"lon":5.34991,"is_reserved":false,"is_disabled":false,"rental_uris":{"android":"levelo://app?vid=5dfc7ccc-a2cb-41dd-93be-96a443b2c64c","ios":"levelo://app?vid=5dfc7ccc-a2cb-41dd-93be-96a443b2c64c"},"vehicle_type_id":"4","last_reported":1753892077,"current_range_meters":18000,"station_id":"ce4bhbh2rcd13ifvqepg","pricing_plan_id":"cebpf4jnsgd1na2vs0mg"},{"bike_id":"02ba587b-fdc4-4538-91bf-a3fcb628a435","system_id":"levelo_inurba_marseille","lat":43.346,"lon":5.44872,"is_reserved":false,"is_disabled":false,"rental_uris":{"android":"levelo://app?vid=02ba587b-fdc4-4538-91bf-a3fcb628a435","ios":"levelo://app?vid=02ba587b-fdc4-4538-91bf-a3fcb628a435"},"vehicle_type_id":"4","last_reported":1753892077,"current_range_meters":18000,"station_id":"","pricing_plan_id":"cebpf4jnsgd1na2vs0mg"},{"bike_id":"a680cfd1-5b43-4211-9ae3-0ecb95596e08","system_id":"levelo_inurba_marseille","lat":43.28622,"lon":5.35104,"is_reserved":false,"is_disabled":false,"rental_uris":{"android":"levelo://app?vid=a680cfd1-5b43-4211-9ae3-0ecb95596e08","ios":"levelo://app?vid=a680cfd1-5b43-4211-9ae3-0ecb95596e08"},"vehicle_type_id":"4","last_reported":1753892077,"current_range_meters":18000,"station_id":"ce4bhch2rcd13ifvqeug","pricing_plan_id":"cebpf4jnsgd1na2vs0mg"},{"bike_id":"011fd654-e76c-4060-82ef-48cab0762fbe","system_id":"levelo_inurba_marseille","lat":43.22941,"lon":5.35375,"is_reserved":false,"is_disabled":false,"rental_uris":{"android":"levelo://app?vid=011fd654-e76c-4060-82ef-48cab0762fbe","ios":"levelo://app?vid=011fd654-e76c-4060-82ef-48cab0762fbe"},"vehicle_type_id":"4","last_reported":1753892077,"current_range_meters":18000,"station_id":"cpo3532slgdg3j2ikp40","pricing_plan_id":"cebpf4jnsgd1na2vs0mg"},{"bike_id":"cbd917dd-7248-46ae-9df3-c4ab6c6881f4","system_id":"levelo_inurba_marseille","lat":43.29029,"lon":5.38632,"is_reserved":false,"is_disabled":false,"rental_uris":{"android":"levelo://app?vid=cbd917dd-7248-46ae-9df3-c4ab6c6881f4","ios":"levelo://app?vid=cbd917dd-7248-46ae-9df3-c4ab6c6881f4"},"vehicle_type_id":"4","last_reported":1753892077,"current_range_meters":18000,"station_id":"ce4bh4p2rcd13ifvqe0g","pricing_plan_id":"cebpf4jnsgd1na2vs0mg"},{"bike_id":"37e6468e-ee5f-41ef-9bc2-5aee5675e83c","system_id":"levelo_inurba_marseille","lat":43.27822,"lon":5.40701,"is_reserved":false,"is_disabled":false,"rental_uris":{"android":"levelo://app?vid=37e6468e-ee5f-41ef-9bc2-5aee5675e83c","ios":"levelo://app?vid=37e6468e-ee5f-41ef-9bc2-5aee5675e83c"},"vehicle_type_id":"4","last_reported":1753892077,"current_range_meters":18800,"station_id":"ce4bhnh2rcd13ifvqgtg","pricing_plan_id":"cebpf4jnsgd1na2vs0mg"},{"bike_id":"8f672ccb-ecd9-4436-8f7f-debc9f42ed0a","system_id":"levelo_inurba_marseille","lat":43.31081,"lon":5.42432,"is_reserved":false,"is_disabled":false,"rental_uris":{"android":"levelo://app?vid=8f672ccb-ecd9-4436-8f7f-debc9f42ed0a","ios":"levelo://app?vid=8f672ccb-ecd9-4436-8f7f-debc9f42ed0a"},"vehicle_type_id":"4","last_reported":1753892077,"current_range_meters":18800,"station_id":"ce4bhp92rcd13ifvqhag","pricing_plan_id":"cebpf4jnsgd1na2vs0mg"},{"bike_id":"7e8e8011-d9d5-4545-b3e9-95794bce4003","system_id":"levelo_inurba_marseille","lat":43.30547,"lon":5.38423,"is_reserved":false,"is_disabled":false,"rental_uris":{"android":"levelo://app?vid=7e8e8011-d9d5-4545-b3e9-95794bce4003","ios":"levelo://app?vid=7e8e8011-d9d5-4545-b3e9-95794bce4003"},"vehicle_type_id":"4","last_reported":1753892077,"current_range_meters":18800,"station_id":"ce4bgg92rcd13ifvqb30","pricing_plan_id":"cebpf4jnsgd1na2vs0mg"},{"bike_id":"95223866-0dbb-45b0-85c5-fb80df723308","system_id":"levelo_inurba_marseille","lat":43.29793,"lon":5.37096,"is_reserved":false,"is_disabled":false,"rental_uris":{"android":"levelo://app?vid=95223866-0dbb-45b0-85c5-fb80df723308","ios":"levelo://app?vid=95223866-0dbb-45b0-85c5-fb80df723308"},"vehicle_type_id":"4","last_reported":1753892077,"current_range_meters":18800,"station_id":"ce4bgop2rcd13ifvqc1g","pricing_plan_id":"cebpf4jnsgd1na2vs0mg"},{"bike_id":"2f6311c4-b4fa-4ef5-bb93-40f07eea8218","system_id":"levelo_inurba_marseille","lat":43.29607,"lon":5.37733,"is_reserved":false,"is_disabled":false,"rental_uris":{"android":"levelo://app?vid=2f6311c4-b4fa-4ef5-bb93-40f07eea8218","ios":"levelo://app?vid=2f6311c4-b4fa-4ef5-bb93-40f07eea8218"},"vehicle_type_id":"4","last_reported":1753892077,"current_range_meters":18800,"station_id":"ce4bgi92rcd13ifvqb90","pricing_plan_id":"cebpf4jnsgd1na2vs0mg"},{"bike_id":"501fe082-6c32-4a24-80fd-4833724e8426","system_id":"levelo_inurba_marseille","lat":43.30622,"lon":5.3743,"is_reserved":false,"is_disabled":false,"rental_uris":{"android":"levelo://app?vid=501fe082-6c32-4a24-80fd-4833724e8426","ios":"levelo://app?vid=501fe082-6c32-4a24-80fd-4833724e8426"},"vehicle_type_id":"4","last_reported":1753892077,"current_range_meters":18800,"station_id":"","pricing_plan_id":"cebpf4jnsgd1na2vs0mg"},{"bike_id":"07371f1d-8373-4562-86d5-2a5b3a0b243a","system_id":"levelo_inurba_marseille","lat":43.29872,"lon":5.3764,"is_reserved":false,"is_disabled":false,"rental_uris":{"android":"levelo://app?vid=07371f1d-8373-4562-86d5-2a5b3a0b243a","ios":"levelo://app?vid=07371f1d-8373-4562-86d5-2a5b3a0b243a"},"vehicle_type_id":"4","last_reported":1753892077,"current_range_meters":18800,"station_id":"","pricing_plan_id":"cebpf4jnsgd1na2vs0mg"},{"bike_id":"5df141b0-927f-4aaf-b7ac-e255c51a1ed9","system_id":"levelo_inurba_marseille","lat":43.2419,"lon":5.39681,"is_reserved":false,"is_disabled":false,"rental_uris":{"android":"levelo://app?vid=5df141b0-927f-4aaf-b7ac-e255c51a1ed9","ios":"levelo://app?vid=5df141b0-927f-4aaf-b7ac-e255c51a1ed9"},"vehicle_type_id":"4","last_reported":1753892077,"current_range_meters":19200,"station_id":"ce4bhn12rcd13ifvqgpg","pricing_plan_id":"cebpf4jnsgd1na2vs0mg"},{"bike_id":"b59ea3c5-01f5-49d8-b24e-81b512492fc9","system_id":"levelo_inurba_marseille","lat":43.286665,"lon":5.363464,"is_reserved":false,"is_disabled":false,"rental_uris":{"android":"levelo://app?vid=b59ea3c5-01f5-49d8-b24e-81b512492fc9","ios":"levelo://app?vid=b59ea3c5-01f5-49d8-b24e-81b512492fc9"},"vehicle_type_id":"4","last_reported":1753892077,"current_range_meters":19200,"station_id":"ce4bhah2rcd13ifvqej0","pricing_plan_id":"cebpf4jnsgd1na2vs0mg"},{"bike_id":"3ab9598e-ab44-4997-b739-8974a16db7bb","system_id":"levelo_inurba_marseille","lat":43.24173,"lon":5.3639,"is_reserved":false,"is_disabled":false,"rental_uris":{"android":"levelo://app?vid=3ab9598e-ab44-4997-b739-8974a16db7bb","ios":"levelo://app?vid=3ab9598e-ab44-4997-b739-8974a16db7bb"},"vehicle_type_id":"4","last_reported":1753892077,"current_range_meters":19200,"station_id":"cpo36qri1sfpv3e86is0","pricing_plan_id":"cebpf4jnsgd1na2vs0mg"},{"bike_id":"03780cff-a34f-4463-89ad-309e50413149","system_id":"levelo_inurba_marseille","lat":43.31202,"lon":5.37796,"is_reserved":false,"is_disabled":false,"rental_uris":{"android":"levelo://app?vid=03780cff-a34f-4463-89ad-309e50413149","ios":"levelo://app?vid=03780cff-a34f-4463-89ad-309e50413149"},"vehicle_type_id":"4","last_reported":1753892077,"current_range_meters":19200,"station_id":"","pricing_plan_id":"cebpf4jnsgd1na2vs0mg"},{"bike_id":"fca300c7-106f-4e93-8638-7f855704889d","system_id":"levelo_inurba_marseille","lat":43.29256,"lon":5.38433,"is_reserved":false,"is_disabled":false,"rental_uris":{"android":"levelo://app?vid=fca300c7-106f-4e93-8638-7f855704889d","ios":"levelo://app?vid=fca300c7-106f-4e93-8638-7f855704889d"},"vehicle_type_id":"4","last_reported":1753892077,"current_range_meters":19200,"station_id":"ce4bh692rcd13ifvqea0","pricing_plan_id":"cebpf4jnsgd1na2vs0mg"},{"bike_id":"dccc83af-8ec2-4cfc-8f55-8a42390d74d6","system_id":"levelo_inurba_marseille","lat":43.32656,"lon":5.40981,"is_reserved":false,"is_disabled":false,"rental_uris":{"android":"levelo://app?vid=dccc83af-8ec2-4cfc-8f55-8a42390d74d6","ios":"levelo://app?vid=dccc83af-8ec2-4cfc-8f55-8a42390d74d6"},"vehicle_type_id":"4","last_reported":1753892077,"current_range_meters":19200,"station_id":"ce4bhpp2rcd13ifvqhgg","pricing_plan_id":"cebpf4jnsgd1na2vs0mg"},{"bike_id":"5bb4d39e-4f4c-46d3-bd03-6a343c5eff9b","system_id":"levelo_inurba_marseille","lat":43.2319,"lon":5.39972,"is_reserved":false,"is_disabled":false,"rental_uris":{"android":"levelo://app?vid=5bb4d39e-4f4c-46d3-bd03-6a343c5eff9b","ios":"levelo://app?vid=5bb4d39e-4f4c-46d3-bd03-6a343c5eff9b"},"vehicle_type_id":"4","last_reported":1753892077,"current_range_meters":19200,"station_id":"ce4bhn12rcd13ifvqgqg","pricing_plan_id":"cebpf4jnsgd1na2vs0mg"},