{"last_updated":1722010217,"ttl":30,"version":"2.2","data":{"bikes":[{"bike_id":"9acaa86a-b0c6-4b65-88fd-91de062e6329","system_id":"levelo_inurba_marseille","lat":43.31341,"lon":5.367098,"is_reserved":false,"is_disabled":false,"rental_uris":{"android":"levelo://app?vid=9acaa86a-b0c6-4b65-88fd-91de062e6329","ios":"levelo://app?vid=9acaa86a-b0c6-4b65-88fd-91de062e6329"},"vehicle_type_id":"4","last_reported":1722010217,"current_range_meters":14000,"station_id":"ce4bgr92rcd13ifvqc6g","pricing_plan_id":"cebpf4jnsgd1na2vs0mg"},{"bike_id":"5efd1413-c88e-4bb1-99f5-308f67487ffc","system_id":"levelo_inurba_marseille","lat":43.312239,"lon":5.368562,"is_reserved":false,"is_disabled":false,"rental_uris":{"android":"levelo://app?vid=5efd1413-c88e-4bb1-99f5-308f67487ffc","ios":"levelo://app?vid=5efd1413-c88e-4bb1-99f5-308f67487ffc"},"vehicle_type_id":"4","last_reported":1722010217,"current_range_meters":23200,"station_id":"ce4bgl92rcd13ifvqbq0","pricing_plan_id":"cebpf4jnsgd1na2vs0mg"},{"bike_id":"f54848d4-cc9f-4277-b3e5-de5f44daae57","system_id":"levelo_inurba_marseille","lat":43.31493,"lon":5.37306,"is_reserved":false,"is_disabled":false,"rental_uris":{"android":"levelo://app?vid=f54848d4-cc9f-4277-b3e5-de5f44daae57","ios":"levelo://app?vid=f54848d4-cc9f-4277-b3e5-de5f44daae57"},"vehicle_type_id":"4","last_reported":1722010217,"current_range_meters":0,"station_id":"ce4bgt12rcd13ifvqcd0","pricing_plan_id":"cebpf4jnsgd1na2vs0mg"},{"bike_id":"44426fe3-7b09-49c6-87f6-c0aab9e12a6c","system_id":"levelo_inurba_marseille","lat":43.314811,"lon":5.373104,"is_reserved":false,"is_disabled":false,"rental_uris":{"android":"levelo://app?vid=44426fe3-7b09-49c6-87f6-c0aab9e12a6c","ios":"levelo://app?vid=44426fe3-7b09-49c6-87f6-c0aab9e12a6c"},"vehicle_type_id":"4","last_reported":1722010217,"current_range_meters":14400,"station_id":"ce4bgt12rcd13ifvqcd0","pricing_plan_id":"cebpf4jnsgd1na2vs0mg"},{"bike_id":"135e7626-51f6-4417-89a0-5158d6eb188c","system_id":"levelo_inurba_marseille","lat":43.3075,"lon":5.37204,"is_reserved":false,"is_disabled":false,"rental_uris":{"android":"levelo://app?vid=135e7626-51f6-4417-89a0-5158d6eb188c","ios":"levelo://app?vid=135e7626-51f6-4417-89a0-5158d6eb188c"},"vehicle_type_id":"4","last_reported":1722010217,"current_range_meters":16400,"station_id":"","pricing_plan_id":"cebpf4jnsgd1na2vs0mg"},{"bike_id":"8c59555b-514f-4bd7-a5bd-bc53cdf8ebd6","system_id":"levelo_inurba_marseille","lat":43.31662,"lon":5.37445,"is_reserved":false,"is_disabled":false,"rental_uris":{"android":"levelo://app?vid=8c59555b-514f-4bd7-a5bd-bc53cdf8ebd6","ios":"levelo://app?vid=8c59555b-514f-4bd7-a5bd-bc53cdf8ebd6"},"vehicle_type_id":"4","last_reported":1722010217,"current_range_meters":25600,"station_id":"","pricing_plan_id":"cebpf4jnsgd1na2vs0mg"},{"bike_id":"c16648bd-427e-4ca8-b6e9-55ca4d6ee660","system_id":"levelo_inurba_marseille","lat":43.30541,"lon":5.3653,"is_reserved":false,"is_disabled":false,"rental_uris":{"android":"levelo://app?vid=c16648bd-427e-4ca8-b6e9-55ca4d6ee660","ios":"levelo://app?vid=c16648bd-427e-4ca8-b6e9-55ca4d6ee660"},"vehicle_type_id":"4","last_reported":1722010217,"current_range_meters":20800,"station_id":"ce4bgs12rcd13ifvqcag","pricing_plan_id":"cebpf4jnsgd1na2vs0mg"},{"bike_id":"0e72ced8-7bb5-4d49-830d-2b2c74b4e174","system_id":"levelo_inurba_marseille","lat":43.305989,"lon":5.37225,"is_reserved":false,"is_disabled":false,"rental_uris":{"android":"levelo://app?vid=0e72ced8-7bb5-4d49-830d-2b2c74b4e174","ios":"levelo://app?vid=0e72ced8-7bb5-4d49-830d-2b2c74b4e174"},"vehicle_type_id":"4","last_reported":1722010217,"current_range_meters":0,"station_id":"ce4bgqh2rcd13ifvqc4g","pricing_plan_id":"cebpf4jnsgd1na2vs0mg"},{"bike_id":"15844eab-51fa-477c-bdf1-a416524007e3","system_id":"levelo_inurba_marseille","lat":43.311125,"lon":5.377624,"is_reserved":false,"is_disabled":false,"rental_uris":{"android":"levelo://app?vid=15844eab-51fa-477c-bdf1-a416524007e3","ios":"levelo://app?vid=15844eab-51fa-477c-bdf1-a416524007e3"},"vehicle_type_id":"4","last_reported":1722010217,"current_range_meters":8000,"station_id":"ce4bgt92rcd13ifvqcg0","pricing_plan_id":"cebpf4jnsgd1na2vs0mg"},{"bike_id":"1c534de2-6281-41b3-ab84-f599c3827c1c","system_id":"levelo_inurba_marseille","lat":43.311125,"lon":5.377624,"is_reserved":false,"is_disabled":false,"rental_uris":{"android":"levelo://app?vid=1c534de2-6281-41b3-ab84-f599c3827c1c","ios":"levelo://app?vid=1c534de2-6281-41b3-ab84-f599c3827c1c"},"vehicle_type_id":"4","last_reported":1722010217,"current_range_meters":26000,"station_id":"ce4bgt92rcd13ifvqcg0","pricing_plan_id":"cebpf4jnsgd1na2vs0mg"},{"bike_id":"64a96688-3139-470a-8805-b07dc50d5a95","system_id":"levelo_inurba_marseille","lat":43.311125,"lon":5.377624,"is_reserved":false,"is_disabled":false,"rental_uris":{"android":"levelo://app?vid=64a96688-3139-470a-8805-b07dc50d5a95","ios":"levelo://app?vid=64a96688-3139-470a-8805-b07dc50d5a95"},"vehicle_type_id":"4","last_reported":1722010217,"current_range_meters":25600,"station_id":"ce4bgt92rcd13ifvqcg0","pricing_plan_id":"cebpf4jnsgd1na2vs0mg"},{"bike_id":"5adf31dc-1ccb-4cec-903e-41812e174e52","system_id":"levelo_inurba_marseille","lat":43.311125,"lon":5.377624,"is_reserved":false,"is_disabled":false,"rental_uris":{"android":"levelo://app?vid=5adf31dc-1ccb-4cec-903e-41812e174e52","ios":"levelo://app?vid=5adf31dc-1ccb-4cec-903e-41812e174e52"},"vehicle_type_id":"4","last_reported":1722010217,"current_range_meters":7600,"station_id":"ce4bgt92rcd13ifvqcg0","pricing_plan_id":"cebpf4jnsgd1na2vs0mg"},{"bike_id":"3519bfff-9791-44ca-a401-897a109f443e","system_id":"levelo_inurba_marseille","lat":43.315289,"lon":5.380349,"is_reserved":false,"is_disabled":false,"rental_uris":{"android":"levelo://app?vid=3519bfff-9791-44ca-a401-897a109f443e","ios":"levelo://app?vid=3519bfff-9791-44ca-a401-897a109f443e"},"vehicle_type_id":"4","last_reported":1722010217,"current_range_meters":22400,"station_id":"ce4bhsp2rcd13ifvqi50","pricing_plan_id":"cebpf4jnsgd1na2vs0mg"},{"bike_id":"8678c916-6807-46a0-8bdd-00584db39988","system_id":"levelo_inurba_marseille","lat":43.301939,"lon":5.366286,"is_reserved":false,"is_disabled":false,"rental_uris":{"android":"levelo://app?vid=8678c916-6807-46a0-8bdd-00584db39988","ios":"levelo://app?vid=8678c916-6807-46a0-8bdd-00584db39988"},"vehicle_type_id":"4","last_reported":1722010217,"current_range_meters":16400,"station_id":"ce4bgrh2rcd13ifvqc8g","pricing_plan_id":"cebpf4jnsgd1na2vs0mg"},{"bike_id":"cefc7e92-f2fe-4c59-9999-7add84002a46","system_id":"levelo_inurba_marseille","lat":43.3081,"lon":5.38145,"is_reserved":false,"is_disabled":false,"rental_uris":{"android":"levelo://app?vid=cefc7e92-f2fe-4c59-9999-7add84002a46","ios":"levelo://app?vid=cefc7e92-f2fe-4c59-9999-7add84002a46"},"vehicle_type_id":"4","last_reported":1722010217,"current_range_meters":27200,"station_id":"ce4bgt12rcd13ifvqce0","pricing_plan_id":"cebpf4jnsgd1na2vs0mg"},{"bike_id":"7fba7f0a-fd2b-4d31-9739-6d2c801458c9","system_id":"levelo_inurba_marseille","lat":43.304606,"lon":5.379026,"is_reserved":false,"is_disabled":false,"rental_uris":{"android":"levelo://app?vid=7fba7f0a-fd2b-4d31-9739-6d2c801458c9","ios":"levelo://app?vid=7fba7f0a-fd2b-4d31-9739-6d2c801458c9"},"vehicle_type_id":"4","last_reported":1722010217,"current_range_meters":7600,"station_id":"ce4bgup2rcd13ifvqcn0","pricing_plan_id":"cebpf4jnsgd1na2vs0mg"},{"bike_id":"618b4c93-98ca-4ba6-bce8-a2c80d5a9b40","system_id":"levelo_inurba_marseille","lat":43.324771,"lon":5.36557,"is_reserved":false,"is_disabled":false,"rental_uris":{"android":"levelo://app?vid=618b4c93-98ca-4ba6-bce8-a2c80d5a9b40","ios":"levelo://app?vid=618b4c93-98ca-4ba6-bce8-a2c80d5a9b40"},"vehicle_type_id":"4","last_reported":1722010217,"current_range_meters":20000,"station_id":"ce4bhs12rcd13ifvqhvg","pricing_plan_id":"cebpf4jnsgd1na2vs0mg"},{"bike_id":"35e5b296-f34d-47b2-a9ce-142b51b30241","system_id":"levelo_inurba_marseille","lat":43.324771,"lon":5.36557,"is_reserved":false,"is_disabled":false,"rental_uris":{"android":"levelo://app?vid=35e5b296-f34d-47b2-a9ce-142b51b30241","ios":"levelo://app?vid=35e5b296-f34d-47b2-a9ce-142b51b30241"},"vehicle_type_id":"4","last_reported":1722010217,"current_range_meters":14000,"station_id":"ce4bhs12rcd13ifvqhvg","pricing_plan_id":"cebpf4jnsgd1na2vs0mg"},{"bike_id":"c8b23db8-43c5-438f-9faa-f837de82df73","system_id":"levelo_inurba_marseille","lat":43.324771,"lon":5.36557,"is_reserved":false,"is_disabled":false,"rental_uris":{"android":"levelo://app?vid=c8b23db8-43c5-438f-9faa-f837de82df73","ios":"levelo://app?vid=c8b23db8-43c5-438f-9faa-f837de82df73"},"vehicle_type_id":"4","last_reported":1722010217,"current_range_meters":20800,"station_id":"ce4bhs12rcd13ifvqhvg","pricing_plan_id":"cebpf4jnsgd1na2vs0mg"},{"bike_id":"ff7e43d2-aaee-45c7-b611-207a1955f98d","system_id":"levelo_inurba_marseille","lat":43.324771,"lon":5.36557,"is_reserved":false,"is_disabled":false,"rental_uris":{"android":"levelo://app?vid=ff7e43d2-aaee-45c7-b611-207a1955f98d","ios":"levelo://app?vid=ff7e43d2-aaee-45c7-b611-207a1955f98d"},"vehicle_type_id":"4","last_reported":1722010217,"current_range_meters":22000,"station_id":"ce4bhs12rcd13ifvqhvg","pricing_plan_id":"cebpf4jnsgd1na2vs0mg"},{"bike_id":"a7b7432c-0cbc-49b1-8e66-cae00243ba24","system_id":"levelo_inurba_marseille","lat":43.324771,"lon":5.36557,"is_reserved":false,"is_disabled":false,"rental_uris":{"android":"levelo://app?vid=a7b7432c-0cbc-49b1-8e66-cae00243ba24","ios":"levelo://app?vid=a7b7432c-0cbc-49b1-8e66-cae00243ba24"},"vehicle_type_id":"4","last_reported":1722010217,"current_range_meters":8400,"station_id":"ce4bhs12rcd13ifvqhvg","pricing_plan_id":"cebpf4jnsgd1na2vs0mg"},{"bike_id":"5d3e8f69-02bc-48cb-a0f7-42b21f835ebd","system_id":"levelo_inurba_marseille","lat":43.324771,"lon":5.36557,"is_reserved":false,"is_disabled":false,"rental_uris":{"android":"levelo://app?vid=5d3e8f69-02bc-48cb-a0f7-42b21f835ebd","ios":"levelo://app?vid=5d3e8f69-02bc-48cb-a0f7-42b21f835ebd"},"vehicle_type_id":"4","last_reported":1722010217,"current_range_meters":31200,"station_id":"ce4bhs12rcd13ifvqhvg","pricing_plan_id":"cebpf4jnsgd1na2vs0mg"},{"bike_id":"b0d6a9f2-94ee-44ab-ab42-33a882e4a3ef","system_id":"levelo_inurba_marseille","lat":43.324771,"lon":5.36557,"is_reserved":false,"is_disabled":false,"rental_uris":{"android":"levelo://app?vid=b0d6a9f2-94ee-44ab-ab42-33a882e4a3ef","ios":"levelo://app?vid=b0d6a9f2-94ee-44ab-ab42-33a882e4a3ef"},"vehicle_type_id":"4","last_reported":1722010217,"current_range_meters":16400,"station_id":"ce4bhs12rcd13ifvqhvg","pricing_plan_id":"cebpf4jnsgd1na2vs0mg"},{"bike_id":"f73ce14a-560f-493e-843f-8aa5816f1e14","system_id":"levelo_inurba_marseille","lat":43.324771,"lon":5.36557,"is_reserved":false,"is_disabled":false,"rental_uris":{"android":"levelo://app?vid=f73ce14a-560f-493e-843f-8aa5816f1e14","ios":"levelo://app?vid=f73ce14a-560f-493e-843f-8aa5816f1e14"},"vehicle_type_id":"4","last_reported":1722010217,"current_range_meters":17200,"station_id":"ce4bhs12rcd13ifvqhvg","pricing_plan_id":"cebpf4jnsgd1na2vs0mg"},{"bike_id":"a43429da-c495-4a78-9869-74ddd0470602","system_id":"levelo_inurba_marseille","lat":43.324771,"lon":5.36557,"is_reserved":false,"is_disabled":false,"rental_uris":{"android":"levelo://app?vid=a43429da-c495-4a78-9869-74ddd0470602","ios":"levelo://app?vid=a43429da-c495-4a78-9869-74ddd0470602"},"vehicle_type_id":"4","last_reported":1722010217,"current_range_meters":32000,"station_id":"ce4bhs12rcd13ifvqhvg","pricing_plan_id":"cebpf4jnsgd1na2vs0mg"},{"bike_id":"89ce309d-23f3-4660-b761-1ab1c74c8000","system_id":"levelo_inurba_marseille","lat":43.31068,"lon":5.38357,"is_reserved":false,"is_disabled":false,"rental_uris":{"android":"levelo://app?vid=89ce309d-23f3-4660-b761-1ab1c74c8000","ios":"levelo://app?vid=89ce309d-23f3-4660-b761-1ab1c74c8000"},"vehicle_type_id":"4","last_reported":1722010217,"current_range_meters":10400,"station_id":"ce4bgv92rcd13ifvqcr0","pricing_plan_id":"cebpf4jnsgd1na2vs0mg"},{"bike_id":"b16a04b5-9780-412a-8956-8944994f7f0d","system_id":"levelo_inurba_marseille","lat":43.30143,"lon":5.37413,"is_reserved":false,"is_disabled":false,"rental_uris":{"android":"levelo://app?vid=b16a04b5-9780-412a-8956-8944994f7f0d","ios":"levelo://app?vid=b16a04b5-9780-412a-8956-8944994f7f0d"},"vehicle_type_id":"4","last_reported":1722010217,"current_range_meters":14800,"station_id":"ce4bgs92rcd13ifvqcc0","pricing_plan_id":"cebpf4jnsgd1na2vs0mg"},{"bike_id":"29ac2ea4-099e-4e24-a849-dd0fb8498c30","system_id":"levelo_inurba_marseille","lat":43.301429,"lon":5.37413,"is_reserved":false,"is_disabled":false,"rental_uris":{"android":"levelo://app?vid=29ac2ea4-099e-4e24-a849-dd0fb8498c30","ios":"levelo://app?vid=29ac2ea4-099e-4e24-a849-dd0fb8498c30"},"vehicle_type_id":"4","last_reported":1722010217,"current_range_meters":0,"station_id":"ce4bgs92rcd13ifvqcc0","pricing_plan_id":"cebpf4jnsgd1na2vs0mg"},{"bike_id":"4068bbec-f0e2-4171-8d51-5cbc13fb8ed9","system_id":"levelo_inurba_marseille","lat":43.30639,"lon":5.38221,"is_reserved":false,"is_disabled":false,"rental_uris":{"android":"levelo://app?vid=4068bbec-f0e2-4171-8d51-5cbc13fb8ed9","ios":"levelo://app?vid=4068bbec-f0e2-4171-8d51-5cbc13fb8ed9"},"vehicle_type_id":"4","last_reported":1722010217,"current_range_meters":4400,"station_id":"","pricing_plan_id":"cebpf4jnsgd1na2vs0mg"},{"bike_id":"4c519bcd-12ed-446e-92dd-db0e0d12582b","system_id":"levelo_inurba_marseille","lat":43.319935,"lon":5.381699,"is_reserved":false,"is_disabled":false,"rental_uris":{"android":"levelo://app?vid=4c519bcd-12ed-446e-92dd-db0e0d12582b","ios":"levelo://app?vid=4c519bcd-12ed-446e-92dd-db0e0d12582b"},"vehicle_type_id":"4","last_reported":1722010217,"current_range_meters":12000,"station_id":"ce4bhr12rcd13ifvqhpg","pricing_plan_id":"cebpf4jnsgd1na2vs0mg"},{"bike_id":"021e8da8-9e66-4e1f-9435-9db31fb52c90","system_id":"levelo_inurba_marseille","lat":43.299724,"lon":5.371829,"is_reserved":false,"is_disabled":false,"rental_uris":{"android":"levelo://app?vid=021e8da8-9e66-4e1f-9435-9db31fb52c90","ios":"levelo://app?vid=021e8da8-9e66-4e1f-9435-9db31fb52c90"},"vehicle_type_id":"4","last_reported":1722010217,"current_range_meters":30800,"station_id":"ce4bgr92rcd13ifvqc7g","pricing_plan_id":"cebpf4jnsgd1na2vs0mg"},{"bike_id":"ef285ec4-9fae-4a2f-b21c-5f704354c863","system_id":"levelo_inurba_marseille","lat":43.299284,"lon":5.369043,"is_reserved":false,"is_disabled":false,"rental_uris":{"android":"levelo://app?vid=ef285ec4-9fae-4a2f-b21c-5f704354c863","ios":"levelo://app?vid=ef285ec4-9fae-4a2f-b21c-5f704354c863"},"vehicle_type_id":"4","last_reported":1722010217,"current_range_meters":5200,"station_id":"","pricing_plan_id":"cebpf4jnsgd1na2vs0mg"},{"bike_id":"51b0a50f-651b-438b-a647-2101ba99a269","system_id":"levelo_inurba_marseille","lat":43.299724,"lon":5.371829,"is_reserved":false,"is_disabled":false,"rental_uris":{"android":"levelo://app?vid=51b0a50f-651b-438b-a647-2101ba99a269","ios":"levelo://app?vid=51b0a50f-651b-438b-a647-2101ba99a269"},"vehicle_type_id":"4","last_reported":1722010217,"current_range_meters":0,"station_id":"ce4bgr92rcd13ifvqc7g","pricing_plan_id":"cebpf4jnsgd1na2vs0mg"},{"bike_id":"01412132-be94-4be6-b567-091596eafa5f","system_id":"levelo_inurba_marseille","lat":43.311722,"lon":5.387247,"is_reserved":false,"is_disabled":false,"rental_uris":{"android":"levelo://app?vid=01412132-be94-4be6-b567-091596eafa5f","ios":"levelo://app?vid=01412132-be94-4be6-b567-091596eafa5f"},"vehicle_type_id":"4","last_reported":1722010217,"current_range_meters":0,"station_id":"ce4bgv12rcd13ifvqcp0","pricing_plan_id":"cebpf4jnsgd1na2vs0mg"},{"bike_id":"fc3c4288-db89-4d94-9226-46586caccb66","system_id":"levelo_inurba_marseille","lat":43.311722,"lon":5.387247,"is_reserved":false,"is_disabled":false,"rental_uris":{"android":"levelo://app?vid=fc3c4288-db89-4d94-9226-46586caccb66","ios":"levelo://app?vid=fc3c4288-db89-4d94-9226-46586caccb66"},"vehicle_type_id":"4","last_reported":1722010217,"current_range_meters":20000,"station_id":"ce4bgv12rcd13ifvqcp0","pricing_plan_id":"cebpf4jnsgd1na2vs0mg"},{"bike_id":"cebeccc0-c2ed-4d39-8630-ca27345c3ae7","system_id":"levelo_inurba_marseille","lat":43.311722,"lon":5.387247,"is_reserved":false,"is_disabled":false,"rental_uris":{"android":"levelo://app?vid=cebeccc0-c2ed-4d39-8630-ca27345c3ae7","ios":"levelo://app?vid=cebeccc0-c2ed-4d39-8630-ca27345c3ae7"},"vehicle_type_id":"4","last_reported":1722010217,"current_range_meters":11200,"station_id":"ce4bgv12rcd13ifvqcp0","pricing_plan_id":"cebpf4jnsgd1na2vs0mg"},{"bike_id":"916cf917-8b21-4e5d-9513-2880630d98d1","system_id":"levelo_inurba_marseille","lat":43.311722,"lon":5.387247,"is_reserved":false,"is_disabled":false,"rental_uris":{"android":"levelo://app?vid=916cf917-8b21-4e5d-9513-2880630d98d1","ios":"levelo://app?vid=916cf917-8b21-4e5d-9513-2880630d98d1"},"vehicle_type_id":"4","last_reported":1722010217,"current_range_meters":20000,"station_id":"ce4bgv12rcd13ifvqcp0","pricing_plan_id":"cebpf4jnsgd1na2vs0mg"},{"bike_id":"1d033cb3-f319-40ae-b9a0-78922cd04504","system_id":"levelo_inurba_marseille","lat":43.311722,"lon":5.387247,"is_reserved":false,"is_disabled":false,"rental_uris":{"android":"levelo://app?vid=1d033cb3-f319-40ae-b9a0-78922cd04504","ios":"levelo://app?vid=1d033cb3-f319-40ae-b9a0-78922cd04504"},"vehicle_type_id":"4","last_reported":1722010217,"current_range_meters":10800,"station_id":"ce4bgv12rcd13ifvqcp0","pricing_plan_id":"cebpf4jnsgd1na2vs0mg"},{"bike_id":"6e993462-ff1f-4c67-a044-96ab3f2c877a","system_id":"levelo_inurba_marseille","lat":43.3015,"lon":5.380687,"is_reserved":false,"is_disabled":false,"rental_uris":{"android":"levelo://app?vid=6e993462-ff1f-4c67-a044-96ab3f2c877a","ios":"levelo://app?vid=6e993462-ff1f-4c67-a044-96ab3f2c877a"},"vehicle_type_id":"4","last_reported":1722010217,"current_range_meters":0,"station_id":"","pricing_plan_id":"cebpf4jnsgd1na2vs0mg"},{"bike_id":"73c0e0c3-24b6-4baf-a2c6-319766aeca3a","system_id":"levelo_inurba_marseille","lat":43.30151,"lon":5.38077,"is_reserved":false,"is_disabled":false,"rental_uris":{"android":"levelo://app?vid=73c0e0c3-24b6-4baf-a2c6-319766aeca3a","ios":"levelo://app?vid=73c0e0c3-24b6-4baf-a2c6-319766aeca3a"},"vehicle_type_id":"4","last_reported":1722010217,"current_range_meters":0,"station_id":"","pricing_plan_id":"cebpf4jnsgd1na2vs0mg"},{"bike_id":"1fc84b39-b31d-418d-9055-1fbcef8e5a3a","system_id":"levelo_inurba_marseille","lat":43.297794,"lon":5.370888,"is_reserved":false,"is_disabled":false,"rental_uris":{"android":"levelo://app?vid=1fc84b39-b31d-418d-9055-1fbcef8e5a3a","ios":"levelo://app?vid=1fc84b39-b31d-418d-9055-1fbcef8e5a3a"},"vehicle_type_id":"4","last_reported":1722010217,"current_range_meters":15600,"station_id":"ce4bgop2rcd13ifvqc1g","pricing_plan_id":"cebpf4jnsgd1na2vs0mg"},{"bike_id":"03515ae1-aaf2-47c7-b153-9cee5ff0e043","system_id":"levelo_inurba_marseille","lat":43.3228,"lon":5.38261,"is_reserved":false,"is_disabled":false,"rental_uris":{"android":"levelo://app?vid=03515ae1-aaf2-47c7-b153-9cee5ff0e043","ios":"levelo://app?vid=03515ae1-aaf2-47c7-b153-9cee5ff0e043"},"vehicle_type_id":"4","last_reported":1722010217,"current_range_meters":19200,"station_id":"ce4bhr12rcd13ifvqhqg","pricing_plan_id":"cebpf4jnsgd1na2vs0mg"},{"bike_id":"4339e445-92a5-48fb-bae4-21dacd22ca45","system_id":"levelo_inurba_marseille","lat":43.29783,"lon":5.371213,"is_reserved":false,"is_disabled":false,"rental_uris":{"android":"levelo://app?vid=4339e445-92a5-48fb-bae4-21dacd22ca45","ios":"levelo://app?vid=4339e445-92a5-48fb-bae4-21dacd22ca45"},"vehicle_type_id":"4","last_reported":1722010217,"current_range_meters":16800,"station_id":"ce4bgop2rcd13ifvqc1g","pricing_plan_id":"cebpf4jnsgd1na2vs0mg"},{"bike_id":"23234f76-9a1d-4d15-874a-c29949cb8179","system_id":"levelo_inurba_marseille","lat":43.32293,"lon":5.38261,"is_reserved":false,"is_disabled":false,"rental_uris":{"android":"levelo://app?vid=23234f76-9a1d-4d15-874a-c29949cb8179","ios":"levelo://app?vid=23234f76-9a1d-4d15-874a-c29949cb8179"},"vehicle_type_id":"4","last_reported":1722010217,"current_range_meters":12000,"station_id":"ce4bhr12rcd13ifvqhqg","pricing_plan_id":"cebpf4jnsgd1na2vs0mg"},{"bike_id":"cdfb6b3f-d6fb-4d7e-9a55-66403d9de1cd","system_id":"levelo_inurba_marseille","lat":43.32291,"lon":5.38266,"is_reserved":false,"is_disabled":false,"rental_uris":{"android":"levelo://app?vid=cdfb6b3f-d6fb-4d7e-9a55-66403d9de1cd","ios":"levelo://app?vid=cdfb6b3f-d6fb-4d7e-9a55-66403d9de1cd"},"vehicle_type_id":"4","last_reported":1722010217,"current_range_meters":23200,"station_id":"ce4bhr12rcd13ifvqhqg","pricing_plan_id":"cebpf4jnsgd1na2vs0mg"},{"bike_id":"fde4ac24-58e9-4a88-a2d5-f92398dec804","system_id":"levelo_inurba_marseille","lat":43.322872,"lon":5.382756,"is_reserved":false,"is_disabled":false,"rental_uris":{"android":"levelo://app?vid=fde4ac24-58e9-4a88-a2d5-f92398dec804","ios":"levelo://app?vid=fde4ac24-58e9-4a88-a2d5-f92398dec804"},"vehicle_type_id":"4","last_reported":1722010217,"current_range_meters":28800,"station_id":"ce4bhr12rcd13ifvqhqg","pricing_plan_id":"cebpf4jnsgd1na2vs0mg"},{"bike_id":"7664a5cd-7127-41c7-b544-f9fe05b1cec9","system_id":"levelo_inurba_marseille","lat":43.322872,"lon":5.382756,"is_reserved":false,"is_disabled":false,"rental_uris":{"android":"levelo://app?vid=7664a5cd-7127-41c7-b544-f9fe05b1cec9","ios":"levelo://app?vid=7664a5cd-7127-41c7-b544-f9fe05b1cec9"},"vehicle_type_id":"4","last_reported":1722010217,"current_range_meters":31200,"station_id":"ce4bhr12rcd13ifvqhqg","pricing_plan_id":"cebpf4jnsgd1na2vs0mg"},{"bike_id":"fa8ba1a1-f797-4fe7-ae37-42320276388e","system_id":"levelo_inurba_marseille","lat":43.322931,"lon":5.382773,"is_reserved":false,"is_disabled":false,"rental_uris":{"android":"levelo://app?vid=fa8ba1a1-f797-4fe7-ae37-42320276388e","ios":"levelo://app?vid=fa8ba1a1-f797-4fe7-ae37-42320276388e"},"vehicle_type_id":"4","last_reported":1722010217,"current_range_meters":30000,"station_id":"ce4bhr12rcd13ifvqhqg","pricing_plan_id":"cebpf4jnsgd1na2vs0mg"},{"bike_id":"1c187121-8420-4b8c-af51-c7d199f9619c","system_id":"levelo_inurba_marseille","lat":43.297102,"lon":5.368786,"is_reserved":false,"is_disabled":false,"rental_uris":{"android":"levelo://app?vid=1c187121-8420-4b8c-af51-c7d199f9619c","ios":"levelo://app?vid=1c187121-8420-4b8c-af51-c7d199f9619c"},"vehicle_type_id":"4","last_reported":1722010217,"current_range_meters":25200,"station_id":"","pricing_plan_id":"cebpf4jnsgd1na2vs0mg"},{"bike_id":"ad7a1b59-c482-47ba-b55d-7374fbf13368","system_id":"levelo_inurba_marseille","lat":43.297163,"lon":5.365866,"is_reserved":false,"is_disabled":false,"rental_uris":{"android":"levelo://app?vid=ad7a1b59-c482-47ba-b55d-7374fbf13368","ios":"levelo://app?vid=ad7a1b59-c482-47ba-b55d-7374fbf13368"},"vehicle_type_id":"4","last_reported":1722010217,"current_range_meters":19200,"station_id":"ce4bgn12rcd13ifvqbt0","pricing_plan_id":"cebpf4jnsgd1na2vs0mg"},{"bike_id":"d4dea996-9494-49e6-b1de-78700963beb8","system_id":"levelo_inurba_marseille","lat":43.2968,"lon":5.37291,"is_reserved":false,"is_disabled":false,"rental_uris":{"android":"levelo://app?vid=d4dea996-9494-49e6-b1de-78700963beb8","ios":"levelo://app?vid=d4dea996-9494-49e6-b1de-78700963beb8"},"vehicle_type_id":"4","last_reported":1722010217,"current_range_meters":4800,"station_id":"ce4bgk12rcd13ifvqbj0","pricing_plan_id":"cebpf4jnsgd1na2vs0mg"},{"bike_id":"eeef8fbd-1bf8-432b-86c4-f71ccb42ee47","system_id":"levelo_inurba_marseille","lat":43.29573,"lon":5.367355,"is_reserved":false,"is_disabled":false,"rental_uris":{"android":"levelo://app?vid=eeef8fbd-1bf8-432b-86c4-f71ccb42ee47","ios":"levelo://app?vid=eeef8fbd-1bf8-432b-86c4-f71ccb42ee47"},"vehicle_type_id":"4","last_reported":1722010217,"current_range_meters":7600,"station_id":"ce4bgph2rcd13ifvqc2g","pricing_plan_id":"cebpf4jnsgd1na2vs0mg"},{"bike_id":"7b2c240f-9d88-41fb-849e-8df1095ae9a8","system_id":"levelo_inurba_marseille","lat":43.29573,"lon":5.367355,"is_reserved":false,"is_disabled":false,"rental_uris":{"android":"levelo://app?vid=7b2c240f-9d88-41fb-849e-8df1095ae9a8","ios":"levelo://app?vid=7b2c240f-9d88-41fb-849e-8df1095ae9a8"},"vehicle_type_id":"4","last_reported":1722010217,"current_range_meters":5200,"station_id":"ce4bgph2rcd13ifvqc2g","pricing_plan_id":"cebpf4jnsgd1na2vs0mg"},{"bike_id":"fdc76072-8377-41dc-979c-528b2d8f59ad","system_id":"levelo_inurba_marseille","lat":43.296129,"lon":5.370777,"is_reserved":false,"is_disabled":false,"rental_uris":{"android":"levelo://app?vid=fdc76072-8377-41dc-979c-528b2d8f59ad","ios":"levelo://app?vid=fdc76072-8377-41dc-979c-528b2d8f59ad"},"vehicle_type_id":"4","last_reported":1722010217,"current_range_meters":2000,"station_id":"ce4bgnh2rcd13ifvqc0g","pricing_plan_id":"cebpf4jnsgd1na2vs0mg"},{"bike_id":"9e9964ef-12fb-4cb5-b26c-e006988722d8","system_id":"levelo_inurba_marseille","lat":43.296921,"lon":5.376579,"is_reserved":false,"is_disabled":false,"rental_uris":{"android":"levelo://app?vid=9e9964ef-12fb-4cb5-b26c-e006988722d8","ios":"levelo://app?vid=9e9964ef-12fb-4cb5-b26c-e006988722d8"},"vehicle_type_id":"4","last_reported":1722010217,"current_range_meters":1600,"station_id":"ce4bgkh2rcd13ifvqbl0","pricing_plan_id":"cebpf4jnsgd1na2vs0mg"},{"bike_id":"f2c30a27-f3d3-4785-bf86-84a8366d063f","system_id":"levelo_inurba_marseille","lat":43.309589,"lon":5.390258,"is_reserved":false,"is_disabled":false,"rental_uris":{"android":"levelo://app?vid=f2c30a27-f3d3-4785-bf86-84a8366d063f","ios":"levelo://app?vid=f2c30a27-f3d3-4785-bf86-84a8366d063f"},"vehicle_type_id":"4","last_reported":1722010217,"current_range_meters":0,"station_id":"ce4bgup2rcd13ifvqco0","pricing_plan_id":"cebpf4jnsgd1na2vs0mg"},{"bike_id":"c75c2122-90df-4cee-bcb9-9b4affe75598","system_id":"levelo_inurba_marseille","lat":43.31759,"lon":5.39043,"is_reserved":false,"is_disabled":false,"rental_uris":{"android":"levelo://app?vid=c75c2122-90df-4cee-bcb9-9b4affe75598","ios":"levelo://app?vid=c75c2122-90df-4cee-bcb9-9b4affe75598"},"vehicle_type_id":"4","last_reported":1722010217,"current_range_meters":8400,"station_id":"ce4bhqp2rcd13ifvqhng","pricing_plan_id":"cebpf4jnsgd1na2vs0mg"},{"bike_id":"c8856ccf-1bcb-43ea-a40b-3350057c4e52","system_id":"levelo_inurba_marseille","lat":43.299062,"lon":5.383162,"is_reserved":false,"is_disabled":false,"rental_uris":{"android":"levelo://app?vid=c8856ccf-1bcb-43ea-a40b-3350057c4e52","ios":"levelo://app?vid=c8856ccf-1bcb-43ea-a40b-3350057c4e52"},"vehicle_type_id":"4","last_reported":1722010217,"current_range_meters":19200,"station_id":"","pricing_plan_id":"cebpf4jnsgd1na2vs0mg"},{"bike_id":"6e583854-ced7-4d8f-bb96-b953b6c6644f","system_id":"levelo_inurba_marseille","lat":43.29571,"lon":5.37526,"is_reserved":false,"is_disabled":false,"rental_uris":{"android":"levelo://app?vid=6e583854-ced7-4d8f-bb96-b953b6c6644f","ios":"levelo://app?vid=6e583854-ced7-4d8f-bb96-b953b6c6644f"},"vehicle_type_id":"4","last_reported":1722010217,"current_range_meters":18800,"station_id":"ce4bgh92rcd13ifvqb50","pricing_plan_id":"cebpf4jnsgd1na2vs0mg"},{"bike_id":"f9fedeba-e79a-497a-91a9-a35f0d42ea9d","system_id":"levelo_inurba_marseille","lat":43.296263,"lon":5.377094,"is_reserved":false,"is_disabled":false,"rental_uris":{"android":"levelo://app?vid=f9fedeba-e79a-497a-91a9-a35f0d42ea9d","ios":"levelo://app?vid=f9fedeba-e79a-497a-91a9-a35f0d42ea9d"},"vehicle_type_id":"4","last_reported":1722010217,"current_range_meters":2800,"station_id":"ce4bgi92rcd13ifvqb90","pricing_plan_id":"cebpf4jnsgd1na2vs0mg"},{"bike_id":"32dd6cf3-7a0b-4f1c-ab37-595ae34d5830","system_id":"levelo_inurba_marseille","lat":43.296263,"lon":5.40601,"is_reserved":false,"is_disabled":false,"rental_uris":{"android":"levelo://app?vid=32dd6cf3-7a0b-4f1c-ab37-595ae34d5830","ios":"levelo://app?vid=32dd6cf3-7a0b-4f1c-ab37-595ae34d5830"},"vehicle_type_id":"4","last_reported":1722010217,"current_range_meters":3200,"station_id":"ce4bh0h2rcd13ifvqd60","pricing_plan_id":"cebpf4jnsgd1na2vs0mg"},{"bike_id":"f50d0b28-4dcc-4418-a990-54319589b4de","system_id":"levelo_inurba_marseille","lat":43.301396,"lon":5.387812,"is_reserved":false,"is_disabled":false,"rental_uris":{"android":"levelo://app?vid=f50d0b28-4dcc-4418-a990-54319589b4de","ios":"levelo://app?vid=f50d0b28-4dcc-4418-a990-54319589b4de"},"vehicle_type_id":"4","last_reported":1722010217,"current_range_meters":18800,"station_id":"ce4bghh2rcd13ifvqb60","pricing_plan_id":"cebpf4jnsgd1na2vs0mg"},{"bike_id":"a270e594-4588-4155-80b6-85aeaf0001f2","system_id":"levelo_inurba_marseille","lat":43.301396,"lon":5.387812,"is_reserved":false,"is_disabled":false,"rental_uris":{"android":"levelo://app?vid=a270e594-4588-4155-80b6-85aeaf0001f2","ios":"levelo://app?vid=a270e594-4588-4155-80b6-85aeaf0001f2"},"vehicle_type_id":"4","last_reported":1722010217,"current_range_meters":11200,"station_id":"ce4bghh2rcd13ifvqb60","pricing_plan_id":"cebpf4jnsgd1na2vs0mg"},{"bike_id":"99068005-1918-4551-aa54-89532b5ea31c","system_id":"levelo_inurba_marseille","lat":43.30142,"lon":5.38775,"is_reserved":false,"is_disabled":false,"rental_uris":{"android":"levelo://app?vid=99068005-1918-4551-aa54-89532b5ea31c","ios":"levelo://app?vid=99068005-1918-4551-aa54-89532b5ea31c"},"vehicle_type_id":"4","last_reported":1722010217,"current_range_meters":31200,"station_id":"ce4bghh2rcd13ifvqb60","pricing_plan_id":"cebpf4jnsgd1na2vs0mg"},{"bike_id":"292b642b-6ab5-4cee-b07e-3cc847559190","system_id":"levelo_inurba_marseille","lat":43.301433,"lon":5.387787,"is_reserved":false,"is_disabled":false,"rental_uris":{"android":"levelo://app?vid=292b642b-6ab5-4cee-b07e-3cc847559190","ios":"levelo://app?vid=292b642b-6ab5-4cee-b07e-3cc847559190"},"vehicle_type_id":"4","last_reported":1722010217,"current_range_meters":0,"station_id":"ce4bghh2rcd13ifvqb60","pricing_plan_id":"cebpf4jnsgd1na2vs0mg"},{"bike_id":"fd718697-0877-41f9-8a4d-88846c9d1bc6","system_id":"levelo_inurba_marseille","lat":43.301396,"lon":5.387812,"is_reserved":false,"is_disabled":false,"rental_uris":{"android":"levelo://app?vid=fd718697-0877-41f9-8a4d-88846c9d1bc6","ios":"levelo://app?vid=fd718697-0877-41f9-8a4d-88846c9d1bc6"},"vehicle_type_id":"4","last_reported":1722010217,"current_range_meters":0,"station_id":"ce4bghh2rcd13ifvqb60","pricing_plan_id":"cebpf4jnsgd1na2vs0mg"},{"bike_id":"75a766c5-d53d-42ae-980d-43fd017bd37b","system_id":"levelo_inurba_marseille","lat":43.301396,"lon":5.387812,"is_reserved":false,"is_disabled":false,"rental_uris":{"android":"levelo://app?vid=75a766c5-d53d-42ae-980d-43fd017bd37b","ios":"levelo://app?vid=75a766c5-d53d-42ae-980d-43fd017bd37b"},"vehicle_type_id":"4","last_reported":1722010217,"current_range_meters":0,"station_id":"ce4bghh2rcd13ifvqb60","pricing_plan_id":"cebpf4jnsgd1na2vs0mg"},{"bike_id":"6120cb9b-bebc-471f-8c79-7dc6e5cc5778","system_id":"levelo_inurba_marseille","lat":43.32367,"lon":5.388836,"is_reserved":false,"is_disabled":false,"rental_uris":{"android":"levelo://app?vid=6120cb9b-bebc-471f-8c79-7dc6e5cc5778","ios":"levelo://app?vid=6120cb9b-bebc-471f-8c79-7dc6e5cc5778"},"vehicle_type_id":"4","last_reported":1722010217,"current_range_meters":4000,"station_id":"ce4bhqp2rcd13ifvqhog","pricing_plan_id":"cebpf4jnsgd1na2vs0mg"},{"bike_id":"b5d3cec5-6c78-4527-88f3-e4ec15dc96fb","system_id":"levelo_inurba_marseille","lat":43.29601,"lon":5.381084,"is_reserved":false,"is_disabled":false,"rental_uris":{"android":"levelo://app?vid=b5d3cec5-6c78-4527-88f3-e4ec15dc96fb","ios":"levelo://app?vid=b5d3cec5-6c78-4527-88f3-e4ec15dc96fb"},"vehicle_type_id":"4","last_reported":1722010217,"current_range_meters":22000,"station_id":"ce4bgl12rcd13ifvqbo0","pricing_plan_id":"cebpf4jnsgd1na2vs0mg"},{"bike_id":"876d1bf4-e5be-4ccd-a2a6-74b907f69576","system_id":"levelo_inurba_marseille","lat":43.29328,"lon":5.37089,"is_reserved":false,"is_disabled":false,"rental_uris":{"android":"levelo://app?vid=876d1bf4-e5be-4ccd-a2a6-74b907f69576","ios":"levelo://app?vid=876d1bf4-e5be-4ccd-a2a6-74b907f69576"},"vehicle_type_id":"4","last_reported":1722010217,"current_range_meters":4800,"station_id":"","pricing_plan_id":"cebpf4jnsgd1na2vs0mg"},{"bike_id":"b4a8bbfd-9666-48c0-a491-bd1bca750b5f","system_id":"levelo_inurba_marseille","lat":43.29602,"lon":5.381084,"is_reserved":false,"is_disabled":false,"rental_uris":{"android":"levelo://app?vid=b4a8bbfd-9666-48c0-a491-bd1bca750b5f","ios":"levelo://app?vid=b4a8bbfd-9666-48c0-a491-bd1bca750b5f"},"vehicle_type_id":"4","last_reported":1722010217,"current_range_meters":26000,"station_id":"ce4bgl12rcd13ifvqbo0","pricing_plan_id":"cebpf4jnsgd1na2vs0mg"},{"bike_id":"99a76607-4b32-4a72-9a22-c14a13e97d12","system_id":"levelo_inurba_marseille","lat":43.293249,"lon":5.371578,"is_reserved":false,"is_disabled":false,"rental_uris":{"android":"levelo://app?vid=99a76607-4b32-4a72-9a22-c14a13e97d12","ios":"levelo://app?vid=99a76607-4b32-4a72-9a22-c14a13e97d12"},"vehicle_type_id":"4","last_reported":1722010217,"current_range_meters":24000,"station_id":"ce4bgh92rcd13ifvqb40","pricing_plan_id":"cebpf4jnsgd1na2vs0mg"},{"bike_id":"5b358f23-92fa-4d3c-a637-fcb5b20e6b5c","system_id":"levelo_inurba_marseille","lat":43.293259,"lon":5.371586,"is_reserved":false,"is_disabled":false,"rental_uris":{"android":"levelo://app?vid=5b358f23-92fa-4d3c-a637-fcb5b20e6b5c","ios":"levelo://app?vid=5b358f23-92fa-4d3c-a637-fcb5b20e6b5c"},"vehicle_type_id":"4","last_reported":1722010217,"current_range_meters":6800,"station_id":"ce4bgh92rcd13ifvqb40","pricing_plan_id":"cebpf4jnsgd1na2vs0mg"},{"bike_id":"8eee593b-5f81-4a17-80c2-a02034468263","system_id":"levelo_inurba_marseille","lat":43.293259,"lon":5.371586,"is_reserved":false,"is_disabled":false,"rental_uris":{"android":"levelo://app?vid=8eee593b-5f81-4a17-80c2-a02034468263","ios":"levelo://app?vid=8eee593b-5f81-4a17-80c2-a02034468263"},"vehicle_type_id":"4","last_reported":1722010217,"current_range_meters":4000,"station_id":"ce4bgh92rcd13ifvqb40","pricing_plan_id":"cebpf4jnsgd1na2vs0mg"},{"bike_id":"bf1bf73d-dde2-46d4-8add-6998850639e8","system_id":"levelo_inurba_marseille","lat":43.293259,"lon":5.371586,"is_reserved":false,"is_disabled":false,"rental_uris":{"android":"levelo://app?vid=bf1bf73d-dde2-46d4-8add-6998850639e8","ios":"levelo://app?vid=bf1bf73d-dde2-46d4-8add-6998850639e8"},"vehicle_type_id":"4","last_reported":1722010217,"current_range_meters":19600,"station_id":"ce4bgh92rcd13ifvqb40","pricing_plan_id":"cebpf4jnsgd1na2vs0mg"},{"bike_id":"bea2820e-9b9b-4a4d-af55-dc62d9c6e1f8","system_id":"levelo_inurba_marseille","lat":43.292749,"lon":5.368402,"is_reserved":false,"is_disabled":false,"rental_uris":{"android":"levelo://app?vid=bea2820e-9b9b-4a4d-af55-dc62d9c6e1f8","ios":"levelo://app?vid=bea2820e-9b9b-4a4d-af55-dc62d9c6e1f8"},"vehicle_type_id":"4","last_reported":1722010217,"current_range_meters":0,"station_id":"ce4bhbp2rcd13ifvqesg","pricing_plan_id":"cebpf4jnsgd1na2vs0mg"},{"bike_id":"188ccd45-64f9-44f7-8428-acf155bb6bb5","system_id":"levelo_inurba_marseille","lat":43.293009,"lon":5.374584,"is_reserved":false,"is_disabled":false,"rental_uris":{"android":"levelo://app?vid=188ccd45-64f9-44f7-8428-acf155bb6bb5","ios":"levelo://app?vid=188ccd45-64f9-44f7-8428-acf155bb6bb5"},"vehicle_type_id":"4","last_reported":1722010217,"current_range_meters":3600,"station_id":"ce4bgi12rcd13ifvqb70","pricing_plan_id":"cebpf4jnsgd1na2vs0mg"},{"bike_id":"7a996658-505c-4d6b-b84c-f29f7bf96550","system_id":"levelo_inurba_marseille","lat":43.292345,"lon":5.36728,"is_reserved":false,"is_disabled":false,"rental_uris":{"android":"levelo://app?vid=7a996658-505c-4d6b-b84c-f29f7bf96550","ios":"levelo://app?vid=7a996658-505c-4d6b-b84c-f29f7bf96550"},"vehicle_type_id":"4","last_reported":1722010217,"current_range_meters":11200,"station_id":"ce4bhch2rcd13ifvqeug","pricing_plan_id":"cebpf4jnsgd1na2vs0mg"},{"bike_id":"89b59297-5c5f-4fb3-a9b5-e2cd07511ffc","system_id":"levelo_inurba_marseille","lat":43.293009,"lon":5.374584,"is_reserved":false,"is_disabled":false,"rental_uris":{"android":"levelo://app?vid=89b59297-5c5f-4fb3-a9b5-e2cd07511ffc","ios":"levelo://app?vid=89b59297-5c5f-4fb3-a9b5-e2cd07511ffc"},"vehicle_type_id":"4","last_reported":1722010217,"current_range_meters":2800,"station_id":"ce4bgi12rcd13ifvqb70","pricing_plan_id":"cebpf4jnsgd1na2vs0mg"},{"bike_id":"40bcda92-beef-4244-b2be-213ca7f9eae6","system_id":"levelo_inurba_marseille","lat":43.302992,"lon":5.392136,"is_reserved":false,"is_disabled":false,"rental_uris":{"android":"levelo://app?vid=40bcda92-beef-4244-b2be-213ca7f9eae6","ios":"levelo://app?vid=40bcda92-beef-4244-b2be-213ca7f9eae6"},"vehicle_type_id":"4","last_reported":1722010217,"current_range_meters":1600,"station_id":"ce4bgkh2rcd13ifvqbk0","pricing_plan_id":"cebpf4jnsgd1na2vs0mg"},{"bike_id":"5e37eac7-5c39-4814-843d-3d62ca34b9bc","system_id":"levelo_inurba_marseille","lat":43.302992,"lon":5.392136,"is_reserved":false,"is_disabled":false,"rental_uris":{"android":"levelo://app?vid=5e37eac7-5c39-4814-843d-3d62ca34b9bc","ios":"levelo://app?vid=5e37eac7-5c39-4814-843d-3d62ca34b9bc"},"vehicle_type_id":"4","last_reported":1722010217,"current_range_meters":10000,"station_id":"ce4bgkh2rcd13ifvqbk0","pricing_plan_id":"cebpf4jnsgd1na2vs0mg"},{"bike_id":"1b72b1a4-8093-49ea-bccf-6e88cc854e58","system_id":"levelo_inurba_marseille","lat":43.292311,"lon":5.360731,"is_reserved":false,"is_disabled":false,"rental_uris":{"android":"levelo://app?vid=1b72b1a4-8093-49ea-bccf-6e88cc854e58","ios":"levelo://app?vid=1b72b1a4-8093-49ea-bccf-6e88cc854e58"},"vehicle_type_id":"4","last_reported":1722010217,"current_range_meters":5600,"station_id":"ce4bhbh2rcd13ifvqeqg","pricing_plan_id":"cebpf4jnsgd1na2vs0mg"},{"bike_id":"0138e622-3ac1-41d5-82ce-930ff625afe5","system_id":"levelo_inurba_marseille","lat":43.300852,"lon":5.390859,"is_reserved":false,"is_disabled":false,"rental_uris":{"android":"levelo://app?vid=0138e622-3ac1-41d5-82ce-930ff625afe5","ios":"levelo://app?vid=0138e622-3ac1-41d5-82ce-930ff625afe5"},"vehicle_type_id":"4","last_reported":1722010217,"current_range_meters":0,"station_id":"ce4bh192rcd13ifvqdb0","pricing_plan_id":"cebpf4jnsgd1na2vs0mg"},{"bike_id":"fcf5d1d4-68e8-4236-b1f1-5c14e01a141e","system_id":"levelo_inurba_marseille","lat":43.292311,"lon":5.360731,"is_reserved":false,"is_disabled":false,"rental_uris":{"android":"levelo://app?vid=fcf5d1d4-68e8-4236-b1f1-5c14e01a141e","ios":"levelo://app?vid=fcf5d1d4-68e8-4236-b1f1-5c14e01a141e"},"vehicle_type_id":"4","last_reported":1722010217,"current_range_meters":14400,"station_id":"ce4bhbh2rcd13ifvqeqg","pricing_plan_id":"cebpf4jnsgd1na2vs0mg"},{"bike_id":"c7432ee4-44ce-4043-b0f2-755db33fe3ec","system_id":"levelo_inurba_marseille","lat":43.32658,"lon":5.38863,"is_reserved":false,"is_disabled":false,"rental_uris":{"android":"levelo://app?vid=c7432ee4-44ce-4043-b0f2-755db33fe3ec","ios":"levelo://app?vid=c7432ee4-44ce-4043-b0f2-755db33fe3ec"},"vehicle_type_id":"4","last_reported":1722010217,"current_range_meters":10400,"station_id":"","pricing_plan_id":"cebpf4jnsgd1na2vs0mg"},{"bike_id":"d35e4156-2406-4786-aac3-f0b1bf8574c1","system_id":"levelo_inurba_marseille","lat":43.298764,"lon":5.388973,"is_reserved":false,"is_disabled":false,"rental_uris":{"android":"levelo://app?vid=d35e4156-2406-4786-aac3-f0b1bf8574c1","ios":"levelo://app?vid=d35e4156-2406-4786-aac3-f0b1bf8574c1"},"vehicle_type_id":"4","last_reported":1722010217,"current_range_meters":11600,"station_id":"ce4bh392rcd13ifvqdl0","pricing_plan_id":"cebpf4jnsgd1na2vs0mg"},{"bike_id":"121f59dc-ca4e-4b95-94d1-d1ff778f521b","system_id":"levelo_inurba_marseille","lat":43.29167,"lon":5.3716,"is_reserved":false,"is_disabled":false,"rental_uris":{"android":"levelo://app?vid=121f59dc-ca4e-4b95-94d1-d1ff778f521b","ios":"levelo://app?vid=121f59dc-ca4e-4b95-94d1-d1ff778f521b"},"vehicle_type_id":"4","last_reported":1722010217,"current_range_meters":0,"station_id":"ce4bha92rcd13ifvqeh0","pricing_plan_id":"cebpf4jnsgd1na2vs0mg"},{"bike_id":"5a8230f8-9c38-4792-86d8-7dfd9a0afeef","system_id":"levelo_inurba_marseille","lat":43.289468,"lon":5.363719,"is_reserved":false,"is_disabled":false,"rental_uris":{"android":"levelo://app?vid=5a8230f8-9c38-4792-86d8-7dfd9a0afeef","ios":"levelo://app?vid=5a8230f8-9c38-4792-86d8-7dfd9a0afeef"},"vehicle_type_id":"4","last_reported":1722010217,"current_range_meters":3200,"station_id":"ce4bhc92rcd13ifvqetg","pricing_plan_id":"cebpf4jnsgd1na2vs0mg"},{"bike_id":"9082de61-c2d9-4a65-80f2-c64ff119cb81","system_id":"levelo_inurba_marseille","lat":43.29199,"lon":5.35807,"is_reserved":false,"is_disabled":false,"rental_uris":{"android":"levelo://app?vid=9082de61-c2d9-4a65-80f2-c64ff119cb81","ios":"levelo://app?vid=9082de61-c2d9-4a65-80f2-c64ff119cb81"},"vehicle_type_id":"4","last_reported":1722010217,"current_range_meters":14800,"station_id":"ce4bhb12rcd13ifvqel0","pricing_plan_id":"cebpf4jnsgd1na2vs0mg"},{"bike_id":"bb34aa62-8a31-43e5-b1a4-44fc54d25281","system_id":"levelo_inurba_marseille","lat":43.29199,"lon":5.35802,"is_reserved":false,"is_disabled":false,"rental_uris":{"android":"levelo://app?vid=bb34aa62-8a31-43e5-b1a4-44fc54d25281","ios":"levelo://app?vid=bb34aa62-8a31-43e5-b1a4-44fc54d25281"},"vehicle_type_id":"4","last_reported":1722010217,"current_range_meters":0,"station_id":"ce4bhb12rcd13ifvqel0","pricing_plan_id":"cebpf4jnsgd1na2vs0mg"},{"bike_id":"c5b27c8d-2947-4c38-8f93-a0dc643b2e98","system_id":"levelo_inurba_marseille","lat":43.292005,"lon":5.357875,"is_reserved":false,"is_disabled":false,"rental_uris":{"android":"levelo://app?vid=c5b27c8d-2947-4c38-8f93-a0dc643b2e98","ios":"levelo://app?vid=c5b27c8d-2947-4c38-8f93-a0dc643b2e98"},"vehicle_type_id":"4","last_reported":1722010217,"current_range_meters":18400,"station_id":"ce4bhb12rcd13ifvqel0","pricing_plan_id":"cebpf4jnsgd1na2vs0mg"},{"bike_id":"af64b0f6-1a88-437b-b4f9-e6a03dd760c1","system_id":"levelo_inurba_marseille","lat":43.292005,"lon":5.357875,"is_reserved":false,"is_disabled":false,"rental_uris":{"android":"levelo://app?vid=af64b0f6-1a88-437b-b4f9-e6a03dd760c1","ios":"levelo://app?vid=af64b0f6-1a88-437b-b4f9-e6a03dd760c1"},"vehicle_type_id":"4","last_reported":1722010217,"current_range_meters":10800,"station_id":"ce4bhb12rcd13ifvqel0","pricing_plan_id":"cebpf4jnsgd1na2vs0mg"},{"bike_id":"3fbc35d2-0532-424e-8eb1-0a68d7b02475","system_id":"levelo_inurba_marseille","lat":43.29193,"lon":5.358,"is_reserved":false,"is_disabled":false,"rental_uris":{"android":"levelo://app?vid=3fbc35d2-0532-424e-8eb1-0a68d7b02475","ios":"levelo://app?vid=3fbc35d2-0532-424e-8eb1-0a68d7b02475"},"vehicle_type_id":"4","last_reported":1722010217,"current_range_meters":800,"station_id":"ce4bhb12rcd13ifvqel0","pricing_plan_id":"cebpf4jnsgd1na2vs0mg"},{"bike_id":"4158e58a-ad88-4883-9a20-a7e66bec4270","system_id":"levelo_inurba_marseille","lat":43.313291,"lon":5.396838,"is_reserved":false,"is_disabled":false,"rental_uris":{"android":"levelo://app?vid=4158e58a-ad88-4883-9a20-a7e66bec4270","ios":"levelo://app?vid=4158e58a-ad88-4883-9a20-a7e66bec4270"},"vehicle_type_id":"4","last_reported":1722010217,"current_range_meters":17200,"station_id":"ce4bgvp2rcd13ifvqcu0","pricing_plan_id":"cebpf4jnsgd1na2vs0mg"},{"bike_id":"ad1e3048-3cc5-4625-b1f1-35b053def6ed","system_id":"levelo_inurba_marseille","lat":43.313291,"lon":5.396838,"is_reserved":false,"is_disabled":false,"rental_uris":{"android":"levelo://app?vid=ad1e3048-3cc5-4625-b1f1-35b053def6ed","ios":"levelo://app?vid=ad1e3048-3cc5-4625-b1f1-35b053def6ed"},"vehicle_type_id":"4","last_reported":1722010217,"current_range_meters":1600,"station_id":"ce4bgvp2rcd13ifvqcu0","pricing_plan_id":"cebpf4jnsgd1na2vs0mg"},{"bike_id":"8c307f61-726d-41a2-9430-a3f1e1237cef","system_id":"levelo_inurba_marseille","lat":43.29175,"lon":5.35819,"is_reserved":false,"is_disabled":false,"rental_uris":{"android":"levelo://app?vid=8c307f61-726d-41a2-9430-a3f1e1237cef","ios":"levelo://app?vid=8c307f61-726d-41a2-9430-a3f1e1237cef"},"vehicle_type_id":"4","last_reported":1722010217,"current_range_meters":11200,"station_id":"ce4bhb12rcd13ifvqel0","pricing_plan_id":"cebpf4jnsgd1na2vs0mg"},{"bike_id":"d4b27d15-7fe8-4687-9a2b-a2b7e0912c3b","system_id":"levelo_inurba_marseille","lat":43.29529,"lon":5.385581,"is_reserved":false,"is_disabled":false,"rental_uris":{"android":"levelo://app?vid=d4b27d15-7fe8-4687-9a2b-a2b7e0912c3b","ios":"levelo://app?vid=d4b27d15-7fe8-4687-9a2b-a2b7e0912c3b"},"vehicle_type_id":"4","last_reported":1722010217,"current_range_meters":23200,"station_id":"ce4bgih2rcd13ifvqba0","pricing_plan_id":"cebpf4jnsgd1na2vs0mg"},{"bike_id":"b110a871-52d5-4460-af1d-981002588df8","system_id":"levelo_inurba_marseille","lat":43.29529,"lon":5.385581,"is_reserved":false,"is_disabled":false,"rental_uris":{"android":"levelo://app?vid=b110a871-52d5-4460-af1d-981002588df8","ios":"levelo://app?vid=b110a871-52d5-4460-af1d-981002588df8"},"vehicle_type_id":"4","last_reported":1722010217,"current_range_meters":28000,"station_id":"ce4bgih2rcd13ifvqba0","pricing_plan_id":"cebpf4jnsgd1na2vs0mg"},{"bike_id":"29bf3331-13db-42de-ad27-d72d089a305b","system_id":"levelo_inurba_marseille","lat":43.334424,"lon":5.359317,"is_reserved":false,"is_disabled":false,"rental_uris":{"android":"levelo://app?vid=29bf3331-13db-42de-ad27-d72d089a305b","ios":"levelo://app?vid=29bf3331-13db-42de-ad27-d72d089a305b"},"vehicle_type_id":"4","last_reported":1722010217,"current_range_meters":800,"station_id":"","pricing_plan_id":"cebpf4jnsgd1na2vs0mg"},{"bike_id":"cb5b9b21-bb2f-4cc4-b3ce-d04969fbe579","system_id":"levelo_inurba_marseille","lat":43.302008,"lon":5.394694,"is_reserved":false,"is_disabled":false,"rental_uris":{"android":"levelo://app?vid=cb5b9b21-bb2f-4cc4-b3ce-d04969fbe579","ios":"levelo://app?vid=cb5b9b21-bb2f-4cc4-b3ce-d04969fbe579"},"vehicle_type_id":"4","last_reported":1722010217,"current_range_meters":0,"station_id":"ce4bh0p2rcd13ifvqd70","pricing_plan_id":"cebpf4jnsgd1na2vs0mg"},{"bike_id":"47c004bc-b2ed-442b-ad27-23b8bf741e73","system_id":"levelo_inurba_marseille","lat":43.302008,"lon":5.394694,"is_reserved":false,"is_disabled":false,"rental_uris":{"android":"levelo://app?vid=47c004bc-b2ed-442b-ad27-23b8bf741e73","ios":"levelo://app?vid=47c004bc-b2ed-442b-ad27-23b8bf741e73"},"vehicle_type_id":"4","last_reported":1722010217,"current_range_meters":0,"station_id":"ce4bh0p2rcd13ifvqd70","pricing_plan_id":"cebpf4jnsgd1na2vs0mg"},{"bike_id":"450208b0-d23b-4ad4-a628-37bc05d67128","system_id":"levelo_inurba_marseille","lat":43.302008,"lon":5.394694,"is_reserved":false,"is_disabled":false,"rental_uris":{"android":"levelo://app?vid=450208b0-d23b-4ad4-a628-37bc05d67128","ios":"levelo://app?vid=450208b0-d23b-4ad4-a628-37bc05d67128"},"vehicle_type_id":"4","last_reported":1722010217,"current_range_meters":1200,"station_id":"ce4bh0p2rcd13ifvqd70","pricing_plan_id":"cebpf4jnsgd1na2vs0mg"},{"bike_id":"bea32dcd-2a17-4d16-93ac-5bbec5084f48","system_id":"levelo_inurba_marseille","lat":43.290631,"lon":5.359244,"is_reserved":false,"is_disabled":false,"rental_uris":{"android":"levelo://app?vid=bea32dcd-2a17-4d16-93ac-5bbec5084f48","ios":"levelo://app?vid=bea32dcd-2a17-4d16-93ac-5bbec5084f48"},"vehicle_type_id":"4","last_reported":1722010217,"current_range_meters":3200,"station_id":"ce4bha92rcd13ifvqeg0","pricing_plan_id":"cebpf4jnsgd1na2vs0mg"},{"bike_id":"1a4e6afb-0c13-4eaa-8ac1-544929d5f3d1","system_id":"levelo_inurba_marseille","lat":43.294153,"lon":5.386305,"is_reserved":false,"is_disabled":false,"rental_uris":{"android":"levelo://app?vid=1a4e6afb-0c13-4eaa-8ac1-544929d5f3d1","ios":"levelo://app?vid=1a4e6afb-0c13-4eaa-8ac1-544929d5f3d1"},"vehicle_type_id":"4","last_reported":1722010217,"current_range_meters":0,"station_id":"ce4bh2h2rcd13ifvqdh0","pricing_plan_id":"cebpf4jnsgd1na2vs0mg"},{"bike_id":"4696a8e5-e067-42ac-b5c1-aebafaa16ef8","system_id":"levelo_inurba_marseille","lat":43.29419,"lon":5.38619,"is_reserved":false,"is_disabled":false,"rental_uris":{"android":"levelo://app?vid=4696a8e5-e067-42ac-b5c1-aebafaa16ef8","ios":"levelo://app?vid=4696a8e5-e067-42ac-b5c1-aebafaa16ef8"},"vehicle_type_id":"4","last_reported":1722010217,"current_range_meters":0,"station_id":"ce4bh2h2rcd13ifvqdh0","pricing_plan_id":"cebpf4jnsgd1na2vs0mg"},{"bike_id":"e0f11d15-2717-4e07-9d73-1ef29f0a20da","system_id":"levelo_inurba_marseille","lat":43.294162,"lon":5.386292,"is_reserved":false,"is_disabled":false,"rental_uris":{"android":"levelo://app?vid=e0f11d15-2717-4e07-9d73-1ef29f0a20da","ios":"levelo://app?vid=e0f11d15-2717-4e07-9d73-1ef29f0a20da"},"vehicle_type_id":"4","last_reported":1722010217,"current_range_meters":0,"station_id":"ce4bh2h2rcd13ifvqdh0","pricing_plan_id":"cebpf4jnsgd1na2vs0mg"},{"bike_id":"f781ed0f-e512-4465-940c-a9ffc511f9d0","system_id":"levelo_inurba_marseille","lat":43.294162,"lon":5.386292,"is_reserved":false,"is_disabled":false,"rental_uris":{"android":"levelo://app?vid=f781ed0f-e512-4465-940c-a9ffc511f9d0","ios":"levelo://app?vid=f781ed0f-e512-4465-940c-a9ffc511f9d0"},"vehicle_type_id":"4","last_reported":1722010217,"current_range_meters":0,"station_id":"ce4bh2h2rcd13ifvqdh0","pricing_plan_id":"cebpf4jnsgd1na2vs0mg"},{"bike_id":"caaa3669-abbd-410d-9d04-74a836703d22","system_id":"levelo_inurba_marseille","lat":43.289184,"lon":5.366408,"is_reserved":false,"is_disabled":false,"rental_uris":{"android":"levelo://app?vid=caaa3669-abbd-410d-9d04-74a836703d22","ios":"levelo://app?vid=caaa3669-abbd-410d-9d04-74a836703d22"},"vehicle_type_id":"4","last_reported":1722010217,"current_range_meters":14000,"station_id":"ce4bhap2rcd13ifvqek0","pricing_plan_id":"cebpf4jnsgd1na2vs0mg"},{"bike_id":"9ed73694-954b-4fd3-9b97-57d2b64dfae1","system_id":"levelo_inurba_marseille","lat":43.289184,"lon":5.366408,"is_reserved":false,"is_disabled":false,"rental_uris":{"android":"levelo://app?vid=9ed73694-954b-4fd3-9b97-57d2b64dfae1","ios":"levelo://app?vid=9ed73694-954b-4fd3-9b97-57d2b64dfae1"},"vehicle_type_id":"4","last_reported":1722010217,"current_range_meters":14400,"station_id":"ce4bhap2rcd13ifvqek0","pricing_plan_id":"cebpf4jnsgd1na2vs0mg"},{"bike_id":"8418366f-402d-4e31-8e4b-a41162429de9","system_id":"levelo_inurba_marseille","lat":43.289184,"lon":5.366408,"is_reserved":false,"is_disabled":false,"rental_uris":{"android":"levelo://app?vid=8418366f-402d-4e31-8e4b-a41162429de9","ios":"levelo://app?vid=8418366f-402d-4e31-8e4b-a41162429de9"},"vehicle_type_id":"4","last_reported":1722010217,"current_range_meters":28400,"station_id":"ce4bhap2rcd13ifvqek0","pricing_plan_id":"cebpf4jnsgd1na2vs0mg"},{"bike_id":"cf14e75d-29fe-4fdb-b441-f858f4189852","system_id":"levelo_inurba_marseille","lat":43.294162,"lon":5.386292,"is_reserved":false,"is_disabled":false,"rental_uris":{"android":"levelo://app?vid=cf14e75d-29fe-4fdb-b441-f858f4189852","ios":"levelo://app?vid=cf14e75d-29fe-4fdb-b441-f858f4189852"},"vehicle_type_id":"4","last_reported":1722010217,"current_range_meters":21600,"station_id":"ce4bh2h2rcd13ifvqdh0","pricing_plan_id":"cebpf4jnsgd1na2vs0mg"},{"bike_id":"a5acaa99-ad8c-4ac9-9771-7cb262e3e8e2","system_id":"levelo_inurba_marseille","lat":43.289184,"lon":5.366408,"is_reserved":false,"is_disabled":false,"rental_uris":{"android":"levelo://app?vid=a5acaa99-ad8c-4ac9-9771-7cb262e3e8e2","ios":"levelo://app?vid=a5acaa99-ad8c-4ac9-9771-7cb262e3e8e2"},"vehicle_type_id":"4","last_reported":1722010217,"current_range_meters":9200,"station_id":"ce4bhap2rcd13ifvqek0","pricing_plan_id":"cebpf4jnsgd1na2vs0mg"},{"bike_id":"9fd8c4ce-eb8e-4ed9-a4f9-ef6658779ece","system_id":"levelo_inurba_marseille","lat":43.28941,"lon":5.36626,"is_reserved":false,"is_disabled":false,"rental_uris":{"android":"levelo://app?vid=9fd8c4ce-eb8e-4ed9-a4f9-ef6658779ece","ios":"levelo://app?vid=9fd8c4ce-eb8e-4ed9-a4f9-ef6658779ece"},"vehicle_type_id":"4","last_reported":1722010217,"current_range_meters":12400,"station_id":"ce4bhap2rcd13ifvqek0","pricing_plan_id":"cebpf4jnsgd1na2vs0mg"},{"bike_id":"0e1d6faf-e6d0-4128-ba29-05af9b1c0267","system_id":"levelo_inurba_marseille","lat":43.289184,"lon":5.366408,"is_reserved":false,"is_disabled":false,"rental_uris":{"android":"levelo://app?vid=0e1d6faf-e6d0-4128-ba29-05af9b1c0267","ios":"levelo://app?vid=0e1d6faf-e6d0-4128-ba29-05af9b1c0267"},"vehicle_type_id":"4","last_reported":1722010217,"current_range_meters":29200,"station_id":"ce4bhap2rcd13ifvqek0","pricing_plan_id":"cebpf4jnsgd1na2vs0mg"},{"bike_id":"f6c4bca2-e2ee-4ae4-bee0-595a6eaf6fcf","system_id":"levelo_inurba_marseille","lat":43.289184,"lon":5.366408,"is_reserved":false,"is_disabled":false,"rental_uris":{"android":"levelo://app?vid=f6c4bca2-e2ee-4ae4-bee0-595a6eaf6fcf","ios":"levelo://app?vid=f6c4bca2-e2ee-4ae4-bee0-595a6eaf6fcf"},"vehicle_type_id":"4","last_reported":1722010217,"current_range_meters":4000,"station_id":"ce4bhap2rcd13ifvqek0","pricing_plan_id":"cebpf4jnsgd1na2vs0mg"},{"bike_id":"8c8da9e6-d027-4521-b9b2-e114d1669e38","system_id":"levelo_inurba_marseille","lat":43.292644,"lon":5.384257,"is_reserved":false,"is_disabled":false,"rental_uris":{"android":"levelo://app?vid=8c8da9e6-d027-4521-b9b2-e114d1669e38","ios":"levelo://app?vid=8c8da9e6-d027-4521-b9b2-e114d1669e38"},"vehicle_type_id":"4","last_reported":1722010217,"current_range_meters":15600,"station_id":"ce4bh692rcd13ifvqea0","pricing_plan_id":"cebpf4jnsgd1na2vs0mg"},{"bike_id":"da7a07ba-4078-4675-98b2-b1448cd91c3a","system_id":"levelo_inurba_marseille","lat":43.304274,"lon":5.397513,"is_reserved":false,"is_disabled":false,"rental_uris":{"android":"levelo://app?vid=da7a07ba-4078-4675-98b2-b1448cd91c3a","ios":"levelo://app?vid=da7a07ba-4078-4675-98b2-b1448cd91c3a"},"vehicle_type_id":"4","last_reported":1722010217,"current_range_meters":13200,"station_id":"ce4bh092rcd13ifvqd20","pricing_plan_id":"cebpf4jnsgd1na2vs0mg"},{"bike_id":"6b4e6e81-51bb-431f-8922-54098135b53f","system_id":"levelo_inurba_marseille","lat":43.292644,"lon":5.384257,"is_reserved":false,"is_disabled":false,"rental_uris":{"android":"levelo://app?vid=6b4e6e81-51bb-431f-8922-54098135b53f","ios":"levelo://app?vid=6b4e6e81-51bb-431f-8922-54098135b53f"},"vehicle_type_id":"4","last_reported":1722010217,"current_range_meters":2400,"station_id":"ce4bh692rcd13ifvqea0","pricing_plan_id":"cebpf4jnsgd1na2vs0mg"},{"bike_id":"a839e354-f1cd-408d-92ef-56361c5e2c5e","system_id":"levelo_inurba_marseille","lat":43.290104,"lon":5.356111,"is_reserved":false,"is_disabled":false,"rental_uris":{"android":"levelo://app?vid=a839e354-f1cd-408d-92ef-56361c5e2c5e","ios":"levelo://app?vid=a839e354-f1cd-408d-92ef-56361c5e2c5e"},"vehicle_type_id":"4","last_reported":1722010217,"current_range_meters":22000,"station_id":"ce4bhb92rcd13ifvqen0","pricing_plan_id":"cebpf4jnsgd1na2vs0mg"},{"bike_id":"e34877ac-57c3-46b0-bd60-beca339ea129","system_id":"levelo_inurba_marseille","lat":43.290103,"lon":5.356114,"is_reserved":false,"is_disabled":false,"rental_uris":{"android":"levelo://app?vid=e34877ac-57c3-46b0-bd60-beca339ea129","ios":"levelo://app?vid=e34877ac-57c3-46b0-bd60-beca339ea129"},"vehicle_type_id":"4","last_reported":1722010217,"current_range_meters":29200,"station_id":"ce4bhb92rcd13ifvqen0","pricing_plan_id":"cebpf4jnsgd1na2vs0mg"},{"bike_id":"f521d157-9d52-4d8c-82d1-456c0aa3e313","system_id":"levelo_inurba_marseille","lat":43.290103,"lon":5.356114,"is_reserved":false,"is_disabled":false,"rental_uris":{"android":"levelo://app?vid=f521d157-9d52-4d8c-82d1-456c0aa3e313","ios":"levelo://app?vid=f521d157-9d52-4d8c-82d1-456c0aa3e313"},"vehicle_type_id":"4","last_reported":1722010217,"current_range_meters":0,"station_id":"ce4bhb92rcd13ifvqen0","pricing_plan_id":"cebpf4jnsgd1na2vs0mg"},{"bike_id":"902d4a42-ebdf-4479-be05-63825eac907b","system_id":"levelo_inurba_marseille","lat":43.29006,"lon":5.3561,"is_reserved":false,"is_disabled":false,"rental_uris":{"android":"levelo://app?vid=902d4a42-ebdf-4479-be05-63825eac907b","ios":"levelo://app?vid=902d4a42-ebdf-4479-be05-63825eac907b"},"vehicle_type_id":"4","last_reported":1722010217,"current_range_meters":0,"station_id":"ce4bhb92rcd13ifvqen0","pricing_plan_id":"cebpf4jnsgd1na2vs0mg"},{"bike_id":"db6cbc06-980e-4d07-b126-0991304eea55","system_id":"levelo_inurba_marseille","lat":43.290104,"lon":5.356111,"is_reserved":false,"is_disabled":false,"rental_uris":{"android":"levelo://app?vid=db6cbc06-980e-4d07-b126-0991304eea55","ios":"levelo://app?vid=db6cbc06-980e-4d07-b126-0991304eea55"},"vehicle_type_id":"4","last_reported":1722010217,"current_range_meters":29200,"station_id":"ce4bhb92rcd13ifvqen0","pricing_plan_id":"cebpf4jnsgd1na2vs0mg"},{"bike_id":"5f9056cc-3954-4b76-a2df-289fec263d2e","system_id":"levelo_inurba_marseille","lat":43.290103,"lon":5.356114,"is_reserved":false,"is_disabled":false,"rental_uris":{"android":"levelo://app?vid=5f9056cc-3954-4b76-a2df-289fec263d2e","ios":"levelo://app?vid=5f9056cc-3954-4b76-a2df-289fec263d2e"},"vehicle_type_id":"4","last_reported":1722010217,"current_range_meters":4000,"station_id":"ce4bhb92rcd13ifvqen0","pricing_plan_id":"cebpf4jnsgd1na2vs0mg"},{"bike_id":"472d903d-5f2c-4183-8283-5594486e2ded","system_id":"levelo_inurba_marseille","lat":43.290103,"lon":5.356114,"is_reserved":false,"is_disabled":false,"rental_uris":{"android":"levelo://app?vid=472d903d-5f2c-4183-8283-5594486e2ded","ios":"levelo://app?vid=472d903d-5f2c-4183-8283-5594486e2ded"},"vehicle_type_id":"4","last_reported":1722010217,"current_range_meters":18000,"station_id":"ce4bhb92rcd13ifvqen0","pricing_plan_id":"cebpf4jnsgd1na2vs0mg"},{"bike_id":"c4f6ffce-d64d-4b0b-9f8f-f9bd8fba0a17","system_id":"levelo_inurba_marseille","lat":43.297807,"lon":5.393533,"is_reserved":false,"is_disabled":false,"rental_uris":{"android":"levelo://app?vid=c4f6ffce-d64d-4b0b-9f8f-f9bd8fba0a17","ios":"levelo://app?vid=c4f6ffce-d64d-4b0b-9f8f-f9bd8fba0a17"},"vehicle_type_id":"4","last_reported":1722010217,"current_range_meters":7200,"station_id":"chh1huq6cuj3fo74tm60","pricing_plan_id":"cebpf4jnsgd1na2vs0mg"},{"bike_id":"fcb534b5-9ef4-401c-922b-a7d1828c4cd1","system_id":"levelo_inurba_marseille","lat":43.2898,"lon":5.37832,"is_reserved":false,"is_disabled":false,"rental_uris":{"android":"levelo://app?vid=fcb534b5-9ef4-401c-922b-a7d1828c4cd1","ios":"levelo://app?vid=fcb534b5-9ef4-401c-922b-a7d1828c4cd1"},"vehicle_type_id":"4","last_reported":1722010217,"current_range_meters":0,"station_id":"ce4bh9p2rcd13ifvqed0","pricing_plan_id":"cebpf4jnsgd1na2vs0mg"},{"bike_id":"2f9a26e6-4e08-4cf4-9355-9e1391f8434a","system_id":"levelo_inurba_marseille","lat":43.330442,"lon":5.389148,"is_reserved":false,"is_disabled":false,"rental_uris":{"android":"levelo://app?vid=2f9a26e6-4e08-4cf4-9355-9e1391f8434a","ios":"levelo://app?vid=2f9a26e6-4e08-4cf4-9355-9e1391f8434a"},"vehicle_type_id":"4","last_reported":1722010217,"current_range_meters":16400,"station_id":"ce4bhr92rcd13ifvqhrg","pricing_plan_id":"cebpf4jnsgd1na2vs0mg"},{"bike_id":"ebe6c0f5-6d12-45f5-b87a-3ef0cd292572","system_id":"levelo_inurba_marseille","lat":43.295169,"lon":5.390426,"is_reserved":false,"is_disabled":false,"rental_uris":{"android":"levelo://app?vid=ebe6c0f5-6d12-45f5-b87a-3ef0cd292572","ios":"levelo://app?vid=ebe6c0f5-6d12-45f5-b87a-3ef0cd292572"},"vehicle_type_id":"4","last_reported":1722010217,"current_range_meters":21600,"station_id":"ce4bh3p2rcd13ifvqdp0","pricing_plan_id":"cebpf4jnsgd1na2vs0mg"},{"bike_id":"a8ba0999-a99e-4db1-a070-c84dd92a799e","system_id":"levelo_inurba_marseille","lat":43.295169,"lon":5.390426,"is_reserved":false,"is_disabled":false,"rental_uris":{"android":"levelo://app?vid=a8ba0999-a99e-4db1-a070-c84dd92a799e","ios":"levelo://app?vid=a8ba0999-a99e-4db1-a070-c84dd92a799e"},"vehicle_type_id":"4","last_reported":1722010217,"current_range_meters":16800,"station_id":"ce4bh3p2rcd13ifvqdp0","pricing_plan_id":"cebpf4jnsgd1na2vs0mg"},{"bike_id":"76884925-7c30-4da1-a1b5-7a009bb7eb50","system_id":"levelo_inurba_marseille","lat":43.330442,"lon":5.389148,"is_reserved":false,"is_disabled":false,"rental_uris":{"android":"levelo://app?vid=76884925-7c30-4da1-a1b5-7a009bb7eb50","ios":"levelo://app?vid=76884925-7c30-4da1-a1b5-7a009bb7eb50"},"vehicle_type_id":"4","last_reported":1722010217,"current_range_meters":6400,"station_id":"ce4bhr92rcd13ifvqhrg","pricing_plan_id":"cebpf4jnsgd1na2vs0mg"},{"bike_id":"783a31fc-9011-4339-9a00-bf77c9722790","system_id":"levelo_inurba_marseille","lat":43.295169,"lon":5.390426,"is_reserved":false,"is_disabled":false,"rental_uris":{"android":"levelo://app?vid=783a31fc-9011-4339-9a00-bf77c9722790","ios":"levelo://app?vid=783a31fc-9011-4339-9a00-bf77c9722790"},"vehicle_type_id":"4","last_reported":1722010217,"current_range_meters":4400,"station_id":"ce4bh3p2rcd13ifvqdp0","pricing_plan_id":"cebpf4jnsgd1na2vs0mg"},{"bike_id":"149ad317-2977-4c2d-b9af-065d2c29d5b4","system_id":"levelo_inurba_marseille","lat":43.310646,"lon":5.400596,"is_reserved":false,"is_disabled":false,"rental_uris":{"android":"levelo://app?vid=149ad317-2977-4c2d-b9af-065d2c29d5b4","ios":"levelo://app?vid=149ad317-2977-4c2d-b9af-065d2c29d5b4"},"vehicle_type_id":"4","last_reported":1722010217,"current_range_meters":8800,"station_id":"","pricing_plan_id":"cebpf4jnsgd1na2vs0mg"},{"bike_id":"9c07415a-d545-49af-938a-52f301590f4a","system_id":"levelo_inurba_marseille","lat":43.31065,"lon":5.40083,"is_reserved":false,"is_disabled":false,"rental_uris":{"android":"levelo://app?vid=9c07415a-d545-49af-938a-52f301590f4a","ios":"levelo://app?vid=9c07415a-d545-49af-938a-52f301590f4a"},"vehicle_type_id":"4","last_reported":1722010217,"current_range_meters":800,"station_id":"","pricing_plan_id":"cebpf4jnsgd1na2vs0mg"},{"bike_id":"80d6fbac-eee0-46a3-aff9-afedc2da74f7","system_id":"levelo_inurba_marseille","lat":43.28856,"lon":5.358371,"is_reserved":false,"is_disabled":false,"rental_uris":{"android":"levelo://app?vid=80d6fbac-eee0-46a3-aff9-afedc2da74f7","ios":"levelo://app?vid=80d6fbac-eee0-46a3-aff9-afedc2da74f7"},"vehicle_type_id":"4","last_reported":1722010217,"current_range_meters":0,"station_id":"ce4bhb12rcd13ifvqem0","pricing_plan_id":"cebpf4jnsgd1na2vs0mg"},{"bike_id":"d245d0ce-3b1c-4e0c-ad2e-1948f745a01f","system_id":"levelo_inurba_marseille","lat":43.288409,"lon":5.358669,"is_reserved":false,"is_disabled":false,"rental_uris":{"android":"levelo://app?vid=d245d0ce-3b1c-4e0c-ad2e-1948f745a01f","ios":"levelo://app?vid=d245d0ce-3b1c-4e0c-ad2e-1948f745a01f"},"vehicle_type_id":"4","last_reported":1722010217,"current_range_meters":5200,"station_id":"","pricing_plan_id":"cebpf4jnsgd1na2vs0mg"},{"bike_id":"dcc3e8ef-35fa-4139-af49-b8a6bfdc7342","system_id":"levelo_inurba_marseille","lat":43.309371,"lon":5.401449,"is_reserved":false,"is_disabled":false,"rental_uris":{"android":"levelo://app?vid=dcc3e8ef-35fa-4139-af49-b8a6bfdc7342","ios":"levelo://app?vid=dcc3e8ef-35fa-4139-af49-b8a6bfdc7342"},"vehicle_type_id":"4","last_reported":1722010217,"current_range_meters":26400,"station_id":"ce4bgvp2rcd13ifvqct0","pricing_plan_id":"cebpf4jnsgd1na2vs0mg"},{"bike_id":"63f1f188-ebeb-4f4c-9ae3-0e99bf7618b3","system_id":"levelo_inurba_marseille","lat":43.309371,"lon":5.401449,"is_reserved":false,"is_disabled":false,"rental_uris":{"android":"levelo://app?vid=63f1f188-ebeb-4f4c-9ae3-0e99bf7618b3","ios":"levelo://app?vid=63f1f188-ebeb-4f4c-9ae3-0e99bf7618b3"},"vehicle_type_id":"4","last_reported":1722010217,"current_range_meters":10000,"station_id":"ce4bgvp2rcd13ifvqct0","pricing_plan_id":"cebpf4jnsgd1na2vs0mg"},{"bike_id":"e09ff1fa-aa53-45a8-a6d5-f6de4c5320ec","system_id":"levelo_inurba_marseille","lat":43.306412,"lon":5.401035,"is_reserved":false,"is_disabled":false,"rental_uris":{"android":"levelo://app?vid=e09ff1fa-aa53-45a8-a6d5-f6de4c5320ec","ios":"levelo://app?vid=e09ff1fa-aa53-45a8-a6d5-f6de4c5320ec"},"vehicle_type_id":"4","last_reported":1722010217,"current_range_meters":26800,"station_id":"ce4bh112rcd13ifvqda0","pricing_plan_id":"cebpf4jnsgd1na2vs0mg"},{"bike_id":"44464e95-3e24-4b5d-a525-2abbb4f07c6a","system_id":"levelo_inurba_marseille","lat":43.301117,"lon":5.398795,"is_reserved":false,"is_disabled":false,"rental_uris":{"android":"levelo://app?vid=44464e95-3e24-4b5d-a525-2abbb4f07c6a","ios":"levelo://app?vid=44464e95-3e24-4b5d-a525-2abbb4f07c6a"},"vehicle_type_id":"4","last_reported":1722010217,"current_range_meters":11600,"station_id":"ce4bh0h2rcd13ifvqd40","pricing_plan_id":"cebpf4jnsgd1na2vs0mg"},{"bike_id":"f7763d9c-41e2-489a-b862-f16f5b9e2b7f","system_id":"levelo_inurba_marseille","lat":43.30141,"lon":5.39863,"is_reserved":false,"is_disabled":false,"rental_uris":{"android":"levelo://app?vid=f7763d9c-41e2-489a-b862-f16f5b9e2b7f","ios":"levelo://app?vid=f7763d9c-41e2-489a-b862-f16f5b9e2b7f"},"vehicle_type_id":"4","last_reported":1722010217,"current_range_meters":0,"station_id":"ce4bh0h2rcd13ifvqd40","pricing_plan_id":"cebpf4jnsgd1na2vs0mg"},{"bike_id":"e169c1ec-5d3b-4768-a05d-f300f7088526","system_id":"levelo_inurba_marseille","lat":43.28727,"lon":5.36078,"is_reserved":false,"is_disabled":false,"rental_uris":{"android":"levelo://app?vid=e169c1ec-5d3b-4768-a05d-f300f7088526","ios":"levelo://app?vid=e169c1ec-5d3b-4768-a05d-f300f7088526"},"vehicle_type_id":"4","last_reported":1722010217,"current_range_meters":20800,"station_id":"cki0cbj6b192h4jlfktg","pricing_plan_id":"cebpf4jnsgd1na2vs0mg"},{"bike_id":"f9f608ef-a9ab-44b3-98b3-6caff73e443e","system_id":"levelo_inurba_marseille","lat":43.286591,"lon":5.363346,"is_reserved":false,"is_disabled":false,"rental_uris":{"android":"levelo://app?vid=f9f608ef-a9ab-44b3-98b3-6caff73e443e","ios":"levelo://app?vid=f9f608ef-a9ab-44b3-98b3-6caff73e443e"},"vehicle_type_id":"4","last_reported":1722010217,"current_range_meters":3600,"station_id":"ce4bhah2rcd13ifvqej0","pricing_plan_id":"cebpf4jnsgd1na2vs0mg"},{"bike_id":"b2089dff-f508-44bc-b18f-ac10de93f005","system_id":"levelo_inurba_marseille","lat":43.286591,"lon":5.363346,"is_reserved":false,"is_disabled":false,"rental_uris":{"android":"levelo://app?vid=b2089dff-f508-44bc-b18f-ac10de93f005","ios":"levelo://app?vid=b2089dff-f508-44bc-b18f-ac10de93f005"},"vehicle_type_id":"4","last_reported":1722010217,"current_range_meters":17600,"station_id":"ce4bhah2rcd13ifvqej0","pricing_plan_id":"cebpf4jnsgd1na2vs0mg"},{"bike_id":"ed8483d9-6905-48b2-a378-9d6b98481219","system_id":"levelo_inurba_marseille","lat":43.286591,"lon":5.363346,"is_reserved":false,"is_disabled":false,"rental_uris":{"android":"levelo://app?vid=ed8483d9-6905-48b2-a378-9d6b98481219","ios":"levelo://app?vid=ed8483d9-6905-48b2-a378-9d6b98481219"},"vehicle_type_id":"4","last_reported":1722010217,"current_range_meters":7200,"station_id":"ce4bhah2rcd13ifvqej0","pricing_plan_id":"cebpf4jnsgd1na2vs0mg"},{"bike_id":"22d358a0-fb00-4ba0-9790-e63e0719edf2","system_id":"levelo_inurba_marseille","lat":43.298681,"lon":5.397225,"is_reserved":false,"is_disabled":false,"rental_uris":{"android":"levelo://app?vid=22d358a0-fb00-4ba0-9790-e63e0719edf2","ios":"levelo://app?vid=22d358a0-fb00-4ba0-9790-e63e0719edf2"},"vehicle_type_id":"4","last_reported":1722010217,"current_range_meters":24000,"station_id":"ce4bh0h2rcd13ifvqd50","pricing_plan_id":"cebpf4jnsgd1na2vs0mg"},{"bike_id":"3f13693d-459d-4cdf-a617-a4d0894cc2f8","system_id":"levelo_inurba_marseille","lat":43.286961,"lon":5.373785,"is_reserved":false,"is_disabled":false,"rental_uris":{"android":"levelo://app?vid=3f13693d-459d-4cdf-a617-a4d0894cc2f8","ios":"levelo://app?vid=3f13693d-459d-4cdf-a617-a4d0894cc2f8"},"vehicle_type_id":"4","last_reported":1722010217,"current_range_meters":0,"station_id":"ce4bh3p2rcd13ifvqdq0","pricing_plan_id":"cebpf4jnsgd1na2vs0mg"},{"bike_id":"adb8f348-947a-4de7-885d-bac0ab74f8fc","system_id":"levelo_inurba_marseille","lat":43.286961,"lon":5.373785,"is_reserved":false,"is_disabled":false,"rental_uris":{"android":"levelo://app?vid=adb8f348-947a-4de7-885d-bac0ab74f8fc","ios":"levelo://app?vid=adb8f348-947a-4de7-885d-bac0ab74f8fc"},"vehicle_type_id":"4","last_reported":1722010217,"current_range_meters":8400,"station_id":"ce4bh3p2rcd13ifvqdq0","pricing_plan_id":"cebpf4jnsgd1na2vs0mg"},{"bike_id":"8c6d07cb-9ba7-4178-8da7-dc3705e0392b","system_id":"levelo_inurba_marseille","lat":43.289307,"lon":5.38406,"is_reserved":false,"is_disabled":false,"rental_uris":{"android":"levelo://app?vid=8c6d07cb-9ba7-4178-8da7-dc3705e0392b","ios":"levelo://app?vid=8c6d07cb-9ba7-4178-8da7-dc3705e0392b"},"vehicle_type_id":"4","last_reported":1722010217,"current_range_meters":5600,"station_id":"ce4bh612rcd13ifvqe6g","pricing_plan_id":"cebpf4jnsgd1na2vs0mg"},{"bike_id":"03672bed-d11b-4f45-8d14-e2361555bdbf","system_id":"levelo_inurba_marseille","lat":43.290336,"lon":5.386425,"is_reserved":false,"is_disabled":false,"rental_uris":{"android":"levelo://app?vid=03672bed-d11b-4f45-8d14-e2361555bdbf","ios":"levelo://app?vid=03672bed-d11b-4f45-8d14-e2361555bdbf"},"vehicle_type_id":"4","last_reported":1722010217,"current_range_meters":19200,"station_id":"ce4bh4p2rcd13ifvqe0g","pricing_plan_id":"cebpf4jnsgd1na2vs0mg"},{"bike_id":"482cdc33-0cac-4a03-b291-61b6bdabf083","system_id":"levelo_inurba_marseille","lat":43.302759,"lon":5.400793,"is_reserved":false,"is_disabled":false,"rental_uris":{"android":"levelo://app?vid=482cdc33-0cac-4a03-b291-61b6bdabf083","ios":"levelo://app?vid=482cdc33-0cac-4a03-b291-61b6bdabf083"},"vehicle_type_id":"4","last_reported":1722010217,"current_range_meters":0,"station_id":"ce4bgvh2rcd13ifvqcs0","pricing_plan_id":"cebpf4jnsgd1na2vs0mg"},{"bike_id":"4524d4e2-2fc6-468d-be4a-f676fb2cb4f6","system_id":"levelo_inurba_marseille","lat":43.319702,"lon":5.402855,"is_reserved":false,"is_disabled":false,"rental_uris":{"android":"levelo://app?vid=4524d4e2-2fc6-468d-be4a-f676fb2cb4f6","ios":"levelo://app?vid=4524d4e2-2fc6-468d-be4a-f676fb2cb4f6"},"vehicle_type_id":"4","last_reported":1722010217,"current_range_meters":15600,"station_id":"","pricing_plan_id":"cebpf4jnsgd1na2vs0mg"},{"bike_id":"fca8427a-dc61-47d0-9b94-5861f307ae31","system_id":"levelo_inurba_marseille","lat":43.301117,"lon":5.398795,"is_reserved":false,"is_disabled":false,"rental_uris":{"android":"levelo://app?vid=fca8427a-dc61-47d0-9b94-5861f307ae31","ios":"levelo://app?vid=fca8427a-dc61-47d0-9b94-5861f307ae31"},"vehicle_type_id":"4","last_reported":1722010217,"current_range_meters":14400,"station_id":"ce4bh0h2rcd13ifvqd40","pricing_plan_id":"cebpf4jnsgd1na2vs0mg"},{"bike_id":"d3706a2d-b263-44e8-974d-b0177a5c49a4","system_id":"levelo_inurba_marseille","lat":43.316821,"lon":5.404737,"is_reserved":false,"is_disabled":false,"rental_uris":{"android":"levelo://app?vid=d3706a2d-b263-44e8-974d-b0177a5c49a4","ios":"levelo://app?vid=d3706a2d-b263-44e8-974d-b0177a5c49a4"},"vehicle_type_id":"4","last_reported":1722010217,"current_range_meters":10400,"station_id":"ce4bh012rcd13ifvqd00","pricing_plan_id":"cebpf4jnsgd1na2vs0mg"},{"bike_id":"b1fd90ae-da10-4cae-8822-4b0048fed00b","system_id":"levelo_inurba_marseille","lat":43.291994,"lon":5.392907,"is_reserved":false,"is_disabled":false,"rental_uris":{"android":"levelo://app?vid=b1fd90ae-da10-4cae-8822-4b0048fed00b","ios":"levelo://app?vid=b1fd90ae-da10-4cae-8822-4b0048fed00b"},"vehicle_type_id":"4","last_reported":1722010217,"current_range_meters":20400,"station_id":"ce4bh192rcd13ifvqdd0","pricing_plan_id":"cebpf4jnsgd1na2vs0mg"},{"bike_id":"d16cab4a-d662-48e1-8496-e7d0707ea9dd","system_id":"levelo_inurba_marseille","lat":43.291994,"lon":5.392907,"is_reserved":false,"is_disabled":false,"rental_uris":{"android":"levelo://app?vid=d16cab4a-d662-48e1-8496-e7d0707ea9dd","ios":"levelo://app?vid=d16cab4a-d662-48e1-8496-e7d0707ea9dd"},"vehicle_type_id":"4","last_reported":1722010217,"current_range_meters":13600,"station_id":"ce4bh192rcd13ifvqdd0","pricing_plan_id":"cebpf4jnsgd1na2vs0mg"},{"bike_id":"791836f7-54fa-4194-9e76-c20686679b02","system_id":"levelo_inurba_marseille","lat":43.291994,"lon":5.392907,"is_reserved":false,"is_disabled":false,"rental_uris":{"android":"levelo://app?vid=791836f7-54fa-4194-9e76-c20686679b02","ios":"levelo://app?vid=791836f7-54fa-4194-9e76-c20686679b02"},"vehicle_type_id":"4","last_reported":1722010217,"current_range_meters":10000,"station_id":"ce4bh192rcd13ifvqdd0","pricing_plan_id":"cebpf4jnsgd1na2vs0mg"},{"bike_id":"6cbf512c-5a39-47a5-a3f4-940cc2bd7dcf","system_id":"levelo_inurba_marseille","lat":43.291994,"lon":5.392907,"is_reserved":false,"is_disabled":false,"rental_uris":{"android":"levelo://app?vid=6cbf512c-5a39-47a5-a3f4-940cc2bd7dcf","ios":"levelo://app?vid=6cbf512c-5a39-47a5-a3f4-940cc2bd7dcf"},"vehicle_type_id":"4","last_reported":1722010217,"current_range_meters":9200,"station_id":"ce4bh192rcd13ifvqdd0","pricing_plan_id":"cebpf4jnsgd1na2vs0mg"},{"bike_id":"1b85e272-e100-466f-9c31-844fd21a7272","system_id":"levelo_inurba_marseille","lat":43.291994,"lon":5.392907,"is_reserved":false,"is_disabled":false,"rental_uris":{"android":"levelo://app?vid=1b85e272-e100-466f-9c31-844fd21a7272","ios":"levelo://app?vid=1b85e272-e100-466f-9c31-844fd21a7272"},"vehicle_type_id":"4","last_reported":1722010217,"current_range_meters":17200,"station_id":"ce4bh192rcd13ifvqdd0","pricing_plan_id":"cebpf4jnsgd1na2vs0mg"},{"bike_id":"2f90a3cd-92f1-4123-beea-b1454c055e06","system_id":"levelo_inurba_marseille","lat":43.291994,"lon":5.392907,"is_reserved":false,"is_disabled":false,"rental_uris":{"android":"levelo://app?vid=2f90a3cd-92f1-4123-beea-b1454c055e06","ios":"levelo://app?vid=2f90a3cd-92f1-4123-beea-b1454c055e06"},"vehicle_type_id":"4","last_reported":1722010217,"current_range_meters":17600,"station_id":"ce4bh192rcd13ifvqdd0","pricing_plan_id":"cebpf4jnsgd1na2vs0mg"},{"bike_id":"a1ac036c-5220-4ca4-ad51-f333768ccb98","system_id":"levelo_inurba_marseille","lat":43.284538,"lon":5.358657,"is_reserved":false,"is_disabled":false,"rental_uris":{"android":"levelo://app?vid=a1ac036c-5220-4ca4-ad51-f333768ccb98","ios":"levelo://app?vid=a1ac036c-5220-4ca4-ad51-f333768ccb98"},"vehicle_type_id":"4","last_reported":1722010217,"current_range_meters":22800,"station_id":"ce4bhah2rcd13ifvqei0","pricing_plan_id":"cebpf4jnsgd1na2vs0mg"},{"bike_id":"03c36838-d023-4f76-a34e-4ef6715826ab","system_id":"levelo_inurba_marseille","lat":43.294314,"lon":5.397498,"is_reserved":false,"is_disabled":false,"rental_uris":{"android":"levelo://app?vid=03c36838-d023-4f76-a34e-4ef6715826ab","ios":"levelo://app?vid=03c36838-d023-4f76-a34e-4ef6715826ab"},"vehicle_type_id":"4","last_reported":1722010217,"current_range_meters":14800,"station_id":"ce4bh3h2rcd13ifvqdo0","pricing_plan_id":"cebpf4jnsgd1na2vs0mg"},{"bike_id":"8d6e52ac-70c2-483a-b92b-8479f0457d37","system_id":"levelo_inurba_marseille","lat":43.284534,"lon":5.358662,"is_reserved":false,"is_disabled":false,"rental_uris":{"android":"levelo://app?vid=8d6e52ac-70c2-483a-b92b-8479f0457d37","ios":"levelo://app?vid=8d6e52ac-70c2-483a-b92b-8479f0457d37"},"vehicle_type_id":"4","last_reported":1722010217,"current_range_meters":0,"station_id":"ce4bhah2rcd13ifvqei0","pricing_plan_id":"cebpf4jnsgd1na2vs0mg"},{"bike_id":"accf3a56-ab78-4e01-bea0-661a090b03ef","system_id":"levelo_inurba_marseille","lat":43.284534,"lon":5.358662,"is_reserved":false,"is_disabled":false,"rental_uris":{"android":"levelo://app?vid=accf3a56-ab78-4e01-bea0-661a090b03ef","ios":"levelo://app?vid=accf3a56-ab78-4e01-bea0-661a090b03ef"},"vehicle_type_id":"4","last_reported":1722010217,"current_range_meters":10400,"station_id":"ce4bhah2rcd13ifvqei0","pricing_plan_id":"cebpf4jnsgd1na2vs0mg"},{"bike_id":"234d944c-624e-488b-acc1-a36f591a90cc","system_id":"levelo_inurba_marseille","lat":43.294314,"lon":5.397498,"is_reserved":false,"is_disabled":false,"rental_uris":{"android":"levelo://app?vid=234d944c-624e-488b-acc1-a36f591a90cc","ios":"levelo://app?vid=234d944c-624e-488b-acc1-a36f591a90cc"},"vehicle_type_id":"4","last_reported":1722010217,"current_range_meters":2400,"station_id":"ce4bh3h2rcd13ifvqdo0","pricing_plan_id":"cebpf4jnsgd1na2vs0mg"},{"bike_id":"7033cc8d-fd18-4fc8-bd3f-2b908b2c3557","system_id":"levelo_inurba_marseille","lat":43.284538,"lon":5.358657,"is_reserved":false,"is_disabled":false,"rental_uris":{"android":"levelo://app?vid=7033cc8d-fd18-4fc8-bd3f-2b908b2c3557","ios":"levelo://app?vid=7033cc8d-fd18-4fc8-bd3f-2b908b2c3557"},"vehicle_type_id":"4","last_reported":1722010217,"current_range_meters":8800,"station_id":"ce4bhah2rcd13ifvqei0","pricing_plan_id":"cebpf4jnsgd1na2vs0mg"},{"bike_id":"97d1830a-1cf9-4d64-a717-9092b9c4e724","system_id":"levelo_inurba_marseille","lat":43.28625,"lon":5.35114,"is_reserved":false,"is_disabled":false,"rental_uris":{"android":"levelo://app?vid=97d1830a-1cf9-4d64-a717-9092b9c4e724","ios":"levelo://app?vid=97d1830a-1cf9-4d64-a717-9092b9c4e724"},"vehicle_type_id":"4","last_reported":1722010217,"current_range_meters":0,"station_id":"ce4bhch2rcd13ifvqeug","pricing_plan_id":"cebpf4jnsgd1na2vs0mg"},{"bike_id":"643a6ffe-9112-493a-b01a-589f889673fd","system_id":"levelo_inurba_marseille","lat":43.28625,"lon":5.35109,"is_reserved":false,"is_disabled":false,"rental_uris":{"android":"levelo://app?vid=643a6ffe-9112-493a-b01a-589f889673fd","ios":"levelo://app?vid=643a6ffe-9112-493a-b01a-589f889673fd"},"vehicle_type_id":"4","last_reported":1722010217,"current_range_meters":14400,"station_id":"ce4bhch2rcd13ifvqeug","pricing_plan_id":"cebpf4jnsgd1na2vs0mg"},{"bike_id":"c889d983-b423-4fc8-bdb3-6fb4c2ca02dc","system_id":"levelo_inurba_marseille","lat":43.28622,"lon":5.35113,"is_reserved":false,"is_disabled":false,"rental_uris":{"android":"levelo://app?vid=c889d983-b423-4fc8-bdb3-6fb4c2ca02dc","ios":"levelo://app?vid=c889d983-b423-4fc8-bdb3-6fb4c2ca02dc"},"vehicle_type_id":"4","last_reported":1722010217,"current_range_meters":20400,"station_id":"ce4bhch2rcd13ifvqeug","pricing_plan_id":"cebpf4jnsgd1na2vs0mg"},{"bike_id":"0fe2ad61-149c-425e-b8ce-63b35c16d69f","system_id":"levelo_inurba_marseille","lat":43.286227,"lon":5.351033,"is_reserved":false,"is_disabled":false,"rental_uris":{"android":"levelo://app?vid=0fe2ad61-149c-425e-b8ce-63b35c16d69f","ios":"levelo://app?vid=0fe2ad61-149c-425e-b8ce-63b35c16d69f"},"vehicle_type_id":"4","last_reported":1722010217,"current_range_meters":24000,"station_id":"ce4bhch2rcd13ifvqeug","pricing_plan_id":"cebpf4jnsgd1na2vs0mg"},{"bike_id":"2672d7dc-4d9e-4835-a409-a4dd565f5eae","system_id":"levelo_inurba_marseille","lat":43.28621,"lon":5.35108,"is_reserved":false,"is_disabled":false,"rental_uris":{"android":"levelo://app?vid=2672d7dc-4d9e-4835-a409-a4dd565f5eae","ios":"levelo://app?vid=2672d7dc-4d9e-4835-a409-a4dd565f5eae"},"vehicle_type_id":"4","last_reported":1722010217,"current_range_meters":2000,"station_id":"ce4bhch2rcd13ifvqeug","pricing_plan_id":"cebpf4jnsgd1na2vs0mg"},{"bike_id":"88531eec-2d5d-47a1-8611-e85225d23ed1","system_id":"levelo_inurba_marseille","lat":43.28621,"lon":5.35106,"is_reserved":false,"is_disabled":false,"rental_uris":{"android":"levelo://app?vid=88531eec-2d5d-47a1-8611-e85225d23ed1","ios":"levelo://app?vid=88531eec-2d5d-47a1-8611-e85225d23ed1"},"vehicle_type_id":"4","last_reported":1722010217,"current_range_meters":10800,"station_id":"ce4bhch2rcd13ifvqeug","pricing_plan_id":"cebpf4jnsgd1na2vs0mg"},{"bike_id":"6d6dfaf1-b7e8-42bd-8c97-5fdd4d73fd8d","system_id":"levelo_inurba_marseille","lat":43.28622,"lon":5.35101,"is_reserved":false,"is_disabled":false,"rental_uris":{"android":"levelo://app?vid=6d6dfaf1-b7e8-42bd-8c97-5fdd4d73fd8d","ios":"levelo://app?vid=6d6dfaf1-b7e8-42bd-8c97-5fdd4d73fd8d"},"vehicle_type_id":"4","last_reported":1722010217,"current_range_meters":18400,"station_id":"ce4bhch2rcd13ifvqeug","pricing_plan_id":"cebpf4jnsgd1na2vs0mg"},{"bike_id":"c259b927-82a7-4461-ac47-0902cd37113c","system_id":"levelo_inurba_marseille","lat":43.28619,"lon":5.3511,"is_reserved":false,"is_disabled":false,"rental_uris":{"android":"levelo://app?vid=c259b927-82a7-4461-ac47-0902cd37113c","ios":"levelo://app?vid=c259b927-82a7-4461-ac47-0902cd37113c"},"vehicle_type_id":"4","last_reported":1722010217,"current_range_meters":22400,"station_id":"ce4bhch2rcd13ifvqeug","pricing_plan_id":"cebpf4jnsgd1na2vs0mg"},{"bike_id":"4031a993-aa02-4632-b29b-56979fc61b85","system_id":"levelo_inurba_marseille","lat":43.28621,"lon":5.35103,"is_reserved":false,"is_disabled":false,"rental_uris":{"android":"levelo://app?vid=4031a993-aa02-4632-b29b-56979fc61b85","ios":"levelo://app?vid=4031a993-aa02-4632-b29b-56979fc61b85"},"vehicle_type_id":"4","last_reported":1722010217,"current_range_meters":25600,"station_id":"ce4bhch2rcd13ifvqeug","pricing_plan_id":"cebpf4jnsgd1na2vs0mg"},{"bike_id":"a252dbb9-eb4f-4a99-b02f-6918950ce8a4","system_id":"levelo_inurba_marseille","lat":43.28619,"lon":5.35109,"is_reserved":false,"is_disabled":false,"rental_uris":{"android":"levelo://app?vid=a252dbb9-eb4f-4a99-b02f-6918950ce8a4","ios":"levelo://app?vid=a252dbb9-eb4f-4a99-b02f-6918950ce8a4"},"vehicle_type_id":"4","last_reported":1722010217,"current_range_meters":27600,"station_id":"ce4bhch2rcd13ifvqeug","pricing_plan_id":"cebpf4jnsgd1na2vs0mg"},{"bike_id":"6d69473a-47f2-4bf2-86f7-bc947155ef24","system_id":"levelo_inurba_marseille","lat":43.286171,"lon":5.351144,"is_reserved":false,"is_disabled":false,"rental_uris":{"android":"levelo://app?vid=6d69473a-47f2-4bf2-86f7-bc947155ef24","ios":"levelo://app?vid=6d69473a-47f2-4bf2-86f7-bc947155ef24"},"vehicle_type_id":"4","last_reported":1722010217,"current_range_meters":23200,"station_id":"ce4bhch2rcd13ifvqeug","pricing_plan_id":"cebpf4jnsgd1na2vs0mg"},{"bike_id":"caaeb981-056c-452e-8082-d03c46a05295","system_id":"levelo_inurba_marseille","lat":43.2862,"lon":5.35105,"is_reserved":false,"is_disabled":false,"rental_uris":{"android":"levelo://app?vid=caaeb981-056c-452e-8082-d03c46a05295","ios":"levelo://app?vid=caaeb981-056c-452e-8082-d03c46a05295"},"vehicle_type_id":"4","last_reported":1722010217,"current_range_meters":14000,"station_id":"ce4bhch2rcd13ifvqeug","pricing_plan_id":"cebpf4jnsgd1na2vs0mg"},{"bike_id":"fa242130-2c61-45ac-8edc-bd3539e19d5c","system_id":"levelo_inurba_marseille","lat":43.2862,"lon":5.35104,"is_reserved":false,"is_disabled":false,"rental_uris":{"android":"levelo://app?vid=fa242130-2c61-45ac-8edc-bd3539e19d5c","ios":"levelo://app?vid=fa242130-2c61-45ac-8edc-bd3539e19d5c"},"vehicle_type_id":"4","last_reported":1722010217,"current_range_meters":5200,"station_id":"ce4bhch2rcd13ifvqeug","pricing_plan_id":"cebpf4jnsgd1na2vs0mg"},{"bike_id":"858b81a7-b0c1-4dd8-972d-8849034586d4","system_id":"levelo_inurba_marseille","lat":43.28619,"lon":5.35107,"is_reserved":false,"is_disabled":false,"rental_uris":{"android":"levelo://app?vid=858b81a7-b0c1-4dd8-972d-8849034586d4","ios":"levelo://app?vid=858b81a7-b0c1-4dd8-972d-8849034586d4"},"vehicle_type_id":"4","last_reported":1722010217,"current_range_meters":20000,"station_id":"ce4bhch2rcd13ifvqeug","pricing_plan_id":"cebpf4jnsgd1na2vs0mg"},{"bike_id":"f06bd028-4183-4a63-a33b-7cd961d1dc9c","system_id":"levelo_inurba_marseille","lat":43.28619,"lon":5.35107,"is_reserved":false,"is_disabled":false,"rental_uris":{"android":"levelo://app?vid=f06bd028-4183-4a63-a33b-7cd961d1dc9c","ios":"levelo://app?vid=f06bd028-4183-4a63-a33b-7cd961d1dc9c"},"vehicle_type_id":"4","last_reported":1722010217,"current_range_meters":800,"station_id":"ce4bhch2rcd13ifvqeug","pricing_plan_id":"cebpf4jnsgd1na2vs0mg"},{"bike_id":"04ea0923-0dfb-44ff-be2a-14696025a1c5","system_id":"levelo_inurba_marseille","lat":43.28618,"lon":5.3511,"is_reserved":false,"is_disabled":false,"rental_uris":{"android":"levelo://app?vid=04ea0923-0dfb-44ff-be2a-14696025a1c5","ios":"levelo://app?vid=04ea0923-0dfb-44ff-be2a-14696025a1c5"},"vehicle_type_id":"4","last_reported":1722010217,"current_range_meters":5600,"station_id":"ce4bhch2rcd13ifvqeug","pricing_plan_id":"cebpf4jnsgd1na2vs0mg"},{"bike_id":"4334cc93-4626-4ff5-81e9-ec32fcd5646c","system_id":"levelo_inurba_marseille","lat":43.28618,"lon":5.35109,"is_reserved":false,"is_disabled":false,"rental_uris":{"android":"levelo://app?vid=4334cc93-4626-4ff5-81e9-ec32fcd5646c","ios":"levelo://app?vid=4334cc93-4626-4ff5-81e9-ec32fcd5646c"},"vehicle_type_id":"4","last_reported":1722010217,"current_range_meters":7600,"station_id":"ce4bhch2rcd13ifvqeug","pricing_plan_id":"cebpf4jnsgd1na2vs0mg"},{"bike_id":"a2763f82-98e1-457b-b3c4-f6d68182f778","system_id":"levelo_inurba_marseille","lat":43.28617,"lon":5.35111,"is_reserved":false,"is_disabled":false,"rental_uris":{"android":"levelo://app?vid=a2763f82-98e1-457b-b3c4-f6d68182f778","ios":"levelo://app?vid=a2763f82-98e1-457b-b3c4-f6d68182f778"},"vehicle_type_id":"4","last_reported":1722010217,"current_range_meters":26400,"station_id":"ce4bhch2rcd13ifvqeug","pricing_plan_id":"cebpf4jnsgd1na2vs0mg"},{"bike_id":"9f8a8f31-628f-4f5b-a461-c7c9c9f789a2","system_id":"levelo_inurba_marseille","lat":43.28615,"lon":5.35117,"is_reserved":false,"is_disabled":false,"rental_uris":{"android":"levelo://app?vid=9f8a8f31-628f-4f5b-a461-c7c9c9f789a2","ios":"levelo://app?vid=9f8a8f31-628f-4f5b-a461-c7c9c9f789a2"},"vehicle_type_id":"4","last_reported":1722010217,"current_range_meters":19600,"station_id":"ce4bhch2rcd13ifvqeug","pricing_plan_id":"cebpf4jnsgd1na2vs0mg"},{"bike_id":"bdf0f75b-e328-40a6-9d69-305495792526","system_id":"levelo_inurba_marseille","lat":43.2862,"lon":5.35101,"is_reserved":false,"is_disabled":false,"rental_uris":{"android":"levelo://app?vid=bdf0f75b-e328-40a6-9d69-305495792526","ios":"levelo://app?vid=bdf0f75b-e328-40a6-9d69-305495792526"},"vehicle_type_id":"4","last_reported":1722010217,"current_range_meters":8400,"station_id":"ce4bhch2rcd13ifvqeug","pricing_plan_id":"cebpf4jnsgd1na2vs0mg"},{"bike_id":"6f530bf0-eb12-42d9-9a09-eced5229fe42","system_id":"levelo_inurba_marseille","lat":43.28618,"lon":5.35106,"is_reserved":false,"is_disabled":false,"rental_uris":{"android":"levelo://app?vid=6f530bf0-eb12-42d9-9a09-eced5229fe42","ios":"levelo://app?vid=6f530bf0-eb12-42d9-9a09-eced5229fe42"},"vehicle_type_id":"4","last_reported":1722010217,"current_range_meters":8000,"station_id":"ce4bhch2rcd13ifvqeug","pricing_plan_id":"cebpf4jnsgd1na2vs0mg"},{"bike_id":"07ac8d43-1310-4bd5-ba8c-7abba1b1e932","system_id":"levelo_inurba_marseille","lat":43.28616,"lon":5.35112,"is_reserved":false,"is_disabled":false,"rental_uris":{"android":"levelo://app?vid=07ac8d43-1310-4bd5-ba8c-7abba1b1e932","ios":"levelo://app?vid=07ac8d43-1310-4bd5-ba8c-7abba1b1e932"},"vehicle_type_id":"4","last_reported":1722010217,"current_range_meters":27600,"station_id":"ce4bhch2rcd13ifvqeug","pricing_plan_id":"cebpf4jnsgd1na2vs0mg"},{"bike_id":"15e7f350-479e-4710-bb24-8a293e33e897","system_id":"levelo_inurba_marseille","lat":43.28618,"lon":5.35105,"is_reserved":false,"is_disabled":false,"rental_uris":{"android":"levelo://app?vid=15e7f350-479e-4710-bb24-8a293e33e897","ios":"levelo://app?vid=15e7f350-479e-4710-bb24-8a293e33e897"},"vehicle_type_id":"4","last_reported":1722010217,"current_range_meters":31200,"station_id":"ce4bhch2rcd13ifvqeug","pricing_plan_id":"cebpf4jnsgd1na2vs0mg"},{"bike_id":"bf935953-065f-420b-ba42-88d9e8f26bc2","system_id":"levelo_inurba_marseille","lat":43.28616,"lon":5.35111,"is_reserved":false,"is_disabled":false,"rental_uris":{"android":"levelo://app?vid=bf935953-065f-420b-ba42-88d9e8f26bc2","ios":"levelo://app?vid=bf935953-065f-420b-ba42-88d9e8f26bc2"},"vehicle_type_id":"4","last_reported":1722010217,"current_range_meters":22800,"station_id":"ce4bhch2rcd13ifvqeug","pricing_plan_id":"cebpf4jnsgd1na2vs0mg"},{"bike_id":"1045800b-93e2-415c-b378-b1d5a2fec4de","system_id":"levelo_inurba_marseille","lat":43.286166,"lon":5.351082,"is_reserved":false,"is_disabled":false,"rental_uris":{"android":"levelo://app?vid=1045800b-93e2-415c-b378-b1d5a2fec4de","ios":"levelo://app?vid=1045800b-93e2-415c-b378-b1d5a2fec4de"},"vehicle_type_id":"4","last_reported":1722010217,"current_range_meters":25600,"station_id":"ce4bhch2rcd13ifvqeug","pricing_plan_id":"cebpf4jnsgd1na2vs0mg"},{"bike_id":"74959448-9b9c-4901-82a0-360abfdc08b3","system_id":"levelo_inurba_marseille","lat":43.28616,"lon":5.35109,"is_reserved":false,"is_disabled":false,"rental_uris":{"android":"levelo://app?vid=74959448-9b9c-4901-82a0-360abfdc08b3","ios":"levelo://app?vid=74959448-9b9c-4901-82a0-360abfdc08b3"},"vehicle_type_id":"4","last_reported":1722010217,"current_range_meters":6800,"station_id":"ce4bhch2rcd13ifvqeug","pricing_plan_id":"cebpf4jnsgd1na2vs0mg"},{"bike_id":"c0a4d83d-8055-4ca7-976f-5bc96b448e3d","system_id":"levelo_inurba_marseille","lat":43.28615,"lon":5.35111,"is_reserved":false,"is_disabled":false,"rental_uris":{"android":"levelo://app?vid=c0a4d83d-8055-4ca7-976f-5bc96b448e3d","ios":"levelo://app?vid=c0a4d83d-8055-4ca7-976f-5bc96b448e3d"},"vehicle_type_id":"4","last_reported":1722010217,"current_range_meters":11600,"station_id":"ce4bhch2rcd13ifvqeug","pricing_plan_id":"cebpf4jnsgd1na2vs0mg"},{"bike_id":"8ba2cfc1-5b83-4c84-96b8-ade85cb3e19f","system_id":"levelo_inurba_marseille","lat":43.28618,"lon":5.35101,"is_reserved":false,"is_disabled":false,"rental_uris":{"android":"levelo://app?vid=8ba2cfc1-5b83-4c84-96b8-ade85cb3e19f","ios":"levelo://app?vid=8ba2cfc1-5b83-4c84-96b8-ade85cb3e19f"},"vehicle_type_id":"4","last_reported":1722010217,"current_range_meters":24000,"station_id":"ce4bhch2rcd13ifvqeug","pricing_plan_id":"cebpf4jnsgd1na2vs0mg"},{"bike_id":"39182053-5e48-48c1-9aed-0df13841dcc8","system_id":"levelo_inurba_marseille","lat":43.28616,"lon":5.35107,"is_reserved":false,"is_disabled":false,"rental_uris":{"android":"levelo://app?vid=39182053-5e48-48c1-9aed-0df13841dcc8","ios":"levelo://app?vid=39182053-5e48-48c1-9aed-0df13841dcc8"},"vehicle_type_id":"4","last_reported":1722010217,"current_range_meters":18800,"station_id":"ce4bhch2rcd13ifvqeug","pricing_plan_id":"cebpf4jnsgd1na2vs0mg"},{"bike_id":"b408d363-6e13-4020-a7a7-9f40556db53d","system_id":"levelo_inurba_marseille","lat":43.28616,"lon":5.35107,"is_reserved":false,"is_disabled":false,"rental_uris":{"android":"levelo://app?vid=b408d363-6e13-4020-a7a7-9f40556db53d","ios":"levelo://app?vid=b408d363-6e13-4020-a7a7-9f40556db53d"},"vehicle_type_id":"4","last_reported":1722010217,"current_range_meters":27200,"station_id":"ce4bhch2rcd13ifvqeug","pricing_plan_id":"cebpf4jnsgd1na2vs0mg"},{"bike_id":"388c4ef9-2d93-491e-8c84-3974f31ad98a","system_id":"levelo_inurba_marseille","lat":43.28615,"lon":5.35109,"is_reserved":false,"is_disabled":false,"rental_uris":{"android":"levelo://app?vid=388c4ef9-2d93-491e-8c84-3974f31ad98a","ios":"levelo://app?vid=388c4ef9-2d93-491e-8c84-3974f31ad98a"},"vehicle_type_id":"4","last_reported":1722010217,"current_range_meters":27200,"station_id":"ce4bhch2rcd13ifvqeug","pricing_plan_id":"cebpf4jnsgd1na2vs0mg"},{"bike_id":"5153b5df-2c7e-4269-b9e1-0ab250489ddd","system_id":"levelo_inurba_marseille","lat":43.28612,"lon":5.35118,"is_reserved":false,"is_disabled":false,"rental_uris":{"android":"levelo://app?vid=5153b5df-2c7e-4269-b9e1-0ab250489ddd","ios":"levelo://app?vid=5153b5df-2c7e-4269-b9e1-0ab250489ddd"},"vehicle_type_id":"4","last_reported":1722010217,"current_range_meters":16800,"station_id":"ce4bhch2rcd13ifvqeug","pricing_plan_id":"cebpf4jnsgd1na2vs0mg"},{"bike_id":"98c0ae7a-d80d-4bf7-a7fa-45cb0cd2abcc","system_id":"levelo_inurba_marseille","lat":43.28617,"lon":5.35102,"is_reserved":false,"is_disabled":false,"rental_uris":{"android":"levelo://app?vid=98c0ae7a-d80d-4bf7-a7fa-45cb0cd2abcc","ios":"levelo://app?vid=98c0ae7a-d80d-4bf7-a7fa-45cb0cd2abcc"},"vehicle_type_id":"4","last_reported":1722010217,"current_range_meters":21600,"station_id":"ce4bhch2rcd13ifvqeug","pricing_plan_id":"cebpf4jnsgd1na2vs0mg"},{"bike_id":"f6c8cb4b-1e8e-4ebd-9223-e9387c3d4451","system_id":"levelo_inurba_marseille","lat":43.28615,"lon":5.35108,"is_reserved":false,"is_disabled":false,"rental_uris":{"android":"levelo://app?vid=f6c8cb4b-1e8e-4ebd-9223-e9387c3d4451","ios":"levelo://app?vid=f6c8cb4b-1e8e-4ebd-9223-e9387c3d4451"},"vehicle_type_id":"4","last_reported":1722010217,"current_range_meters":13200,"station_id":"ce4bhch2rcd13ifvqeug","pricing_plan_id":"cebpf4jnsgd1na2vs0mg"},{"bike_id":"6c2d4a8a-60b8-437c-9cc7-4e31738f1231","system_id":"levelo_inurba_marseille","lat":43.28614,"lon":5.35111,"is_reserved":false,"is_disabled":false,"rental_uris":{"android":"levelo://app?vid=6c2d4a8a-60b8-437c-9cc7-4e31738f1231","ios":"levelo://app?vid=6c2d4a8a-60b8-437c-9cc7-4e31738f1231"},"vehicle_type_id":"4","last_reported":1722010217,"current_range_meters":22000,"station_id":"ce4bhch2rcd13ifvqeug","pricing_plan_id":"cebpf4jnsgd1na2vs0mg"},{"bike_id":"37708420-2e8c-4bd4-875f-a9c7b89620a8","system_id":"levelo_inurba_marseille","lat":43.28614,"lon":5.3511,"is_reserved":false,"is_disabled":false,"rental_uris":{"android":"levelo://app?vid=37708420-2e8c-4bd4-875f-a9c7b89620a8","ios":"levelo://app?vid=37708420-2e8c-4bd4-875f-a9c7b89620a8"},"vehicle_type_id":"4","last_reported":1722010217,"current_range_meters":7600,"station_id":"ce4bhch2rcd13ifvqeug","pricing_plan_id":"cebpf4jnsgd1na2vs0mg"},{"bike_id":"a25974b8-03b2-4f3a-b94c-5afc6876cfa1","system_id":"levelo_inurba_marseille","lat":43.28615,"lon":5.35106,"is_reserved":false,"is_disabled":false,"rental_uris":{"android":"levelo://app?vid=a25974b8-03b2-4f3a-b94c-5afc6876cfa1","ios":"levelo://app?vid=a25974b8-03b2-4f3a-b94c-5afc6876cfa1"},"vehicle_type_id":"4","last_reported":1722010217,"current_range_meters":17600,"station_id":"ce4bhch2rcd13ifvqeug","pricing_plan_id":"cebpf4jnsgd1na2vs0mg"},{"bike_id":"bb1db9bd-fc0e-4bbb-a9c6-a3ef18d6a1a4","system_id":"levelo_inurba_marseille","lat":43.28615,"lon":5.35106,"is_reserved":false,"is_disabled":false,"rental_uris":{"android":"levelo://app?vid=bb1db9bd-fc0e-4bbb-a9c6-a3ef18d6a1a4","ios":"levelo://app?vid=bb1db9bd-fc0e-4bbb-a9c6-a3ef18d6a1a4"},"vehicle_type_id":"4","last_reported":1722010217,"current_range_meters":6400,"station_id":"ce4bhch2rcd13ifvqeug","pricing_plan_id":"cebpf4jnsgd1na2vs0mg"},{"bike_id":"0c1cbf7e-cccd-4ff7-bc28-1e26d8269b66","system_id":"levelo_inurba_marseille","lat":43.28613,"lon":5.35111,"is_reserved":false,"is_disabled":false,"rental_uris":{"android":"levelo://app?vid=0c1cbf7e-cccd-4ff7-bc28-1e26d8269b66","ios":"levelo://app?vid=0c1cbf7e-cccd-4ff7-bc28-1e26d8269b66"},"vehicle_type_id":"4","last_reported":1722010217,"current_range_meters":16400,"station_id":"ce4bhch2rcd13ifvqeug","pricing_plan_id":"cebpf4jnsgd1na2vs0mg"},{"bike_id":"2b04d168-1943-4a74-907a-94b524fb44c6","system_id":"levelo_inurba_marseille","lat":43.28615,"lon":5.35104,"is_reserved":false,"is_disabled":false,"rental_uris":{"android":"levelo://app?vid=2b04d168-1943-4a74-907a-94b524fb44c6","ios":"levelo://app?vid=2b04d168-1943-4a74-907a-94b524fb44c6"},"vehicle_type_id":"4","last_reported":1722010217,"current_range_meters":6800,"station_id":"ce4bhch2rcd13ifvqeug","pricing_plan_id":"cebpf4jnsgd1na2vs0mg"},{"bike_id":"4fee59e8-77d9-4ddf-8c4b-8d068809d060","system_id":"levelo_inurba_marseille","lat":43.28615,"lon":5.35104,"is_reserved":false,"is_disabled":false,"rental_uris":{"android":"levelo://app?vid=4fee59e8-77d9-4ddf-8c4b-8d068809d060","ios":"levelo://app?vid=4fee59e8-77d9-4ddf-8c4b-8d068809d060"},"vehicle_type_id":"4","last_reported":1722010217,"current_range_meters":20400,"station_id":"ce4bhch2rcd13ifvqeug","pricing_plan_id":"cebpf4jnsgd1na2vs0mg"},{"bike_id":"34db289a-f8aa-4ac6-afc3-8cb296e05510","system_id":"levelo_inurba_marseille","lat":43.28614,"lon":5.35107,"is_reserved":false,"is_disabled":false,"rental_uris":{"android":"levelo://app?vid=34db289a-f8aa-4ac6-afc3-8cb296e05510","ios":"levelo://app?vid=34db289a-f8aa-4ac6-afc3-8cb296e05510"},"vehicle_type_id":"4","last_reported":1722010217,"current_range_meters":10400,"station_id":"ce4bhch2rcd13ifvqeug","pricing_plan_id":"cebpf4jnsgd1na2vs0mg"},{"bike_id":"e955a10c-38c6-45b9-9357-edae8afc0bd9","system_id":"levelo_inurba_marseille","lat":43.285856,"lon":5.350771,"is_reserved":false,"is_disabled":false,"rental_uris":{"android":"levelo://app?vid=e955a10c-38c6-45b9-9357-edae8afc0bd9","ios":"levelo://app?vid=e955a10c-38c6-45b9-9357-edae8afc0bd9"},"vehicle_type_id":"4","last_reported":1722010217,"current_range_meters":10000,"station_id":"ce4bhch2rcd13ifvqeug","pricing_plan_id":"cebpf4jnsgd1na2vs0mg"},{"bike_id":"1149ba96-6a4e-4146-87d3-5849a13be15b","system_id":"levelo_inurba_marseille","lat":43.28615,"lon":5.35102,"is_reserved":false,"is_disabled":false,"rental_uris":{"android":"levelo://app?vid=1149ba96-6a4e-4146-87d3-5849a13be15b","ios":"levelo://app?vid=1149ba96-6a4e-4146-87d3-5849a13be15b"},"vehicle_type_id":"4","last_reported":1722010217,"current_range_meters":4400,"station_id":"ce4bhch2rcd13ifvqeug","pricing_plan_id":"cebpf4jnsgd1na2vs0mg"},{"bike_id":"d0c0a417-e078-4e42-97aa-0ebb3a7e6f01","system_id":"levelo_inurba_marseille","lat":43.28613,"lon":5.35107,"is_reserved":false,"is_disabled":false,"rental_uris":{"android":"levelo://app?vid=d0c0a417-e078-4e42-97aa-0ebb3a7e6f01","ios":"levelo://app?vid=d0c0a417-e078-4e42-97aa-0ebb3a7e6f01"},"vehicle_type_id":"4","last_reported":1722010217,"current_range_meters":14000,"station_id":"ce4bhch2rcd13ifvqeug","pricing_plan_id":"cebpf4jnsgd1na2vs0mg"},{"bike_id":"1e903733-bf02-4d89-a05c-76aeeebaa22f","system_id":"levelo_inurba_marseille","lat":43.28612,"lon":5.3511,"is_reserved":false,"is_disabled":false,"rental_uris":{"android":"levelo://app?vid=1e903733-bf02-4d89-a05c-76aeeebaa22f","ios":"levelo://app?vid=1e903733-bf02-4d89-a05c-76aeeebaa22f"},"vehicle_type_id":"4","last_reported":1722010217,"current_range_meters":10800,"station_id":"ce4bhch2rcd13ifvqeug","pricing_plan_id":"cebpf4jnsgd1na2vs0mg"},{"bike_id":"af8c16b0-9eaf-4c22-bc3b-14207917c8a7","system_id":"levelo_inurba_marseille","lat":43.28614,"lon":5.35103,"is_reserved":false,"is_disabled":false,"rental_uris":{"android":"levelo://app?vid=af8c16b0-9eaf-4c22-bc3b-14207917c8a7","ios":"levelo://app?vid=af8c16b0-9eaf-4c22-bc3b-14207917c8a7"},"vehicle_type_id":"4","last_reported":1722010217,"current_range_meters":0,"station_id":"ce4bhch2rcd13ifvqeug","pricing_plan_id":"cebpf4jnsgd1na2vs0mg"},{"bike_id":"ae4e84a1-25d9-446d-a246-085b7ace03b8","system_id":"levelo_inurba_marseille","lat":43.28615,"lon":5.35099,"is_reserved":false,"is_disabled":false,"rental_uris":{"android":"levelo://app?vid=ae4e84a1-25d9-446d-a246-085b7ace03b8","ios":"levelo://app?vid=ae4e84a1-25d9-446d-a246-085b7ace03b8"},"vehicle_type_id":"4","last_reported":1722010217,"current_range_meters":28800,"station_id":"ce4bhch2rcd13ifvqeug","pricing_plan_id":"cebpf4jnsgd1na2vs0mg"},{"bike_id":"649fe694-5cd1-46ee-9476-c9c50bbff370","system_id":"levelo_inurba_marseille","lat":43.28615,"lon":5.35099,"is_reserved":false,"is_disabled":false,"rental_uris":{"android":"levelo://app?vid=649fe694-5cd1-46ee-9476-c9c50bbff370","ios":"levelo://app?vid=649fe694-5cd1-46ee-9476-c9c50bbff370"},"vehicle_type_id":"4","last_reported":1722010217,"current_range_meters":5600,"station_id":"ce4bhch2rcd13ifvqeug","pricing_plan_id":"cebpf4jnsgd1na2vs0mg"},{"bike_id":"651d7a4f-83f3-4db9-8e66-3d1bde54d3bc","system_id":"levelo_inurba_marseille","lat":43.285856,"lon":5.350771,"is_reserved":false,"is_disabled":false,"rental_uris":{"android":"levelo://app?vid=651d7a4f-83f3-4db9-8e66-3d1bde54d3bc","ios":"levelo://app?vid=651d7a4f-83f3-4db9-8e66-3d1bde54d3bc"},"vehicle_type_id":"4","last_reported":1722010217,"current_range_meters":19600,"station_id":"ce4bhch2rcd13ifvqeug","pricing_plan_id":"cebpf4jnsgd1na2vs0mg"},{"bike_id":"7c869428-819e-43bf-9992-581375209aab","system_id":"levelo_inurba_marseille","lat":43.28612,"lon":5.35106,"is_reserved":false,"is_disabled":false,"rental_uris":{"android":"levelo://app?vid=7c869428-819e-43bf-9992-581375209aab","ios":"levelo://app?vid=7c869428-819e-43bf-9992-581375209aab"},"vehicle_type_id":"4","last_reported":1722010217,"current_range_meters":24400,"station_id":"ce4bhch2rcd13ifvqeug","pricing_plan_id":"cebpf4jnsgd1na2vs0mg"},{"bike_id":"3ca11144-6067-494c-9acb-5af9d255361e","system_id":"levelo_inurba_marseille","lat":43.28611,"lon":5.35109,"is_reserved":false,"is_disabled":false,"rental_uris":{"android":"levelo://app?vid=3ca11144-6067-494c-9acb-5af9d255361e","ios":"levelo://app?vid=3ca11144-6067-494c-9acb-5af9d255361e"},"vehicle_type_id":"4","last_reported":1722010217,"current_range_meters":12000,"station_id":"ce4bhch2rcd13ifvqeug","pricing_plan_id":"cebpf4jnsgd1na2vs0mg"},{"bike_id":"749dee96-eb04-456d-986e-5a08b1118d0a","system_id":"levelo_inurba_marseille","lat":43.28612,"lon":5.35105,"is_reserved":false,"is_disabled":false,"rental_uris":{"android":"levelo://app?vid=749dee96-eb04-456d-986e-5a08b1118d0a","ios":"levelo://app?vid=749dee96-eb04-456d-986e-5a08b1118d0a"},"vehicle_type_id":"4","last_reported":1722010217,"current_range_meters":22800,"station_id":"ce4bhch2rcd13ifvqeug","pricing_plan_id":"cebpf4jnsgd1na2vs0mg"},