{"last_updated":1745176074,"ttl":60,"version":"2.2","data":{"bikes":[{"bike_id":"fc7f94bf-9c4d-408e-8f51-3158944a4dbc","system_id":"levelo_inurba_marseille","lat":43.31996,"lon":5.38161,"is_reserved":false,"is_disabled":false,"rental_uris":{"android":"levelo://app?vid=fc7f94bf-9c4d-408e-8f51-3158944a4dbc","ios":"levelo://app?vid=fc7f94bf-9c4d-408e-8f51-3158944a4dbc"},"vehicle_type_id":"4","last_reported":1745176074,"current_range_meters":2800,"station_id":"ce4bhr12rcd13ifvqhpg","pricing_plan_id":"cebpf4jnsgd1na2vs0mg"},{"bike_id":"0d972e7b-0630-45b3-90d2-c7d21c26aa82","system_id":"levelo_inurba_marseille","lat":43.21759,"lon":5.34589,"is_reserved":false,"is_disabled":false,"rental_uris":{"android":"levelo://app?vid=0d972e7b-0630-45b3-90d2-c7d21c26aa82","ios":"levelo://app?vid=0d972e7b-0630-45b3-90d2-c7d21c26aa82"},"vehicle_type_id":"4","last_reported":1745176074,"current_range_meters":2800,"station_id":"st_cvj6r9ubvosntc0bgbag","pricing_plan_id":"cebpf4jnsgd1na2vs0mg"},{"bike_id":"59b8a710-c124-451a-a8fb-8229b190174f","system_id":"levelo_inurba_marseille","lat":43.24163,"lon":5.36394,"is_reserved":false,"is_disabled":false,"rental_uris":{"android":"levelo://app?vid=59b8a710-c124-451a-a8fb-8229b190174f","ios":"levelo://app?vid=59b8a710-c124-451a-a8fb-8229b190174f"},"vehicle_type_id":"4","last_reported":1745176074,"current_range_meters":2800,"station_id":"cpo36qri1sfpv3e86is0","pricing_plan_id":"cebpf4jnsgd1na2vs0mg"},{"bike_id":"066f1a3f-2f55-42ac-aa57-b561bb82f13e","system_id":"levelo_inurba_marseille","lat":43.30845,"lon":5.37377,"is_reserved":false,"is_disabled":false,"rental_uris":{"android":"levelo://app?vid=066f1a3f-2f55-42ac-aa57-b561bb82f13e","ios":"levelo://app?vid=066f1a3f-2f55-42ac-aa57-b561bb82f13e"},"vehicle_type_id":"4","last_reported":1745176074,"current_range_meters":2800,"station_id":"","pricing_plan_id":"cebpf4jnsgd1na2vs0mg"},{"bike_id":"7b876d00-9349-4027-9a64-26c5e2666ce1","system_id":"levelo_inurba_marseille","lat":43.29514,"lon":5.38529,"is_reserved":false,"is_disabled":true,"rental_uris":{"android":"levelo://app?vid=7b876d00-9349-4027-9a64-26c5e2666ce1","ios":"levelo://app?vid=7b876d00-9349-4027-9a64-26c5e2666ce1"},"vehicle_type_id":"4","last_reported":1745176074,"current_range_meters":2800,"station_id":"ce4bgih2rcd13ifvqba0","pricing_plan_id":"cebpf4jnsgd1na2vs0mg"},{"bike_id":"bee548bb-1c8c-43ee-b094-38127fbc9f6f","system_id":"levelo_inurba_marseille","lat":43.30634,"lon":5.40102,"is_reserved":false,"is_disabled":false,"rental_uris":{"android":"levelo://app?vid=bee548bb-1c8c-43ee-b094-38127fbc9f6f","ios":"levelo://app?vid=bee548bb-1c8c-43ee-b094-38127fbc9f6f"},"vehicle_type_id":"4","last_reported":1745176074,"current_range_meters":2800,"station_id":"ce4bh112rcd13ifvqda0","pricing_plan_id":"cebpf4jnsgd1na2vs0mg"},{"bike_id":"bfaf343c-e126-4f94-a4ed-e053ceb74665","system_id":"levelo_inurba_marseille","lat":43.32356,"lon":5.38931,"is_reserved":false,"is_disabled":false,"rental_uris":{"android":"levelo://app?vid=bfaf343c-e126-4f94-a4ed-e053ceb74665","ios":"levelo://app?vid=bfaf343c-e126-4f94-a4ed-e053ceb74665"},"vehicle_type_id":"4","last_reported":1745176074,"current_range_meters":2800,"station_id":"ce4bhqp2rcd13ifvqhog","pricing_plan_id":"cebpf4jnsgd1na2vs0mg"},{"bike_id":"eed7e7b9-3493-41f4-b144-a21d837b9d1a","system_id":"levelo_inurba_marseille","lat":43.23963,"lon":5.36628,"is_reserved":false,"is_disabled":false,"rental_uris":{"android":"levelo://app?vid=eed7e7b9-3493-41f4-b144-a21d837b9d1a","ios":"levelo://app?vid=eed7e7b9-3493-41f4-b144-a21d837b9d1a"},"vehicle_type_id":"4","last_reported":1745176074,"current_range_meters":2800,"station_id":"ce4bhi12rcd13ifvqfp0","pricing_plan_id":"cebpf4jnsgd1na2vs0mg"},{"bike_id":"a0ddb0a5-f7f0-4281-aa27-9e82747cc573","system_id":"levelo_inurba_marseille","lat":43.33754,"lon":5.37491,"is_reserved":false,"is_disabled":false,"rental_uris":{"android":"levelo://app?vid=a0ddb0a5-f7f0-4281-aa27-9e82747cc573","ios":"levelo://app?vid=a0ddb0a5-f7f0-4281-aa27-9e82747cc573"},"vehicle_type_id":"4","last_reported":1745176074,"current_range_meters":2800,"station_id":"","pricing_plan_id":"cebpf4jnsgd1na2vs0mg"},{"bike_id":"527bf01d-a7a9-4a02-a922-63e7e0d2d3b5","system_id":"levelo_inurba_marseille","lat":43.247172,"lon":5.412301,"is_reserved":false,"is_disabled":false,"rental_uris":{"android":"levelo://app?vid=527bf01d-a7a9-4a02-a922-63e7e0d2d3b5","ios":"levelo://app?vid=527bf01d-a7a9-4a02-a922-63e7e0d2d3b5"},"vehicle_type_id":"4","last_reported":1745176074,"current_range_meters":2800,"station_id":"","pricing_plan_id":"cebpf4jnsgd1na2vs0mg"},{"bike_id":"127ebb5f-02d3-4b90-a3c7-d55247d32609","system_id":"levelo_inurba_marseille","lat":43.284141,"lon":5.349832,"is_reserved":false,"is_disabled":false,"rental_uris":{"android":"levelo://app?vid=127ebb5f-02d3-4b90-a3c7-d55247d32609","ios":"levelo://app?vid=127ebb5f-02d3-4b90-a3c7-d55247d32609"},"vehicle_type_id":"4","last_reported":1745176074,"current_range_meters":3200,"station_id":"ce4bhch2rcd13ifvqeug","pricing_plan_id":"cebpf4jnsgd1na2vs0mg"},{"bike_id":"9fe8c14c-2d24-41b2-9662-956cdf9f075c","system_id":"levelo_inurba_marseille","lat":43.24436,"lon":5.36935,"is_reserved":false,"is_disabled":false,"rental_uris":{"android":"levelo://app?vid=9fe8c14c-2d24-41b2-9662-956cdf9f075c","ios":"levelo://app?vid=9fe8c14c-2d24-41b2-9662-956cdf9f075c"},"vehicle_type_id":"4","last_reported":1745176074,"current_range_meters":3200,"station_id":"","pricing_plan_id":"cebpf4jnsgd1na2vs0mg"},{"bike_id":"25cb6338-d492-492c-b50f-241f00833c2c","system_id":"levelo_inurba_marseille","lat":43.27663,"lon":5.38913,"is_reserved":false,"is_disabled":true,"rental_uris":{"android":"levelo://app?vid=25cb6338-d492-492c-b50f-241f00833c2c","ios":"levelo://app?vid=25cb6338-d492-492c-b50f-241f00833c2c"},"vehicle_type_id":"4","last_reported":1745176074,"current_range_meters":3200,"station_id":"ce4bhi12rcd13ifvqfo0","pricing_plan_id":"cebpf4jnsgd1na2vs0mg"},{"bike_id":"ab42e793-35c0-4a52-a3f6-ac07eb6ffa88","system_id":"levelo_inurba_marseille","lat":43.23187,"lon":5.35556,"is_reserved":false,"is_disabled":true,"rental_uris":{"android":"levelo://app?vid=ab42e793-35c0-4a52-a3f6-ac07eb6ffa88","ios":"levelo://app?vid=ab42e793-35c0-4a52-a3f6-ac07eb6ffa88"},"vehicle_type_id":"4","last_reported":1745176074,"current_range_meters":3200,"station_id":"ce4bhu92rcd13ifvqi70","pricing_plan_id":"cebpf4jnsgd1na2vs0mg"},{"bike_id":"bd3ae8a3-1a9e-409f-8191-3e97ab357fd3","system_id":"levelo_inurba_marseille","lat":43.31484,"lon":5.37305,"is_reserved":false,"is_disabled":false,"rental_uris":{"android":"levelo://app?vid=bd3ae8a3-1a9e-409f-8191-3e97ab357fd3","ios":"levelo://app?vid=bd3ae8a3-1a9e-409f-8191-3e97ab357fd3"},"vehicle_type_id":"4","last_reported":1745176074,"current_range_meters":3200,"station_id":"ce4bgt12rcd13ifvqcd0","pricing_plan_id":"cebpf4jnsgd1na2vs0mg"},{"bike_id":"fe945396-bc41-4fac-aacb-16316850202c","system_id":"levelo_inurba_marseille","lat":43.28155,"lon":5.42635,"is_reserved":false,"is_disabled":false,"rental_uris":{"android":"levelo://app?vid=fe945396-bc41-4fac-aacb-16316850202c","ios":"levelo://app?vid=fe945396-bc41-4fac-aacb-16316850202c"},"vehicle_type_id":"4","last_reported":1745176074,"current_range_meters":3600,"station_id":"ce4bhnh2rcd13ifvqgug","pricing_plan_id":"cebpf4jnsgd1na2vs0mg"},{"bike_id":"608caa31-fe6b-4659-bca1-9d8d0fed7dbf","system_id":"levelo_inurba_marseille","lat":43.21192,"lon":5.35067,"is_reserved":false,"is_disabled":false,"rental_uris":{"android":"levelo://app?vid=608caa31-fe6b-4659-bca1-9d8d0fed7dbf","ios":"levelo://app?vid=608caa31-fe6b-4659-bca1-9d8d0fed7dbf"},"vehicle_type_id":"4","last_reported":1745176074,"current_range_meters":3600,"station_id":"st_cvj6sg6p6f1abm77japg","pricing_plan_id":"cebpf4jnsgd1na2vs0mg"},{"bike_id":"39cb45c7-9a11-4a77-a5d0-2ef59dabb119","system_id":"levelo_inurba_marseille","lat":43.29232,"lon":5.40924,"is_reserved":false,"is_disabled":false,"rental_uris":{"android":"levelo://app?vid=39cb45c7-9a11-4a77-a5d0-2ef59dabb119","ios":"levelo://app?vid=39cb45c7-9a11-4a77-a5d0-2ef59dabb119"},"vehicle_type_id":"4","last_reported":1745176074,"current_range_meters":4000,"station_id":"ce4bh192rcd13ifvqdc0","pricing_plan_id":"cebpf4jnsgd1na2vs0mg"},{"bike_id":"e3ac940e-4d1b-4d51-ad04-b3abc26d819e","system_id":"levelo_inurba_marseille","lat":43.28913,"lon":5.38399,"is_reserved":false,"is_disabled":true,"rental_uris":{"android":"levelo://app?vid=e3ac940e-4d1b-4d51-ad04-b3abc26d819e","ios":"levelo://app?vid=e3ac940e-4d1b-4d51-ad04-b3abc26d819e"},"vehicle_type_id":"4","last_reported":1745176074,"current_range_meters":4000,"station_id":"ce4bh612rcd13ifvqe6g","pricing_plan_id":"cebpf4jnsgd1na2vs0mg"},{"bike_id":"cecd7c84-becb-41c3-9869-71d934006a59","system_id":"levelo_inurba_marseille","lat":43.27394,"lon":5.36254,"is_reserved":false,"is_disabled":true,"rental_uris":{"android":"levelo://app?vid=cecd7c84-becb-41c3-9869-71d934006a59","ios":"levelo://app?vid=cecd7c84-becb-41c3-9869-71d934006a59"},"vehicle_type_id":"4","last_reported":1745176074,"current_range_meters":4000,"station_id":"ce4bhbh2rcd13ifvqeo0","pricing_plan_id":"cebpf4jnsgd1na2vs0mg"},{"bike_id":"b52a1751-28c1-4412-9819-bb1cff38059d","system_id":"levelo_inurba_marseille","lat":43.25549,"lon":5.40631,"is_reserved":false,"is_disabled":false,"rental_uris":{"android":"levelo://app?vid=b52a1751-28c1-4412-9819-bb1cff38059d","ios":"levelo://app?vid=b52a1751-28c1-4412-9819-bb1cff38059d"},"vehicle_type_id":"4","last_reported":1745176074,"current_range_meters":4000,"station_id":"","pricing_plan_id":"cebpf4jnsgd1na2vs0mg"},{"bike_id":"8a931b9c-d1a1-43e7-a9ff-fc5aa223a2a2","system_id":"levelo_inurba_marseille","lat":43.30147,"lon":5.38768,"is_reserved":false,"is_disabled":false,"rental_uris":{"android":"levelo://app?vid=8a931b9c-d1a1-43e7-a9ff-fc5aa223a2a2","ios":"levelo://app?vid=8a931b9c-d1a1-43e7-a9ff-fc5aa223a2a2"},"vehicle_type_id":"4","last_reported":1745176074,"current_range_meters":6800,"station_id":"ce4bghh2rcd13ifvqb60","pricing_plan_id":"cebpf4jnsgd1na2vs0mg"},{"bike_id":"f808ab95-b13e-4b43-8445-762aa6870c34","system_id":"levelo_inurba_marseille","lat":43.31172,"lon":5.38712,"is_reserved":false,"is_disabled":false,"rental_uris":{"android":"levelo://app?vid=f808ab95-b13e-4b43-8445-762aa6870c34","ios":"levelo://app?vid=f808ab95-b13e-4b43-8445-762aa6870c34"},"vehicle_type_id":"4","last_reported":1745176074,"current_range_meters":3600,"station_id":"ce4bgv12rcd13ifvqcp0","pricing_plan_id":"cebpf4jnsgd1na2vs0mg"},{"bike_id":"bea3d047-d3e4-4af0-9c2a-ae0530f3dc68","system_id":"levelo_inurba_marseille","lat":43.25718,"lon":5.41112,"is_reserved":false,"is_disabled":false,"rental_uris":{"android":"levelo://app?vid=bea3d047-d3e4-4af0-9c2a-ae0530f3dc68","ios":"levelo://app?vid=bea3d047-d3e4-4af0-9c2a-ae0530f3dc68"},"vehicle_type_id":"4","last_reported":1745176074,"current_range_meters":4400,"station_id":"ce4bhkp2rcd13ifvqgd0","pricing_plan_id":"cebpf4jnsgd1na2vs0mg"},{"bike_id":"d1c86ed1-4526-4e0b-869d-f293394e81bb","system_id":"levelo_inurba_marseille","lat":43.29922,"lon":5.37471,"is_reserved":false,"is_disabled":false,"rental_uris":{"android":"levelo://app?vid=d1c86ed1-4526-4e0b-869d-f293394e81bb","ios":"levelo://app?vid=d1c86ed1-4526-4e0b-869d-f293394e81bb"},"vehicle_type_id":"4","last_reported":1745176074,"current_range_meters":4400,"station_id":"ce4bgjh2rcd13ifvqbg0","pricing_plan_id":"cebpf4jnsgd1na2vs0mg"},{"bike_id":"80b9d213-2fb0-42f1-9300-269b5cdc6132","system_id":"levelo_inurba_marseille","lat":43.28671,"lon":5.36343,"is_reserved":false,"is_disabled":false,"rental_uris":{"android":"levelo://app?vid=80b9d213-2fb0-42f1-9300-269b5cdc6132","ios":"levelo://app?vid=80b9d213-2fb0-42f1-9300-269b5cdc6132"},"vehicle_type_id":"4","last_reported":1745176074,"current_range_meters":2000,"station_id":"ce4bhah2rcd13ifvqej0","pricing_plan_id":"cebpf4jnsgd1na2vs0mg"},{"bike_id":"8e337379-711e-4c52-bca6-e30df6e34381","system_id":"levelo_inurba_marseille","lat":43.292786,"lon":5.368419,"is_reserved":false,"is_disabled":false,"rental_uris":{"android":"levelo://app?vid=8e337379-711e-4c52-bca6-e30df6e34381","ios":"levelo://app?vid=8e337379-711e-4c52-bca6-e30df6e34381"},"vehicle_type_id":"4","last_reported":1745176074,"current_range_meters":4400,"station_id":"ce4bhbp2rcd13ifvqesg","pricing_plan_id":"cebpf4jnsgd1na2vs0mg"},{"bike_id":"844db808-751e-4d57-805b-c6e5d3fe29c5","system_id":"levelo_inurba_marseille","lat":43.28998,"lon":5.35615,"is_reserved":false,"is_disabled":true,"rental_uris":{"android":"levelo://app?vid=844db808-751e-4d57-805b-c6e5d3fe29c5","ios":"levelo://app?vid=844db808-751e-4d57-805b-c6e5d3fe29c5"},"vehicle_type_id":"4","last_reported":1745176074,"current_range_meters":4400,"station_id":"ce4bhb92rcd13ifvqen0","pricing_plan_id":"cebpf4jnsgd1na2vs0mg"},{"bike_id":"31a3d966-8ee8-40ef-9239-4b9675751812","system_id":"levelo_inurba_marseille","lat":43.27906,"lon":5.39602,"is_reserved":false,"is_disabled":false,"rental_uris":{"android":"levelo://app?vid=31a3d966-8ee8-40ef-9239-4b9675751812","ios":"levelo://app?vid=31a3d966-8ee8-40ef-9239-4b9675751812"},"vehicle_type_id":"4","last_reported":1745176074,"current_range_meters":4800,"station_id":"ce4bhf92rcd13ifvqf40","pricing_plan_id":"cebpf4jnsgd1na2vs0mg"},{"bike_id":"4dca7f1b-1c05-460e-b926-caf764da1082","system_id":"levelo_inurba_marseille","lat":43.24072,"lon":5.3776,"is_reserved":false,"is_disabled":false,"rental_uris":{"android":"levelo://app?vid=4dca7f1b-1c05-460e-b926-caf764da1082","ios":"levelo://app?vid=4dca7f1b-1c05-460e-b926-caf764da1082"},"vehicle_type_id":"4","last_reported":1745176074,"current_range_meters":4400,"station_id":"ce4bhnp2rcd13ifvqgvg","pricing_plan_id":"cebpf4jnsgd1na2vs0mg"},{"bike_id":"1e2b4eaf-c306-4248-8889-9314a378512d","system_id":"levelo_inurba_marseille","lat":43.295959,"lon":5.381038,"is_reserved":false,"is_disabled":false,"rental_uris":{"android":"levelo://app?vid=1e2b4eaf-c306-4248-8889-9314a378512d","ios":"levelo://app?vid=1e2b4eaf-c306-4248-8889-9314a378512d"},"vehicle_type_id":"4","last_reported":1745176074,"current_range_meters":4800,"station_id":"ce4bgl12rcd13ifvqbo0","pricing_plan_id":"cebpf4jnsgd1na2vs0mg"},{"bike_id":"656ac081-c121-4824-81a4-fa92b7720ed4","system_id":"levelo_inurba_marseille","lat":43.23188,"lon":5.35578,"is_reserved":false,"is_disabled":false,"rental_uris":{"android":"levelo://app?vid=656ac081-c121-4824-81a4-fa92b7720ed4","ios":"levelo://app?vid=656ac081-c121-4824-81a4-fa92b7720ed4"},"vehicle_type_id":"4","last_reported":1745176074,"current_range_meters":5600,"station_id":"ce4bhu92rcd13ifvqi70","pricing_plan_id":"cebpf4jnsgd1na2vs0mg"},{"bike_id":"9345dac2-148d-41af-9562-ebf7e48d53db","system_id":"levelo_inurba_marseille","lat":43.29073,"lon":5.37145,"is_reserved":false,"is_disabled":false,"rental_uris":{"android":"levelo://app?vid=9345dac2-148d-41af-9562-ebf7e48d53db","ios":"levelo://app?vid=9345dac2-148d-41af-9562-ebf7e48d53db"},"vehicle_type_id":"4","last_reported":1745176074,"current_range_meters":5600,"station_id":"ce4bh5p2rcd13ifvqe4g","pricing_plan_id":"cebpf4jnsgd1na2vs0mg"},{"bike_id":"eb8a0172-041a-4b50-a689-d16c499fd520","system_id":"levelo_inurba_marseille","lat":43.25496,"lon":5.3765,"is_reserved":false,"is_disabled":false,"rental_uris":{"android":"levelo://app?vid=eb8a0172-041a-4b50-a689-d16c499fd520","ios":"levelo://app?vid=eb8a0172-041a-4b50-a689-d16c499fd520"},"vehicle_type_id":"4","last_reported":1745176074,"current_range_meters":5600,"station_id":"ce4bhh12rcd13ifvqff0","pricing_plan_id":"cebpf4jnsgd1na2vs0mg"},{"bike_id":"a4f53f83-a203-4112-88cd-432220291605","system_id":"levelo_inurba_marseille","lat":43.28418,"lon":5.34995,"is_reserved":false,"is_disabled":true,"rental_uris":{"android":"levelo://app?vid=a4f53f83-a203-4112-88cd-432220291605","ios":"levelo://app?vid=a4f53f83-a203-4112-88cd-432220291605"},"vehicle_type_id":"4","last_reported":1745176074,"current_range_meters":5600,"station_id":"ce4bhbh2rcd13ifvqepg","pricing_plan_id":"cebpf4jnsgd1na2vs0mg"},{"bike_id":"d2ba4413-c35f-41b1-8baf-f83e6001a359","system_id":"levelo_inurba_marseille","lat":43.290402,"lon":5.386521,"is_reserved":false,"is_disabled":true,"rental_uris":{"android":"levelo://app?vid=d2ba4413-c35f-41b1-8baf-f83e6001a359","ios":"levelo://app?vid=d2ba4413-c35f-41b1-8baf-f83e6001a359"},"vehicle_type_id":"4","last_reported":1745176074,"current_range_meters":5600,"station_id":"ce4bh4p2rcd13ifvqe0g","pricing_plan_id":"cebpf4jnsgd1na2vs0mg"},{"bike_id":"501b1c56-b5c3-4cfb-932f-a774c7db70f2","system_id":"levelo_inurba_marseille","lat":43.265472,"lon":5.372858,"is_reserved":false,"is_disabled":true,"rental_uris":{"android":"levelo://app?vid=501b1c56-b5c3-4cfb-932f-a774c7db70f2","ios":"levelo://app?vid=501b1c56-b5c3-4cfb-932f-a774c7db70f2"},"vehicle_type_id":"4","last_reported":1745176074,"current_range_meters":5600,"station_id":"ce4bhap2rcd13ifvqek0","pricing_plan_id":"cebpf4jnsgd1na2vs0mg"},{"bike_id":"04e24cbb-5b8b-4f15-a81f-45ef2585eede","system_id":"levelo_inurba_marseille","lat":43.29443,"lon":5.39739,"is_reserved":false,"is_disabled":false,"rental_uris":{"android":"levelo://app?vid=04e24cbb-5b8b-4f15-a81f-45ef2585eede","ios":"levelo://app?vid=04e24cbb-5b8b-4f15-a81f-45ef2585eede"},"vehicle_type_id":"4","last_reported":1745176074,"current_range_meters":6000,"station_id":"ce4bh3h2rcd13ifvqdo0","pricing_plan_id":"cebpf4jnsgd1na2vs0mg"},{"bike_id":"c209248e-c0e5-42a6-a5a3-cb01ca3ae694","system_id":"levelo_inurba_marseille","lat":43.25492,"lon":5.37658,"is_reserved":false,"is_disabled":false,"rental_uris":{"android":"levelo://app?vid=c209248e-c0e5-42a6-a5a3-cb01ca3ae694","ios":"levelo://app?vid=c209248e-c0e5-42a6-a5a3-cb01ca3ae694"},"vehicle_type_id":"4","last_reported":1745176074,"current_range_meters":6000,"station_id":"ce4bhh12rcd13ifvqff0","pricing_plan_id":"cebpf4jnsgd1na2vs0mg"},{"bike_id":"77d4d260-ee81-4444-9ff3-3ff761928141","system_id":"levelo_inurba_marseille","lat":43.30161,"lon":5.36652,"is_reserved":false,"is_disabled":false,"rental_uris":{"android":"levelo://app?vid=77d4d260-ee81-4444-9ff3-3ff761928141","ios":"levelo://app?vid=77d4d260-ee81-4444-9ff3-3ff761928141"},"vehicle_type_id":"4","last_reported":1745176074,"current_range_meters":6000,"station_id":"ce4bgrh2rcd13ifvqc8g","pricing_plan_id":"cebpf4jnsgd1na2vs0mg"},{"bike_id":"186380b9-3dab-457b-b648-71d123fa0368","system_id":"levelo_inurba_marseille","lat":43.25104,"lon":5.40306,"is_reserved":false,"is_disabled":true,"rental_uris":{"android":"levelo://app?vid=186380b9-3dab-457b-b648-71d123fa0368","ios":"levelo://app?vid=186380b9-3dab-457b-b648-71d123fa0368"},"vehicle_type_id":"4","last_reported":1745176074,"current_range_meters":6000,"station_id":"ce4bhlh2rcd13ifvqgig","pricing_plan_id":"cebpf4jnsgd1na2vs0mg"},{"bike_id":"1eaca8f5-0017-418a-9bfc-52185bf67513","system_id":"levelo_inurba_marseille","lat":43.33728,"lon":5.39175,"is_reserved":false,"is_disabled":false,"rental_uris":{"android":"levelo://app?vid=1eaca8f5-0017-418a-9bfc-52185bf67513","ios":"levelo://app?vid=1eaca8f5-0017-418a-9bfc-52185bf67513"},"vehicle_type_id":"4","last_reported":1745176074,"current_range_meters":6400,"station_id":"ce4bhr92rcd13ifvqhsg","pricing_plan_id":"cebpf4jnsgd1na2vs0mg"},{"bike_id":"0d21f9f9-922e-4003-8dc4-8224af9ef712","system_id":"levelo_inurba_marseille","lat":43.32631,"lon":5.35894,"is_reserved":false,"is_disabled":true,"rental_uris":{"android":"levelo://app?vid=0d21f9f9-922e-4003-8dc4-8224af9ef712","ios":"levelo://app?vid=0d21f9f9-922e-4003-8dc4-8224af9ef712"},"vehicle_type_id":"4","last_reported":1745176074,"current_range_meters":6400,"station_id":"","pricing_plan_id":"cebpf4jnsgd1na2vs0mg"},{"bike_id":"1b4a8f9d-2faa-464e-b7a7-813f9c13d848","system_id":"levelo_inurba_marseille","lat":43.24165,"lon":5.36402,"is_reserved":false,"is_disabled":false,"rental_uris":{"android":"levelo://app?vid=1b4a8f9d-2faa-464e-b7a7-813f9c13d848","ios":"levelo://app?vid=1b4a8f9d-2faa-464e-b7a7-813f9c13d848"},"vehicle_type_id":"4","last_reported":1745176074,"current_range_meters":6400,"station_id":"cpo36qri1sfpv3e86is0","pricing_plan_id":"cebpf4jnsgd1na2vs0mg"},{"bike_id":"fff20ad7-8554-49ce-ab2c-a52eb6567fcd","system_id":"levelo_inurba_marseille","lat":43.2962,"lon":5.37162,"is_reserved":false,"is_disabled":false,"rental_uris":{"android":"levelo://app?vid=fff20ad7-8554-49ce-ab2c-a52eb6567fcd","ios":"levelo://app?vid=fff20ad7-8554-49ce-ab2c-a52eb6567fcd"},"vehicle_type_id":"4","last_reported":1745176074,"current_range_meters":6400,"station_id":"ce4bgnh2rcd13ifvqc0g","pricing_plan_id":"cebpf4jnsgd1na2vs0mg"},{"bike_id":"0f6a0114-214e-4105-8ec0-7fabaf997cb6","system_id":"levelo_inurba_marseille","lat":43.29564,"lon":5.37522,"is_reserved":false,"is_disabled":false,"rental_uris":{"android":"levelo://app?vid=0f6a0114-214e-4105-8ec0-7fabaf997cb6","ios":"levelo://app?vid=0f6a0114-214e-4105-8ec0-7fabaf997cb6"},"vehicle_type_id":"4","last_reported":1745176074,"current_range_meters":6800,"station_id":"ce4bgh92rcd13ifvqb50","pricing_plan_id":"cebpf4jnsgd1na2vs0mg"},{"bike_id":"1962eea5-0582-4a20-9ded-dce01733ff83","system_id":"levelo_inurba_marseille","lat":43.23965,"lon":5.36632,"is_reserved":false,"is_disabled":false,"rental_uris":{"android":"levelo://app?vid=1962eea5-0582-4a20-9ded-dce01733ff83","ios":"levelo://app?vid=1962eea5-0582-4a20-9ded-dce01733ff83"},"vehicle_type_id":"4","last_reported":1745176074,"current_range_meters":6800,"station_id":"ce4bhi12rcd13ifvqfp0","pricing_plan_id":"cebpf4jnsgd1na2vs0mg"},{"bike_id":"7d77f893-f581-4ab9-8600-0b91cfcdcfdb","system_id":"levelo_inurba_marseille","lat":43.286591,"lon":5.363508,"is_reserved":false,"is_disabled":false,"rental_uris":{"android":"levelo://app?vid=7d77f893-f581-4ab9-8600-0b91cfcdcfdb","ios":"levelo://app?vid=7d77f893-f581-4ab9-8600-0b91cfcdcfdb"},"vehicle_type_id":"4","last_reported":1745176074,"current_range_meters":6800,"station_id":"ce4bh2p2rcd13ifvqdi0","pricing_plan_id":"cebpf4jnsgd1na2vs0mg"},{"bike_id":"1965f819-3778-4654-96e5-aaaf9c36cc08","system_id":"levelo_inurba_marseille","lat":43.30379,"lon":5.42463,"is_reserved":false,"is_disabled":true,"rental_uris":{"android":"levelo://app?vid=1965f819-3778-4654-96e5-aaaf9c36cc08","ios":"levelo://app?vid=1965f819-3778-4654-96e5-aaaf9c36cc08"},"vehicle_type_id":"4","last_reported":1745176074,"current_range_meters":6800,"station_id":"ce4bhoh2rcd13ifvqh6g","pricing_plan_id":"cebpf4jnsgd1na2vs0mg"},{"bike_id":"358e1f20-d875-48ca-9d8c-02d4bc4fc797","system_id":"levelo_inurba_marseille","lat":43.33718,"lon":5.39212,"is_reserved":false,"is_disabled":false,"rental_uris":{"android":"levelo://app?vid=358e1f20-d875-48ca-9d8c-02d4bc4fc797","ios":"levelo://app?vid=358e1f20-d875-48ca-9d8c-02d4bc4fc797"},"vehicle_type_id":"4","last_reported":1745176074,"current_range_meters":6800,"station_id":"ce4bhr92rcd13ifvqhsg","pricing_plan_id":"cebpf4jnsgd1na2vs0mg"},{"bike_id":"931800f0-f5ae-42dc-9401-5ef75e1edc12","system_id":"levelo_inurba_marseille","lat":43.27378,"lon":5.41399,"is_reserved":false,"is_disabled":false,"rental_uris":{"android":"levelo://app?vid=931800f0-f5ae-42dc-9401-5ef75e1edc12","ios":"levelo://app?vid=931800f0-f5ae-42dc-9401-5ef75e1edc12"},"vehicle_type_id":"4","last_reported":1745176074,"current_range_meters":6800,"station_id":"","pricing_plan_id":"cebpf4jnsgd1na2vs0mg"},{"bike_id":"7ea7df06-3a8c-4b3d-b3bb-5d6db3485a55","system_id":"levelo_inurba_marseille","lat":43.295929,"lon":5.381029,"is_reserved":false,"is_disabled":false,"rental_uris":{"android":"levelo://app?vid=7ea7df06-3a8c-4b3d-b3bb-5d6db3485a55","ios":"levelo://app?vid=7ea7df06-3a8c-4b3d-b3bb-5d6db3485a55"},"vehicle_type_id":"4","last_reported":1745176074,"current_range_meters":7200,"station_id":"ce4bgl12rcd13ifvqbo0","pricing_plan_id":"cebpf4jnsgd1na2vs0mg"},{"bike_id":"82cd7385-772c-42be-8270-64b79d89cde4","system_id":"levelo_inurba_marseille","lat":43.29069,"lon":5.37161,"is_reserved":false,"is_disabled":false,"rental_uris":{"android":"levelo://app?vid=82cd7385-772c-42be-8270-64b79d89cde4","ios":"levelo://app?vid=82cd7385-772c-42be-8270-64b79d89cde4"},"vehicle_type_id":"4","last_reported":1745176074,"current_range_meters":7200,"station_id":"ce4bh5p2rcd13ifvqe4g","pricing_plan_id":"cebpf4jnsgd1na2vs0mg"},{"bike_id":"24213b37-b766-4d9c-a174-f6bf34920497","system_id":"levelo_inurba_marseille","lat":43.28469,"lon":5.384178,"is_reserved":false,"is_disabled":false,"rental_uris":{"android":"levelo://app?vid=24213b37-b766-4d9c-a174-f6bf34920497","ios":"levelo://app?vid=24213b37-b766-4d9c-a174-f6bf34920497"},"vehicle_type_id":"4","last_reported":1745176074,"current_range_meters":7200,"station_id":"ce4bh512rcd13ifvqe3g","pricing_plan_id":"cebpf4jnsgd1na2vs0mg"},{"bike_id":"a969d1ed-77d3-4189-b5a7-0bf8cf90d349","system_id":"levelo_inurba_marseille","lat":43.23198,"lon":5.35554,"is_reserved":false,"is_disabled":false,"rental_uris":{"android":"levelo://app?vid=a969d1ed-77d3-4189-b5a7-0bf8cf90d349","ios":"levelo://app?vid=a969d1ed-77d3-4189-b5a7-0bf8cf90d349"},"vehicle_type_id":"4","last_reported":1745176074,"current_range_meters":7200,"station_id":"ce4bhu92rcd13ifvqi70","pricing_plan_id":"cebpf4jnsgd1na2vs0mg"},{"bike_id":"ce8e233f-97bf-422f-9b86-d3df149429ef","system_id":"levelo_inurba_marseille","lat":43.26215,"lon":5.3792,"is_reserved":false,"is_disabled":false,"rental_uris":{"android":"levelo://app?vid=ce8e233f-97bf-422f-9b86-d3df149429ef","ios":"levelo://app?vid=ce8e233f-97bf-422f-9b86-d3df149429ef"},"vehicle_type_id":"4","last_reported":1745176074,"current_range_meters":7200,"station_id":"ce4bhjp2rcd13ifvqg90","pricing_plan_id":"cebpf4jnsgd1na2vs0mg"},{"bike_id":"00d9ac1e-f861-444b-8f12-42523708cbf2","system_id":"levelo_inurba_marseille","lat":43.30897,"lon":5.3963,"is_reserved":false,"is_disabled":false,"rental_uris":{"android":"levelo://app?vid=00d9ac1e-f861-444b-8f12-42523708cbf2","ios":"levelo://app?vid=00d9ac1e-f861-444b-8f12-42523708cbf2"},"vehicle_type_id":"4","last_reported":1745176074,"current_range_meters":8000,"station_id":"ce4bh012rcd13ifvqcv0","pricing_plan_id":"cebpf4jnsgd1na2vs0mg"},{"bike_id":"fcf9ff74-af1a-4467-924f-33ebd134e913","system_id":"levelo_inurba_marseille","lat":43.272144,"lon":5.391878,"is_reserved":false,"is_disabled":false,"rental_uris":{"android":"levelo://app?vid=fcf9ff74-af1a-4467-924f-33ebd134e913","ios":"levelo://app?vid=fcf9ff74-af1a-4467-924f-33ebd134e913"},"vehicle_type_id":"4","last_reported":1745176074,"current_range_meters":7200,"station_id":"ce4bhhp2rcd13ifvqfm0","pricing_plan_id":"cebpf4jnsgd1na2vs0mg"},{"bike_id":"280be209-ab5b-4a2b-9246-1bdbcaea657a","system_id":"levelo_inurba_marseille","lat":43.28084,"lon":5.39664,"is_reserved":false,"is_disabled":false,"rental_uris":{"android":"levelo://app?vid=280be209-ab5b-4a2b-9246-1bdbcaea657a","ios":"levelo://app?vid=280be209-ab5b-4a2b-9246-1bdbcaea657a"},"vehicle_type_id":"4","last_reported":1745176074,"current_range_meters":8000,"station_id":"ce4bho12rcd13ifvqh2g","pricing_plan_id":"cebpf4jnsgd1na2vs0mg"},{"bike_id":"ab9be9a2-b412-4e12-b774-0ac14e1c75f2","system_id":"levelo_inurba_marseille","lat":43.23193,"lon":5.35558,"is_reserved":false,"is_disabled":false,"rental_uris":{"android":"levelo://app?vid=ab9be9a2-b412-4e12-b774-0ac14e1c75f2","ios":"levelo://app?vid=ab9be9a2-b412-4e12-b774-0ac14e1c75f2"},"vehicle_type_id":"4","last_reported":1745176074,"current_range_meters":8000,"station_id":"ce4bhu92rcd13ifvqi70","pricing_plan_id":"cebpf4jnsgd1na2vs0mg"},{"bike_id":"f0b6af0d-1cbf-47a3-af07-dab09fabbbf0","system_id":"levelo_inurba_marseille","lat":43.2319,"lon":5.35565,"is_reserved":false,"is_disabled":false,"rental_uris":{"android":"levelo://app?vid=f0b6af0d-1cbf-47a3-af07-dab09fabbbf0","ios":"levelo://app?vid=f0b6af0d-1cbf-47a3-af07-dab09fabbbf0"},"vehicle_type_id":"4","last_reported":1745176074,"current_range_meters":8000,"station_id":"ce4bhu92rcd13ifvqi70","pricing_plan_id":"cebpf4jnsgd1na2vs0mg"},{"bike_id":"8dcdbddf-c32e-4b31-8e8c-b20dbb5dcd33","system_id":"levelo_inurba_marseille","lat":43.27942,"lon":5.41052,"is_reserved":false,"is_disabled":false,"rental_uris":{"android":"levelo://app?vid=8dcdbddf-c32e-4b31-8e8c-b20dbb5dcd33","ios":"levelo://app?vid=8dcdbddf-c32e-4b31-8e8c-b20dbb5dcd33"},"vehicle_type_id":"4","last_reported":1745176074,"current_range_meters":8000,"station_id":"ce4bhnp2rcd13ifvqh0g","pricing_plan_id":"cebpf4jnsgd1na2vs0mg"},{"bike_id":"aa264780-2f1a-4e6f-9948-ffb1ce876951","system_id":"levelo_inurba_marseille","lat":43.295912,"lon":5.381038,"is_reserved":false,"is_disabled":false,"rental_uris":{"android":"levelo://app?vid=aa264780-2f1a-4e6f-9948-ffb1ce876951","ios":"levelo://app?vid=aa264780-2f1a-4e6f-9948-ffb1ce876951"},"vehicle_type_id":"4","last_reported":1745176074,"current_range_meters":6800,"station_id":"ce4bgl12rcd13ifvqbo0","pricing_plan_id":"cebpf4jnsgd1na2vs0mg"},{"bike_id":"2d46f81e-bf83-4416-bba9-7e11b13652fc","system_id":"levelo_inurba_marseille","lat":43.30152,"lon":5.37411,"is_reserved":false,"is_disabled":true,"rental_uris":{"android":"levelo://app?vid=2d46f81e-bf83-4416-bba9-7e11b13652fc","ios":"levelo://app?vid=2d46f81e-bf83-4416-bba9-7e11b13652fc"},"vehicle_type_id":"4","last_reported":1745176074,"current_range_meters":8000,"station_id":"ce4bgs92rcd13ifvqcc0","pricing_plan_id":"cebpf4jnsgd1na2vs0mg"},{"bike_id":"6565ca44-2e63-4f42-a847-09fa2bdb37f3","system_id":"levelo_inurba_marseille","lat":43.32006,"lon":5.38145,"is_reserved":false,"is_disabled":true,"rental_uris":{"android":"levelo://app?vid=6565ca44-2e63-4f42-a847-09fa2bdb37f3","ios":"levelo://app?vid=6565ca44-2e63-4f42-a847-09fa2bdb37f3"},"vehicle_type_id":"4","last_reported":1745176074,"current_range_meters":8000,"station_id":"ce4bhr12rcd13ifvqhpg","pricing_plan_id":"cebpf4jnsgd1na2vs0mg"},{"bike_id":"2ba8c5c4-f0af-4f23-add7-feee032d7669","system_id":"levelo_inurba_marseille","lat":43.28296,"lon":5.35064,"is_reserved":false,"is_disabled":false,"rental_uris":{"android":"levelo://app?vid=2ba8c5c4-f0af-4f23-add7-feee032d7669","ios":"levelo://app?vid=2ba8c5c4-f0af-4f23-add7-feee032d7669"},"vehicle_type_id":"4","last_reported":1745176074,"current_range_meters":8000,"station_id":"ce4bhbp2rcd13ifvqerg","pricing_plan_id":"cebpf4jnsgd1na2vs0mg"},{"bike_id":"69ad8e3c-2b7b-4a69-9e26-a107c2e16335","system_id":"levelo_inurba_marseille","lat":43.32367,"lon":5.38886,"is_reserved":false,"is_disabled":false,"rental_uris":{"android":"levelo://app?vid=69ad8e3c-2b7b-4a69-9e26-a107c2e16335","ios":"levelo://app?vid=69ad8e3c-2b7b-4a69-9e26-a107c2e16335"},"vehicle_type_id":"4","last_reported":1745176074,"current_range_meters":8000,"station_id":"ce4bhqp2rcd13ifvqhog","pricing_plan_id":"cebpf4jnsgd1na2vs0mg"},{"bike_id":"138d6608-886e-4863-a664-7df6e5cc9a47","system_id":"levelo_inurba_marseille","lat":43.32669,"lon":5.42173,"is_reserved":false,"is_disabled":false,"rental_uris":{"android":"levelo://app?vid=138d6608-886e-4863-a664-7df6e5cc9a47","ios":"levelo://app?vid=138d6608-886e-4863-a664-7df6e5cc9a47"},"vehicle_type_id":"4","last_reported":1745176074,"current_range_meters":8000,"station_id":"","pricing_plan_id":"cebpf4jnsgd1na2vs0mg"},{"bike_id":"97e50bb0-9a70-481b-b370-e509345e710a","system_id":"levelo_inurba_marseille","lat":43.28057,"lon":5.36932,"is_reserved":false,"is_disabled":true,"rental_uris":{"android":"levelo://app?vid=97e50bb0-9a70-481b-b370-e509345e710a","ios":"levelo://app?vid=97e50bb0-9a70-481b-b370-e509345e710a"},"vehicle_type_id":"4","last_reported":1745176074,"current_range_meters":8400,"station_id":"ce4bha12rcd13ifvqef0","pricing_plan_id":"cebpf4jnsgd1na2vs0mg"},{"bike_id":"791fcd09-1481-4246-a8c5-5c827f767ad2","system_id":"levelo_inurba_marseille","lat":43.301767,"lon":5.394163,"is_reserved":false,"is_disabled":false,"rental_uris":{"android":"levelo://app?vid=791fcd09-1481-4246-a8c5-5c827f767ad2","ios":"levelo://app?vid=791fcd09-1481-4246-a8c5-5c827f767ad2"},"vehicle_type_id":"4","last_reported":1745176074,"current_range_meters":8400,"station_id":"ce4bgkh2rcd13ifvqbk0","pricing_plan_id":"cebpf4jnsgd1na2vs0mg"},{"bike_id":"36ac02ba-2835-48d7-9d54-047188b88f77","system_id":"levelo_inurba_marseille","lat":43.24214,"lon":5.39694,"is_reserved":false,"is_disabled":false,"rental_uris":{"android":"levelo://app?vid=36ac02ba-2835-48d7-9d54-047188b88f77","ios":"levelo://app?vid=36ac02ba-2835-48d7-9d54-047188b88f77"},"vehicle_type_id":"4","last_reported":1745176074,"current_range_meters":8400,"station_id":"ce4bhn12rcd13ifvqgpg","pricing_plan_id":"cebpf4jnsgd1na2vs0mg"},{"bike_id":"0dd13644-e942-427d-9540-f17eaef6dd89","system_id":"levelo_inurba_marseille","lat":43.27014,"lon":5.38785,"is_reserved":false,"is_disabled":true,"rental_uris":{"android":"levelo://app?vid=0dd13644-e942-427d-9540-f17eaef6dd89","ios":"levelo://app?vid=0dd13644-e942-427d-9540-f17eaef6dd89"},"vehicle_type_id":"4","last_reported":1745176074,"current_range_meters":8400,"station_id":"","pricing_plan_id":"cebpf4jnsgd1na2vs0mg"},{"bike_id":"83737fdd-005d-403e-8fa2-1644fc83261a","system_id":"levelo_inurba_marseille","lat":43.30992,"lon":5.39014,"is_reserved":false,"is_disabled":false,"rental_uris":{"android":"levelo://app?vid=83737fdd-005d-403e-8fa2-1644fc83261a","ios":"levelo://app?vid=83737fdd-005d-403e-8fa2-1644fc83261a"},"vehicle_type_id":"4","last_reported":1745176074,"current_range_meters":8400,"station_id":"ce4bgup2rcd13ifvqco0","pricing_plan_id":"cebpf4jnsgd1na2vs0mg"},{"bike_id":"0f1330dd-9629-4cb1-a268-cdc7b9780f0b","system_id":"levelo_inurba_marseille","lat":43.30147,"lon":5.38088,"is_reserved":false,"is_disabled":false,"rental_uris":{"android":"levelo://app?vid=0f1330dd-9629-4cb1-a268-cdc7b9780f0b","ios":"levelo://app?vid=0f1330dd-9629-4cb1-a268-cdc7b9780f0b"},"vehicle_type_id":"4","last_reported":1745176074,"current_range_meters":9600,"station_id":"ce4bgjp2rcd13ifvqbh0","pricing_plan_id":"cebpf4jnsgd1na2vs0mg"},{"bike_id":"d0395819-ea40-46d3-acfe-3a01d6c396c0","system_id":"levelo_inurba_marseille","lat":43.23206,"lon":5.40013,"is_reserved":false,"is_disabled":true,"rental_uris":{"android":"levelo://app?vid=d0395819-ea40-46d3-acfe-3a01d6c396c0","ios":"levelo://app?vid=d0395819-ea40-46d3-acfe-3a01d6c396c0"},"vehicle_type_id":"4","last_reported":1745176074,"current_range_meters":8400,"station_id":"ce4bhn12rcd13ifvqgqg","pricing_plan_id":"cebpf4jnsgd1na2vs0mg"},{"bike_id":"47b667cc-a2f4-4be4-8aa3-0241cf9ca1f6","system_id":"levelo_inurba_marseille","lat":43.24815,"lon":5.37464,"is_reserved":false,"is_disabled":false,"rental_uris":{"android":"levelo://app?vid=47b667cc-a2f4-4be4-8aa3-0241cf9ca1f6","ios":"levelo://app?vid=47b667cc-a2f4-4be4-8aa3-0241cf9ca1f6"},"vehicle_type_id":"4","last_reported":1745176074,"current_range_meters":8800,"station_id":"ce4bhgh2rcd13ifvqfb0","pricing_plan_id":"cebpf4jnsgd1na2vs0mg"},{"bike_id":"e2f5c0a5-ab79-45cd-8fc1-a6e474285325","system_id":"levelo_inurba_marseille","lat":43.27541,"lon":5.38443,"is_reserved":false,"is_disabled":false,"rental_uris":{"android":"levelo://app?vid=e2f5c0a5-ab79-45cd-8fc1-a6e474285325","ios":"levelo://app?vid=e2f5c0a5-ab79-45cd-8fc1-a6e474285325"},"vehicle_type_id":"4","last_reported":1745176074,"current_range_meters":8400,"station_id":"ce4bhh92rcd13ifvqfi0","pricing_plan_id":"cebpf4jnsgd1na2vs0mg"},{"bike_id":"85c8a486-780f-49a1-954b-d9de8313d784","system_id":"levelo_inurba_marseille","lat":43.29979,"lon":5.38484,"is_reserved":false,"is_disabled":false,"rental_uris":{"android":"levelo://app?vid=85c8a486-780f-49a1-954b-d9de8313d784","ios":"levelo://app?vid=85c8a486-780f-49a1-954b-d9de8313d784"},"vehicle_type_id":"4","last_reported":1745176074,"current_range_meters":8800,"station_id":"ce4bgj92rcd13ifvqbd0","pricing_plan_id":"cebpf4jnsgd1na2vs0mg"},{"bike_id":"96c1ac31-9fea-4c51-b639-a5cb1598ae10","system_id":"levelo_inurba_marseille","lat":43.29594,"lon":5.38104,"is_reserved":false,"is_disabled":false,"rental_uris":{"android":"levelo://app?vid=96c1ac31-9fea-4c51-b639-a5cb1598ae10","ios":"levelo://app?vid=96c1ac31-9fea-4c51-b639-a5cb1598ae10"},"vehicle_type_id":"4","last_reported":1745176074,"current_range_meters":8800,"station_id":"ce4bgl12rcd13ifvqbo0","pricing_plan_id":"cebpf4jnsgd1na2vs0mg"},{"bike_id":"1b64a06c-8c3f-4044-b435-0c5447524fd5","system_id":"levelo_inurba_marseille","lat":43.287,"lon":5.37393,"is_reserved":false,"is_disabled":true,"rental_uris":{"android":"levelo://app?vid=1b64a06c-8c3f-4044-b435-0c5447524fd5","ios":"levelo://app?vid=1b64a06c-8c3f-4044-b435-0c5447524fd5"},"vehicle_type_id":"4","last_reported":1745176074,"current_range_meters":8800,"station_id":"ce4bh3p2rcd13ifvqdq0","pricing_plan_id":"cebpf4jnsgd1na2vs0mg"},{"bike_id":"4e6892ef-dbe3-43e4-bc69-b2da5d802c90","system_id":"levelo_inurba_marseille","lat":43.27371,"lon":5.36261,"is_reserved":false,"is_disabled":true,"rental_uris":{"android":"levelo://app?vid=4e6892ef-dbe3-43e4-bc69-b2da5d802c90","ios":"levelo://app?vid=4e6892ef-dbe3-43e4-bc69-b2da5d802c90"},"vehicle_type_id":"4","last_reported":1745176074,"current_range_meters":9200,"station_id":"ce4bhbh2rcd13ifvqeo0","pricing_plan_id":"cebpf4jnsgd1na2vs0mg"},{"bike_id":"c64634fa-4e88-4b57-8519-194988714c8e","system_id":"levelo_inurba_marseille","lat":43.29532,"lon":5.39015,"is_reserved":false,"is_disabled":false,"rental_uris":{"android":"levelo://app?vid=c64634fa-4e88-4b57-8519-194988714c8e","ios":"levelo://app?vid=c64634fa-4e88-4b57-8519-194988714c8e"},"vehicle_type_id":"4","last_reported":1745176074,"current_range_meters":9200,"station_id":"ce4bh412rcd13ifvqdr0","pricing_plan_id":"cebpf4jnsgd1na2vs0mg"},{"bike_id":"320c6405-58a6-43e2-aebb-e173439b8a31","system_id":"levelo_inurba_marseille","lat":43.28689,"lon":5.37395,"is_reserved":false,"is_disabled":false,"rental_uris":{"android":"levelo://app?vid=320c6405-58a6-43e2-aebb-e173439b8a31","ios":"levelo://app?vid=320c6405-58a6-43e2-aebb-e173439b8a31"},"vehicle_type_id":"4","last_reported":1745176074,"current_range_meters":9200,"station_id":"ce4bh3p2rcd13ifvqdq0","pricing_plan_id":"cebpf4jnsgd1na2vs0mg"},{"bike_id":"527fac75-0783-4b2c-bd4e-07f2f2fee902","system_id":"levelo_inurba_marseille","lat":43.31121,"lon":5.37783,"is_reserved":false,"is_disabled":true,"rental_uris":{"android":"levelo://app?vid=527fac75-0783-4b2c-bd4e-07f2f2fee902","ios":"levelo://app?vid=527fac75-0783-4b2c-bd4e-07f2f2fee902"},"vehicle_type_id":"4","last_reported":1745176074,"current_range_meters":9200,"station_id":"ce4bgt92rcd13ifvqcg0","pricing_plan_id":"cebpf4jnsgd1na2vs0mg"},{"bike_id":"06eb9553-e1d6-44d2-9472-c518d4ac4324","system_id":"levelo_inurba_marseille","lat":43.30134,"lon":5.38767,"is_reserved":false,"is_disabled":false,"rental_uris":{"android":"levelo://app?vid=06eb9553-e1d6-44d2-9472-c518d4ac4324","ios":"levelo://app?vid=06eb9553-e1d6-44d2-9472-c518d4ac4324"},"vehicle_type_id":"4","last_reported":1745176074,"current_range_meters":12800,"station_id":"ce4bghh2rcd13ifvqb60","pricing_plan_id":"cebpf4jnsgd1na2vs0mg"},{"bike_id":"e2a53fcf-8c26-4043-9b7d-def7bc703d34","system_id":"levelo_inurba_marseille","lat":43.312026,"lon":5.368296,"is_reserved":false,"is_disabled":false,"rental_uris":{"android":"levelo://app?vid=e2a53fcf-8c26-4043-9b7d-def7bc703d34","ios":"levelo://app?vid=e2a53fcf-8c26-4043-9b7d-def7bc703d34"},"vehicle_type_id":"4","last_reported":1745176074,"current_range_meters":9600,"station_id":"ce4bgl92rcd13ifvqbq0","pricing_plan_id":"cebpf4jnsgd1na2vs0mg"},{"bike_id":"f5ce40a3-db8b-4d6d-8290-224fbefcfbda","system_id":"levelo_inurba_marseille","lat":43.28414,"lon":5.34979,"is_reserved":false,"is_disabled":false,"rental_uris":{"android":"levelo://app?vid=f5ce40a3-db8b-4d6d-8290-224fbefcfbda","ios":"levelo://app?vid=f5ce40a3-db8b-4d6d-8290-224fbefcfbda"},"vehicle_type_id":"4","last_reported":1745176074,"current_range_meters":9600,"station_id":"ce4bhbh2rcd13ifvqepg","pricing_plan_id":"cebpf4jnsgd1na2vs0mg"},{"bike_id":"16ed9148-c419-42bc-810f-4543889e5782","system_id":"levelo_inurba_marseille","lat":43.254953,"lon":5.376481,"is_reserved":false,"is_disabled":false,"rental_uris":{"android":"levelo://app?vid=16ed9148-c419-42bc-810f-4543889e5782","ios":"levelo://app?vid=16ed9148-c419-42bc-810f-4543889e5782"},"vehicle_type_id":"4","last_reported":1745176074,"current_range_meters":9600,"station_id":"ce4bhh12rcd13ifvqff0","pricing_plan_id":"cebpf4jnsgd1na2vs0mg"},{"bike_id":"63b855c2-7d2a-4db2-a754-8e3f45c9a450","system_id":"levelo_inurba_marseille","lat":43.29296,"lon":5.3746,"is_reserved":false,"is_disabled":false,"rental_uris":{"android":"levelo://app?vid=63b855c2-7d2a-4db2-a754-8e3f45c9a450","ios":"levelo://app?vid=63b855c2-7d2a-4db2-a754-8e3f45c9a450"},"vehicle_type_id":"4","last_reported":1745176074,"current_range_meters":9600,"station_id":"ce4bgi12rcd13ifvqb70","pricing_plan_id":"cebpf4jnsgd1na2vs0mg"},{"bike_id":"fb518cf0-772f-4a68-b383-5d5eedf0cffa","system_id":"levelo_inurba_marseille","lat":43.30311,"lon":5.36877,"is_reserved":false,"is_disabled":false,"rental_uris":{"android":"levelo://app?vid=fb518cf0-772f-4a68-b383-5d5eedf0cffa","ios":"levelo://app?vid=fb518cf0-772f-4a68-b383-5d5eedf0cffa"},"vehicle_type_id":"4","last_reported":1745176074,"current_range_meters":9600,"station_id":"ce4bgqh2rcd13ifvqc5g","pricing_plan_id":"cebpf4jnsgd1na2vs0mg"},{"bike_id":"d8754dce-3ce6-4f68-ba47-f64cfc8b26ab","system_id":"levelo_inurba_marseille","lat":43.23189,"lon":5.35563,"is_reserved":false,"is_disabled":false,"rental_uris":{"android":"levelo://app?vid=d8754dce-3ce6-4f68-ba47-f64cfc8b26ab","ios":"levelo://app?vid=d8754dce-3ce6-4f68-ba47-f64cfc8b26ab"},"vehicle_type_id":"4","last_reported":1745176074,"current_range_meters":9600,"station_id":"ce4bhu92rcd13ifvqi70","pricing_plan_id":"cebpf4jnsgd1na2vs0mg"},{"bike_id":"1886fb80-2895-40f7-844d-7933f5d904dc","system_id":"levelo_inurba_marseille","lat":43.27893,"lon":5.39307,"is_reserved":false,"is_disabled":false,"rental_uris":{"android":"levelo://app?vid=1886fb80-2895-40f7-844d-7933f5d904dc","ios":"levelo://app?vid=1886fb80-2895-40f7-844d-7933f5d904dc"},"vehicle_type_id":"4","last_reported":1745176074,"current_range_meters":9600,"station_id":"","pricing_plan_id":"cebpf4jnsgd1na2vs0mg"},{"bike_id":"b317f5f2-1f85-453d-bdd9-81a6bbe350b4","system_id":"levelo_inurba_marseille","lat":43.239649,"lon":5.366334,"is_reserved":false,"is_disabled":false,"rental_uris":{"android":"levelo://app?vid=b317f5f2-1f85-453d-bdd9-81a6bbe350b4","ios":"levelo://app?vid=b317f5f2-1f85-453d-bdd9-81a6bbe350b4"},"vehicle_type_id":"4","last_reported":1745176074,"current_range_meters":9600,"station_id":"ce4bhi12rcd13ifvqfp0","pricing_plan_id":"cebpf4jnsgd1na2vs0mg"},{"bike_id":"478adf2f-07e1-4396-965c-e1a74e1fa681","system_id":"levelo_inurba_marseille","lat":43.27904,"lon":5.38015,"is_reserved":false,"is_disabled":false,"rental_uris":{"android":"levelo://app?vid=478adf2f-07e1-4396-965c-e1a74e1fa681","ios":"levelo://app?vid=478adf2f-07e1-4396-965c-e1a74e1fa681"},"vehicle_type_id":"4","last_reported":1745176074,"current_range_meters":8000,"station_id":"ce4bhf92rcd13ifvqf50","pricing_plan_id":"cebpf4jnsgd1na2vs0mg"},{"bike_id":"ae701c5e-5e0e-4431-9167-95d75c59ed1b","system_id":"levelo_inurba_marseille","lat":43.29599,"lon":5.38092,"is_reserved":false,"is_disabled":false,"rental_uris":{"android":"levelo://app?vid=ae701c5e-5e0e-4431-9167-95d75c59ed1b","ios":"levelo://app?vid=ae701c5e-5e0e-4431-9167-95d75c59ed1b"},"vehicle_type_id":"4","last_reported":1745176074,"current_range_meters":12800,"station_id":"ce4bgl12rcd13ifvqbo0","pricing_plan_id":"cebpf4jnsgd1na2vs0mg"},{"bike_id":"2e45edc1-d045-4aa8-8014-df0f0e56636b","system_id":"levelo_inurba_marseille","lat":43.29413,"lon":5.38625,"is_reserved":false,"is_disabled":false,"rental_uris":{"android":"levelo://app?vid=2e45edc1-d045-4aa8-8014-df0f0e56636b","ios":"levelo://app?vid=2e45edc1-d045-4aa8-8014-df0f0e56636b"},"vehicle_type_id":"4","last_reported":1745176074,"current_range_meters":9600,"station_id":"ce4bh2h2rcd13ifvqdh0","pricing_plan_id":"cebpf4jnsgd1na2vs0mg"},{"bike_id":"dc3dc64f-34ac-4c0c-97f4-ebcc9b65a23e","system_id":"levelo_inurba_marseille","lat":43.32335,"lon":5.40619,"is_reserved":false,"is_disabled":false,"rental_uris":{"android":"levelo://app?vid=dc3dc64f-34ac-4c0c-97f4-ebcc9b65a23e","ios":"levelo://app?vid=dc3dc64f-34ac-4c0c-97f4-ebcc9b65a23e"},"vehicle_type_id":"4","last_reported":1745176074,"current_range_meters":10000,"station_id":"ce4bhq92rcd13ifvqhjg","pricing_plan_id":"cebpf4jnsgd1na2vs0mg"},{"bike_id":"6276c712-dc71-4137-9a44-e63299fa20b2","system_id":"levelo_inurba_marseille","lat":43.32706,"lon":5.35894,"is_reserved":false,"is_disabled":false,"rental_uris":{"android":"levelo://app?vid=6276c712-dc71-4137-9a44-e63299fa20b2","ios":"levelo://app?vid=6276c712-dc71-4137-9a44-e63299fa20b2"},"vehicle_type_id":"4","last_reported":1745176074,"current_range_meters":10000,"station_id":"","pricing_plan_id":"cebpf4jnsgd1na2vs0mg"},{"bike_id":"d177bdcb-ba4d-4c2e-8899-f6b0f9af395c","system_id":"levelo_inurba_marseille","lat":43.25955,"lon":5.40916,"is_reserved":false,"is_disabled":false,"rental_uris":{"android":"levelo://app?vid=d177bdcb-ba4d-4c2e-8899-f6b0f9af395c","ios":"levelo://app?vid=d177bdcb-ba4d-4c2e-8899-f6b0f9af395c"},"vehicle_type_id":"4","last_reported":1745176074,"current_range_meters":10000,"station_id":"ce4bhm92rcd13ifvqglg","pricing_plan_id":"cebpf4jnsgd1na2vs0mg"},{"bike_id":"5e291437-1e27-4911-91b5-49043de1898b","system_id":"levelo_inurba_marseille","lat":43.29597,"lon":5.38094,"is_reserved":false,"is_disabled":false,"rental_uris":{"android":"levelo://app?vid=5e291437-1e27-4911-91b5-49043de1898b","ios":"levelo://app?vid=5e291437-1e27-4911-91b5-49043de1898b"},"vehicle_type_id":"4","last_reported":1745176074,"current_range_meters":9600,"station_id":"ce4bgl12rcd13ifvqbo0","pricing_plan_id":"cebpf4jnsgd1na2vs0mg"},{"bike_id":"0dec03c3-0b9a-4ec6-bfed-f63360d8be33","system_id":"levelo_inurba_marseille","lat":43.25509,"lon":5.37646,"is_reserved":false,"is_disabled":false,"rental_uris":{"android":"levelo://app?vid=0dec03c3-0b9a-4ec6-bfed-f63360d8be33","ios":"levelo://app?vid=0dec03c3-0b9a-4ec6-bfed-f63360d8be33"},"vehicle_type_id":"4","last_reported":1745176074,"current_range_meters":10000,"station_id":"ce4bhh12rcd13ifvqff0","pricing_plan_id":"cebpf4jnsgd1na2vs0mg"},{"bike_id":"33399c5a-7b71-4ae2-a964-55b2f2e618d0","system_id":"levelo_inurba_marseille","lat":43.30214,"lon":5.3657,"is_reserved":false,"is_disabled":true,"rental_uris":{"android":"levelo://app?vid=33399c5a-7b71-4ae2-a964-55b2f2e618d0","ios":"levelo://app?vid=33399c5a-7b71-4ae2-a964-55b2f2e618d0"},"vehicle_type_id":"4","last_reported":1745176074,"current_range_meters":10000,"station_id":"","pricing_plan_id":"cebpf4jnsgd1na2vs0mg"},{"bike_id":"2510f753-2493-467f-8f1c-9aaabce040f9","system_id":"levelo_inurba_marseille","lat":43.28727,"lon":5.36084,"is_reserved":false,"is_disabled":false,"rental_uris":{"android":"levelo://app?vid=2510f753-2493-467f-8f1c-9aaabce040f9","ios":"levelo://app?vid=2510f753-2493-467f-8f1c-9aaabce040f9"},"vehicle_type_id":"4","last_reported":1745176074,"current_range_meters":10000,"station_id":"cki0cbj6b192h4jlfktg","pricing_plan_id":"cebpf4jnsgd1na2vs0mg"},{"bike_id":"d5ef647d-00ca-43ce-8de2-a9826ded3f15","system_id":"levelo_inurba_marseille","lat":43.21177,"lon":5.35088,"is_reserved":false,"is_disabled":false,"rental_uris":{"android":"levelo://app?vid=d5ef647d-00ca-43ce-8de2-a9826ded3f15","ios":"levelo://app?vid=d5ef647d-00ca-43ce-8de2-a9826ded3f15"},"vehicle_type_id":"4","last_reported":1745176074,"current_range_meters":10000,"station_id":"st_cvj6sg6p6f1abm77japg","pricing_plan_id":"cebpf4jnsgd1na2vs0mg"},{"bike_id":"3b0f4a35-815a-43b2-9a1e-72a9b3838df2","system_id":"levelo_inurba_marseille","lat":43.287323,"lon":5.365399,"is_reserved":false,"is_disabled":false,"rental_uris":{"android":"levelo://app?vid=3b0f4a35-815a-43b2-9a1e-72a9b3838df2","ios":"levelo://app?vid=3b0f4a35-815a-43b2-9a1e-72a9b3838df2"},"vehicle_type_id":"4","last_reported":1745176074,"current_range_meters":10800,"station_id":"ce4bh2p2rcd13ifvqdi0","pricing_plan_id":"cebpf4jnsgd1na2vs0mg"},{"bike_id":"e82ebbf2-4c2f-4c4b-9e5a-931b311e095a","system_id":"levelo_inurba_marseille","lat":43.26636,"lon":5.38983,"is_reserved":false,"is_disabled":false,"rental_uris":{"android":"levelo://app?vid=e82ebbf2-4c2f-4c4b-9e5a-931b311e095a","ios":"levelo://app?vid=e82ebbf2-4c2f-4c4b-9e5a-931b311e095a"},"vehicle_type_id":"4","last_reported":1745176074,"current_range_meters":11600,"station_id":"ce4bhe12rcd13ifvqf30","pricing_plan_id":"cebpf4jnsgd1na2vs0mg"},{"bike_id":"271456e2-7177-4ceb-8cff-784e2db81f75","system_id":"levelo_inurba_marseille","lat":43.30036,"lon":5.37247,"is_reserved":false,"is_disabled":false,"rental_uris":{"android":"levelo://app?vid=271456e2-7177-4ceb-8cff-784e2db81f75","ios":"levelo://app?vid=271456e2-7177-4ceb-8cff-784e2db81f75"},"vehicle_type_id":"4","last_reported":1745176074,"current_range_meters":10800,"station_id":"","pricing_plan_id":"cebpf4jnsgd1na2vs0mg"},{"bike_id":"99c6fa4f-23bb-4e34-b54b-5b16d1915ca8","system_id":"levelo_inurba_marseille","lat":43.28038,"lon":5.36942,"is_reserved":false,"is_disabled":false,"rental_uris":{"android":"levelo://app?vid=99c6fa4f-23bb-4e34-b54b-5b16d1915ca8","ios":"levelo://app?vid=99c6fa4f-23bb-4e34-b54b-5b16d1915ca8"},"vehicle_type_id":"4","last_reported":1745176074,"current_range_meters":12800,"station_id":"ce4bha12rcd13ifvqef0","pricing_plan_id":"cebpf4jnsgd1na2vs0mg"},{"bike_id":"7408389d-a1da-4ed2-b25f-33c3f37d6c85","system_id":"levelo_inurba_marseille","lat":43.25504,"lon":5.37647,"is_reserved":false,"is_disabled":false,"rental_uris":{"android":"levelo://app?vid=7408389d-a1da-4ed2-b25f-33c3f37d6c85","ios":"levelo://app?vid=7408389d-a1da-4ed2-b25f-33c3f37d6c85"},"vehicle_type_id":"4","last_reported":1745176074,"current_range_meters":10800,"station_id":"ce4bhh12rcd13ifvqff0","pricing_plan_id":"cebpf4jnsgd1na2vs0mg"},{"bike_id":"39c6ee78-9fdc-4959-875c-63c910a4282a","system_id":"levelo_inurba_marseille","lat":43.29844,"lon":5.36282,"is_reserved":false,"is_disabled":false,"rental_uris":{"android":"levelo://app?vid=39c6ee78-9fdc-4959-875c-63c910a4282a","ios":"levelo://app?vid=39c6ee78-9fdc-4959-875c-63c910a4282a"},"vehicle_type_id":"4","last_reported":1745176074,"current_range_meters":10000,"station_id":"ce4bgpp2rcd13ifvqc3g","pricing_plan_id":"cebpf4jnsgd1na2vs0mg"},{"bike_id":"cc4e8daf-8846-4035-942b-a36b9137d061","system_id":"levelo_inurba_marseille","lat":43.25486,"lon":5.3765,"is_reserved":false,"is_disabled":true,"rental_uris":{"android":"levelo://app?vid=cc4e8daf-8846-4035-942b-a36b9137d061","ios":"levelo://app?vid=cc4e8daf-8846-4035-942b-a36b9137d061"},"vehicle_type_id":"4","last_reported":1745176074,"current_range_meters":10800,"station_id":"ce4bhh12rcd13ifvqff0","pricing_plan_id":"cebpf4jnsgd1na2vs0mg"},{"bike_id":"0be86137-09cc-4633-b790-89c88cb9a8a3","system_id":"levelo_inurba_marseille","lat":43.23965,"lon":5.36633,"is_reserved":false,"is_disabled":false,"rental_uris":{"android":"levelo://app?vid=0be86137-09cc-4633-b790-89c88cb9a8a3","ios":"levelo://app?vid=0be86137-09cc-4633-b790-89c88cb9a8a3"},"vehicle_type_id":"4","last_reported":1745176074,"current_range_meters":10800,"station_id":"ce4bhi12rcd13ifvqfp0","pricing_plan_id":"cebpf4jnsgd1na2vs0mg"},{"bike_id":"a41fb6f3-b04d-48f9-b059-37f61447c8e7","system_id":"levelo_inurba_marseille","lat":43.295768,"lon":5.375087,"is_reserved":false,"is_disabled":false,"rental_uris":{"android":"levelo://app?vid=a41fb6f3-b04d-48f9-b059-37f61447c8e7","ios":"levelo://app?vid=a41fb6f3-b04d-48f9-b059-37f61447c8e7"},"vehicle_type_id":"4","last_reported":1745176074,"current_range_meters":11200,"station_id":"","pricing_plan_id":"cebpf4jnsgd1na2vs0mg"},{"bike_id":"1fb721e3-457a-40d6-8834-f4b385820f66","system_id":"levelo_inurba_marseille","lat":43.27995,"lon":5.41671,"is_reserved":false,"is_disabled":false,"rental_uris":{"android":"levelo://app?vid=1fb721e3-457a-40d6-8834-f4b385820f66","ios":"levelo://app?vid=1fb721e3-457a-40d6-8834-f4b385820f66"},"vehicle_type_id":"4","last_reported":1745176074,"current_range_meters":11200,"station_id":"ce4bho12rcd13ifvqh1g","pricing_plan_id":"cebpf4jnsgd1na2vs0mg"},{"bike_id":"6bc4d358-1656-47c7-b97c-702142de25ac","system_id":"levelo_inurba_marseille","lat":43.248127,"lon":5.374556,"is_reserved":false,"is_disabled":false,"rental_uris":{"android":"levelo://app?vid=6bc4d358-1656-47c7-b97c-702142de25ac","ios":"levelo://app?vid=6bc4d358-1656-47c7-b97c-702142de25ac"},"vehicle_type_id":"4","last_reported":1745176074,"current_range_meters":11200,"station_id":"ce4bhgh2rcd13ifvqfb0","pricing_plan_id":"cebpf4jnsgd1na2vs0mg"},{"bike_id":"12873670-7cdd-4b4b-b0c7-7f502fb25998","system_id":"levelo_inurba_marseille","lat":43.26785,"lon":5.39414,"is_reserved":false,"is_disabled":false,"rental_uris":{"android":"levelo://app?vid=12873670-7cdd-4b4b-b0c7-7f502fb25998","ios":"levelo://app?vid=12873670-7cdd-4b4b-b0c7-7f502fb25998"},"vehicle_type_id":"4","last_reported":1745176074,"current_range_meters":10800,"station_id":"ce4bhh12rcd13ifvqfg0","pricing_plan_id":"cebpf4jnsgd1na2vs0mg"},{"bike_id":"3c68d4af-f244-4d5b-a673-170645748e37","system_id":"levelo_inurba_marseille","lat":43.276808,"lon":5.397969,"is_reserved":false,"is_disabled":false,"rental_uris":{"android":"levelo://app?vid=3c68d4af-f244-4d5b-a673-170645748e37","ios":"levelo://app?vid=3c68d4af-f244-4d5b-a673-170645748e37"},"vehicle_type_id":"4","last_reported":1745176074,"current_range_meters":11200,"station_id":"","pricing_plan_id":"cebpf4jnsgd1na2vs0mg"},{"bike_id":"64904af7-8595-4150-91ff-57ff6ea5c1cc","system_id":"levelo_inurba_marseille","lat":43.31499,"lon":5.37273,"is_reserved":false,"is_disabled":false,"rental_uris":{"android":"levelo://app?vid=64904af7-8595-4150-91ff-57ff6ea5c1cc","ios":"levelo://app?vid=64904af7-8595-4150-91ff-57ff6ea5c1cc"},"vehicle_type_id":"4","last_reported":1745176074,"current_range_meters":11200,"station_id":"ce4bgt12rcd13ifvqcd0","pricing_plan_id":"cebpf4jnsgd1na2vs0mg"},{"bike_id":"6dcff797-2b84-4032-8191-b68bafb5a60a","system_id":"levelo_inurba_marseille","lat":43.29603,"lon":5.38093,"is_reserved":false,"is_disabled":false,"rental_uris":{"android":"levelo://app?vid=6dcff797-2b84-4032-8191-b68bafb5a60a","ios":"levelo://app?vid=6dcff797-2b84-4032-8191-b68bafb5a60a"},"vehicle_type_id":"4","last_reported":1745176074,"current_range_meters":15200,"station_id":"ce4bgl12rcd13ifvqbo0","pricing_plan_id":"cebpf4jnsgd1na2vs0mg"},{"bike_id":"6563b44b-0a3b-4934-bca0-a4ea7f37c5a1","system_id":"levelo_inurba_marseille","lat":43.27607,"lon":5.36131,"is_reserved":false,"is_disabled":false,"rental_uris":{"android":"levelo://app?vid=6563b44b-0a3b-4934-bca0-a4ea7f37c5a1","ios":"levelo://app?vid=6563b44b-0a3b-4934-bca0-a4ea7f37c5a1"},"vehicle_type_id":"4","last_reported":1745176074,"current_range_meters":11200,"station_id":"ce4bgj92rcd13ifvqbe0","pricing_plan_id":"cebpf4jnsgd1na2vs0mg"},{"bike_id":"5bece6a2-ca9d-4e30-bd36-dec8abb3acfd","system_id":"levelo_inurba_marseille","lat":43.31302,"lon":5.38848,"is_reserved":false,"is_disabled":false,"rental_uris":{"android":"levelo://app?vid=5bece6a2-ca9d-4e30-bd36-dec8abb3acfd","ios":"levelo://app?vid=5bece6a2-ca9d-4e30-bd36-dec8abb3acfd"},"vehicle_type_id":"4","last_reported":1745176074,"current_range_meters":12400,"station_id":"","pricing_plan_id":"cebpf4jnsgd1na2vs0mg"},{"bike_id":"59216526-d01c-4d77-b6e3-a6c766976571","system_id":"levelo_inurba_marseille","lat":43.22499,"lon":5.34773,"is_reserved":false,"is_disabled":false,"rental_uris":{"android":"levelo://app?vid=59216526-d01c-4d77-b6e3-a6c766976571","ios":"levelo://app?vid=59216526-d01c-4d77-b6e3-a6c766976571"},"vehicle_type_id":"4","last_reported":1745176074,"current_range_meters":11200,"station_id":"st_cvj5dfep6f1abm77gieg","pricing_plan_id":"cebpf4jnsgd1na2vs0mg"},{"bike_id":"7582674a-4a19-4070-9685-41ce33d4f266","system_id":"levelo_inurba_marseille","lat":43.29067,"lon":5.37132,"is_reserved":false,"is_disabled":false,"rental_uris":{"android":"levelo://app?vid=7582674a-4a19-4070-9685-41ce33d4f266","ios":"levelo://app?vid=7582674a-4a19-4070-9685-41ce33d4f266"},"vehicle_type_id":"4","last_reported":1745176074,"current_range_meters":10800,"station_id":"ce4bh5p2rcd13ifvqe4g","pricing_plan_id":"cebpf4jnsgd1na2vs0mg"},{"bike_id":"f15e6d6c-4e91-4850-86dd-4c3b99eca958","system_id":"levelo_inurba_marseille","lat":43.280847,"lon":5.396566,"is_reserved":false,"is_disabled":false,"rental_uris":{"android":"levelo://app?vid=f15e6d6c-4e91-4850-86dd-4c3b99eca958","ios":"levelo://app?vid=f15e6d6c-4e91-4850-86dd-4c3b99eca958"},"vehicle_type_id":"4","last_reported":1745176074,"current_range_meters":11200,"station_id":"ce4bho12rcd13ifvqh2g","pricing_plan_id":"cebpf4jnsgd1na2vs0mg"},{"bike_id":"26b9a465-2c94-42ec-b85d-e545bfaf0ca3","system_id":"levelo_inurba_marseille","lat":43.276188,"lon":5.361051,"is_reserved":false,"is_disabled":false,"rental_uris":{"android":"levelo://app?vid=26b9a465-2c94-42ec-b85d-e545bfaf0ca3","ios":"levelo://app?vid=26b9a465-2c94-42ec-b85d-e545bfaf0ca3"},"vehicle_type_id":"4","last_reported":1745176074,"current_range_meters":11600,"station_id":"ce4bgj92rcd13ifvqbe0","pricing_plan_id":"cebpf4jnsgd1na2vs0mg"},{"bike_id":"879c4764-ec34-4053-99a8-4501c6e0ccc4","system_id":"levelo_inurba_marseille","lat":43.25697,"lon":5.41105,"is_reserved":false,"is_disabled":false,"rental_uris":{"android":"levelo://app?vid=879c4764-ec34-4053-99a8-4501c6e0ccc4","ios":"levelo://app?vid=879c4764-ec34-4053-99a8-4501c6e0ccc4"},"vehicle_type_id":"4","last_reported":1745176074,"current_range_meters":11600,"station_id":"ce4bhkp2rcd13ifvqgd0","pricing_plan_id":"cebpf4jnsgd1na2vs0mg"},{"bike_id":"015d86f4-50f6-4479-b45d-9d5443fb7ba7","system_id":"levelo_inurba_marseille","lat":43.28409,"lon":5.34993,"is_reserved":false,"is_disabled":false,"rental_uris":{"android":"levelo://app?vid=015d86f4-50f6-4479-b45d-9d5443fb7ba7","ios":"levelo://app?vid=015d86f4-50f6-4479-b45d-9d5443fb7ba7"},"vehicle_type_id":"4","last_reported":1745176074,"current_range_meters":11600,"station_id":"ce4bhbh2rcd13ifvqepg","pricing_plan_id":"cebpf4jnsgd1na2vs0mg"},{"bike_id":"4e0feb4b-9af5-4c5c-a215-eabded87c4f9","system_id":"levelo_inurba_marseille","lat":43.23176,"lon":5.35607,"is_reserved":false,"is_disabled":false,"rental_uris":{"android":"levelo://app?vid=4e0feb4b-9af5-4c5c-a215-eabded87c4f9","ios":"levelo://app?vid=4e0feb4b-9af5-4c5c-a215-eabded87c4f9"},"vehicle_type_id":"4","last_reported":1745176074,"current_range_meters":11600,"station_id":"ce4bhu92rcd13ifvqi70","pricing_plan_id":"cebpf4jnsgd1na2vs0mg"},{"bike_id":"8d32d3ac-9853-41aa-b2ff-d0bf6960bf53","system_id":"levelo_inurba_marseille","lat":43.30601,"lon":5.37222,"is_reserved":false,"is_disabled":false,"rental_uris":{"android":"levelo://app?vid=8d32d3ac-9853-41aa-b2ff-d0bf6960bf53","ios":"levelo://app?vid=8d32d3ac-9853-41aa-b2ff-d0bf6960bf53"},"vehicle_type_id":"4","last_reported":1745176074,"current_range_meters":11600,"station_id":"ce4bgqh2rcd13ifvqc4g","pricing_plan_id":"cebpf4jnsgd1na2vs0mg"},{"bike_id":"f01fc261-033f-49c7-b09e-b9967362bd76","system_id":"levelo_inurba_marseille","lat":43.28851,"lon":5.35837,"is_reserved":false,"is_disabled":true,"rental_uris":{"android":"levelo://app?vid=f01fc261-033f-49c7-b09e-b9967362bd76","ios":"levelo://app?vid=f01fc261-033f-49c7-b09e-b9967362bd76"},"vehicle_type_id":"4","last_reported":1745176074,"current_range_meters":11600,"station_id":"ce4bhb12rcd13ifvqem0","pricing_plan_id":"cebpf4jnsgd1na2vs0mg"},{"bike_id":"77923734-1bbd-4056-a27d-62aa26fcca79","system_id":"levelo_inurba_marseille","lat":43.24999,"lon":5.38922,"is_reserved":false,"is_disabled":false,"rental_uris":{"android":"levelo://app?vid=77923734-1bbd-4056-a27d-62aa26fcca79","ios":"levelo://app?vid=77923734-1bbd-4056-a27d-62aa26fcca79"},"vehicle_type_id":"4","last_reported":1745176074,"current_range_meters":11600,"station_id":"ce4bhgp2rcd13ifvqfd0","pricing_plan_id":"cebpf4jnsgd1na2vs0mg"},{"bike_id":"2594af4a-8c39-4b08-ba3a-8b603e453126","system_id":"levelo_inurba_marseille","lat":43.30278,"lon":5.36882,"is_reserved":false,"is_disabled":false,"rental_uris":{"android":"levelo://app?vid=2594af4a-8c39-4b08-ba3a-8b603e453126","ios":"levelo://app?vid=2594af4a-8c39-4b08-ba3a-8b603e453126"},"vehicle_type_id":"4","last_reported":1745176074,"current_range_meters":11600,"station_id":"ce4bgqh2rcd13ifvqc5g","pricing_plan_id":"cebpf4jnsgd1na2vs0mg"},{"bike_id":"1ba58ab0-f8e3-4ca7-b66e-b0f8c2d56e00","system_id":"levelo_inurba_marseille","lat":43.25486,"lon":5.37682,"is_reserved":false,"is_disabled":false,"rental_uris":{"android":"levelo://app?vid=1ba58ab0-f8e3-4ca7-b66e-b0f8c2d56e00","ios":"levelo://app?vid=1ba58ab0-f8e3-4ca7-b66e-b0f8c2d56e00"},"vehicle_type_id":"4","last_reported":1745176074,"current_range_meters":12000,"station_id":"ce4bhh12rcd13ifvqff0","pricing_plan_id":"cebpf4jnsgd1na2vs0mg"},{"bike_id":"cab64969-2640-47ee-abb9-f11afb1f3a59","system_id":"levelo_inurba_marseille","lat":43.28609,"lon":5.35098,"is_reserved":false,"is_disabled":true,"rental_uris":{"android":"levelo://app?vid=cab64969-2640-47ee-abb9-f11afb1f3a59","ios":"levelo://app?vid=cab64969-2640-47ee-abb9-f11afb1f3a59"},"vehicle_type_id":"4","last_reported":1745176074,"current_range_meters":12000,"station_id":"ce4bhch2rcd13ifvqeug","pricing_plan_id":"cebpf4jnsgd1na2vs0mg"},{"bike_id":"5801a3ca-80c0-4f04-85da-122046aa79e1","system_id":"levelo_inurba_marseille","lat":43.28997,"lon":5.43838,"is_reserved":false,"is_disabled":false,"rental_uris":{"android":"levelo://app?vid=5801a3ca-80c0-4f04-85da-122046aa79e1","ios":"levelo://app?vid=5801a3ca-80c0-4f04-85da-122046aa79e1"},"vehicle_type_id":"4","last_reported":1745176074,"current_range_meters":12000,"station_id":"","pricing_plan_id":"cebpf4jnsgd1na2vs0mg"},{"bike_id":"04b26465-3db2-4db3-96e9-9c4e13931edc","system_id":"levelo_inurba_marseille","lat":43.29169,"lon":5.37152,"is_reserved":false,"is_disabled":false,"rental_uris":{"android":"levelo://app?vid=04b26465-3db2-4db3-96e9-9c4e13931edc","ios":"levelo://app?vid=04b26465-3db2-4db3-96e9-9c4e13931edc"},"vehicle_type_id":"4","last_reported":1745176074,"current_range_meters":11600,"station_id":"ce4bha92rcd13ifvqeh0","pricing_plan_id":"cebpf4jnsgd1na2vs0mg"},{"bike_id":"1ace1b61-e2c8-4a41-a3cf-5c94b36f34ae","system_id":"levelo_inurba_marseille","lat":43.211953,"lon":5.350717,"is_reserved":false,"is_disabled":false,"rental_uris":{"android":"levelo://app?vid=1ace1b61-e2c8-4a41-a3cf-5c94b36f34ae","ios":"levelo://app?vid=1ace1b61-e2c8-4a41-a3cf-5c94b36f34ae"},"vehicle_type_id":"4","last_reported":1745176074,"current_range_meters":12000,"station_id":"st_cvj6sg6p6f1abm77japg","pricing_plan_id":"cebpf4jnsgd1na2vs0mg"},{"bike_id":"a41aaa84-70ce-47e4-b2c3-82960d73cf23","system_id":"levelo_inurba_marseille","lat":43.29568,"lon":5.39973,"is_reserved":false,"is_disabled":false,"rental_uris":{"android":"levelo://app?vid=a41aaa84-70ce-47e4-b2c3-82960d73cf23","ios":"levelo://app?vid=a41aaa84-70ce-47e4-b2c3-82960d73cf23"},"vehicle_type_id":"4","last_reported":1745176074,"current_range_meters":16400,"station_id":"ce4bh312rcd13ifvqdj0","pricing_plan_id":"cebpf4jnsgd1na2vs0mg"},{"bike_id":"a3dd9a0b-1e95-49bd-9b52-a761b312f104","system_id":"levelo_inurba_marseille","lat":43.25565,"lon":5.38278,"is_reserved":false,"is_disabled":false,"rental_uris":{"android":"levelo://app?vid=a3dd9a0b-1e95-49bd-9b52-a761b312f104","ios":"levelo://app?vid=a3dd9a0b-1e95-49bd-9b52-a761b312f104"},"vehicle_type_id":"4","last_reported":1745176074,"current_range_meters":12400,"station_id":"ce4bhih2rcd13ifvqfs0","pricing_plan_id":"cebpf4jnsgd1na2vs0mg"},{"bike_id":"daae81ad-3286-4a7c-b64f-4882ed188f7e","system_id":"levelo_inurba_marseille","lat":43.295746,"lon":5.367355,"is_reserved":false,"is_disabled":false,"rental_uris":{"android":"levelo://app?vid=daae81ad-3286-4a7c-b64f-4882ed188f7e","ios":"levelo://app?vid=daae81ad-3286-4a7c-b64f-4882ed188f7e"},"vehicle_type_id":"4","last_reported":1745176074,"current_range_meters":12000,"station_id":"ce4bha92rcd13ifvqeg0","pricing_plan_id":"cebpf4jnsgd1na2vs0mg"},{"bike_id":"7a858955-06ad-439c-b80c-24fa0c13e1f4","system_id":"levelo_inurba_marseille","lat":43.284119,"lon":5.349951,"is_reserved":false,"is_disabled":false,"rental_uris":{"android":"levelo://app?vid=7a858955-06ad-439c-b80c-24fa0c13e1f4","ios":"levelo://app?vid=7a858955-06ad-439c-b80c-24fa0c13e1f4"},"vehicle_type_id":"4","last_reported":1745176074,"current_range_meters":12400,"station_id":"ce4bhbh2rcd13ifvqepg","pricing_plan_id":"cebpf4jnsgd1na2vs0mg"},{"bike_id":"50720bbe-5512-41d7-86e0-3df313b565c6","system_id":"levelo_inurba_marseille","lat":43.32376,"lon":5.38869,"is_reserved":false,"is_disabled":true,"rental_uris":{"android":"levelo://app?vid=50720bbe-5512-41d7-86e0-3df313b565c6","ios":"levelo://app?vid=50720bbe-5512-41d7-86e0-3df313b565c6"},"vehicle_type_id":"4","last_reported":1745176074,"current_range_meters":12400,"station_id":"ce4bhqp2rcd13ifvqhog","pricing_plan_id":"cebpf4jnsgd1na2vs0mg"},{"bike_id":"3f9b351e-24c7-4831-949f-a89b33917557","system_id":"levelo_inurba_marseille","lat":43.24072,"lon":5.37762,"is_reserved":false,"is_disabled":false,"rental_uris":{"android":"levelo://app?vid=3f9b351e-24c7-4831-949f-a89b33917557","ios":"levelo://app?vid=3f9b351e-24c7-4831-949f-a89b33917557"},"vehicle_type_id":"4","last_reported":1745176074,"current_range_meters":12400,"station_id":"ce4bhnp2rcd13ifvqgvg","pricing_plan_id":"cebpf4jnsgd1na2vs0mg"},{"bike_id":"95e51ff5-a1e3-4c9e-995c-97485b88c485","system_id":"levelo_inurba_marseille","lat":43.30139,"lon":5.38779,"is_reserved":false,"is_disabled":false,"rental_uris":{"android":"levelo://app?vid=95e51ff5-a1e3-4c9e-995c-97485b88c485","ios":"levelo://app?vid=95e51ff5-a1e3-4c9e-995c-97485b88c485"},"vehicle_type_id":"4","last_reported":1745176074,"current_range_meters":12400,"station_id":"ce4bghh2rcd13ifvqb60","pricing_plan_id":"cebpf4jnsgd1na2vs0mg"},{"bike_id":"4e861e82-cbbe-4218-8d44-db9444c96d55","system_id":"levelo_inurba_marseille","lat":43.29302,"lon":5.37463,"is_reserved":false,"is_disabled":false,"rental_uris":{"android":"levelo://app?vid=4e861e82-cbbe-4218-8d44-db9444c96d55","ios":"levelo://app?vid=4e861e82-cbbe-4218-8d44-db9444c96d55"},"vehicle_type_id":"4","last_reported":1745176074,"current_range_meters":12000,"station_id":"ce4bgi12rcd13ifvqb70","pricing_plan_id":"cebpf4jnsgd1na2vs0mg"},{"bike_id":"351a920b-d7e5-4492-bbd1-8525cdce30ff","system_id":"levelo_inurba_marseille","lat":43.28664,"lon":5.36347,"is_reserved":false,"is_disabled":false,"rental_uris":{"android":"levelo://app?vid=351a920b-d7e5-4492-bbd1-8525cdce30ff","ios":"levelo://app?vid=351a920b-d7e5-4492-bbd1-8525cdce30ff"},"vehicle_type_id":"4","last_reported":1745176074,"current_range_meters":12000,"station_id":"ce4bhah2rcd13ifvqej0","pricing_plan_id":"cebpf4jnsgd1na2vs0mg"},{"bike_id":"8add90be-7694-4829-ba13-0c5919aef581","system_id":"levelo_inurba_marseille","lat":43.29518,"lon":5.37499,"is_reserved":false,"is_disabled":false,"rental_uris":{"android":"levelo://app?vid=8add90be-7694-4829-ba13-0c5919aef581","ios":"levelo://app?vid=8add90be-7694-4829-ba13-0c5919aef581"},"vehicle_type_id":"4","last_reported":1745176074,"current_range_meters":12800,"station_id":"ce4bgkp2rcd13ifvqbmg","pricing_plan_id":"cebpf4jnsgd1na2vs0mg"},{"bike_id":"afc2b960-6379-45e4-bcc6-17c996fc2534","system_id":"levelo_inurba_marseille","lat":43.29654,"lon":5.37781,"is_reserved":false,"is_disabled":false,"rental_uris":{"android":"levelo://app?vid=afc2b960-6379-45e4-bcc6-17c996fc2534","ios":"levelo://app?vid=afc2b960-6379-45e4-bcc6-17c996fc2534"},"vehicle_type_id":"4","last_reported":1745176074,"current_range_meters":13600,"station_id":"","pricing_plan_id":"cebpf4jnsgd1na2vs0mg"},{"bike_id":"13d1481c-ebc4-492c-94f1-2babeab0c4e5","system_id":"levelo_inurba_marseille","lat":43.305987,"lon":5.372262,"is_reserved":false,"is_disabled":false,"rental_uris":{"android":"levelo://app?vid=13d1481c-ebc4-492c-94f1-2babeab0c4e5","ios":"levelo://app?vid=13d1481c-ebc4-492c-94f1-2babeab0c4e5"},"vehicle_type_id":"4","last_reported":1745176074,"current_range_meters":11200,"station_id":"ce4bgqh2rcd13ifvqc4g","pricing_plan_id":"cebpf4jnsgd1na2vs0mg"},{"bike_id":"8840feef-7815-4425-a7d2-14c3fd40fafa","system_id":"levelo_inurba_marseille","lat":43.25495,"lon":5.37648,"is_reserved":false,"is_disabled":false,"rental_uris":{"android":"levelo://app?vid=8840feef-7815-4425-a7d2-14c3fd40fafa","ios":"levelo://app?vid=8840feef-7815-4425-a7d2-14c3fd40fafa"},"vehicle_type_id":"4","last_reported":1745176074,"current_range_meters":12800,"station_id":"ce4bhh12rcd13ifvqff0","pricing_plan_id":"cebpf4jnsgd1na2vs0mg"},{"bike_id":"aa4956c6-6845-4783-8776-ee4b88f920ec","system_id":"levelo_inurba_marseille","lat":43.28643,"lon":5.37083,"is_reserved":false,"is_disabled":true,"rental_uris":{"android":"levelo://app?vid=aa4956c6-6845-4783-8776-ee4b88f920ec","ios":"levelo://app?vid=aa4956c6-6845-4783-8776-ee4b88f920ec"},"vehicle_type_id":"4","last_reported":1745176074,"current_range_meters":12800,"station_id":"ce4bht12rcd13ifvqi60","pricing_plan_id":"cebpf4jnsgd1na2vs0mg"},{"bike_id":"d51789df-9ae7-4fac-a38d-e0aa9cbe7e4d","system_id":"levelo_inurba_marseille","lat":43.29309,"lon":5.37169,"is_reserved":false,"is_disabled":false,"rental_uris":{"android":"levelo://app?vid=d51789df-9ae7-4fac-a38d-e0aa9cbe7e4d","ios":"levelo://app?vid=d51789df-9ae7-4fac-a38d-e0aa9cbe7e4d"},"vehicle_type_id":"4","last_reported":1745176074,"current_range_meters":12800,"station_id":"ce4bgh92rcd13ifvqb40","pricing_plan_id":"cebpf4jnsgd1na2vs0mg"},{"bike_id":"79552c76-80c3-4051-b5d3-1d164ee3da74","system_id":"levelo_inurba_marseille","lat":43.30197,"lon":5.36626,"is_reserved":false,"is_disabled":false,"rental_uris":{"android":"levelo://app?vid=79552c76-80c3-4051-b5d3-1d164ee3da74","ios":"levelo://app?vid=79552c76-80c3-4051-b5d3-1d164ee3da74"},"vehicle_type_id":"4","last_reported":1745176074,"current_range_meters":12800,"station_id":"ce4bgrh2rcd13ifvqc8g","pricing_plan_id":"cebpf4jnsgd1na2vs0mg"},{"bike_id":"167042a1-49d8-42c7-805f-63aa6aa01eb6","system_id":"levelo_inurba_marseille","lat":43.30899,"lon":5.37204,"is_reserved":false,"is_disabled":false,"rental_uris":{"android":"levelo://app?vid=167042a1-49d8-42c7-805f-63aa6aa01eb6","ios":"levelo://app?vid=167042a1-49d8-42c7-805f-63aa6aa01eb6"},"vehicle_type_id":"4","last_reported":1745176074,"current_range_meters":12800,"station_id":"ce4bguh2rcd13ifvqckg","pricing_plan_id":"cebpf4jnsgd1na2vs0mg"},{"bike_id":"1737dea4-541f-4bc8-9731-1ab03c2deae6","system_id":"levelo_inurba_marseille","lat":43.23951,"lon":5.36637,"is_reserved":false,"is_disabled":true,"rental_uris":{"android":"levelo://app?vid=1737dea4-541f-4bc8-9731-1ab03c2deae6","ios":"levelo://app?vid=1737dea4-541f-4bc8-9731-1ab03c2deae6"},"vehicle_type_id":"4","last_reported":1745176074,"current_range_meters":12800,"station_id":"ce4bhi12rcd13ifvqfp0","pricing_plan_id":"cebpf4jnsgd1na2vs0mg"},{"bike_id":"9759a7fd-4ce0-4e11-891c-9580557061e2","system_id":"levelo_inurba_marseille","lat":43.28602,"lon":5.37065,"is_reserved":false,"is_disabled":false,"rental_uris":{"android":"levelo://app?vid=9759a7fd-4ce0-4e11-891c-9580557061e2","ios":"levelo://app?vid=9759a7fd-4ce0-4e11-891c-9580557061e2"},"vehicle_type_id":"4","last_reported":1745176074,"current_range_meters":12800,"station_id":"ce4bht12rcd13ifvqi60","pricing_plan_id":"cebpf4jnsgd1na2vs0mg"},{"bike_id":"1184e7cb-97e6-48bd-84cd-8e59c100c07b","system_id":"levelo_inurba_marseille","lat":43.29273,"lon":5.36837,"is_reserved":false,"is_disabled":true,"rental_uris":{"android":"levelo://app?vid=1184e7cb-97e6-48bd-84cd-8e59c100c07b","ios":"levelo://app?vid=1184e7cb-97e6-48bd-84cd-8e59c100c07b"},"vehicle_type_id":"4","last_reported":1745176074,"current_range_meters":13600,"station_id":"ce4bhbp2rcd13ifvqesg","pricing_plan_id":"cebpf4jnsgd1na2vs0mg"},{"bike_id":"d53e964c-f934-484c-a259-3e8f23cdd819","system_id":"levelo_inurba_marseille","lat":43.33741,"lon":5.39198,"is_reserved":false,"is_disabled":false,"rental_uris":{"android":"levelo://app?vid=d53e964c-f934-484c-a259-3e8f23cdd819","ios":"levelo://app?vid=d53e964c-f934-484c-a259-3e8f23cdd819"},"vehicle_type_id":"4","last_reported":1745176074,"current_range_meters":13600,"station_id":"ce4bhr92rcd13ifvqhsg","pricing_plan_id":"cebpf4jnsgd1na2vs0mg"},{"bike_id":"aec2a9c7-b9a7-41ea-a5a4-838b24705eec","system_id":"levelo_inurba_marseille","lat":43.25115,"lon":5.40321,"is_reserved":false,"is_disabled":false,"rental_uris":{"android":"levelo://app?vid=aec2a9c7-b9a7-41ea-a5a4-838b24705eec","ios":"levelo://app?vid=aec2a9c7-b9a7-41ea-a5a4-838b24705eec"},"vehicle_type_id":"4","last_reported":1745176074,"current_range_meters":13600,"station_id":"ce4bhlh2rcd13ifvqgig","pricing_plan_id":"cebpf4jnsgd1na2vs0mg"},{"bike_id":"e47b7b81-3038-4ffc-b46c-0c4a56ad1589","system_id":"levelo_inurba_marseille","lat":43.29943,"lon":5.36533,"is_reserved":false,"is_disabled":false,"rental_uris":{"android":"levelo://app?vid=e47b7b81-3038-4ffc-b46c-0c4a56ad1589","ios":"levelo://app?vid=e47b7b81-3038-4ffc-b46c-0c4a56ad1589"},"vehicle_type_id":"4","last_reported":1745176074,"current_range_meters":13600,"station_id":"ce4bgm92rcd13ifvqbr0","pricing_plan_id":"cebpf4jnsgd1na2vs0mg"},{"bike_id":"82542d64-e6b4-45e6-8928-09216f3c3a15","system_id":"levelo_inurba_marseille","lat":43.30142,"lon":5.37421,"is_reserved":false,"is_disabled":false,"rental_uris":{"android":"levelo://app?vid=82542d64-e6b4-45e6-8928-09216f3c3a15","ios":"levelo://app?vid=82542d64-e6b4-45e6-8928-09216f3c3a15"},"vehicle_type_id":"4","last_reported":1745176074,"current_range_meters":13600,"station_id":"ce4bgs92rcd13ifvqcc0","pricing_plan_id":"cebpf4jnsgd1na2vs0mg"},{"bike_id":"b157dc81-51c5-45f3-a677-9e9c3cf6283b","system_id":"levelo_inurba_marseille","lat":43.306,"lon":5.37145,"is_reserved":false,"is_disabled":false,"rental_uris":{"android":"levelo://app?vid=b157dc81-51c5-45f3-a677-9e9c3cf6283b","ios":"levelo://app?vid=b157dc81-51c5-45f3-a677-9e9c3cf6283b"},"vehicle_type_id":"4","last_reported":1745176074,"current_range_meters":14000,"station_id":"","pricing_plan_id":"cebpf4jnsgd1na2vs0mg"},{"bike_id":"dedc4780-846c-48a5-a6ba-04bd83797ad2","system_id":"levelo_inurba_marseille","lat":43.31711,"lon":5.37793,"is_reserved":false,"is_disabled":false,"rental_uris":{"android":"levelo://app?vid=dedc4780-846c-48a5-a6ba-04bd83797ad2","ios":"levelo://app?vid=dedc4780-846c-48a5-a6ba-04bd83797ad2"},"vehicle_type_id":"4","last_reported":1745176074,"current_range_meters":14400,"station_id":"ce4bgth2rcd13ifvqch0","pricing_plan_id":"cebpf4jnsgd1na2vs0mg"},{"bike_id":"54333f71-3852-4e7b-b374-b14e492e4962","system_id":"levelo_inurba_marseille","lat":43.30447,"lon":5.41274,"is_reserved":false,"is_disabled":true,"rental_uris":{"android":"levelo://app?vid=54333f71-3852-4e7b-b374-b14e492e4962","ios":"levelo://app?vid=54333f71-3852-4e7b-b374-b14e492e4962"},"vehicle_type_id":"4","last_reported":1745176074,"current_range_meters":14400,"station_id":"ce4bhop2rcd13ifvqh8g","pricing_plan_id":"cebpf4jnsgd1na2vs0mg"},{"bike_id":"5398f6e8-c863-4034-a443-7087ab1855f8","system_id":"levelo_inurba_marseille","lat":43.27073,"lon":5.42275,"is_reserved":false,"is_disabled":false,"rental_uris":{"android":"levelo://app?vid=5398f6e8-c863-4034-a443-7087ab1855f8","ios":"levelo://app?vid=5398f6e8-c863-4034-a443-7087ab1855f8"},"vehicle_type_id":"4","last_reported":1745176074,"current_range_meters":14000,"station_id":"ce4bhk92rcd13ifvqgb0","pricing_plan_id":"cebpf4jnsgd1na2vs0mg"},{"bike_id":"f13c8c7b-9b8a-4e23-907e-1d2d87d6b5df","system_id":"levelo_inurba_marseille","lat":43.30934,"lon":5.40142,"is_reserved":false,"is_disabled":false,"rental_uris":{"android":"levelo://app?vid=f13c8c7b-9b8a-4e23-907e-1d2d87d6b5df","ios":"levelo://app?vid=f13c8c7b-9b8a-4e23-907e-1d2d87d6b5df"},"vehicle_type_id":"4","last_reported":1745176074,"current_range_meters":14000,"station_id":"ce4bgvp2rcd13ifvqct0","pricing_plan_id":"cebpf4jnsgd1na2vs0mg"},{"bike_id":"b25b6470-ff43-4d6b-b299-0f21ec070f27","system_id":"levelo_inurba_marseille","lat":43.29907,"lon":5.38116,"is_reserved":false,"is_disabled":true,"rental_uris":{"android":"levelo://app?vid=b25b6470-ff43-4d6b-b299-0f21ec070f27","ios":"levelo://app?vid=b25b6470-ff43-4d6b-b299-0f21ec070f27"},"vehicle_type_id":"4","last_reported":1745176074,"current_range_meters":14400,"station_id":"ce4bgj12rcd13ifvqbc0","pricing_plan_id":"cebpf4jnsgd1na2vs0mg"},{"bike_id":"d66f2fbf-84c1-4006-a003-d92ef3aa9479","system_id":"levelo_inurba_marseille","lat":43.23208,"lon":5.35558,"is_reserved":false,"is_disabled":false,"rental_uris":{"android":"levelo://app?vid=d66f2fbf-84c1-4006-a003-d92ef3aa9479","ios":"levelo://app?vid=d66f2fbf-84c1-4006-a003-d92ef3aa9479"},"vehicle_type_id":"4","last_reported":1745176074,"current_range_meters":14400,"station_id":"ce4bhu92rcd13ifvqi70","pricing_plan_id":"cebpf4jnsgd1na2vs0mg"},{"bike_id":"d264daea-b5c4-4529-8fbe-cd90d7cafb60","system_id":"levelo_inurba_marseille","lat":43.29409,"lon":5.38614,"is_reserved":false,"is_disabled":false,"rental_uris":{"android":"levelo://app?vid=d264daea-b5c4-4529-8fbe-cd90d7cafb60","ios":"levelo://app?vid=d264daea-b5c4-4529-8fbe-cd90d7cafb60"},"vehicle_type_id":"4","last_reported":1745176074,"current_range_meters":14400,"station_id":"ce4bh2h2rcd13ifvqdh0","pricing_plan_id":"cebpf4jnsgd1na2vs0mg"},{"bike_id":"cb04d036-524e-497d-b1e8-d53251979b05","system_id":"levelo_inurba_marseille","lat":43.298778,"lon":5.397402,"is_reserved":false,"is_disabled":true,"rental_uris":{"android":"levelo://app?vid=cb04d036-524e-497d-b1e8-d53251979b05","ios":"levelo://app?vid=cb04d036-524e-497d-b1e8-d53251979b05"},"vehicle_type_id":"4","last_reported":1745176074,"current_range_meters":14800,"station_id":"ce4bh0h2rcd13ifvqd50","pricing_plan_id":"cebpf4jnsgd1na2vs0mg"},{"bike_id":"8d1ef48a-35ba-497a-843d-55a3bb508060","system_id":"levelo_inurba_marseille","lat":43.28416,"lon":5.34991,"is_reserved":false,"is_disabled":false,"rental_uris":{"android":"levelo://app?vid=8d1ef48a-35ba-497a-843d-55a3bb508060","ios":"levelo://app?vid=8d1ef48a-35ba-497a-843d-55a3bb508060"},"vehicle_type_id":"4","last_reported":1745176074,"current_range_meters":14800,"station_id":"ce4bhbh2rcd13ifvqepg","pricing_plan_id":"cebpf4jnsgd1na2vs0mg"},{"bike_id":"ad4b3e3a-dabf-42ab-842f-2f69deeae63a","system_id":"levelo_inurba_marseille","lat":43.27668,"lon":5.38868,"is_reserved":false,"is_disabled":false,"rental_uris":{"android":"levelo://app?vid=ad4b3e3a-dabf-42ab-842f-2f69deeae63a","ios":"levelo://app?vid=ad4b3e3a-dabf-42ab-842f-2f69deeae63a"},"vehicle_type_id":"4","last_reported":1745176074,"current_range_meters":14800,"station_id":"ce4bhi12rcd13ifvqfo0","pricing_plan_id":"cebpf4jnsgd1na2vs0mg"},{"bike_id":"560d2be8-e843-4014-b910-c69eb48bffdd","system_id":"levelo_inurba_marseille","lat":43.3249,"lon":5.36566,"is_reserved":false,"is_disabled":false,"rental_uris":{"android":"levelo://app?vid=560d2be8-e843-4014-b910-c69eb48bffdd","ios":"levelo://app?vid=560d2be8-e843-4014-b910-c69eb48bffdd"},"vehicle_type_id":"4","last_reported":1745176074,"current_range_meters":14800,"station_id":"ce4bhs12rcd13ifvqhvg","pricing_plan_id":"cebpf4jnsgd1na2vs0mg"},{"bike_id":"9cd66f20-0974-44a3-a00c-3af08e74ebf2","system_id":"levelo_inurba_marseille","lat":43.26013,"lon":5.41744,"is_reserved":false,"is_disabled":false,"rental_uris":{"android":"levelo://app?vid=9cd66f20-0974-44a3-a00c-3af08e74ebf2","ios":"levelo://app?vid=9cd66f20-0974-44a3-a00c-3af08e74ebf2"},"vehicle_type_id":"4","last_reported":1745176074,"current_range_meters":15200,"station_id":"","pricing_plan_id":"cebpf4jnsgd1na2vs0mg"},{"bike_id":"9fc1dd27-12bb-4c7c-855d-f82b71b82bf7","system_id":"levelo_inurba_marseille","lat":43.231974,"lon":5.355456,"is_reserved":false,"is_disabled":false,"rental_uris":{"android":"levelo://app?vid=9fc1dd27-12bb-4c7c-855d-f82b71b82bf7","ios":"levelo://app?vid=9fc1dd27-12bb-4c7c-855d-f82b71b82bf7"},"vehicle_type_id":"4","last_reported":1745176074,"current_range_meters":15200,"station_id":"ce4bhu92rcd13ifvqi70","pricing_plan_id":"cebpf4jnsgd1na2vs0mg"},{"bike_id":"2d2e4840-713e-4771-ae07-2155d13a6672","system_id":"levelo_inurba_marseille","lat":43.29948,"lon":5.36537,"is_reserved":false,"is_disabled":true,"rental_uris":{"android":"levelo://app?vid=2d2e4840-713e-4771-ae07-2155d13a6672","ios":"levelo://app?vid=2d2e4840-713e-4771-ae07-2155d13a6672"},"vehicle_type_id":"4","last_reported":1745176074,"current_range_meters":16000,"station_id":"ce4bgm92rcd13ifvqbr0","pricing_plan_id":"cebpf4jnsgd1na2vs0mg"},{"bike_id":"503d4dba-86f3-4db3-99c7-d4a8da3d6821","system_id":"levelo_inurba_marseille","lat":43.29005,"lon":5.35609,"is_reserved":false,"is_disabled":true,"rental_uris":{"android":"levelo://app?vid=503d4dba-86f3-4db3-99c7-d4a8da3d6821","ios":"levelo://app?vid=503d4dba-86f3-4db3-99c7-d4a8da3d6821"},"vehicle_type_id":"4","last_reported":1745176074,"current_range_meters":15200,"station_id":"ce4bhb92rcd13ifvqen0","pricing_plan_id":"cebpf4jnsgd1na2vs0mg"},{"bike_id":"39ed41b7-6dff-4e7e-9458-094bd3525393","system_id":"levelo_inurba_marseille","lat":43.30883,"lon":5.39656,"is_reserved":false,"is_disabled":false,"rental_uris":{"android":"levelo://app?vid=39ed41b7-6dff-4e7e-9458-094bd3525393","ios":"levelo://app?vid=39ed41b7-6dff-4e7e-9458-094bd3525393"},"vehicle_type_id":"4","last_reported":1745176074,"current_range_meters":15200,"station_id":"ce4bh012rcd13ifvqcv0","pricing_plan_id":"cebpf4jnsgd1na2vs0mg"},{"bike_id":"f95b6ba3-4ffd-4dee-8387-c1e0a51dcdd2","system_id":"levelo_inurba_marseille","lat":43.27958,"lon":5.41042,"is_reserved":false,"is_disabled":false,"rental_uris":{"android":"levelo://app?vid=f95b6ba3-4ffd-4dee-8387-c1e0a51dcdd2","ios":"levelo://app?vid=f95b6ba3-4ffd-4dee-8387-c1e0a51dcdd2"},"vehicle_type_id":"4","last_reported":1745176074,"current_range_meters":16000,"station_id":"ce4bhnp2rcd13ifvqh0g","pricing_plan_id":"cebpf4jnsgd1na2vs0mg"},{"bike_id":"f4f7624b-eec9-47f5-9227-aa44836a7a81","system_id":"levelo_inurba_marseille","lat":43.23196,"lon":5.35553,"is_reserved":false,"is_disabled":false,"rental_uris":{"android":"levelo://app?vid=f4f7624b-eec9-47f5-9227-aa44836a7a81","ios":"levelo://app?vid=f4f7624b-eec9-47f5-9227-aa44836a7a81"},"vehicle_type_id":"4","last_reported":1745176074,"current_range_meters":16000,"station_id":"ce4bhu92rcd13ifvqi70","pricing_plan_id":"cebpf4jnsgd1na2vs0mg"},{"bike_id":"5701a54a-9200-4718-b54f-d20905005f5c","system_id":"levelo_inurba_marseille","lat":43.27056,"lon":5.42262,"is_reserved":false,"is_disabled":false,"rental_uris":{"android":"levelo://app?vid=5701a54a-9200-4718-b54f-d20905005f5c","ios":"levelo://app?vid=5701a54a-9200-4718-b54f-d20905005f5c"},"vehicle_type_id":"4","last_reported":1745176074,"current_range_meters":15200,"station_id":"ce4bhk92rcd13ifvqgb0","pricing_plan_id":"cebpf4jnsgd1na2vs0mg"},{"bike_id":"c4fc050b-7c58-4380-8033-ffe242748317","system_id":"levelo_inurba_marseille","lat":43.29504,"lon":5.39401,"is_reserved":false,"is_disabled":true,"rental_uris":{"android":"levelo://app?vid=c4fc050b-7c58-4380-8033-ffe242748317","ios":"levelo://app?vid=c4fc050b-7c58-4380-8033-ffe242748317"},"vehicle_type_id":"4","last_reported":1745176074,"current_range_meters":16400,"station_id":"ce4bh292rcd13ifvqdf0","pricing_plan_id":"cebpf4jnsgd1na2vs0mg"},{"bike_id":"53b3b9c9-bf4c-40f9-ba2e-ec3f8e3f866c","system_id":"levelo_inurba_marseille","lat":43.22925,"lon":5.35373,"is_reserved":false,"is_disabled":false,"rental_uris":{"android":"levelo://app?vid=53b3b9c9-bf4c-40f9-ba2e-ec3f8e3f866c","ios":"levelo://app?vid=53b3b9c9-bf4c-40f9-ba2e-ec3f8e3f866c"},"vehicle_type_id":"4","last_reported":1745176074,"current_range_meters":16400,"station_id":"cpo3532slgdg3j2ikp40","pricing_plan_id":"cebpf4jnsgd1na2vs0mg"},{"bike_id":"ee910e3a-4ec1-4a75-b39a-8a2ef121fc79","system_id":"levelo_inurba_marseille","lat":43.25485,"lon":5.37652,"is_reserved":false,"is_disabled":false,"rental_uris":{"android":"levelo://app?vid=ee910e3a-4ec1-4a75-b39a-8a2ef121fc79","ios":"levelo://app?vid=ee910e3a-4ec1-4a75-b39a-8a2ef121fc79"},"vehicle_type_id":"4","last_reported":1745176074,"current_range_meters":16400,"station_id":"ce4bhh12rcd13ifvqff0","pricing_plan_id":"cebpf4jnsgd1na2vs0mg"},{"bike_id":"a049c569-0294-4594-b06b-589d19df1531","system_id":"levelo_inurba_marseille","lat":43.24863,"lon":5.38219,"is_reserved":false,"is_disabled":false,"rental_uris":{"android":"levelo://app?vid=a049c569-0294-4594-b06b-589d19df1531","ios":"levelo://app?vid=a049c569-0294-4594-b06b-589d19df1531"},"vehicle_type_id":"4","last_reported":1745176074,"current_range_meters":16400,"station_id":"","pricing_plan_id":"cebpf4jnsgd1na2vs0mg"},{"bike_id":"5069dd58-c0a4-4a82-89c4-361b75ac07f9","system_id":"levelo_inurba_marseille","lat":43.25588,"lon":5.38215,"is_reserved":false,"is_disabled":false,"rental_uris":{"android":"levelo://app?vid=5069dd58-c0a4-4a82-89c4-361b75ac07f9","ios":"levelo://app?vid=5069dd58-c0a4-4a82-89c4-361b75ac07f9"},"vehicle_type_id":"4","last_reported":1745176074,"current_range_meters":16400,"station_id":"ce4bhih2rcd13ifvqfs0","pricing_plan_id":"cebpf4jnsgd1na2vs0mg"},{"bike_id":"a5984312-2869-4820-8cb6-c49aefed6914","system_id":"levelo_inurba_marseille","lat":43.28035,"lon":5.36938,"is_reserved":false,"is_disabled":false,"rental_uris":{"android":"levelo://app?vid=a5984312-2869-4820-8cb6-c49aefed6914","ios":"levelo://app?vid=a5984312-2869-4820-8cb6-c49aefed6914"},"vehicle_type_id":"4","last_reported":1745176074,"current_range_meters":16400,"station_id":"ce4bha12rcd13ifvqef0","pricing_plan_id":"cebpf4jnsgd1na2vs0mg"},{"bike_id":"a92f7f88-01ef-48e5-b3ce-a3e4b561a1eb","system_id":"levelo_inurba_marseille","lat":43.25491,"lon":5.37651,"is_reserved":false,"is_disabled":false,"rental_uris":{"android":"levelo://app?vid=a92f7f88-01ef-48e5-b3ce-a3e4b561a1eb","ios":"levelo://app?vid=a92f7f88-01ef-48e5-b3ce-a3e4b561a1eb"},"vehicle_type_id":"4","last_reported":1745176074,"current_range_meters":16400,"station_id":"ce4bhh12rcd13ifvqff0","pricing_plan_id":"cebpf4jnsgd1na2vs0mg"},{"bike_id":"e73190f6-058c-418d-a3ef-a16e07bcf1c2","system_id":"levelo_inurba_marseille","lat":43.28431,"lon":5.39194,"is_reserved":false,"is_disabled":false,"rental_uris":{"android":"levelo://app?vid=e73190f6-058c-418d-a3ef-a16e07bcf1c2","ios":"levelo://app?vid=e73190f6-058c-418d-a3ef-a16e07bcf1c2"},"vehicle_type_id":"4","last_reported":1745176074,"current_range_meters":16400,"station_id":"ce4bhoh2rcd13ifvqh5g","pricing_plan_id":"cebpf4jnsgd1na2vs0mg"},{"bike_id":"3242031d-70ee-42c4-80dd-fc750a7fa2d1","system_id":"levelo_inurba_marseille","lat":43.33738,"lon":5.3562,"is_reserved":false,"is_disabled":false,"rental_uris":{"android":"levelo://app?vid=3242031d-70ee-42c4-80dd-fc750a7fa2d1","ios":"levelo://app?vid=3242031d-70ee-42c4-80dd-fc750a7fa2d1"},"vehicle_type_id":"4","last_reported":1745176074,"current_range_meters":16800,"station_id":"","pricing_plan_id":"cebpf4jnsgd1na2vs0mg"},{"bike_id":"6ce1fb9e-a866-43de-87b6-e206cebc6e81","system_id":"levelo_inurba_marseille","lat":43.28653,"lon":5.3636,"is_reserved":false,"is_disabled":false,"rental_uris":{"android":"levelo://app?vid=6ce1fb9e-a866-43de-87b6-e206cebc6e81","ios":"levelo://app?vid=6ce1fb9e-a866-43de-87b6-e206cebc6e81"},"vehicle_type_id":"4","last_reported":1745176074,"current_range_meters":16800,"station_id":"ce4bhah2rcd13ifvqej0","pricing_plan_id":"cebpf4jnsgd1na2vs0mg"},{"bike_id":"1eb41455-3297-42ad-9753-43bb7f6f8660","system_id":"levelo_inurba_marseille","lat":43.28398,"lon":5.37514,"is_reserved":false,"is_disabled":false,"rental_uris":{"android":"levelo://app?vid=1eb41455-3297-42ad-9753-43bb7f6f8660","ios":"levelo://app?vid=1eb41455-3297-42ad-9753-43bb7f6f8660"},"vehicle_type_id":"4","last_reported":1745176074,"current_range_meters":17600,"station_id":"ce4bh412rcd13ifvqds0","pricing_plan_id":"cebpf4jnsgd1na2vs0mg"},{"bike_id":"b50ac1ac-8112-49a9-9684-58c93de8a551","system_id":"levelo_inurba_marseille","lat":43.25484,"lon":5.37664,"is_reserved":false,"is_disabled":false,"rental_uris":{"android":"levelo://app?vid=b50ac1ac-8112-49a9-9684-58c93de8a551","ios":"levelo://app?vid=b50ac1ac-8112-49a9-9684-58c93de8a551"},"vehicle_type_id":"4","last_reported":1745176074,"current_range_meters":16800,"station_id":"ce4bhh12rcd13ifvqff0","pricing_plan_id":"cebpf4jnsgd1na2vs0mg"},{"bike_id":"b63b7a5e-a38c-41b2-b8ca-03dcb2ce1a70","system_id":"levelo_inurba_marseille","lat":43.25084,"lon":5.39503,"is_reserved":false,"is_disabled":true,"rental_uris":{"android":"levelo://app?vid=b63b7a5e-a38c-41b2-b8ca-03dcb2ce1a70","ios":"levelo://app?vid=b63b7a5e-a38c-41b2-b8ca-03dcb2ce1a70"},"vehicle_type_id":"4","last_reported":1745176074,"current_range_meters":16800,"station_id":"ce4bhm12rcd13ifvqgkg","pricing_plan_id":"cebpf4jnsgd1na2vs0mg"},{"bike_id":"acb337f8-9a02-4c16-ad32-3a6e67af21e4","system_id":"levelo_inurba_marseille","lat":43.284554,"lon":5.358981,"is_reserved":false,"is_disabled":true,"rental_uris":{"android":"levelo://app?vid=acb337f8-9a02-4c16-ad32-3a6e67af21e4","ios":"levelo://app?vid=acb337f8-9a02-4c16-ad32-3a6e67af21e4"},"vehicle_type_id":"4","last_reported":1745176074,"current_range_meters":17200,"station_id":"ce4bhah2rcd13ifvqei0","pricing_plan_id":"cebpf4jnsgd1na2vs0mg"},{"bike_id":"287fe36f-645e-4151-a12f-88b989474541","system_id":"levelo_inurba_marseille","lat":43.29537,"lon":5.375,"is_reserved":false,"is_disabled":false,"rental_uris":{"android":"levelo://app?vid=287fe36f-645e-4151-a12f-88b989474541","ios":"levelo://app?vid=287fe36f-645e-4151-a12f-88b989474541"},"vehicle_type_id":"4","last_reported":1745176074,"current_range_meters":16800,"station_id":"ce4bgkp2rcd13ifvqbmg","pricing_plan_id":"cebpf4jnsgd1na2vs0mg"},{"bike_id":"760b2fb9-52ba-4cff-b933-38b67e854a7c","system_id":"levelo_inurba_marseille","lat":43.29608,"lon":5.37157,"is_reserved":false,"is_disabled":false,"rental_uris":{"android":"levelo://app?vid=760b2fb9-52ba-4cff-b933-38b67e854a7c","ios":"levelo://app?vid=760b2fb9-52ba-4cff-b933-38b67e854a7c"},"vehicle_type_id":"4","last_reported":1745176074,"current_range_meters":17200,"station_id":"ce4bgnh2rcd13ifvqc0g","pricing_plan_id":"cebpf4jnsgd1na2vs0mg"},{"bike_id":"300c0e28-86c5-400e-9d89-b86a268518ac","system_id":"levelo_inurba_marseille","lat":43.289404,"lon":5.363939,"is_reserved":false,"is_disabled":false,"rental_uris":{"android":"levelo://app?vid=300c0e28-86c5-400e-9d89-b86a268518ac","ios":"levelo://app?vid=300c0e28-86c5-400e-9d89-b86a268518ac"},"vehicle_type_id":"4","last_reported":1745176074,"current_range_meters":17200,"station_id":"ce4bhc92rcd13ifvqetg","pricing_plan_id":"cebpf4jnsgd1na2vs0mg"},{"bike_id":"f0ec5bfa-658e-402a-a360-850ad57798c8","system_id":"levelo_inurba_marseille","lat":43.22928,"lon":5.35373,"is_reserved":false,"is_disabled":false,"rental_uris":{"android":"levelo://app?vid=f0ec5bfa-658e-402a-a360-850ad57798c8","ios":"levelo://app?vid=f0ec5bfa-658e-402a-a360-850ad57798c8"},"vehicle_type_id":"4","last_reported":1745176074,"current_range_meters":17600,"station_id":"cpo3532slgdg3j2ikp40","pricing_plan_id":"cebpf4jnsgd1na2vs0mg"},{"bike_id":"de3f7b3e-a165-4809-ab54-f61ce9767893","system_id":"levelo_inurba_marseille","lat":43.2549,"lon":5.37649,"is_reserved":false,"is_disabled":false,"rental_uris":{"android":"levelo://app?vid=de3f7b3e-a165-4809-ab54-f61ce9767893","ios":"levelo://app?vid=de3f7b3e-a165-4809-ab54-f61ce9767893"},"vehicle_type_id":"4","last_reported":1745176074,"current_range_meters":17200,"station_id":"ce4bhh12rcd13ifvqff0","pricing_plan_id":"cebpf4jnsgd1na2vs0mg"},{"bike_id":"8a1dde72-6b8d-4113-a8d9-29ea6b05ede2","system_id":"levelo_inurba_marseille","lat":43.27626,"lon":5.35832,"is_reserved":false,"is_disabled":false,"rental_uris":{"android":"levelo://app?vid=8a1dde72-6b8d-4113-a8d9-29ea6b05ede2","ios":"levelo://app?vid=8a1dde72-6b8d-4113-a8d9-29ea6b05ede2"},"vehicle_type_id":"4","last_reported":1745176074,"current_range_meters":18000,"station_id":"","pricing_plan_id":"cebpf4jnsgd1na2vs0mg"},{"bike_id":"a7f91fb8-2846-493f-a68f-69867197cfa1","system_id":"levelo_inurba_marseille","lat":43.33659,"lon":5.39767,"is_reserved":false,"is_disabled":false,"rental_uris":{"android":"levelo://app?vid=a7f91fb8-2846-493f-a68f-69867197cfa1","ios":"levelo://app?vid=a7f91fb8-2846-493f-a68f-69867197cfa1"},"vehicle_type_id":"4","last_reported":1745176074,"current_range_meters":17600,"station_id":"","pricing_plan_id":"cebpf4jnsgd1na2vs0mg"},{"bike_id":"ea5c3c1d-f5c2-4a11-8908-01169acf6d5a","system_id":"levelo_inurba_marseille","lat":43.27205,"lon":5.39181,"is_reserved":false,"is_disabled":false,"rental_uris":{"android":"levelo://app?vid=ea5c3c1d-f5c2-4a11-8908-01169acf6d5a","ios":"levelo://app?vid=ea5c3c1d-f5c2-4a11-8908-01169acf6d5a"},"vehicle_type_id":"4","last_reported":1745176074,"current_range_meters":17600,"station_id":"ce4bhhp2rcd13ifvqfm0","pricing_plan_id":"cebpf4jnsgd1na2vs0mg"},{"bike_id":"ecb0ec29-e82a-4d81-83cf-a2c3c98d04d8","system_id":"levelo_inurba_marseille","lat":43.29519,"lon":5.39033,"is_reserved":false,"is_disabled":false,"rental_uris":{"android":"levelo://app?vid=ecb0ec29-e82a-4d81-83cf-a2c3c98d04d8","ios":"levelo://app?vid=ecb0ec29-e82a-4d81-83cf-a2c3c98d04d8"},"vehicle_type_id":"4","last_reported":1745176074,"current_range_meters":17600,"station_id":"ce4bh3p2rcd13ifvqdp0","pricing_plan_id":"cebpf4jnsgd1na2vs0mg"},{"bike_id":"4d0c211d-cc3b-4460-a3c4-121acaf031ae","system_id":"levelo_inurba_marseille","lat":43.33723,"lon":5.39199,"is_reserved":false,"is_disabled":false,"rental_uris":{"android":"levelo://app?vid=4d0c211d-cc3b-4460-a3c4-121acaf031ae","ios":"levelo://app?vid=4d0c211d-cc3b-4460-a3c4-121acaf031ae"},"vehicle_type_id":"4","last_reported":1745176074,"current_range_meters":17600,"station_id":"ce4bhr92rcd13ifvqhsg","pricing_plan_id":"cebpf4jnsgd1na2vs0mg"},{"bike_id":"54547122-c9e3-44aa-92d3-ee29b2aa8445","system_id":"levelo_inurba_marseille","lat":43.28421,"lon":5.35019,"is_reserved":false,"is_disabled":true,"rental_uris":{"android":"levelo://app?vid=54547122-c9e3-44aa-92d3-ee29b2aa8445","ios":"levelo://app?vid=54547122-c9e3-44aa-92d3-ee29b2aa8445"},"vehicle_type_id":"4","last_reported":1745176074,"current_range_meters":17600,"station_id":"ce4bhbh2rcd13ifvqepg","pricing_plan_id":"cebpf4jnsgd1na2vs0mg"},{"bike_id":"935655db-d2b8-4e4f-beb7-b9190ddc3bda","system_id":"levelo_inurba_marseille","lat":43.24077,"lon":5.37753,"is_reserved":false,"is_disabled":false,"rental_uris":{"android":"levelo://app?vid=935655db-d2b8-4e4f-beb7-b9190ddc3bda","ios":"levelo://app?vid=935655db-d2b8-4e4f-beb7-b9190ddc3bda"},"vehicle_type_id":"4","last_reported":1745176074,"current_range_meters":17600,"station_id":"ce4bhnp2rcd13ifvqgvg","pricing_plan_id":"cebpf4jnsgd1na2vs0mg"},{"bike_id":"5421f91f-c5b9-4312-b8b1-ba44221bb5c0","system_id":"levelo_inurba_marseille","lat":43.26226,"lon":5.37894,"is_reserved":false,"is_disabled":true,"rental_uris":{"android":"levelo://app?vid=5421f91f-c5b9-4312-b8b1-ba44221bb5c0","ios":"levelo://app?vid=5421f91f-c5b9-4312-b8b1-ba44221bb5c0"},"vehicle_type_id":"4","last_reported":1745176074,"current_range_meters":17600,"station_id":"ce4bhjp2rcd13ifvqg90","pricing_plan_id":"cebpf4jnsgd1na2vs0mg"},{"bike_id":"dbaaf1ea-ade8-4f5f-b915-d93153091b62","system_id":"levelo_inurba_marseille","lat":43.25609,"lon":5.38204,"is_reserved":false,"is_disabled":false,"rental_uris":{"android":"levelo://app?vid=dbaaf1ea-ade8-4f5f-b915-d93153091b62","ios":"levelo://app?vid=dbaaf1ea-ade8-4f5f-b915-d93153091b62"},"vehicle_type_id":"4","last_reported":1745176074,"current_range_meters":17600,"station_id":"ce4bhih2rcd13ifvqfs0","pricing_plan_id":"cebpf4jnsgd1na2vs0mg"},{"bike_id":"b8cd5422-1e24-48d1-bc5d-5f973732c00b","system_id":"levelo_inurba_marseille","lat":43.2319,"lon":5.35562,"is_reserved":false,"is_disabled":false,"rental_uris":{"android":"levelo://app?vid=b8cd5422-1e24-48d1-bc5d-5f973732c00b","ios":"levelo://app?vid=b8cd5422-1e24-48d1-bc5d-5f973732c00b"},"vehicle_type_id":"4","last_reported":1745176074,"current_range_meters":17600,"station_id":"ce4bhu92rcd13ifvqi70","pricing_plan_id":"cebpf4jnsgd1na2vs0mg"},{"bike_id":"40509149-37ed-4bff-8337-24743f989815","system_id":"levelo_inurba_marseille","lat":43.29565,"lon":5.37515,"is_reserved":false,"is_disabled":false,"rental_uris":{"android":"levelo://app?vid=40509149-37ed-4bff-8337-24743f989815","ios":"levelo://app?vid=40509149-37ed-4bff-8337-24743f989815"},"vehicle_type_id":"4","last_reported":1745176074,"current_range_meters":18000,"station_id":"ce4bgh92rcd13ifvqb50","pricing_plan_id":"cebpf4jnsgd1na2vs0mg"},{"bike_id":"af5ba08c-0730-4dda-a43c-3e08ff505b3c","system_id":"levelo_inurba_marseille","lat":43.231971,"lon":5.355526,"is_reserved":false,"is_disabled":false,"rental_uris":{"android":"levelo://app?vid=af5ba08c-0730-4dda-a43c-3e08ff505b3c","ios":"levelo://app?vid=af5ba08c-0730-4dda-a43c-3e08ff505b3c"},"vehicle_type_id":"4","last_reported":1745176074,"current_range_meters":18000,"station_id":"ce4bhu92rcd13ifvqi70","pricing_plan_id":"cebpf4jnsgd1na2vs0mg"},{"bike_id":"2e62bd50-8ce6-4b79-8517-7402c9904232","system_id":"levelo_inurba_marseille","lat":43.254654,"lon":5.376822,"is_reserved":false,"is_disabled":false,"rental_uris":{"android":"levelo://app?vid=2e62bd50-8ce6-4b79-8517-7402c9904232","ios":"levelo://app?vid=2e62bd50-8ce6-4b79-8517-7402c9904232"},"vehicle_type_id":"4","last_reported":1745176074,"current_range_meters":18000,"station_id":"ce4bhn12rcd13ifvqgqg","pricing_plan_id":"cebpf4jnsgd1na2vs0mg"},{"bike_id":"779c22f8-19fc-40f3-925f-35af3fed78fe","system_id":"levelo_inurba_marseille","lat":43.29276,"lon":5.38419,"is_reserved":false,"is_disabled":false,"rental_uris":{"android":"levelo://app?vid=779c22f8-19fc-40f3-925f-35af3fed78fe","ios":"levelo://app?vid=779c22f8-19fc-40f3-925f-35af3fed78fe"},"vehicle_type_id":"4","last_reported":1745176074,"current_range_meters":18000,"station_id":"ce4bh692rcd13ifvqea0","pricing_plan_id":"cebpf4jnsgd1na2vs0mg"},{"bike_id":"b2824bf6-8552-4f18-8f40-49bc145757f1","system_id":"levelo_inurba_marseille","lat":43.299021,"lon":5.383174,"is_reserved":false,"is_disabled":false,"rental_uris":{"android":"levelo://app?vid=b2824bf6-8552-4f18-8f40-49bc145757f1","ios":"levelo://app?vid=b2824bf6-8552-4f18-8f40-49bc145757f1"},"vehicle_type_id":"4","last_reported":1745176074,"current_range_meters":18000,"station_id":"","pricing_plan_id":"cebpf4jnsgd1na2vs0mg"},{"bike_id":"68501225-8cea-4f95-ae47-484785f78e68","system_id":"levelo_inurba_marseille","lat":43.32361,"lon":5.38893,"is_reserved":false,"is_disabled":true,"rental_uris":{"android":"levelo://app?vid=68501225-8cea-4f95-ae47-484785f78e68","ios":"levelo://app?vid=68501225-8cea-4f95-ae47-484785f78e68"},"vehicle_type_id":"4","last_reported":1745176074,"current_range_meters":18000,"station_id":"ce4bhqp2rcd13ifvqhog","pricing_plan_id":"cebpf4jnsgd1na2vs0mg"},{"bike_id":"8e2f8f00-a095-45ea-81f2-85b4c26fb8df","system_id":"levelo_inurba_marseille","lat":43.28419,"lon":5.34988,"is_reserved":false,"is_disabled":false,"rental_uris":{"android":"levelo://app?vid=8e2f8f00-a095-45ea-81f2-85b4c26fb8df","ios":"levelo://app?vid=8e2f8f00-a095-45ea-81f2-85b4c26fb8df"},"vehicle_type_id":"4","last_reported":1745176074,"current_range_meters":18000,"station_id":"ce4bhbh2rcd13ifvqepg","pricing_plan_id":"cebpf4jnsgd1na2vs0mg"},{"bike_id":"7f85cb0c-933e-490b-a0c3-bfacab605268","system_id":"levelo_inurba_marseille","lat":43.288524,"lon":5.359714,"is_reserved":false,"is_disabled":true,"rental_uris":{"android":"levelo://app?vid=7f85cb0c-933e-490b-a0c3-bfacab605268","ios":"levelo://app?vid=7f85cb0c-933e-490b-a0c3-bfacab605268"},"vehicle_type_id":"4","last_reported":1745176074,"current_range_meters":18000,"station_id":"","pricing_plan_id":"cebpf4jnsgd1na2vs0mg"},{"bike_id":"f5082407-ad9f-416d-b3f3-a40cd04bfde3","system_id":"levelo_inurba_marseille","lat":43.23008,"lon":5.35481,"is_reserved":false,"is_disabled":false,"rental_uris":{"android":"levelo://app?vid=f5082407-ad9f-416d-b3f3-a40cd04bfde3","ios":"levelo://app?vid=f5082407-ad9f-416d-b3f3-a40cd04bfde3"},"vehicle_type_id":"4","last_reported":1745176074,"current_range_meters":18000,"station_id":"cpo3342slgdg3j2ifvpg","pricing_plan_id":"cebpf4jnsgd1na2vs0mg"},{"bike_id":"3e7d18a7-9988-4127-ac36-51845ec9f1dd","system_id":"levelo_inurba_marseille","lat":43.29515,"lon":5.39403,"is_reserved":false,"is_disabled":false,"rental_uris":{"android":"levelo://app?vid=3e7d18a7-9988-4127-ac36-51845ec9f1dd","ios":"levelo://app?vid=3e7d18a7-9988-4127-ac36-51845ec9f1dd"},