{"last_updated":1707336397,"ttl":30,"version":"2.2","data":{"bikes":[{"bike_id":"b1dcdc4b-bff8-43a4-be0f-ddff447aed43","system_id":"levelo_inurba_marseille","lat":43.31341,"lon":5.367098,"is_reserved":false,"is_disabled":false,"rental_uris":{"android":"levelo://app?vid=b1dcdc4b-bff8-43a4-be0f-ddff447aed43","ios":"levelo://app?vid=b1dcdc4b-bff8-43a4-be0f-ddff447aed43"},"vehicle_type_id":"4","last_reported":1707336397,"current_range_meters":20800,"station_id":"ce4bgr92rcd13ifvqc6g","pricing_plan_id":"free"},{"bike_id":"9dda6770-24ed-48e1-95fa-3dc892a62bf0","system_id":"levelo_inurba_marseille","lat":43.312239,"lon":5.368562,"is_reserved":false,"is_disabled":false,"rental_uris":{"android":"levelo://app?vid=9dda6770-24ed-48e1-95fa-3dc892a62bf0","ios":"levelo://app?vid=9dda6770-24ed-48e1-95fa-3dc892a62bf0"},"vehicle_type_id":"4","last_reported":1707336397,"current_range_meters":26400,"station_id":"ce4bgl92rcd13ifvqbq0","pricing_plan_id":"free"},{"bike_id":"e9f4ebdc-ba09-4370-a588-d3ea3cc0a139","system_id":"levelo_inurba_marseille","lat":43.312239,"lon":5.368562,"is_reserved":false,"is_disabled":false,"rental_uris":{"android":"levelo://app?vid=e9f4ebdc-ba09-4370-a588-d3ea3cc0a139","ios":"levelo://app?vid=e9f4ebdc-ba09-4370-a588-d3ea3cc0a139"},"vehicle_type_id":"4","last_reported":1707336397,"current_range_meters":3600,"station_id":"ce4bgl92rcd13ifvqbq0","pricing_plan_id":"free"},{"bike_id":"8893b99c-e097-425b-96ea-5b4951ce813c","system_id":"levelo_inurba_marseille","lat":43.31302,"lon":5.37136,"is_reserved":false,"is_disabled":false,"rental_uris":{"android":"levelo://app?vid=8893b99c-e097-425b-96ea-5b4951ce813c","ios":"levelo://app?vid=8893b99c-e097-425b-96ea-5b4951ce813c"},"vehicle_type_id":"4","last_reported":1707336397,"current_range_meters":2000,"station_id":"","pricing_plan_id":"free"},{"bike_id":"47dc1065-4a46-4764-9cf2-2da52561ca5c","system_id":"levelo_inurba_marseille","lat":43.309076,"lon":5.368465,"is_reserved":false,"is_disabled":false,"rental_uris":{"android":"levelo://app?vid=47dc1065-4a46-4764-9cf2-2da52561ca5c","ios":"levelo://app?vid=47dc1065-4a46-4764-9cf2-2da52561ca5c"},"vehicle_type_id":"4","last_reported":1707336397,"current_range_meters":23200,"station_id":"ce4bgn92rcd13ifvqbvg","pricing_plan_id":"free"},{"bike_id":"3c45da25-882f-4f72-91b1-3e61747f72b8","system_id":"levelo_inurba_marseille","lat":43.309076,"lon":5.368465,"is_reserved":false,"is_disabled":false,"rental_uris":{"android":"levelo://app?vid=3c45da25-882f-4f72-91b1-3e61747f72b8","ios":"levelo://app?vid=3c45da25-882f-4f72-91b1-3e61747f72b8"},"vehicle_type_id":"4","last_reported":1707336397,"current_range_meters":16800,"station_id":"ce4bgn92rcd13ifvqbvg","pricing_plan_id":"free"},{"bike_id":"fb30b0d5-1772-44df-a64e-9b673062f639","system_id":"levelo_inurba_marseille","lat":43.314811,"lon":5.373103,"is_reserved":false,"is_disabled":false,"rental_uris":{"android":"levelo://app?vid=fb30b0d5-1772-44df-a64e-9b673062f639","ios":"levelo://app?vid=fb30b0d5-1772-44df-a64e-9b673062f639"},"vehicle_type_id":"4","last_reported":1707336397,"current_range_meters":12000,"station_id":"ce4bgt12rcd13ifvqcd0","pricing_plan_id":"free"},{"bike_id":"314bea6b-b3aa-4329-8114-51c4880d71fb","system_id":"levelo_inurba_marseille","lat":43.314811,"lon":5.373103,"is_reserved":false,"is_disabled":false,"rental_uris":{"android":"levelo://app?vid=314bea6b-b3aa-4329-8114-51c4880d71fb","ios":"levelo://app?vid=314bea6b-b3aa-4329-8114-51c4880d71fb"},"vehicle_type_id":"4","last_reported":1707336397,"current_range_meters":24400,"station_id":"ce4bgt12rcd13ifvqcd0","pricing_plan_id":"free"},{"bike_id":"3a74add1-c53e-4a56-9e32-3539e5f88906","system_id":"levelo_inurba_marseille","lat":43.314811,"lon":5.373104,"is_reserved":false,"is_disabled":false,"rental_uris":{"android":"levelo://app?vid=3a74add1-c53e-4a56-9e32-3539e5f88906","ios":"levelo://app?vid=3a74add1-c53e-4a56-9e32-3539e5f88906"},"vehicle_type_id":"4","last_reported":1707336397,"current_range_meters":26800,"station_id":"ce4bgt12rcd13ifvqcd0","pricing_plan_id":"free"},{"bike_id":"bf4b8f81-1516-4f4b-a73a-89dc9d9e22c6","system_id":"levelo_inurba_marseille","lat":43.314811,"lon":5.373103,"is_reserved":false,"is_disabled":false,"rental_uris":{"android":"levelo://app?vid=bf4b8f81-1516-4f4b-a73a-89dc9d9e22c6","ios":"levelo://app?vid=bf4b8f81-1516-4f4b-a73a-89dc9d9e22c6"},"vehicle_type_id":"4","last_reported":1707336397,"current_range_meters":10000,"station_id":"ce4bgt12rcd13ifvqcd0","pricing_plan_id":"free"},{"bike_id":"0cbfc986-8ec7-4943-aaa2-638109ea7091","system_id":"levelo_inurba_marseille","lat":43.314811,"lon":5.373104,"is_reserved":false,"is_disabled":false,"rental_uris":{"android":"levelo://app?vid=0cbfc986-8ec7-4943-aaa2-638109ea7091","ios":"levelo://app?vid=0cbfc986-8ec7-4943-aaa2-638109ea7091"},"vehicle_type_id":"4","last_reported":1707336397,"current_range_meters":8800,"station_id":"ce4bgt12rcd13ifvqcd0","pricing_plan_id":"free"},{"bike_id":"b2e7500c-bcfd-4a75-ab39-f9b37c8d8c96","system_id":"levelo_inurba_marseille","lat":43.305368,"lon":5.367343,"is_reserved":false,"is_disabled":false,"rental_uris":{"android":"levelo://app?vid=b2e7500c-bcfd-4a75-ab39-f9b37c8d8c96","ios":"levelo://app?vid=b2e7500c-bcfd-4a75-ab39-f9b37c8d8c96"},"vehicle_type_id":"4","last_reported":1707336397,"current_range_meters":13200,"station_id":"ce4bgrp2rcd13ifvqc9g","pricing_plan_id":"free"},{"bike_id":"d2ab0d02-1ecf-47c6-b947-32d367ef3d2c","system_id":"levelo_inurba_marseille","lat":43.305989,"lon":5.37225,"is_reserved":false,"is_disabled":false,"rental_uris":{"android":"levelo://app?vid=d2ab0d02-1ecf-47c6-b947-32d367ef3d2c","ios":"levelo://app?vid=d2ab0d02-1ecf-47c6-b947-32d367ef3d2c"},"vehicle_type_id":"4","last_reported":1707336397,"current_range_meters":22400,"station_id":"ce4bgqh2rcd13ifvqc4g","pricing_plan_id":"free"},{"bike_id":"0e16eed3-6262-4ea0-a5ca-485e5aa284c6","system_id":"levelo_inurba_marseille","lat":43.305989,"lon":5.37225,"is_reserved":false,"is_disabled":false,"rental_uris":{"android":"levelo://app?vid=0e16eed3-6262-4ea0-a5ca-485e5aa284c6","ios":"levelo://app?vid=0e16eed3-6262-4ea0-a5ca-485e5aa284c6"},"vehicle_type_id":"4","last_reported":1707336397,"current_range_meters":15200,"station_id":"ce4bgqh2rcd13ifvqc4g","pricing_plan_id":"free"},{"bike_id":"75123130-b3bb-4099-ad9c-214be5b3d3b4","system_id":"levelo_inurba_marseille","lat":43.311131,"lon":5.377651,"is_reserved":false,"is_disabled":false,"rental_uris":{"android":"levelo://app?vid=75123130-b3bb-4099-ad9c-214be5b3d3b4","ios":"levelo://app?vid=75123130-b3bb-4099-ad9c-214be5b3d3b4"},"vehicle_type_id":"4","last_reported":1707336397,"current_range_meters":23200,"station_id":"ce4bgt92rcd13ifvqcg0","pricing_plan_id":"free"},{"bike_id":"916c5055-58ec-43d1-ab9f-50869e99f140","system_id":"levelo_inurba_marseille","lat":43.31124,"lon":5.37765,"is_reserved":false,"is_disabled":false,"rental_uris":{"android":"levelo://app?vid=916c5055-58ec-43d1-ab9f-50869e99f140","ios":"levelo://app?vid=916c5055-58ec-43d1-ab9f-50869e99f140"},"vehicle_type_id":"4","last_reported":1707336397,"current_range_meters":29600,"station_id":"ce4bgt92rcd13ifvqcg0","pricing_plan_id":"free"},{"bike_id":"244ac516-0a64-4437-950f-4fd6793450d2","system_id":"levelo_inurba_marseille","lat":43.311125,"lon":5.377624,"is_reserved":false,"is_disabled":false,"rental_uris":{"android":"levelo://app?vid=244ac516-0a64-4437-950f-4fd6793450d2","ios":"levelo://app?vid=244ac516-0a64-4437-950f-4fd6793450d2"},"vehicle_type_id":"4","last_reported":1707336397,"current_range_meters":31200,"station_id":"ce4bgt92rcd13ifvqcg0","pricing_plan_id":"free"},{"bike_id":"1e694d10-4192-4f11-9e28-e5f50ea47a4f","system_id":"levelo_inurba_marseille","lat":43.311131,"lon":5.377651,"is_reserved":false,"is_disabled":false,"rental_uris":{"android":"levelo://app?vid=1e694d10-4192-4f11-9e28-e5f50ea47a4f","ios":"levelo://app?vid=1e694d10-4192-4f11-9e28-e5f50ea47a4f"},"vehicle_type_id":"4","last_reported":1707336397,"current_range_meters":31200,"station_id":"ce4bgt92rcd13ifvqcg0","pricing_plan_id":"free"},{"bike_id":"7b132972-2751-4b2e-b0e0-350823c3a0bd","system_id":"levelo_inurba_marseille","lat":43.311125,"lon":5.377624,"is_reserved":false,"is_disabled":false,"rental_uris":{"android":"levelo://app?vid=7b132972-2751-4b2e-b0e0-350823c3a0bd","ios":"levelo://app?vid=7b132972-2751-4b2e-b0e0-350823c3a0bd"},"vehicle_type_id":"4","last_reported":1707336397,"current_range_meters":17600,"station_id":"ce4bgt92rcd13ifvqcg0","pricing_plan_id":"free"},{"bike_id":"a9ff46f1-653b-4737-abb3-02631b035bbc","system_id":"levelo_inurba_marseille","lat":43.31909,"lon":5.37357,"is_reserved":false,"is_disabled":false,"rental_uris":{"android":"levelo://app?vid=a9ff46f1-653b-4737-abb3-02631b035bbc","ios":"levelo://app?vid=a9ff46f1-653b-4737-abb3-02631b035bbc"},"vehicle_type_id":"4","last_reported":1707336397,"current_range_meters":0,"station_id":"","pricing_plan_id":"free"},{"bike_id":"f075ca9c-2ce1-4f8f-8241-8c30d0c592bd","system_id":"levelo_inurba_marseille","lat":43.311131,"lon":5.377651,"is_reserved":false,"is_disabled":false,"rental_uris":{"android":"levelo://app?vid=f075ca9c-2ce1-4f8f-8241-8c30d0c592bd","ios":"levelo://app?vid=f075ca9c-2ce1-4f8f-8241-8c30d0c592bd"},"vehicle_type_id":"4","last_reported":1707336397,"current_range_meters":26000,"station_id":"ce4bgt92rcd13ifvqcg0","pricing_plan_id":"free"},{"bike_id":"26f727fb-8aae-447b-8089-322bd437378f","system_id":"levelo_inurba_marseille","lat":43.311131,"lon":5.377651,"is_reserved":false,"is_disabled":false,"rental_uris":{"android":"levelo://app?vid=26f727fb-8aae-447b-8089-322bd437378f","ios":"levelo://app?vid=26f727fb-8aae-447b-8089-322bd437378f"},"vehicle_type_id":"4","last_reported":1707336397,"current_range_meters":18400,"station_id":"ce4bgt92rcd13ifvqcg0","pricing_plan_id":"free"},{"bike_id":"70b28678-9f0b-4b72-983b-c525fc5092a2","system_id":"levelo_inurba_marseille","lat":43.311131,"lon":5.377651,"is_reserved":false,"is_disabled":false,"rental_uris":{"android":"levelo://app?vid=70b28678-9f0b-4b72-983b-c525fc5092a2","ios":"levelo://app?vid=70b28678-9f0b-4b72-983b-c525fc5092a2"},"vehicle_type_id":"4","last_reported":1707336397,"current_range_meters":24800,"station_id":"ce4bgt92rcd13ifvqcg0","pricing_plan_id":"free"},{"bike_id":"bd1c9885-1fe2-41f3-b9f9-933e06d38c1d","system_id":"levelo_inurba_marseille","lat":43.311131,"lon":5.377651,"is_reserved":false,"is_disabled":false,"rental_uris":{"android":"levelo://app?vid=bd1c9885-1fe2-41f3-b9f9-933e06d38c1d","ios":"levelo://app?vid=bd1c9885-1fe2-41f3-b9f9-933e06d38c1d"},"vehicle_type_id":"4","last_reported":1707336397,"current_range_meters":20400,"station_id":"ce4bgt92rcd13ifvqcg0","pricing_plan_id":"free"},{"bike_id":"be508fbb-fa83-4c5a-8b3d-ffd320ab9981","system_id":"levelo_inurba_marseille","lat":43.307945,"lon":5.376487,"is_reserved":false,"is_disabled":false,"rental_uris":{"android":"levelo://app?vid=be508fbb-fa83-4c5a-8b3d-ffd320ab9981","ios":"levelo://app?vid=be508fbb-fa83-4c5a-8b3d-ffd320ab9981"},"vehicle_type_id":"4","last_reported":1707336397,"current_range_meters":22800,"station_id":"ce4bgv92rcd13ifvqcq0","pricing_plan_id":"free"},{"bike_id":"f0b73710-61ad-49ff-954a-f1ca710e2d23","system_id":"levelo_inurba_marseille","lat":43.30787,"lon":5.37659,"is_reserved":false,"is_disabled":false,"rental_uris":{"android":"levelo://app?vid=f0b73710-61ad-49ff-954a-f1ca710e2d23","ios":"levelo://app?vid=f0b73710-61ad-49ff-954a-f1ca710e2d23"},"vehicle_type_id":"4","last_reported":1707336397,"current_range_meters":0,"station_id":"ce4bgv92rcd13ifvqcq0","pricing_plan_id":"free"},{"bike_id":"77bd4f31-8633-48d5-b1a8-51bec2810ccc","system_id":"levelo_inurba_marseille","lat":43.317075,"lon":5.377367,"is_reserved":false,"is_disabled":false,"rental_uris":{"android":"levelo://app?vid=77bd4f31-8633-48d5-b1a8-51bec2810ccc","ios":"levelo://app?vid=77bd4f31-8633-48d5-b1a8-51bec2810ccc"},"vehicle_type_id":"4","last_reported":1707336397,"current_range_meters":30400,"station_id":"ce4bgth2rcd13ifvqch0","pricing_plan_id":"free"},{"bike_id":"323cc24f-0a93-4e30-987d-1b63aeb146b6","system_id":"levelo_inurba_marseille","lat":43.317075,"lon":5.377367,"is_reserved":false,"is_disabled":false,"rental_uris":{"android":"levelo://app?vid=323cc24f-0a93-4e30-987d-1b63aeb146b6","ios":"levelo://app?vid=323cc24f-0a93-4e30-987d-1b63aeb146b6"},"vehicle_type_id":"4","last_reported":1707336397,"current_range_meters":27600,"station_id":"ce4bgth2rcd13ifvqch0","pricing_plan_id":"free"},{"bike_id":"647857c9-134c-4f4e-abbd-ef55832b93da","system_id":"levelo_inurba_marseille","lat":43.317075,"lon":5.377367,"is_reserved":false,"is_disabled":false,"rental_uris":{"android":"levelo://app?vid=647857c9-134c-4f4e-abbd-ef55832b93da","ios":"levelo://app?vid=647857c9-134c-4f4e-abbd-ef55832b93da"},"vehicle_type_id":"4","last_reported":1707336397,"current_range_meters":31200,"station_id":"ce4bgth2rcd13ifvqch0","pricing_plan_id":"free"},{"bike_id":"77c56c26-358c-40bf-89d6-fd80c1465d49","system_id":"levelo_inurba_marseille","lat":43.317075,"lon":5.377367,"is_reserved":false,"is_disabled":false,"rental_uris":{"android":"levelo://app?vid=77c56c26-358c-40bf-89d6-fd80c1465d49","ios":"levelo://app?vid=77c56c26-358c-40bf-89d6-fd80c1465d49"},"vehicle_type_id":"4","last_reported":1707336397,"current_range_meters":27200,"station_id":"ce4bgth2rcd13ifvqch0","pricing_plan_id":"free"},{"bike_id":"dca02982-a8ca-4f8f-99aa-c4c50c3dc6cf","system_id":"levelo_inurba_marseille","lat":43.32232,"lon":5.37024,"is_reserved":false,"is_disabled":false,"rental_uris":{"android":"levelo://app?vid=dca02982-a8ca-4f8f-99aa-c4c50c3dc6cf","ios":"levelo://app?vid=dca02982-a8ca-4f8f-99aa-c4c50c3dc6cf"},"vehicle_type_id":"4","last_reported":1707336397,"current_range_meters":29200,"station_id":"","pricing_plan_id":"free"},{"bike_id":"22a7d0c5-e242-4527-b910-ea5e3b54db4b","system_id":"levelo_inurba_marseille","lat":43.315293,"lon":5.380349,"is_reserved":false,"is_disabled":false,"rental_uris":{"android":"levelo://app?vid=22a7d0c5-e242-4527-b910-ea5e3b54db4b","ios":"levelo://app?vid=22a7d0c5-e242-4527-b910-ea5e3b54db4b"},"vehicle_type_id":"4","last_reported":1707336397,"current_range_meters":21600,"station_id":"ce4bhsp2rcd13ifvqi50","pricing_plan_id":"free"},{"bike_id":"17a82f80-4867-43c1-95f7-77649d07b813","system_id":"levelo_inurba_marseille","lat":43.315299,"lon":5.380374,"is_reserved":false,"is_disabled":false,"rental_uris":{"android":"levelo://app?vid=17a82f80-4867-43c1-95f7-77649d07b813","ios":"levelo://app?vid=17a82f80-4867-43c1-95f7-77649d07b813"},"vehicle_type_id":"4","last_reported":1707336397,"current_range_meters":28800,"station_id":"","pricing_plan_id":"free"},{"bike_id":"0719cb39-67a2-433d-8571-1ddf345281cc","system_id":"levelo_inurba_marseille","lat":43.308012,"lon":5.381511,"is_reserved":false,"is_disabled":false,"rental_uris":{"android":"levelo://app?vid=0719cb39-67a2-433d-8571-1ddf345281cc","ios":"levelo://app?vid=0719cb39-67a2-433d-8571-1ddf345281cc"},"vehicle_type_id":"4","last_reported":1707336397,"current_range_meters":23600,"station_id":"ce4bgt12rcd13ifvqce0","pricing_plan_id":"free"},{"bike_id":"b6d5a2fb-b6f9-41f7-b40d-d7ebccbeac74","system_id":"levelo_inurba_marseille","lat":43.30805,"lon":5.38151,"is_reserved":false,"is_disabled":false,"rental_uris":{"android":"levelo://app?vid=b6d5a2fb-b6f9-41f7-b40d-d7ebccbeac74","ios":"levelo://app?vid=b6d5a2fb-b6f9-41f7-b40d-d7ebccbeac74"},"vehicle_type_id":"4","last_reported":1707336397,"current_range_meters":11600,"station_id":"ce4bgt12rcd13ifvqce0","pricing_plan_id":"free"},{"bike_id":"8cc9eb98-97cb-41a9-9276-144a79a61e69","system_id":"levelo_inurba_marseille","lat":43.30801,"lon":5.38149,"is_reserved":false,"is_disabled":false,"rental_uris":{"android":"levelo://app?vid=8cc9eb98-97cb-41a9-9276-144a79a61e69","ios":"levelo://app?vid=8cc9eb98-97cb-41a9-9276-144a79a61e69"},"vehicle_type_id":"4","last_reported":1707336397,"current_range_meters":13600,"station_id":"ce4bgt12rcd13ifvqce0","pricing_plan_id":"free"},{"bike_id":"6388d5ab-f4a7-4a75-a816-2d8a4b5cd76c","system_id":"levelo_inurba_marseille","lat":43.308012,"lon":5.381511,"is_reserved":false,"is_disabled":false,"rental_uris":{"android":"levelo://app?vid=6388d5ab-f4a7-4a75-a816-2d8a4b5cd76c","ios":"levelo://app?vid=6388d5ab-f4a7-4a75-a816-2d8a4b5cd76c"},"vehicle_type_id":"4","last_reported":1707336397,"current_range_meters":31200,"station_id":"ce4bgt12rcd13ifvqce0","pricing_plan_id":"free"},{"bike_id":"8aeec1ca-c89d-4015-be85-f6f2a9fef773","system_id":"levelo_inurba_marseille","lat":43.308003,"lon":5.381567,"is_reserved":false,"is_disabled":false,"rental_uris":{"android":"levelo://app?vid=8aeec1ca-c89d-4015-be85-f6f2a9fef773","ios":"levelo://app?vid=8aeec1ca-c89d-4015-be85-f6f2a9fef773"},"vehicle_type_id":"4","last_reported":1707336397,"current_range_meters":9600,"station_id":"ce4bgt12rcd13ifvqce0","pricing_plan_id":"free"},{"bike_id":"d3bbaa1c-bd42-4480-83af-1675f959224a","system_id":"levelo_inurba_marseille","lat":43.32275,"lon":5.37595,"is_reserved":false,"is_disabled":false,"rental_uris":{"android":"levelo://app?vid=d3bbaa1c-bd42-4480-83af-1675f959224a","ios":"levelo://app?vid=d3bbaa1c-bd42-4480-83af-1675f959224a"},"vehicle_type_id":"4","last_reported":1707336397,"current_range_meters":15200,"station_id":"","pricing_plan_id":"free"},{"bike_id":"97f71f75-d414-4d74-9636-20377fab8590","system_id":"levelo_inurba_marseille","lat":43.324771,"lon":5.36557,"is_reserved":false,"is_disabled":false,"rental_uris":{"android":"levelo://app?vid=97f71f75-d414-4d74-9636-20377fab8590","ios":"levelo://app?vid=97f71f75-d414-4d74-9636-20377fab8590"},"vehicle_type_id":"4","last_reported":1707336397,"current_range_meters":26400,"station_id":"ce4bhs12rcd13ifvqhvg","pricing_plan_id":"free"},{"bike_id":"605f62f9-77f8-4587-ab19-ffc1dab3756e","system_id":"levelo_inurba_marseille","lat":43.324771,"lon":5.36557,"is_reserved":false,"is_disabled":false,"rental_uris":{"android":"levelo://app?vid=605f62f9-77f8-4587-ab19-ffc1dab3756e","ios":"levelo://app?vid=605f62f9-77f8-4587-ab19-ffc1dab3756e"},"vehicle_type_id":"4","last_reported":1707336397,"current_range_meters":18800,"station_id":"ce4bhs12rcd13ifvqhvg","pricing_plan_id":"free"},{"bike_id":"5e3f4117-bf71-4295-8fac-b33a9c44e6b6","system_id":"levelo_inurba_marseille","lat":43.324771,"lon":5.36557,"is_reserved":false,"is_disabled":false,"rental_uris":{"android":"levelo://app?vid=5e3f4117-bf71-4295-8fac-b33a9c44e6b6","ios":"levelo://app?vid=5e3f4117-bf71-4295-8fac-b33a9c44e6b6"},"vehicle_type_id":"4","last_reported":1707336397,"current_range_meters":19200,"station_id":"ce4bhs12rcd13ifvqhvg","pricing_plan_id":"free"},{"bike_id":"91c66a19-a3c7-49c3-af5d-2beaa8d69313","system_id":"levelo_inurba_marseille","lat":43.324771,"lon":5.36557,"is_reserved":false,"is_disabled":false,"rental_uris":{"android":"levelo://app?vid=91c66a19-a3c7-49c3-af5d-2beaa8d69313","ios":"levelo://app?vid=91c66a19-a3c7-49c3-af5d-2beaa8d69313"},"vehicle_type_id":"4","last_reported":1707336397,"current_range_meters":14000,"station_id":"ce4bhs12rcd13ifvqhvg","pricing_plan_id":"free"},{"bike_id":"54816f03-0b1e-4fc0-91bf-20b8803389d5","system_id":"levelo_inurba_marseille","lat":43.324771,"lon":5.36557,"is_reserved":false,"is_disabled":false,"rental_uris":{"android":"levelo://app?vid=54816f03-0b1e-4fc0-91bf-20b8803389d5","ios":"levelo://app?vid=54816f03-0b1e-4fc0-91bf-20b8803389d5"},"vehicle_type_id":"4","last_reported":1707336397,"current_range_meters":400,"station_id":"ce4bhs12rcd13ifvqhvg","pricing_plan_id":"free"},{"bike_id":"a15b589b-1f0d-4b29-b945-5c2b3d09fb10","system_id":"levelo_inurba_marseille","lat":43.310804,"lon":5.38359,"is_reserved":false,"is_disabled":false,"rental_uris":{"android":"levelo://app?vid=a15b589b-1f0d-4b29-b945-5c2b3d09fb10","ios":"levelo://app?vid=a15b589b-1f0d-4b29-b945-5c2b3d09fb10"},"vehicle_type_id":"4","last_reported":1707336397,"current_range_meters":0,"station_id":"ce4bgv92rcd13ifvqcr0","pricing_plan_id":"free"},{"bike_id":"d7742b9f-4053-4074-a7fb-39b1539e4cb0","system_id":"levelo_inurba_marseille","lat":43.301429,"lon":5.37413,"is_reserved":false,"is_disabled":false,"rental_uris":{"android":"levelo://app?vid=d7742b9f-4053-4074-a7fb-39b1539e4cb0","ios":"levelo://app?vid=d7742b9f-4053-4074-a7fb-39b1539e4cb0"},"vehicle_type_id":"4","last_reported":1707336397,"current_range_meters":2000,"station_id":"ce4bgs92rcd13ifvqcc0","pricing_plan_id":"free"},{"bike_id":"23c1ec12-8e66-4edf-84df-55c7fcad01c6","system_id":"levelo_inurba_marseille","lat":43.30143,"lon":5.37413,"is_reserved":false,"is_disabled":false,"rental_uris":{"android":"levelo://app?vid=23c1ec12-8e66-4edf-84df-55c7fcad01c6","ios":"levelo://app?vid=23c1ec12-8e66-4edf-84df-55c7fcad01c6"},"vehicle_type_id":"4","last_reported":1707336397,"current_range_meters":11200,"station_id":"ce4bgs92rcd13ifvqcc0","pricing_plan_id":"free"},{"bike_id":"740003d4-55d5-4974-b418-57fb3f4d1ce4","system_id":"levelo_inurba_marseille","lat":43.31998,"lon":5.38161,"is_reserved":false,"is_disabled":false,"rental_uris":{"android":"levelo://app?vid=740003d4-55d5-4974-b418-57fb3f4d1ce4","ios":"levelo://app?vid=740003d4-55d5-4974-b418-57fb3f4d1ce4"},"vehicle_type_id":"4","last_reported":1707336397,"current_range_meters":16800,"station_id":"ce4bhr12rcd13ifvqhpg","pricing_plan_id":"free"},{"bike_id":"05cc6cfb-857b-47ff-8bea-81a67485a343","system_id":"levelo_inurba_marseille","lat":43.319935,"lon":5.381699,"is_reserved":false,"is_disabled":false,"rental_uris":{"android":"levelo://app?vid=05cc6cfb-857b-47ff-8bea-81a67485a343","ios":"levelo://app?vid=05cc6cfb-857b-47ff-8bea-81a67485a343"},"vehicle_type_id":"4","last_reported":1707336397,"current_range_meters":11200,"station_id":"ce4bhr12rcd13ifvqhpg","pricing_plan_id":"free"},{"bike_id":"cbd70567-7dad-4294-bbf0-7f71df06fea6","system_id":"levelo_inurba_marseille","lat":43.313571,"lon":5.384829,"is_reserved":false,"is_disabled":false,"rental_uris":{"android":"levelo://app?vid=cbd70567-7dad-4294-bbf0-7f71df06fea6","ios":"levelo://app?vid=cbd70567-7dad-4294-bbf0-7f71df06fea6"},"vehicle_type_id":"4","last_reported":1707336397,"current_range_meters":25200,"station_id":"ce4bgt92rcd13ifvqcf0","pricing_plan_id":"free"},{"bike_id":"04a32a98-c3d3-419a-b904-635e2a76661f","system_id":"levelo_inurba_marseille","lat":43.31362,"lon":5.3849,"is_reserved":false,"is_disabled":false,"rental_uris":{"android":"levelo://app?vid=04a32a98-c3d3-419a-b904-635e2a76661f","ios":"levelo://app?vid=04a32a98-c3d3-419a-b904-635e2a76661f"},"vehicle_type_id":"4","last_reported":1707336397,"current_range_meters":5200,"station_id":"ce4bgt92rcd13ifvqcf0","pricing_plan_id":"free"},{"bike_id":"d73908e2-2bfd-489b-804e-d4e95fac72d2","system_id":"levelo_inurba_marseille","lat":43.326525,"lon":5.36078,"is_reserved":false,"is_disabled":false,"rental_uris":{"android":"levelo://app?vid=d73908e2-2bfd-489b-804e-d4e95fac72d2","ios":"levelo://app?vid=d73908e2-2bfd-489b-804e-d4e95fac72d2"},"vehicle_type_id":"4","last_reported":1707336397,"current_range_meters":9600,"station_id":"","pricing_plan_id":"free"},{"bike_id":"ec31897a-59ef-4df2-9ac8-430efae0fc17","system_id":"levelo_inurba_marseille","lat":43.305364,"lon":5.384119,"is_reserved":false,"is_disabled":false,"rental_uris":{"android":"levelo://app?vid=ec31897a-59ef-4df2-9ac8-430efae0fc17","ios":"levelo://app?vid=ec31897a-59ef-4df2-9ac8-430efae0fc17"},"vehicle_type_id":"4","last_reported":1707336397,"current_range_meters":17200,"station_id":"ce4bgg92rcd13ifvqb30","pricing_plan_id":"free"},{"bike_id":"9c3407c3-7cb1-4659-9d68-95606da9f320","system_id":"levelo_inurba_marseille","lat":43.305364,"lon":5.384119,"is_reserved":false,"is_disabled":false,"rental_uris":{"android":"levelo://app?vid=9c3407c3-7cb1-4659-9d68-95606da9f320","ios":"levelo://app?vid=9c3407c3-7cb1-4659-9d68-95606da9f320"},"vehicle_type_id":"4","last_reported":1707336397,"current_range_meters":13200,"station_id":"ce4bgg92rcd13ifvqb30","pricing_plan_id":"free"},{"bike_id":"5de3561b-1824-46cd-97c5-06dca7e42655","system_id":"levelo_inurba_marseille","lat":43.305364,"lon":5.384119,"is_reserved":false,"is_disabled":false,"rental_uris":{"android":"levelo://app?vid=5de3561b-1824-46cd-97c5-06dca7e42655","ios":"levelo://app?vid=5de3561b-1824-46cd-97c5-06dca7e42655"},"vehicle_type_id":"4","last_reported":1707336397,"current_range_meters":21600,"station_id":"ce4bgg92rcd13ifvqb30","pricing_plan_id":"free"},{"bike_id":"867a7e36-d153-4291-a21e-34b84c500fb4","system_id":"levelo_inurba_marseille","lat":43.298433,"lon":5.362774,"is_reserved":false,"is_disabled":false,"rental_uris":{"android":"levelo://app?vid=867a7e36-d153-4291-a21e-34b84c500fb4","ios":"levelo://app?vid=867a7e36-d153-4291-a21e-34b84c500fb4"},"vehicle_type_id":"4","last_reported":1707336397,"current_range_meters":31200,"station_id":"ce4bgpp2rcd13ifvqc3g","pricing_plan_id":"free"},{"bike_id":"c00e33a3-7704-47f2-96a3-4dcb955de22e","system_id":"levelo_inurba_marseille","lat":43.311722,"lon":5.387247,"is_reserved":false,"is_disabled":false,"rental_uris":{"android":"levelo://app?vid=c00e33a3-7704-47f2-96a3-4dcb955de22e","ios":"levelo://app?vid=c00e33a3-7704-47f2-96a3-4dcb955de22e"},"vehicle_type_id":"4","last_reported":1707336397,"current_range_meters":28400,"station_id":"ce4bgv12rcd13ifvqcp0","pricing_plan_id":"free"},{"bike_id":"748d70b7-618a-4e4b-a515-031cc5abb100","system_id":"levelo_inurba_marseille","lat":43.31179,"lon":5.38709,"is_reserved":false,"is_disabled":false,"rental_uris":{"android":"levelo://app?vid=748d70b7-618a-4e4b-a515-031cc5abb100","ios":"levelo://app?vid=748d70b7-618a-4e4b-a515-031cc5abb100"},"vehicle_type_id":"4","last_reported":1707336397,"current_range_meters":23200,"station_id":"ce4bgv12rcd13ifvqcp0","pricing_plan_id":"free"},{"bike_id":"cb8a9910-9fd9-4723-8b0f-29e12699e030","system_id":"levelo_inurba_marseille","lat":43.311722,"lon":5.387247,"is_reserved":false,"is_disabled":false,"rental_uris":{"android":"levelo://app?vid=cb8a9910-9fd9-4723-8b0f-29e12699e030","ios":"levelo://app?vid=cb8a9910-9fd9-4723-8b0f-29e12699e030"},"vehicle_type_id":"4","last_reported":1707336397,"current_range_meters":13600,"station_id":"ce4bgv12rcd13ifvqcp0","pricing_plan_id":"free"},{"bike_id":"22095710-7545-4467-a47f-9925480669a0","system_id":"levelo_inurba_marseille","lat":43.311722,"lon":5.387247,"is_reserved":false,"is_disabled":false,"rental_uris":{"android":"levelo://app?vid=22095710-7545-4467-a47f-9925480669a0","ios":"levelo://app?vid=22095710-7545-4467-a47f-9925480669a0"},"vehicle_type_id":"4","last_reported":1707336397,"current_range_meters":0,"station_id":"ce4bgv12rcd13ifvqcp0","pricing_plan_id":"free"},{"bike_id":"9369ccc0-b20b-4c53-bcd3-34cc914f414f","system_id":"levelo_inurba_marseille","lat":43.297794,"lon":5.370888,"is_reserved":false,"is_disabled":false,"rental_uris":{"android":"levelo://app?vid=9369ccc0-b20b-4c53-bcd3-34cc914f414f","ios":"levelo://app?vid=9369ccc0-b20b-4c53-bcd3-34cc914f414f"},"vehicle_type_id":"4","last_reported":1707336397,"current_range_meters":12400,"station_id":"ce4bgop2rcd13ifvqc1g","pricing_plan_id":"free"},{"bike_id":"d18e31e4-4ffb-4505-8526-6ad32d2b8284","system_id":"levelo_inurba_marseille","lat":43.322872,"lon":5.382756,"is_reserved":false,"is_disabled":false,"rental_uris":{"android":"levelo://app?vid=d18e31e4-4ffb-4505-8526-6ad32d2b8284","ios":"levelo://app?vid=d18e31e4-4ffb-4505-8526-6ad32d2b8284"},"vehicle_type_id":"4","last_reported":1707336397,"current_range_meters":28800,"station_id":"ce4bhr12rcd13ifvqhqg","pricing_plan_id":"free"},{"bike_id":"7e1b2a77-71b5-4003-b54e-450ad3f3f9d1","system_id":"levelo_inurba_marseille","lat":43.322872,"lon":5.382756,"is_reserved":false,"is_disabled":false,"rental_uris":{"android":"levelo://app?vid=7e1b2a77-71b5-4003-b54e-450ad3f3f9d1","ios":"levelo://app?vid=7e1b2a77-71b5-4003-b54e-450ad3f3f9d1"},"vehicle_type_id":"4","last_reported":1707336397,"current_range_meters":31600,"station_id":"ce4bhr12rcd13ifvqhqg","pricing_plan_id":"free"},{"bike_id":"2c3e498c-51f7-4742-8fc0-50b1b6152893","system_id":"levelo_inurba_marseille","lat":43.322872,"lon":5.382756,"is_reserved":false,"is_disabled":false,"rental_uris":{"android":"levelo://app?vid=2c3e498c-51f7-4742-8fc0-50b1b6152893","ios":"levelo://app?vid=2c3e498c-51f7-4742-8fc0-50b1b6152893"},"vehicle_type_id":"4","last_reported":1707336397,"current_range_meters":28000,"station_id":"ce4bhr12rcd13ifvqhqg","pricing_plan_id":"free"},{"bike_id":"685b8c45-26fc-4944-8679-af0812faf08c","system_id":"levelo_inurba_marseille","lat":43.322872,"lon":5.382756,"is_reserved":false,"is_disabled":false,"rental_uris":{"android":"levelo://app?vid=685b8c45-26fc-4944-8679-af0812faf08c","ios":"levelo://app?vid=685b8c45-26fc-4944-8679-af0812faf08c"},"vehicle_type_id":"4","last_reported":1707336397,"current_range_meters":5600,"station_id":"ce4bhr12rcd13ifvqhqg","pricing_plan_id":"free"},{"bike_id":"72871506-5c8d-4246-b6ff-5c1fd4ecd534","system_id":"levelo_inurba_marseille","lat":43.322872,"lon":5.382756,"is_reserved":false,"is_disabled":false,"rental_uris":{"android":"levelo://app?vid=72871506-5c8d-4246-b6ff-5c1fd4ecd534","ios":"levelo://app?vid=72871506-5c8d-4246-b6ff-5c1fd4ecd534"},"vehicle_type_id":"4","last_reported":1707336397,"current_range_meters":22400,"station_id":"ce4bhr12rcd13ifvqhqg","pricing_plan_id":"free"},{"bike_id":"eefe6e9a-bb51-44f7-a644-f94de5a43093","system_id":"levelo_inurba_marseille","lat":43.322872,"lon":5.382756,"is_reserved":false,"is_disabled":false,"rental_uris":{"android":"levelo://app?vid=eefe6e9a-bb51-44f7-a644-f94de5a43093","ios":"levelo://app?vid=eefe6e9a-bb51-44f7-a644-f94de5a43093"},"vehicle_type_id":"4","last_reported":1707336397,"current_range_meters":26800,"station_id":"ce4bhr12rcd13ifvqhqg","pricing_plan_id":"free"},{"bike_id":"e9931e11-7f7d-405e-b611-f5c0a6974b86","system_id":"levelo_inurba_marseille","lat":43.32821,"lon":5.366868,"is_reserved":false,"is_disabled":false,"rental_uris":{"android":"levelo://app?vid=e9931e11-7f7d-405e-b611-f5c0a6974b86","ios":"levelo://app?vid=e9931e11-7f7d-405e-b611-f5c0a6974b86"},"vehicle_type_id":"4","last_reported":1707336397,"current_range_meters":7600,"station_id":"ce4bhs92rcd13ifvqi0g","pricing_plan_id":"free"},{"bike_id":"1900e2ea-9239-49b1-933e-57903fa99707","system_id":"levelo_inurba_marseille","lat":43.32826,"lon":5.36695,"is_reserved":false,"is_disabled":false,"rental_uris":{"android":"levelo://app?vid=1900e2ea-9239-49b1-933e-57903fa99707","ios":"levelo://app?vid=1900e2ea-9239-49b1-933e-57903fa99707"},"vehicle_type_id":"4","last_reported":1707336397,"current_range_meters":0,"station_id":"ce4bhs92rcd13ifvqi0g","pricing_plan_id":"free"},{"bike_id":"47a33bc8-7e52-4c8c-b843-d318746dd21e","system_id":"levelo_inurba_marseille","lat":43.29714,"lon":5.36608,"is_reserved":false,"is_disabled":false,"rental_uris":{"android":"levelo://app?vid=47a33bc8-7e52-4c8c-b843-d318746dd21e","ios":"levelo://app?vid=47a33bc8-7e52-4c8c-b843-d318746dd21e"},"vehicle_type_id":"4","last_reported":1707336397,"current_range_meters":0,"station_id":"ce4bgn12rcd13ifvqbt0","pricing_plan_id":"free"},{"bike_id":"a32a8a31-c14a-4104-b5e3-65efbe9a2f37","system_id":"levelo_inurba_marseille","lat":43.29714,"lon":5.366,"is_reserved":false,"is_disabled":false,"rental_uris":{"android":"levelo://app?vid=a32a8a31-c14a-4104-b5e3-65efbe9a2f37","ios":"levelo://app?vid=a32a8a31-c14a-4104-b5e3-65efbe9a2f37"},"vehicle_type_id":"4","last_reported":1707336397,"current_range_meters":13600,"station_id":"ce4bgn12rcd13ifvqbt0","pricing_plan_id":"free"},{"bike_id":"9a4dcd7a-1caa-43f9-87b5-3db3814d298d","system_id":"levelo_inurba_marseille","lat":43.297163,"lon":5.365866,"is_reserved":false,"is_disabled":false,"rental_uris":{"android":"levelo://app?vid=9a4dcd7a-1caa-43f9-87b5-3db3814d298d","ios":"levelo://app?vid=9a4dcd7a-1caa-43f9-87b5-3db3814d298d"},"vehicle_type_id":"4","last_reported":1707336397,"current_range_meters":24000,"station_id":"ce4bgn12rcd13ifvqbt0","pricing_plan_id":"free"},{"bike_id":"e4e5b0ce-a2f5-495b-b220-5b83695fdcd6","system_id":"levelo_inurba_marseille","lat":43.29701,"lon":5.36608,"is_reserved":false,"is_disabled":false,"rental_uris":{"android":"levelo://app?vid=e4e5b0ce-a2f5-495b-b220-5b83695fdcd6","ios":"levelo://app?vid=e4e5b0ce-a2f5-495b-b220-5b83695fdcd6"},"vehicle_type_id":"4","last_reported":1707336397,"current_range_meters":3600,"station_id":"ce4bgn12rcd13ifvqbt0","pricing_plan_id":"free"},{"bike_id":"3b732576-e39f-439e-a691-891df2808a3d","system_id":"levelo_inurba_marseille","lat":43.309589,"lon":5.390258,"is_reserved":false,"is_disabled":false,"rental_uris":{"android":"levelo://app?vid=3b732576-e39f-439e-a691-891df2808a3d","ios":"levelo://app?vid=3b732576-e39f-439e-a691-891df2808a3d"},"vehicle_type_id":"4","last_reported":1707336397,"current_range_meters":4800,"station_id":"ce4bgup2rcd13ifvqco0","pricing_plan_id":"free"},{"bike_id":"13df6442-00e1-430d-9735-366402036f46","system_id":"levelo_inurba_marseille","lat":43.299028,"lon":5.381509,"is_reserved":false,"is_disabled":false,"rental_uris":{"android":"levelo://app?vid=13df6442-00e1-430d-9735-366402036f46","ios":"levelo://app?vid=13df6442-00e1-430d-9735-366402036f46"},"vehicle_type_id":"4","last_reported":1707336397,"current_range_meters":17600,"station_id":"ce4bgj12rcd13ifvqbc0","pricing_plan_id":"free"},{"bike_id":"723ce43e-06cb-4e7f-a433-79052c72d47a","system_id":"levelo_inurba_marseille","lat":43.309589,"lon":5.390258,"is_reserved":false,"is_disabled":false,"rental_uris":{"android":"levelo://app?vid=723ce43e-06cb-4e7f-a433-79052c72d47a","ios":"levelo://app?vid=723ce43e-06cb-4e7f-a433-79052c72d47a"},"vehicle_type_id":"4","last_reported":1707336397,"current_range_meters":13600,"station_id":"ce4bgup2rcd13ifvqco0","pricing_plan_id":"free"},{"bike_id":"ba44be42-6482-4ec7-952b-dab1c26db203","system_id":"levelo_inurba_marseille","lat":43.309589,"lon":5.390258,"is_reserved":false,"is_disabled":false,"rental_uris":{"android":"levelo://app?vid=ba44be42-6482-4ec7-952b-dab1c26db203","ios":"levelo://app?vid=ba44be42-6482-4ec7-952b-dab1c26db203"},"vehicle_type_id":"4","last_reported":1707336397,"current_range_meters":6000,"station_id":"ce4bgup2rcd13ifvqco0","pricing_plan_id":"free"},{"bike_id":"86465806-4854-40e0-87d9-df72d925b6c9","system_id":"levelo_inurba_marseille","lat":43.309589,"lon":5.390258,"is_reserved":false,"is_disabled":false,"rental_uris":{"android":"levelo://app?vid=86465806-4854-40e0-87d9-df72d925b6c9","ios":"levelo://app?vid=86465806-4854-40e0-87d9-df72d925b6c9"},"vehicle_type_id":"4","last_reported":1707336397,"current_range_meters":23200,"station_id":"ce4bgup2rcd13ifvqco0","pricing_plan_id":"free"},{"bike_id":"b393e380-9b9a-4239-8934-e30e3f7bac4e","system_id":"levelo_inurba_marseille","lat":43.317391,"lon":5.390103,"is_reserved":false,"is_disabled":false,"rental_uris":{"android":"levelo://app?vid=b393e380-9b9a-4239-8934-e30e3f7bac4e","ios":"levelo://app?vid=b393e380-9b9a-4239-8934-e30e3f7bac4e"},"vehicle_type_id":"4","last_reported":1707336397,"current_range_meters":10400,"station_id":"ce4bhqp2rcd13ifvqhng","pricing_plan_id":"free"},{"bike_id":"b6c1c1be-a5aa-4d5d-89a2-fd3b94ed18a1","system_id":"levelo_inurba_marseille","lat":43.317557,"lon":5.390173,"is_reserved":false,"is_disabled":false,"rental_uris":{"android":"levelo://app?vid=b6c1c1be-a5aa-4d5d-89a2-fd3b94ed18a1","ios":"levelo://app?vid=b6c1c1be-a5aa-4d5d-89a2-fd3b94ed18a1"},"vehicle_type_id":"4","last_reported":1707336397,"current_range_meters":17200,"station_id":"ce4bhqp2rcd13ifvqhng","pricing_plan_id":"free"},{"bike_id":"a65680f1-b3cf-4a61-b0ee-2a9e0277a0af","system_id":"levelo_inurba_marseille","lat":43.317566,"lon":5.390137,"is_reserved":false,"is_disabled":false,"rental_uris":{"android":"levelo://app?vid=a65680f1-b3cf-4a61-b0ee-2a9e0277a0af","ios":"levelo://app?vid=a65680f1-b3cf-4a61-b0ee-2a9e0277a0af"},"vehicle_type_id":"4","last_reported":1707336397,"current_range_meters":12000,"station_id":"ce4bhqp2rcd13ifvqhng","pricing_plan_id":"free"},{"bike_id":"3ccd3931-8811-4b7f-a846-c32a0a6915a2","system_id":"levelo_inurba_marseille","lat":43.317557,"lon":5.390173,"is_reserved":false,"is_disabled":false,"rental_uris":{"android":"levelo://app?vid=3ccd3931-8811-4b7f-a846-c32a0a6915a2","ios":"levelo://app?vid=3ccd3931-8811-4b7f-a846-c32a0a6915a2"},"vehicle_type_id":"4","last_reported":1707336397,"current_range_meters":28800,"station_id":"ce4bhqp2rcd13ifvqhng","pricing_plan_id":"free"},{"bike_id":"f9e71f25-83c3-4ad2-95f8-b63267492ced","system_id":"levelo_inurba_marseille","lat":43.317557,"lon":5.390173,"is_reserved":false,"is_disabled":false,"rental_uris":{"android":"levelo://app?vid=f9e71f25-83c3-4ad2-95f8-b63267492ced","ios":"levelo://app?vid=f9e71f25-83c3-4ad2-95f8-b63267492ced"},"vehicle_type_id":"4","last_reported":1707336397,"current_range_meters":26000,"station_id":"ce4bhqp2rcd13ifvqhng","pricing_plan_id":"free"},{"bike_id":"8236458b-34ca-49b5-ab60-c4f12ac61945","system_id":"levelo_inurba_marseille","lat":43.31759,"lon":5.39018,"is_reserved":false,"is_disabled":false,"rental_uris":{"android":"levelo://app?vid=8236458b-34ca-49b5-ab60-c4f12ac61945","ios":"levelo://app?vid=8236458b-34ca-49b5-ab60-c4f12ac61945"},"vehicle_type_id":"4","last_reported":1707336397,"current_range_meters":11200,"station_id":"ce4bhqp2rcd13ifvqhng","pricing_plan_id":"free"},{"bike_id":"5803286d-bc09-4cb9-b050-80f335e1e221","system_id":"levelo_inurba_marseille","lat":43.317557,"lon":5.390173,"is_reserved":false,"is_disabled":false,"rental_uris":{"android":"levelo://app?vid=5803286d-bc09-4cb9-b050-80f335e1e221","ios":"levelo://app?vid=5803286d-bc09-4cb9-b050-80f335e1e221"},"vehicle_type_id":"4","last_reported":1707336397,"current_range_meters":20800,"station_id":"ce4bhqp2rcd13ifvqhng","pricing_plan_id":"free"},{"bike_id":"36530bef-b0a9-4557-bc82-752d439888bc","system_id":"levelo_inurba_marseille","lat":43.31753,"lon":5.39026,"is_reserved":false,"is_disabled":false,"rental_uris":{"android":"levelo://app?vid=36530bef-b0a9-4557-bc82-752d439888bc","ios":"levelo://app?vid=36530bef-b0a9-4557-bc82-752d439888bc"},"vehicle_type_id":"4","last_reported":1707336397,"current_range_meters":14400,"station_id":"ce4bhqp2rcd13ifvqhng","pricing_plan_id":"free"},{"bike_id":"28bba395-38ae-46b0-8bda-5604032e994c","system_id":"levelo_inurba_marseille","lat":43.31757,"lon":5.39027,"is_reserved":false,"is_disabled":false,"rental_uris":{"android":"levelo://app?vid=28bba395-38ae-46b0-8bda-5604032e994c","ios":"levelo://app?vid=28bba395-38ae-46b0-8bda-5604032e994c"},"vehicle_type_id":"4","last_reported":1707336397,"current_range_meters":14400,"station_id":"ce4bhqp2rcd13ifvqhng","pricing_plan_id":"free"},{"bike_id":"fc276ed7-a65b-4dfd-85ca-e57d999ca381","system_id":"levelo_inurba_marseille","lat":43.298137,"lon":5.380971,"is_reserved":false,"is_disabled":false,"rental_uris":{"android":"levelo://app?vid=fc276ed7-a65b-4dfd-85ca-e57d999ca381","ios":"levelo://app?vid=fc276ed7-a65b-4dfd-85ca-e57d999ca381"},"vehicle_type_id":"4","last_reported":1707336397,"current_range_meters":29200,"station_id":"ce4bgip2rcd13ifvqbb0","pricing_plan_id":"free"},{"bike_id":"9d9937ab-7ef1-493d-b22f-27e972dced55","system_id":"levelo_inurba_marseille","lat":43.304274,"lon":5.388873,"is_reserved":false,"is_disabled":false,"rental_uris":{"android":"levelo://app?vid=9d9937ab-7ef1-493d-b22f-27e972dced55","ios":"levelo://app?vid=9d9937ab-7ef1-493d-b22f-27e972dced55"},"vehicle_type_id":"4","last_reported":1707336397,"current_range_meters":14000,"station_id":"ce4bgk12rcd13ifvqbi0","pricing_plan_id":"free"},{"bike_id":"8fa7fa71-4a27-400b-9ccc-0e326b7b9d73","system_id":"levelo_inurba_marseille","lat":43.304274,"lon":5.388873,"is_reserved":false,"is_disabled":false,"rental_uris":{"android":"levelo://app?vid=8fa7fa71-4a27-400b-9ccc-0e326b7b9d73","ios":"levelo://app?vid=8fa7fa71-4a27-400b-9ccc-0e326b7b9d73"},"vehicle_type_id":"4","last_reported":1707336397,"current_range_meters":13600,"station_id":"ce4bgk12rcd13ifvqbi0","pricing_plan_id":"free"},{"bike_id":"f3028c86-347e-446e-add5-6c842c94121b","system_id":"levelo_inurba_marseille","lat":43.304274,"lon":5.388873,"is_reserved":false,"is_disabled":false,"rental_uris":{"android":"levelo://app?vid=f3028c86-347e-446e-add5-6c842c94121b","ios":"levelo://app?vid=f3028c86-347e-446e-add5-6c842c94121b"},"vehicle_type_id":"4","last_reported":1707336397,"current_range_meters":26800,"station_id":"ce4bgk12rcd13ifvqbi0","pricing_plan_id":"free"},{"bike_id":"a75aac89-0897-4cf9-a099-986a1cdead96","system_id":"levelo_inurba_marseille","lat":43.295748,"lon":5.37522,"is_reserved":false,"is_disabled":false,"rental_uris":{"android":"levelo://app?vid=a75aac89-0897-4cf9-a099-986a1cdead96","ios":"levelo://app?vid=a75aac89-0897-4cf9-a099-986a1cdead96"},"vehicle_type_id":"4","last_reported":1707336397,"current_range_meters":27200,"station_id":"ce4bgh92rcd13ifvqb50","pricing_plan_id":"free"},{"bike_id":"44b95b92-2f05-4a35-a5df-cb84d7c6365a","system_id":"levelo_inurba_marseille","lat":43.304383,"lon":5.388927,"is_reserved":false,"is_disabled":false,"rental_uris":{"android":"levelo://app?vid=44b95b92-2f05-4a35-a5df-cb84d7c6365a","ios":"levelo://app?vid=44b95b92-2f05-4a35-a5df-cb84d7c6365a"},"vehicle_type_id":"4","last_reported":1707336397,"current_range_meters":24400,"station_id":"ce4bgk12rcd13ifvqbi0","pricing_plan_id":"free"},{"bike_id":"ddf27b4a-6645-4bb8-a375-8346e928ccba","system_id":"levelo_inurba_marseille","lat":43.30435,"lon":5.38893,"is_reserved":false,"is_disabled":false,"rental_uris":{"android":"levelo://app?vid=ddf27b4a-6645-4bb8-a375-8346e928ccba","ios":"levelo://app?vid=ddf27b4a-6645-4bb8-a375-8346e928ccba"},"vehicle_type_id":"4","last_reported":1707336397,"current_range_meters":26800,"station_id":"ce4bgk12rcd13ifvqbi0","pricing_plan_id":"free"},{"bike_id":"9eb90190-32f1-4e9d-95cd-c95c767e807b","system_id":"levelo_inurba_marseille","lat":43.30428,"lon":5.3889,"is_reserved":false,"is_disabled":false,"rental_uris":{"android":"levelo://app?vid=9eb90190-32f1-4e9d-95cd-c95c767e807b","ios":"levelo://app?vid=9eb90190-32f1-4e9d-95cd-c95c767e807b"},"vehicle_type_id":"4","last_reported":1707336397,"current_range_meters":21200,"station_id":"ce4bgk12rcd13ifvqbi0","pricing_plan_id":"free"},{"bike_id":"4aa168e1-10ac-437d-abd2-9ce683e6532e","system_id":"levelo_inurba_marseille","lat":43.304274,"lon":5.388873,"is_reserved":false,"is_disabled":false,"rental_uris":{"android":"levelo://app?vid=4aa168e1-10ac-437d-abd2-9ce683e6532e","ios":"levelo://app?vid=4aa168e1-10ac-437d-abd2-9ce683e6532e"},"vehicle_type_id":"4","last_reported":1707336397,"current_range_meters":5200,"station_id":"ce4bgk12rcd13ifvqbi0","pricing_plan_id":"free"},{"bike_id":"9fe502dc-d08d-45a9-b203-136d7680867e","system_id":"levelo_inurba_marseille","lat":43.30436,"lon":5.38904,"is_reserved":false,"is_disabled":false,"rental_uris":{"android":"levelo://app?vid=9fe502dc-d08d-45a9-b203-136d7680867e","ios":"levelo://app?vid=9fe502dc-d08d-45a9-b203-136d7680867e"},"vehicle_type_id":"4","last_reported":1707336397,"current_range_meters":7200,"station_id":"ce4bgk12rcd13ifvqbi0","pricing_plan_id":"free"},{"bike_id":"4c2d07d2-3046-42a5-8699-0dd4e418b162","system_id":"levelo_inurba_marseille","lat":43.296277,"lon":5.377108,"is_reserved":false,"is_disabled":false,"rental_uris":{"android":"levelo://app?vid=4c2d07d2-3046-42a5-8699-0dd4e418b162","ios":"levelo://app?vid=4c2d07d2-3046-42a5-8699-0dd4e418b162"},"vehicle_type_id":"4","last_reported":1707336397,"current_range_meters":2800,"station_id":"ce4bgi92rcd13ifvqb90","pricing_plan_id":"free"},{"bike_id":"b9c75418-c502-43a3-a6e5-8a6f75a70676","system_id":"levelo_inurba_marseille","lat":43.297672,"lon":5.380851,"is_reserved":false,"is_disabled":false,"rental_uris":{"android":"levelo://app?vid=b9c75418-c502-43a3-a6e5-8a6f75a70676","ios":"levelo://app?vid=b9c75418-c502-43a3-a6e5-8a6f75a70676"},"vehicle_type_id":"4","last_reported":1707336397,"current_range_meters":10800,"station_id":"ce4bgip2rcd13ifvqbb0","pricing_plan_id":"free"},{"bike_id":"3e08ab6a-9e28-4109-8008-a1c92e945094","system_id":"levelo_inurba_marseille","lat":43.295748,"lon":5.37522,"is_reserved":false,"is_disabled":false,"rental_uris":{"android":"levelo://app?vid=3e08ab6a-9e28-4109-8008-a1c92e945094","ios":"levelo://app?vid=3e08ab6a-9e28-4109-8008-a1c92e945094"},"vehicle_type_id":"4","last_reported":1707336397,"current_range_meters":5600,"station_id":"ce4bgh92rcd13ifvqb50","pricing_plan_id":"free"},{"bike_id":"30115153-5d94-4278-b0b3-6683ca2cf254","system_id":"levelo_inurba_marseille","lat":43.29552,"lon":5.374967,"is_reserved":false,"is_disabled":false,"rental_uris":{"android":"levelo://app?vid=30115153-5d94-4278-b0b3-6683ca2cf254","ios":"levelo://app?vid=30115153-5d94-4278-b0b3-6683ca2cf254"},"vehicle_type_id":"4","last_reported":1707336397,"current_range_meters":13600,"station_id":"ce4bgkp2rcd13ifvqbmg","pricing_plan_id":"free"},{"bike_id":"4ca2890f-66dc-4f81-98d5-0e6e576f8d4f","system_id":"levelo_inurba_marseille","lat":43.299953,"lon":5.385078,"is_reserved":false,"is_disabled":false,"rental_uris":{"android":"levelo://app?vid=4ca2890f-66dc-4f81-98d5-0e6e576f8d4f","ios":"levelo://app?vid=4ca2890f-66dc-4f81-98d5-0e6e576f8d4f"},"vehicle_type_id":"4","last_reported":1707336397,"current_range_meters":16000,"station_id":"ce4bgj92rcd13ifvqbd0","pricing_plan_id":"free"},{"bike_id":"6b7d9f9e-96d1-4b72-bb04-b293acaa5f6b","system_id":"levelo_inurba_marseille","lat":43.299757,"lon":5.384886,"is_reserved":false,"is_disabled":false,"rental_uris":{"android":"levelo://app?vid=6b7d9f9e-96d1-4b72-bb04-b293acaa5f6b","ios":"levelo://app?vid=6b7d9f9e-96d1-4b72-bb04-b293acaa5f6b"},"vehicle_type_id":"4","last_reported":1707336397,"current_range_meters":20400,"station_id":"ce4bgj92rcd13ifvqbd0","pricing_plan_id":"free"},{"bike_id":"a64da41f-2c1f-4dd7-bcec-921fbc129c52","system_id":"levelo_inurba_marseille","lat":43.29968,"lon":5.38493,"is_reserved":false,"is_disabled":false,"rental_uris":{"android":"levelo://app?vid=a64da41f-2c1f-4dd7-bcec-921fbc129c52","ios":"levelo://app?vid=a64da41f-2c1f-4dd7-bcec-921fbc129c52"},"vehicle_type_id":"4","last_reported":1707336397,"current_range_meters":31200,"station_id":"ce4bgj92rcd13ifvqbd0","pricing_plan_id":"free"},{"bike_id":"b8f09493-d35d-434f-9fce-b442f45045e3","system_id":"levelo_inurba_marseille","lat":43.29967,"lon":5.38496,"is_reserved":false,"is_disabled":false,"rental_uris":{"android":"levelo://app?vid=b8f09493-d35d-434f-9fce-b442f45045e3","ios":"levelo://app?vid=b8f09493-d35d-434f-9fce-b442f45045e3"},"vehicle_type_id":"4","last_reported":1707336397,"current_range_meters":24000,"station_id":"ce4bgj92rcd13ifvqbd0","pricing_plan_id":"free"},{"bike_id":"04cb7eff-1647-4470-9653-33a67422113b","system_id":"levelo_inurba_marseille","lat":43.309047,"lon":5.396551,"is_reserved":false,"is_disabled":false,"rental_uris":{"android":"levelo://app?vid=04cb7eff-1647-4470-9653-33a67422113b","ios":"levelo://app?vid=04cb7eff-1647-4470-9653-33a67422113b"},"vehicle_type_id":"4","last_reported":1707336397,"current_range_meters":0,"station_id":"ce4bh012rcd13ifvqcv0","pricing_plan_id":"free"},{"bike_id":"9b8150fb-e5b6-4eb7-a465-157d0781f82a","system_id":"levelo_inurba_marseille","lat":43.299605,"lon":5.385025,"is_reserved":false,"is_disabled":false,"rental_uris":{"android":"levelo://app?vid=9b8150fb-e5b6-4eb7-a465-157d0781f82a","ios":"levelo://app?vid=9b8150fb-e5b6-4eb7-a465-157d0781f82a"},"vehicle_type_id":"4","last_reported":1707336397,"current_range_meters":3600,"station_id":"ce4bgj92rcd13ifvqbd0","pricing_plan_id":"free"},{"bike_id":"5703ed99-4106-4769-8943-185ba16e296c","system_id":"levelo_inurba_marseille","lat":43.29959,"lon":5.38508,"is_reserved":false,"is_disabled":false,"rental_uris":{"android":"levelo://app?vid=5703ed99-4106-4769-8943-185ba16e296c","ios":"levelo://app?vid=5703ed99-4106-4769-8943-185ba16e296c"},"vehicle_type_id":"4","last_reported":1707336397,"current_range_meters":31200,"station_id":"ce4bgj92rcd13ifvqbd0","pricing_plan_id":"free"},{"bike_id":"6fc9cf37-ecec-4c91-8570-1b2b0a9ff623","system_id":"levelo_inurba_marseille","lat":43.32359,"lon":5.38877,"is_reserved":false,"is_disabled":false,"rental_uris":{"android":"levelo://app?vid=6fc9cf37-ecec-4c91-8570-1b2b0a9ff623","ios":"levelo://app?vid=6fc9cf37-ecec-4c91-8570-1b2b0a9ff623"},"vehicle_type_id":"4","last_reported":1707336397,"current_range_meters":0,"station_id":"ce4bhqp2rcd13ifvqhog","pricing_plan_id":"free"},{"bike_id":"e46e8ff3-6efb-422c-88bb-36c5e9ce66e4","system_id":"levelo_inurba_marseille","lat":43.323611,"lon":5.388812,"is_reserved":false,"is_disabled":false,"rental_uris":{"android":"levelo://app?vid=e46e8ff3-6efb-422c-88bb-36c5e9ce66e4","ios":"levelo://app?vid=e46e8ff3-6efb-422c-88bb-36c5e9ce66e4"},"vehicle_type_id":"4","last_reported":1707336397,"current_range_meters":17600,"station_id":"ce4bhqp2rcd13ifvqhog","pricing_plan_id":"free"},{"bike_id":"ed5d3f68-f6ae-4628-a68b-31e6c4c8b97c","system_id":"levelo_inurba_marseille","lat":43.32362,"lon":5.38881,"is_reserved":false,"is_disabled":false,"rental_uris":{"android":"levelo://app?vid=ed5d3f68-f6ae-4628-a68b-31e6c4c8b97c","ios":"levelo://app?vid=ed5d3f68-f6ae-4628-a68b-31e6c4c8b97c"},"vehicle_type_id":"4","last_reported":1707336397,"current_range_meters":27200,"station_id":"ce4bhqp2rcd13ifvqhog","pricing_plan_id":"free"},{"bike_id":"27e7d923-81e0-4c18-9a4b-aeb5de43f55c","system_id":"levelo_inurba_marseille","lat":43.32364,"lon":5.38881,"is_reserved":false,"is_disabled":false,"rental_uris":{"android":"levelo://app?vid=27e7d923-81e0-4c18-9a4b-aeb5de43f55c","ios":"levelo://app?vid=27e7d923-81e0-4c18-9a4b-aeb5de43f55c"},"vehicle_type_id":"4","last_reported":1707336397,"current_range_meters":13600,"station_id":"ce4bhqp2rcd13ifvqhog","pricing_plan_id":"free"},{"bike_id":"55769c3e-d570-4ade-829b-4a0316d221aa","system_id":"levelo_inurba_marseille","lat":43.32367,"lon":5.3888,"is_reserved":false,"is_disabled":false,"rental_uris":{"android":"levelo://app?vid=55769c3e-d570-4ade-829b-4a0316d221aa","ios":"levelo://app?vid=55769c3e-d570-4ade-829b-4a0316d221aa"},"vehicle_type_id":"4","last_reported":1707336397,"current_range_meters":18400,"station_id":"ce4bhqp2rcd13ifvqhog","pricing_plan_id":"free"},{"bike_id":"69e0ab03-3f4e-4375-b305-57e86da379c2","system_id":"levelo_inurba_marseille","lat":43.32364,"lon":5.38883,"is_reserved":false,"is_disabled":false,"rental_uris":{"android":"levelo://app?vid=69e0ab03-3f4e-4375-b305-57e86da379c2","ios":"levelo://app?vid=69e0ab03-3f4e-4375-b305-57e86da379c2"},"vehicle_type_id":"4","last_reported":1707336397,"current_range_meters":24800,"station_id":"ce4bhqp2rcd13ifvqhog","pricing_plan_id":"free"},{"bike_id":"1518e53d-eb94-4406-bc34-6493c7c75fd6","system_id":"levelo_inurba_marseille","lat":43.32364,"lon":5.38885,"is_reserved":false,"is_disabled":false,"rental_uris":{"android":"levelo://app?vid=1518e53d-eb94-4406-bc34-6493c7c75fd6","ios":"levelo://app?vid=1518e53d-eb94-4406-bc34-6493c7c75fd6"},"vehicle_type_id":"4","last_reported":1707336397,"current_range_meters":24000,"station_id":"ce4bhqp2rcd13ifvqhog","pricing_plan_id":"free"},{"bike_id":"606777c4-4d1f-4822-a9c7-ca190e9d7ac9","system_id":"levelo_inurba_marseille","lat":43.32365,"lon":5.38886,"is_reserved":false,"is_disabled":false,"rental_uris":{"android":"levelo://app?vid=606777c4-4d1f-4822-a9c7-ca190e9d7ac9","ios":"levelo://app?vid=606777c4-4d1f-4822-a9c7-ca190e9d7ac9"},"vehicle_type_id":"4","last_reported":1707336397,"current_range_meters":28800,"station_id":"ce4bhqp2rcd13ifvqhog","pricing_plan_id":"free"},{"bike_id":"cc6530d2-5676-4593-9ee5-59ecbcd8f6a5","system_id":"levelo_inurba_marseille","lat":43.323685,"lon":5.388829,"is_reserved":false,"is_disabled":false,"rental_uris":{"android":"levelo://app?vid=cc6530d2-5676-4593-9ee5-59ecbcd8f6a5","ios":"levelo://app?vid=cc6530d2-5676-4593-9ee5-59ecbcd8f6a5"},"vehicle_type_id":"4","last_reported":1707336397,"current_range_meters":18800,"station_id":"ce4bhqp2rcd13ifvqhog","pricing_plan_id":"free"},{"bike_id":"2699b29a-e584-4936-892c-96f311fc0314","system_id":"levelo_inurba_marseille","lat":43.32364,"lon":5.38888,"is_reserved":false,"is_disabled":false,"rental_uris":{"android":"levelo://app?vid=2699b29a-e584-4936-892c-96f311fc0314","ios":"levelo://app?vid=2699b29a-e584-4936-892c-96f311fc0314"},"vehicle_type_id":"4","last_reported":1707336397,"current_range_meters":29200,"station_id":"ce4bhqp2rcd13ifvqhog","pricing_plan_id":"free"},{"bike_id":"bc85f4cd-0ffe-4ec0-9c96-dc31a76087c8","system_id":"levelo_inurba_marseille","lat":43.3237,"lon":5.38886,"is_reserved":false,"is_disabled":false,"rental_uris":{"android":"levelo://app?vid=bc85f4cd-0ffe-4ec0-9c96-dc31a76087c8","ios":"levelo://app?vid=bc85f4cd-0ffe-4ec0-9c96-dc31a76087c8"},"vehicle_type_id":"4","last_reported":1707336397,"current_range_meters":23600,"station_id":"ce4bhqp2rcd13ifvqhog","pricing_plan_id":"free"},{"bike_id":"a08a26fe-546a-4630-aced-98e496243792","system_id":"levelo_inurba_marseille","lat":43.32367,"lon":5.38891,"is_reserved":false,"is_disabled":false,"rental_uris":{"android":"levelo://app?vid=a08a26fe-546a-4630-aced-98e496243792","ios":"levelo://app?vid=a08a26fe-546a-4630-aced-98e496243792"},"vehicle_type_id":"4","last_reported":1707336397,"current_range_meters":22400,"station_id":"ce4bhqp2rcd13ifvqhog","pricing_plan_id":"free"},{"bike_id":"89cef326-51d2-4ea8-bda4-4b90930e37f2","system_id":"levelo_inurba_marseille","lat":43.29602,"lon":5.381084,"is_reserved":false,"is_disabled":false,"rental_uris":{"android":"levelo://app?vid=89cef326-51d2-4ea8-bda4-4b90930e37f2","ios":"levelo://app?vid=89cef326-51d2-4ea8-bda4-4b90930e37f2"},"vehicle_type_id":"4","last_reported":1707336397,"current_range_meters":17200,"station_id":"ce4bgl12rcd13ifvqbo0","pricing_plan_id":"free"},{"bike_id":"0af9f1ef-aafb-4d5a-bfa4-d6e1c5afd62b","system_id":"levelo_inurba_marseille","lat":43.29601,"lon":5.381084,"is_reserved":false,"is_disabled":false,"rental_uris":{"android":"levelo://app?vid=0af9f1ef-aafb-4d5a-bfa4-d6e1c5afd62b","ios":"levelo://app?vid=0af9f1ef-aafb-4d5a-bfa4-d6e1c5afd62b"},"vehicle_type_id":"4","last_reported":1707336397,"current_range_meters":9200,"station_id":"ce4bgl12rcd13ifvqbo0","pricing_plan_id":"free"},{"bike_id":"45f57f04-0fd0-4d4a-88a9-d22d6e1c66b5","system_id":"levelo_inurba_marseille","lat":43.29602,"lon":5.381084,"is_reserved":false,"is_disabled":false,"rental_uris":{"android":"levelo://app?vid=45f57f04-0fd0-4d4a-88a9-d22d6e1c66b5","ios":"levelo://app?vid=45f57f04-0fd0-4d4a-88a9-d22d6e1c66b5"},"vehicle_type_id":"4","last_reported":1707336397,"current_range_meters":11600,"station_id":"ce4bgl12rcd13ifvqbo0","pricing_plan_id":"free"},{"bike_id":"1431c39d-b4a3-4244-b7b6-a5c7c0691d93","system_id":"levelo_inurba_marseille","lat":43.29305,"lon":5.37167,"is_reserved":false,"is_disabled":false,"rental_uris":{"android":"levelo://app?vid=1431c39d-b4a3-4244-b7b6-a5c7c0691d93","ios":"levelo://app?vid=1431c39d-b4a3-4244-b7b6-a5c7c0691d93"},"vehicle_type_id":"4","last_reported":1707336397,"current_range_meters":0,"station_id":"ce4bgh92rcd13ifvqb40","pricing_plan_id":"free"},{"bike_id":"f5912d6b-c3b2-48d0-9d36-6164c259bc92","system_id":"levelo_inurba_marseille","lat":43.29306,"lon":5.37178,"is_reserved":false,"is_disabled":false,"rental_uris":{"android":"levelo://app?vid=f5912d6b-c3b2-48d0-9d36-6164c259bc92","ios":"levelo://app?vid=f5912d6b-c3b2-48d0-9d36-6164c259bc92"},"vehicle_type_id":"4","last_reported":1707336397,"current_range_meters":24400,"station_id":"ce4bgh92rcd13ifvqb40","pricing_plan_id":"free"},{"bike_id":"cee3a26f-48d4-4d3d-aa04-005b7b55b158","system_id":"levelo_inurba_marseille","lat":43.292773,"lon":5.368484,"is_reserved":false,"is_disabled":false,"rental_uris":{"android":"levelo://app?vid=cee3a26f-48d4-4d3d-aa04-005b7b55b158","ios":"levelo://app?vid=cee3a26f-48d4-4d3d-aa04-005b7b55b158"},"vehicle_type_id":"4","last_reported":1707336397,"current_range_meters":21600,"station_id":"ce4bhbp2rcd13ifvqesg","pricing_plan_id":"free"},{"bike_id":"85fdb0f0-7ec8-443a-8212-1aa2f66ea25e","system_id":"levelo_inurba_marseille","lat":43.293259,"lon":5.371586,"is_reserved":false,"is_disabled":false,"rental_uris":{"android":"levelo://app?vid=85fdb0f0-7ec8-443a-8212-1aa2f66ea25e","ios":"levelo://app?vid=85fdb0f0-7ec8-443a-8212-1aa2f66ea25e"},"vehicle_type_id":"4","last_reported":1707336397,"current_range_meters":30000,"station_id":"ce4bgh92rcd13ifvqb40","pricing_plan_id":"free"},{"bike_id":"cde9956a-1de2-4b35-af43-5c4476374786","system_id":"levelo_inurba_marseille","lat":43.29303,"lon":5.3718,"is_reserved":false,"is_disabled":false,"rental_uris":{"android":"levelo://app?vid=cde9956a-1de2-4b35-af43-5c4476374786","ios":"levelo://app?vid=cde9956a-1de2-4b35-af43-5c4476374786"},"vehicle_type_id":"4","last_reported":1707336397,"current_range_meters":0,"station_id":"ce4bgh92rcd13ifvqb40","pricing_plan_id":"free"},{"bike_id":"a0494053-1134-4b7c-a637-06c6e8bc4d96","system_id":"levelo_inurba_marseille","lat":43.29297,"lon":5.37152,"is_reserved":false,"is_disabled":false,"rental_uris":{"android":"levelo://app?vid=a0494053-1134-4b7c-a637-06c6e8bc4d96","ios":"levelo://app?vid=a0494053-1134-4b7c-a637-06c6e8bc4d96"},"vehicle_type_id":"4","last_reported":1707336397,"current_range_meters":3200,"station_id":"ce4bgh92rcd13ifvqb40","pricing_plan_id":"free"},{"bike_id":"da4c3408-7f65-4173-84ca-4f5681c8fcaf","system_id":"levelo_inurba_marseille","lat":43.30011,"lon":5.38853,"is_reserved":false,"is_disabled":false,"rental_uris":{"android":"levelo://app?vid=da4c3408-7f65-4173-84ca-4f5681c8fcaf","ios":"levelo://app?vid=da4c3408-7f65-4173-84ca-4f5681c8fcaf"},"vehicle_type_id":"4","last_reported":1707336397,"current_range_meters":16400,"station_id":"","pricing_plan_id":"free"},{"bike_id":"58ce6322-a791-48f0-8bcc-95a1314180fc","system_id":"levelo_inurba_marseille","lat":43.29543,"lon":5.38168,"is_reserved":false,"is_disabled":false,"rental_uris":{"android":"levelo://app?vid=58ce6322-a791-48f0-8bcc-95a1314180fc","ios":"levelo://app?vid=58ce6322-a791-48f0-8bcc-95a1314180fc"},"vehicle_type_id":"4","last_reported":1707336397,"current_range_meters":2400,"station_id":"","pricing_plan_id":"free"},{"bike_id":"20bbdfff-c299-4948-81b3-c51e6159e8bc","system_id":"levelo_inurba_marseille","lat":43.293009,"lon":5.374584,"is_reserved":false,"is_disabled":false,"rental_uris":{"android":"levelo://app?vid=20bbdfff-c299-4948-81b3-c51e6159e8bc","ios":"levelo://app?vid=20bbdfff-c299-4948-81b3-c51e6159e8bc"},"vehicle_type_id":"4","last_reported":1707336397,"current_range_meters":0,"station_id":"ce4bgi12rcd13ifvqb70","pricing_plan_id":"free"},{"bike_id":"e8f50580-4d1c-4be1-a79e-883f68301407","system_id":"levelo_inurba_marseille","lat":43.293009,"lon":5.374584,"is_reserved":false,"is_disabled":false,"rental_uris":{"android":"levelo://app?vid=e8f50580-4d1c-4be1-a79e-883f68301407","ios":"levelo://app?vid=e8f50580-4d1c-4be1-a79e-883f68301407"},"vehicle_type_id":"4","last_reported":1707336397,"current_range_meters":19600,"station_id":"ce4bgi12rcd13ifvqb70","pricing_plan_id":"free"},{"bike_id":"1bc245f6-99f8-4b4a-bf93-921c9cab4a98","system_id":"levelo_inurba_marseille","lat":43.305994,"lon":5.393687,"is_reserved":false,"is_disabled":false,"rental_uris":{"android":"levelo://app?vid=1bc245f6-99f8-4b4a-bf93-921c9cab4a98","ios":"levelo://app?vid=1bc245f6-99f8-4b4a-bf93-921c9cab4a98"},"vehicle_type_id":"4","last_reported":1707336397,"current_range_meters":20000,"station_id":"ce4bh0p2rcd13ifvqd80","pricing_plan_id":"free"},{"bike_id":"b135a964-2a0f-4af7-9ca3-8150475b9917","system_id":"levelo_inurba_marseille","lat":43.30605,"lon":5.39361,"is_reserved":false,"is_disabled":false,"rental_uris":{"android":"levelo://app?vid=b135a964-2a0f-4af7-9ca3-8150475b9917","ios":"levelo://app?vid=b135a964-2a0f-4af7-9ca3-8150475b9917"},"vehicle_type_id":"4","last_reported":1707336397,"current_range_meters":7200,"station_id":"ce4bh0p2rcd13ifvqd80","pricing_plan_id":"free"},{"bike_id":"a5759856-8d79-4584-a7a8-58b98dbc5037","system_id":"levelo_inurba_marseille","lat":43.305994,"lon":5.393687,"is_reserved":false,"is_disabled":false,"rental_uris":{"android":"levelo://app?vid=a5759856-8d79-4584-a7a8-58b98dbc5037","ios":"levelo://app?vid=a5759856-8d79-4584-a7a8-58b98dbc5037"},"vehicle_type_id":"4","last_reported":1707336397,"current_range_meters":400,"station_id":"ce4bh0p2rcd13ifvqd80","pricing_plan_id":"free"},{"bike_id":"1268ad7e-a83c-41c0-940b-fa139e566421","system_id":"levelo_inurba_marseille","lat":43.305994,"lon":5.393687,"is_reserved":false,"is_disabled":false,"rental_uris":{"android":"levelo://app?vid=1268ad7e-a83c-41c0-940b-fa139e566421","ios":"levelo://app?vid=1268ad7e-a83c-41c0-940b-fa139e566421"},"vehicle_type_id":"4","last_reported":1707336397,"current_range_meters":13200,"station_id":"ce4bh0p2rcd13ifvqd80","pricing_plan_id":"free"},{"bike_id":"c159aa56-6217-41f1-bac1-c3f0e1597067","system_id":"levelo_inurba_marseille","lat":43.303002,"lon":5.392142,"is_reserved":false,"is_disabled":false,"rental_uris":{"android":"levelo://app?vid=c159aa56-6217-41f1-bac1-c3f0e1597067","ios":"levelo://app?vid=c159aa56-6217-41f1-bac1-c3f0e1597067"},"vehicle_type_id":"4","last_reported":1707336397,"current_range_meters":18800,"station_id":"ce4bgkh2rcd13ifvqbk0","pricing_plan_id":"free"},{"bike_id":"6d06211f-c234-4938-890f-f52c3fe1780f","system_id":"levelo_inurba_marseille","lat":43.30591,"lon":5.39356,"is_reserved":false,"is_disabled":false,"rental_uris":{"android":"levelo://app?vid=6d06211f-c234-4938-890f-f52c3fe1780f","ios":"levelo://app?vid=6d06211f-c234-4938-890f-f52c3fe1780f"},"vehicle_type_id":"4","last_reported":1707336397,"current_range_meters":11200,"station_id":"ce4bh0p2rcd13ifvqd80","pricing_plan_id":"free"},{"bike_id":"d8fda435-f051-43b0-815c-129bc7c31df0","system_id":"levelo_inurba_marseille","lat":43.30591,"lon":5.39357,"is_reserved":false,"is_disabled":false,"rental_uris":{"android":"levelo://app?vid=d8fda435-f051-43b0-815c-129bc7c31df0","ios":"levelo://app?vid=d8fda435-f051-43b0-815c-129bc7c31df0"},"vehicle_type_id":"4","last_reported":1707336397,"current_range_meters":21200,"station_id":"ce4bh0p2rcd13ifvqd80","pricing_plan_id":"free"},{"bike_id":"e78db64e-4614-425d-b6bd-44b8a9ad86bf","system_id":"levelo_inurba_marseille","lat":43.30591,"lon":5.39358,"is_reserved":false,"is_disabled":false,"rental_uris":{"android":"levelo://app?vid=e78db64e-4614-425d-b6bd-44b8a9ad86bf","ios":"levelo://app?vid=e78db64e-4614-425d-b6bd-44b8a9ad86bf"},"vehicle_type_id":"4","last_reported":1707336397,"current_range_meters":28800,"station_id":"ce4bh0p2rcd13ifvqd80","pricing_plan_id":"free"},{"bike_id":"a901ddfe-4b27-42cd-b100-17391c8a7205","system_id":"levelo_inurba_marseille","lat":43.293009,"lon":5.374584,"is_reserved":false,"is_disabled":false,"rental_uris":{"android":"levelo://app?vid=a901ddfe-4b27-42cd-b100-17391c8a7205","ios":"levelo://app?vid=a901ddfe-4b27-42cd-b100-17391c8a7205"},"vehicle_type_id":"4","last_reported":1707336397,"current_range_meters":24400,"station_id":"ce4bgi12rcd13ifvqb70","pricing_plan_id":"free"},{"bike_id":"f9d1fc76-daa6-44a2-917c-cca278c8b8f0","system_id":"levelo_inurba_marseille","lat":43.302992,"lon":5.392136,"is_reserved":false,"is_disabled":false,"rental_uris":{"android":"levelo://app?vid=f9d1fc76-daa6-44a2-917c-cca278c8b8f0","ios":"levelo://app?vid=f9d1fc76-daa6-44a2-917c-cca278c8b8f0"},"vehicle_type_id":"4","last_reported":1707336397,"current_range_meters":16000,"station_id":"ce4bgkh2rcd13ifvqbk0","pricing_plan_id":"free"},{"bike_id":"bdc803c3-9e7d-4ac5-a06f-ecb4d59c330f","system_id":"levelo_inurba_marseille","lat":43.302992,"lon":5.392136,"is_reserved":false,"is_disabled":false,"rental_uris":{"android":"levelo://app?vid=bdc803c3-9e7d-4ac5-a06f-ecb4d59c330f","ios":"levelo://app?vid=bdc803c3-9e7d-4ac5-a06f-ecb4d59c330f"},"vehicle_type_id":"4","last_reported":1707336397,"current_range_meters":25600,"station_id":"ce4bgkh2rcd13ifvqbk0","pricing_plan_id":"free"},{"bike_id":"7943606e-ddb9-446d-9d10-ec4e0b0de002","system_id":"levelo_inurba_marseille","lat":43.2936,"lon":5.37835,"is_reserved":false,"is_disabled":false,"rental_uris":{"android":"levelo://app?vid=7943606e-ddb9-446d-9d10-ec4e0b0de002","ios":"levelo://app?vid=7943606e-ddb9-446d-9d10-ec4e0b0de002"},"vehicle_type_id":"4","last_reported":1707336397,"current_range_meters":26400,"station_id":"ce4bgjh2rcd13ifvqbf0","pricing_plan_id":"free"},{"bike_id":"fc3ee4a9-3a07-446c-ba56-8c73c51aab26","system_id":"levelo_inurba_marseille","lat":43.29374,"lon":5.37856,"is_reserved":false,"is_disabled":false,"rental_uris":{"android":"levelo://app?vid=fc3ee4a9-3a07-446c-ba56-8c73c51aab26","ios":"levelo://app?vid=fc3ee4a9-3a07-446c-ba56-8c73c51aab26"},"vehicle_type_id":"4","last_reported":1707336397,"current_range_meters":7600,"station_id":"","pricing_plan_id":"free"},{"bike_id":"2a61335b-5625-4097-a08f-3d49b7f7986d","system_id":"levelo_inurba_marseille","lat":43.292311,"lon":5.360731,"is_reserved":false,"is_disabled":false,"rental_uris":{"android":"levelo://app?vid=2a61335b-5625-4097-a08f-3d49b7f7986d","ios":"levelo://app?vid=2a61335b-5625-4097-a08f-3d49b7f7986d"},"vehicle_type_id":"4","last_reported":1707336397,"current_range_meters":8000,"station_id":"ce4bhbh2rcd13ifvqeqg","pricing_plan_id":"free"},{"bike_id":"f702ea93-e487-42d4-a134-debfa2cfd9cf","system_id":"levelo_inurba_marseille","lat":43.300852,"lon":5.390859,"is_reserved":false,"is_disabled":false,"rental_uris":{"android":"levelo://app?vid=f702ea93-e487-42d4-a134-debfa2cfd9cf","ios":"levelo://app?vid=f702ea93-e487-42d4-a134-debfa2cfd9cf"},"vehicle_type_id":"4","last_reported":1707336397,"current_range_meters":17600,"station_id":"ce4bh192rcd13ifvqdb0","pricing_plan_id":"free"},{"bike_id":"e7f2d8c3-a8a0-40ee-bb10-7c4807d4c300","system_id":"levelo_inurba_marseille","lat":43.30085,"lon":5.390856,"is_reserved":false,"is_disabled":false,"rental_uris":{"android":"levelo://app?vid=e7f2d8c3-a8a0-40ee-bb10-7c4807d4c300","ios":"levelo://app?vid=e7f2d8c3-a8a0-40ee-bb10-7c4807d4c300"},"vehicle_type_id":"4","last_reported":1707336397,"current_range_meters":3200,"station_id":"ce4bh192rcd13ifvqdb0","pricing_plan_id":"free"},{"bike_id":"12835e54-73ec-41fd-b772-20fac025e404","system_id":"levelo_inurba_marseille","lat":43.292311,"lon":5.360731,"is_reserved":false,"is_disabled":false,"rental_uris":{"android":"levelo://app?vid=12835e54-73ec-41fd-b772-20fac025e404","ios":"levelo://app?vid=12835e54-73ec-41fd-b772-20fac025e404"},"vehicle_type_id":"4","last_reported":1707336397,"current_range_meters":13200,"station_id":"ce4bhbh2rcd13ifvqeqg","pricing_plan_id":"free"},{"bike_id":"582a6719-69a3-4713-a14e-ba2b8e9f8845","system_id":"levelo_inurba_marseille","lat":43.29299,"lon":5.377043,"is_reserved":false,"is_disabled":false,"rental_uris":{"android":"levelo://app?vid=582a6719-69a3-4713-a14e-ba2b8e9f8845","ios":"levelo://app?vid=582a6719-69a3-4713-a14e-ba2b8e9f8845"},"vehicle_type_id":"4","last_reported":1707336397,"current_range_meters":0,"station_id":"","pricing_plan_id":"free"},{"bike_id":"2f6d5904-e6c7-4ba2-9490-9b235f9d40a0","system_id":"levelo_inurba_marseille","lat":43.293009,"lon":5.374584,"is_reserved":false,"is_disabled":false,"rental_uris":{"android":"levelo://app?vid=2f6d5904-e6c7-4ba2-9490-9b235f9d40a0","ios":"levelo://app?vid=2f6d5904-e6c7-4ba2-9490-9b235f9d40a0"},"vehicle_type_id":"4","last_reported":1707336397,"current_range_meters":16000,"station_id":"ce4bgi12rcd13ifvqb70","pricing_plan_id":"free"},{"bike_id":"559c12e5-9af4-4463-93e9-fd6f046ba457","system_id":"levelo_inurba_marseille","lat":43.291994,"lon":5.357886,"is_reserved":false,"is_disabled":false,"rental_uris":{"android":"levelo://app?vid=559c12e5-9af4-4463-93e9-fd6f046ba457","ios":"levelo://app?vid=559c12e5-9af4-4463-93e9-fd6f046ba457"},"vehicle_type_id":"4","last_reported":1707336397,"current_range_meters":800,"station_id":"ce4bhb12rcd13ifvqel0","pricing_plan_id":"free"},{"bike_id":"cfea2b4b-f1e5-4bd3-8081-002cad09345e","system_id":"levelo_inurba_marseille","lat":43.291994,"lon":5.357886,"is_reserved":false,"is_disabled":false,"rental_uris":{"android":"levelo://app?vid=cfea2b4b-f1e5-4bd3-8081-002cad09345e","ios":"levelo://app?vid=cfea2b4b-f1e5-4bd3-8081-002cad09345e"},"vehicle_type_id":"4","last_reported":1707336397,"current_range_meters":15200,"station_id":"ce4bhb12rcd13ifvqel0","pricing_plan_id":"free"},{"bike_id":"c522e384-33f4-4712-a52c-9ba65fe63c49","system_id":"levelo_inurba_marseille","lat":43.309038,"lon":5.396546,"is_reserved":false,"is_disabled":false,"rental_uris":{"android":"levelo://app?vid=c522e384-33f4-4712-a52c-9ba65fe63c49","ios":"levelo://app?vid=c522e384-33f4-4712-a52c-9ba65fe63c49"},"vehicle_type_id":"4","last_reported":1707336397,"current_range_meters":20000,"station_id":"ce4bh012rcd13ifvqcv0","pricing_plan_id":"free"},{"bike_id":"4eeba977-bb99-4954-9eae-c8d8c7b08092","system_id":"levelo_inurba_marseille","lat":43.291994,"lon":5.357886,"is_reserved":false,"is_disabled":false,"rental_uris":{"android":"levelo://app?vid=4eeba977-bb99-4954-9eae-c8d8c7b08092","ios":"levelo://app?vid=4eeba977-bb99-4954-9eae-c8d8c7b08092"},"vehicle_type_id":"4","last_reported":1707336397,"current_range_meters":11600,"station_id":"ce4bhb12rcd13ifvqel0","pricing_plan_id":"free"},{"bike_id":"65555ee1-6283-4898-9bad-59a3bb58b2e7","system_id":"levelo_inurba_marseille","lat":43.291994,"lon":5.357886,"is_reserved":false,"is_disabled":false,"rental_uris":{"android":"levelo://app?vid=65555ee1-6283-4898-9bad-59a3bb58b2e7","ios":"levelo://app?vid=65555ee1-6283-4898-9bad-59a3bb58b2e7"},"vehicle_type_id":"4","last_reported":1707336397,"current_range_meters":12000,"station_id":"ce4bhb12rcd13ifvqel0","pricing_plan_id":"free"},{"bike_id":"4f1244b1-a7f5-4c8e-a697-53637a05d141","system_id":"levelo_inurba_marseille","lat":43.313291,"lon":5.396838,"is_reserved":false,"is_disabled":false,"rental_uris":{"android":"levelo://app?vid=4f1244b1-a7f5-4c8e-a697-53637a05d141","ios":"levelo://app?vid=4f1244b1-a7f5-4c8e-a697-53637a05d141"},"vehicle_type_id":"4","last_reported":1707336397,"current_range_meters":10800,"station_id":"ce4bgvp2rcd13ifvqcu0","pricing_plan_id":"free"},{"bike_id":"5a32df2b-0305-4dbb-822f-ef8419e3d42c","system_id":"levelo_inurba_marseille","lat":43.309047,"lon":5.396551,"is_reserved":false,"is_disabled":false,"rental_uris":{"android":"levelo://app?vid=5a32df2b-0305-4dbb-822f-ef8419e3d42c","ios":"levelo://app?vid=5a32df2b-0305-4dbb-822f-ef8419e3d42c"},"vehicle_type_id":"4","last_reported":1707336397,"current_range_meters":1600,"station_id":"ce4bh012rcd13ifvqcv0","pricing_plan_id":"free"},{"bike_id":"9a8c7406-1978-4f8e-b1e4-b73ffc173432","system_id":"levelo_inurba_marseille","lat":43.309047,"lon":5.396551,"is_reserved":false,"is_disabled":false,"rental_uris":{"android":"levelo://app?vid=9a8c7406-1978-4f8e-b1e4-b73ffc173432","ios":"levelo://app?vid=9a8c7406-1978-4f8e-b1e4-b73ffc173432"},"vehicle_type_id":"4","last_reported":1707336397,"current_range_meters":3600,"station_id":"ce4bh012rcd13ifvqcv0","pricing_plan_id":"free"},{"bike_id":"e4b3f4ad-2d22-480e-a38d-96c70c1cf86f","system_id":"levelo_inurba_marseille","lat":43.309047,"lon":5.396551,"is_reserved":false,"is_disabled":false,"rental_uris":{"android":"levelo://app?vid=e4b3f4ad-2d22-480e-a38d-96c70c1cf86f","ios":"levelo://app?vid=e4b3f4ad-2d22-480e-a38d-96c70c1cf86f"},"vehicle_type_id":"4","last_reported":1707336397,"current_range_meters":18400,"station_id":"ce4bh012rcd13ifvqcv0","pricing_plan_id":"free"},{"bike_id":"ce64b924-6e97-4603-bbe6-1b875768f2ae","system_id":"levelo_inurba_marseille","lat":43.309038,"lon":5.396546,"is_reserved":false,"is_disabled":false,"rental_uris":{"android":"levelo://app?vid=ce64b924-6e97-4603-bbe6-1b875768f2ae","ios":"levelo://app?vid=ce64b924-6e97-4603-bbe6-1b875768f2ae"},"vehicle_type_id":"4","last_reported":1707336397,"current_range_meters":23600,"station_id":"ce4bh012rcd13ifvqcv0","pricing_plan_id":"free"},{"bike_id":"670ef743-7e2e-43f4-82d3-cbd2f89370c0","system_id":"levelo_inurba_marseille","lat":43.309038,"lon":5.396546,"is_reserved":false,"is_disabled":false,"rental_uris":{"android":"levelo://app?vid=670ef743-7e2e-43f4-82d3-cbd2f89370c0","ios":"levelo://app?vid=670ef743-7e2e-43f4-82d3-cbd2f89370c0"},"vehicle_type_id":"4","last_reported":1707336397,"current_range_meters":10800,"station_id":"ce4bh012rcd13ifvqcv0","pricing_plan_id":"free"},{"bike_id":"1208384b-28cd-48eb-885b-5275ed2d1258","system_id":"levelo_inurba_marseille","lat":43.309038,"lon":5.396546,"is_reserved":false,"is_disabled":false,"rental_uris":{"android":"levelo://app?vid=1208384b-28cd-48eb-885b-5275ed2d1258","ios":"levelo://app?vid=1208384b-28cd-48eb-885b-5275ed2d1258"},"vehicle_type_id":"4","last_reported":1707336397,"current_range_meters":2000,"station_id":"ce4bh012rcd13ifvqcv0","pricing_plan_id":"free"},{"bike_id":"785f1f1a-859b-491d-9fe6-9c9198f84efe","system_id":"levelo_inurba_marseille","lat":43.309038,"lon":5.396546,"is_reserved":false,"is_disabled":false,"rental_uris":{"android":"levelo://app?vid=785f1f1a-859b-491d-9fe6-9c9198f84efe","ios":"levelo://app?vid=785f1f1a-859b-491d-9fe6-9c9198f84efe"},"vehicle_type_id":"4","last_reported":1707336397,"current_range_meters":11600,"station_id":"ce4bh012rcd13ifvqcv0","pricing_plan_id":"free"},{"bike_id":"abca1385-4638-47d9-9b7e-26e56d8ecab8","system_id":"levelo_inurba_marseille","lat":43.309047,"lon":5.396551,"is_reserved":false,"is_disabled":false,"rental_uris":{"android":"levelo://app?vid=abca1385-4638-47d9-9b7e-26e56d8ecab8","ios":"levelo://app?vid=abca1385-4638-47d9-9b7e-26e56d8ecab8"},"vehicle_type_id":"4","last_reported":1707336397,"current_range_meters":4400,"station_id":"ce4bh012rcd13ifvqcv0","pricing_plan_id":"free"},{"bike_id":"26f67b13-4e44-46c6-8586-90d041af89b4","system_id":"levelo_inurba_marseille","lat":43.29529,"lon":5.385581,"is_reserved":false,"is_disabled":false,"rental_uris":{"android":"levelo://app?vid=26f67b13-4e44-46c6-8586-90d041af89b4","ios":"levelo://app?vid=26f67b13-4e44-46c6-8586-90d041af89b4"},"vehicle_type_id":"4","last_reported":1707336397,"current_range_meters":17600,"station_id":"ce4bgih2rcd13ifvqba0","pricing_plan_id":"free"},{"bike_id":"ae008df9-825d-43fa-a92e-a36ea3be7489","system_id":"levelo_inurba_marseille","lat":43.29529,"lon":5.385581,"is_reserved":false,"is_disabled":false,"rental_uris":{"android":"levelo://app?vid=ae008df9-825d-43fa-a92e-a36ea3be7489","ios":"levelo://app?vid=ae008df9-825d-43fa-a92e-a36ea3be7489"},"vehicle_type_id":"4","last_reported":1707336397,"current_range_meters":7600,"station_id":"ce4bgih2rcd13ifvqba0","pricing_plan_id":"free"},{"bike_id":"44dc4b01-ecc5-424c-9976-be85d0028b14","system_id":"levelo_inurba_marseille","lat":43.29529,"lon":5.385581,"is_reserved":false,"is_disabled":false,"rental_uris":{"android":"levelo://app?vid=44dc4b01-ecc5-424c-9976-be85d0028b14","ios":"levelo://app?vid=44dc4b01-ecc5-424c-9976-be85d0028b14"},"vehicle_type_id":"4","last_reported":1707336397,"current_range_meters":6000,"station_id":"ce4bgih2rcd13ifvqba0","pricing_plan_id":"free"},{"bike_id":"8ec5bdd7-00f7-4116-b8e1-a22ad9b50462","system_id":"levelo_inurba_marseille","lat":43.298848,"lon":5.390401,"is_reserved":false,"is_disabled":false,"rental_uris":{"android":"levelo://app?vid=8ec5bdd7-00f7-4116-b8e1-a22ad9b50462","ios":"levelo://app?vid=8ec5bdd7-00f7-4116-b8e1-a22ad9b50462"},"vehicle_type_id":"4","last_reported":1707336397,"current_range_meters":3600,"station_id":"","pricing_plan_id":"free"},{"bike_id":"82ad3269-089e-4605-ae41-49673b0bff1c","system_id":"levelo_inurba_marseille","lat":43.29533,"lon":5.38546,"is_reserved":false,"is_disabled":false,"rental_uris":{"android":"levelo://app?vid=82ad3269-089e-4605-ae41-49673b0bff1c","ios":"levelo://app?vid=82ad3269-089e-4605-ae41-49673b0bff1c"},"vehicle_type_id":"4","last_reported":1707336397,"current_range_meters":27600,"station_id":"ce4bgih2rcd13ifvqba0","pricing_plan_id":"free"},{"bike_id":"4f9fe811-4ef5-4413-adee-7b724c6ae3e1","system_id":"levelo_inurba_marseille","lat":43.290779,"lon":5.371482,"is_reserved":false,"is_disabled":false,"rental_uris":{"android":"levelo://app?vid=4f9fe811-4ef5-4413-adee-7b724c6ae3e1","ios":"levelo://app?vid=4f9fe811-4ef5-4413-adee-7b724c6ae3e1"},"vehicle_type_id":"4","last_reported":1707336397,"current_range_meters":4400,"station_id":"ce4bh5p2rcd13ifvqe4g","pricing_plan_id":"free"},{"bike_id":"826f6052-a914-4df7-8cd8-d4d32a0044bf","system_id":"levelo_inurba_marseille","lat":43.29529,"lon":5.385581,"is_reserved":false,"is_disabled":false,"rental_uris":{"android":"levelo://app?vid=826f6052-a914-4df7-8cd8-d4d32a0044bf","ios":"levelo://app?vid=826f6052-a914-4df7-8cd8-d4d32a0044bf"},"vehicle_type_id":"4","last_reported":1707336397,"current_range_meters":2000,"station_id":"ce4bgih2rcd13ifvqba0","pricing_plan_id":"free"},{"bike_id":"dbe48590-c220-4dfd-86d6-8e0a077ba63e","system_id":"levelo_inurba_marseille","lat":43.290779,"lon":5.371482,"is_reserved":false,"is_disabled":false,"rental_uris":{"android":"levelo://app?vid=dbe48590-c220-4dfd-86d6-8e0a077ba63e","ios":"levelo://app?vid=dbe48590-c220-4dfd-86d6-8e0a077ba63e"},"vehicle_type_id":"4","last_reported":1707336397,"current_range_meters":0,"station_id":"ce4bh5p2rcd13ifvqe4g","pricing_plan_id":"free"},{"bike_id":"ea3124ea-3cb8-4a99-8152-64138398c097","system_id":"levelo_inurba_marseille","lat":43.290624,"lon":5.359245,"is_reserved":false,"is_disabled":false,"rental_uris":{"android":"levelo://app?vid=ea3124ea-3cb8-4a99-8152-64138398c097","ios":"levelo://app?vid=ea3124ea-3cb8-4a99-8152-64138398c097"},"vehicle_type_id":"4","last_reported":1707336397,"current_range_meters":3600,"station_id":"ce4bha92rcd13ifvqeg0","pricing_plan_id":"free"},{"bike_id":"c10d4111-f488-45c1-abd4-513fb1575c81","system_id":"levelo_inurba_marseille","lat":43.290624,"lon":5.359245,"is_reserved":false,"is_disabled":false,"rental_uris":{"android":"levelo://app?vid=c10d4111-f488-45c1-abd4-513fb1575c81","ios":"levelo://app?vid=c10d4111-f488-45c1-abd4-513fb1575c81"},"vehicle_type_id":"4","last_reported":1707336397,"current_range_meters":9200,"station_id":"ce4bha92rcd13ifvqeg0","pricing_plan_id":"free"},{"bike_id":"395b4e19-5abe-4bb7-b219-4e670c024d5b","system_id":"levelo_inurba_marseille","lat":43.290624,"lon":5.359245,"is_reserved":false,"is_disabled":false,"rental_uris":{"android":"levelo://app?vid=395b4e19-5abe-4bb7-b219-4e670c024d5b","ios":"levelo://app?vid=395b4e19-5abe-4bb7-b219-4e670c024d5b"},"vehicle_type_id":"4","last_reported":1707336397,"current_range_meters":18000,"station_id":"ce4bha92rcd13ifvqeg0","pricing_plan_id":"free"},{"bike_id":"db1e873c-c6ff-40cf-af2b-b52105a9c4f8","system_id":"levelo_inurba_marseille","lat":43.290631,"lon":5.359244,"is_reserved":false,"is_disabled":false,"rental_uris":{"android":"levelo://app?vid=db1e873c-c6ff-40cf-af2b-b52105a9c4f8","ios":"levelo://app?vid=db1e873c-c6ff-40cf-af2b-b52105a9c4f8"},"vehicle_type_id":"4","last_reported":1707336397,"current_range_meters":31200,"station_id":"ce4bha92rcd13ifvqeg0","pricing_plan_id":"free"},{"bike_id":"25f39d5f-abdc-41a5-b54f-688cc74e5b42","system_id":"levelo_inurba_marseille","lat":43.290631,"lon":5.359244,"is_reserved":false,"is_disabled":false,"rental_uris":{"android":"levelo://app?vid=25f39d5f-abdc-41a5-b54f-688cc74e5b42","ios":"levelo://app?vid=25f39d5f-abdc-41a5-b54f-688cc74e5b42"},"vehicle_type_id":"4","last_reported":1707336397,"current_range_meters":20000,"station_id":"ce4bha92rcd13ifvqeg0","pricing_plan_id":"free"},{"bike_id":"36d619b3-d4b4-4535-a98e-ee29178c1cb0","system_id":"levelo_inurba_marseille","lat":43.29434,"lon":5.38627,"is_reserved":false,"is_disabled":false,"rental_uris":{"android":"levelo://app?vid=36d619b3-d4b4-4535-a98e-ee29178c1cb0","ios":"levelo://app?vid=36d619b3-d4b4-4535-a98e-ee29178c1cb0"},"vehicle_type_id":"4","last_reported":1707336397,"current_range_meters":23600,"station_id":"ce4bh2h2rcd13ifvqdh0","pricing_plan_id":"free"},{"bike_id":"3ae557f9-0405-4de4-9244-8c08744fb9d1","system_id":"levelo_inurba_marseille","lat":43.29043,"lon":5.37556,"is_reserved":false,"is_disabled":false,"rental_uris":{"android":"levelo://app?vid=3ae557f9-0405-4de4-9244-8c08744fb9d1","ios":"levelo://app?vid=3ae557f9-0405-4de4-9244-8c08744fb9d1"},"vehicle_type_id":"4","last_reported":1707336397,"current_range_meters":10000,"station_id":"","pricing_plan_id":"free"},{"bike_id":"6dd206b4-aae2-4d4e-91a6-3b03e68f22c5","system_id":"levelo_inurba_marseille","lat":43.29424,"lon":5.3862,"is_reserved":false,"is_disabled":false,"rental_uris":{"android":"levelo://app?vid=6dd206b4-aae2-4d4e-91a6-3b03e68f22c5","ios":"levelo://app?vid=6dd206b4-aae2-4d4e-91a6-3b03e68f22c5"},"vehicle_type_id":"4","last_reported":1707336397,"current_range_meters":22400,"station_id":"ce4bh2h2rcd13ifvqdh0","pricing_plan_id":"free"},{"bike_id":"c67bd980-1330-4967-94f0-b3a4163ef372","system_id":"levelo_inurba_marseille","lat":43.294153,"lon":5.386305,"is_reserved":false,"is_disabled":false,"rental_uris":{"android":"levelo://app?vid=c67bd980-1330-4967-94f0-b3a4163ef372","ios":"levelo://app?vid=c67bd980-1330-4967-94f0-b3a4163ef372"},"vehicle_type_id":"4","last_reported":1707336397,"current_range_meters":1200,"station_id":"ce4bh2h2rcd13ifvqdh0","pricing_plan_id":"free"},{"bike_id":"8c46e682-695e-4fd4-b1ae-4f1016cf247e","system_id":"levelo_inurba_marseille","lat":43.294153,"lon":5.386305,"is_reserved":false,"is_disabled":false,"rental_uris":{"android":"levelo://app?vid=8c46e682-695e-4fd4-b1ae-4f1016cf247e","ios":"levelo://app?vid=8c46e682-695e-4fd4-b1ae-4f1016cf247e"},"vehicle_type_id":"4","last_reported":1707336397,"current_range_meters":11600,"station_id":"ce4bh2h2rcd13ifvqdh0","pricing_plan_id":"free"},{"bike_id":"b3d4593d-7122-4d23-8e4f-a7d6e7e4f0ce","system_id":"levelo_inurba_marseille","lat":43.294153,"lon":5.386305,"is_reserved":false,"is_disabled":false,"rental_uris":{"android":"levelo://app?vid=b3d4593d-7122-4d23-8e4f-a7d6e7e4f0ce","ios":"levelo://app?vid=b3d4593d-7122-4d23-8e4f-a7d6e7e4f0ce"},"vehicle_type_id":"4","last_reported":1707336397,"current_range_meters":0,"station_id":"ce4bh2h2rcd13ifvqdh0","pricing_plan_id":"free"},{"bike_id":"58e95aa4-8a77-4cf8-b84c-c1c6c83d2972","system_id":"levelo_inurba_marseille","lat":43.290319,"lon":5.375732,"is_reserved":false,"is_disabled":false,"rental_uris":{"android":"levelo://app?vid=58e95aa4-8a77-4cf8-b84c-c1c6c83d2972","ios":"levelo://app?vid=58e95aa4-8a77-4cf8-b84c-c1c6c83d2972"},"vehicle_type_id":"4","last_reported":1707336397,"current_range_meters":6000,"station_id":"ce4bh692rcd13ifvqe90","pricing_plan_id":"free"},{"bike_id":"eb8d50fa-77bd-425a-91ed-216cd780be03","system_id":"levelo_inurba_marseille","lat":43.29421,"lon":5.38625,"is_reserved":false,"is_disabled":false,"rental_uris":{"android":"levelo://app?vid=eb8d50fa-77bd-425a-91ed-216cd780be03","ios":"levelo://app?vid=eb8d50fa-77bd-425a-91ed-216cd780be03"},"vehicle_type_id":"4","last_reported":1707336397,"current_range_meters":0,"station_id":"ce4bh2h2rcd13ifvqdh0","pricing_plan_id":"free"},{"bike_id":"e72cc747-71cf-41fd-b1c0-db6578fe25db","system_id":"levelo_inurba_marseille","lat":43.294153,"lon":5.386305,"is_reserved":false,"is_disabled":false,"rental_uris":{"android":"levelo://app?vid=e72cc747-71cf-41fd-b1c0-db6578fe25db","ios":"levelo://app?vid=e72cc747-71cf-41fd-b1c0-db6578fe25db"},"vehicle_type_id":"4","last_reported":1707336397,"current_range_meters":10000,"station_id":"ce4bh2h2rcd13ifvqdh0","pricing_plan_id":"free"},{"bike_id":"82a90a1c-b618-448b-812e-8bd8b475bdc4","system_id":"levelo_inurba_marseille","lat":43.294153,"lon":5.386305,"is_reserved":false,"is_disabled":false,"rental_uris":{"android":"levelo://app?vid=82a90a1c-b618-448b-812e-8bd8b475bdc4","ios":"levelo://app?vid=82a90a1c-b618-448b-812e-8bd8b475bdc4"},"vehicle_type_id":"4","last_reported":1707336397,"current_range_meters":1200,"station_id":"ce4bh2h2rcd13ifvqdh0","pricing_plan_id":"free"},{"bike_id":"f1349938-52b5-473a-8026-409bc89f1aed","system_id":"levelo_inurba_marseille","lat":43.29416,"lon":5.38621,"is_reserved":false,"is_disabled":false,"rental_uris":{"android":"levelo://app?vid=f1349938-52b5-473a-8026-409bc89f1aed","ios":"levelo://app?vid=f1349938-52b5-473a-8026-409bc89f1aed"},"vehicle_type_id":"4","last_reported":1707336397,"current_range_meters":400,"station_id":"ce4bh2h2rcd13ifvqdh0","pricing_plan_id":"free"},{"bike_id":"18f02ddc-cd9e-4490-a739-e18cb66307fa","system_id":"levelo_inurba_marseille","lat":43.294153,"lon":5.386305,"is_reserved":false,"is_disabled":false,"rental_uris":{"android":"levelo://app?vid=18f02ddc-cd9e-4490-a739-e18cb66307fa","ios":"levelo://app?vid=18f02ddc-cd9e-4490-a739-e18cb66307fa"},"vehicle_type_id":"4","last_reported":1707336397,"current_range_meters":0,"station_id":"ce4bh2h2rcd13ifvqdh0","pricing_plan_id":"free"},{"bike_id":"11f1de9c-e939-408d-aecc-c2f2297d82f4","system_id":"levelo_inurba_marseille","lat":43.290319,"lon":5.375732,"is_reserved":false,"is_disabled":false,"rental_uris":{"android":"levelo://app?vid=11f1de9c-e939-408d-aecc-c2f2297d82f4","ios":"levelo://app?vid=11f1de9c-e939-408d-aecc-c2f2297d82f4"},"vehicle_type_id":"4","last_reported":1707336397,"current_range_meters":18000,"station_id":"ce4bh692rcd13ifvqe90","pricing_plan_id":"free"},{"bike_id":"24055144-72b0-4238-b13d-6ef058a74371","system_id":"levelo_inurba_marseille","lat":43.29419,"lon":5.38628,"is_reserved":false,"is_disabled":false,"rental_uris":{"android":"levelo://app?vid=24055144-72b0-4238-b13d-6ef058a74371","ios":"levelo://app?vid=24055144-72b0-4238-b13d-6ef058a74371"},"vehicle_type_id":"4","last_reported":1707336397,"current_range_meters":0,"station_id":"ce4bh2h2rcd13ifvqdh0","pricing_plan_id":"free"},{"bike_id":"f0e03611-7246-4f6e-abd0-89cb91fb5b7c","system_id":"levelo_inurba_marseille","lat":43.29418,"lon":5.38628,"is_reserved":false,"is_disabled":false,"rental_uris":{"android":"levelo://app?vid=f0e03611-7246-4f6e-abd0-89cb91fb5b7c","ios":"levelo://app?vid=f0e03611-7246-4f6e-abd0-89cb91fb5b7c"},"vehicle_type_id":"4","last_reported":1707336397,"current_range_meters":17600,"station_id":"ce4bh2h2rcd13ifvqdh0","pricing_plan_id":"free"},{"bike_id":"9d9bde4a-aa7d-4ecd-a75c-b2424ff5d0d2","system_id":"levelo_inurba_marseille","lat":43.29419,"lon":5.3863,"is_reserved":false,"is_disabled":false,"rental_uris":{"android":"levelo://app?vid=9d9bde4a-aa7d-4ecd-a75c-b2424ff5d0d2","ios":"levelo://app?vid=9d9bde4a-aa7d-4ecd-a75c-b2424ff5d0d2"},"vehicle_type_id":"4","last_reported":1707336397,"current_range_meters":400,"station_id":"ce4bh2h2rcd13ifvqdh0","pricing_plan_id":"free"},{"bike_id":"9251684f-2d00-4565-bb63-1f0e133c3786","system_id":"levelo_inurba_marseille","lat":43.29419,"lon":5.3863,"is_reserved":false,"is_disabled":false,"rental_uris":{"android":"levelo://app?vid=9251684f-2d00-4565-bb63-1f0e133c3786","ios":"levelo://app?vid=9251684f-2d00-4565-bb63-1f0e133c3786"},"vehicle_type_id":"4","last_reported":1707336397,"current_range_meters":12000,"station_id":"ce4bh2h2rcd13ifvqdh0","pricing_plan_id":"free"},{"bike_id":"326f4fa5-5595-475a-a572-8df175a408b7","system_id":"levelo_inurba_marseille","lat":43.29416,"lon":5.38627,"is_reserved":false,"is_disabled":false,"rental_uris":{"android":"levelo://app?vid=326f4fa5-5595-475a-a572-8df175a408b7","ios":"levelo://app?vid=326f4fa5-5595-475a-a572-8df175a408b7"},"vehicle_type_id":"4","last_reported":1707336397,"current_range_meters":10400,"station_id":"ce4bh2h2rcd13ifvqdh0","pricing_plan_id":"free"},{"bike_id":"6c092874-28bd-4f09-8cfe-b56c35c4c698","system_id":"levelo_inurba_marseille","lat":43.294204,"lon":5.38635,"is_reserved":false,"is_disabled":false,"rental_uris":{"android":"levelo://app?vid=6c092874-28bd-4f09-8cfe-b56c35c4c698","ios":"levelo://app?vid=6c092874-28bd-4f09-8cfe-b56c35c4c698"},"vehicle_type_id":"4","last_reported":1707336397,"current_range_meters":16400,"station_id":"ce4bh2h2rcd13ifvqdh0","pricing_plan_id":"free"},{"bike_id":"afd1d01c-aebf-478b-b40c-d3361438a821","system_id":"levelo_inurba_marseille","lat":43.28943,"lon":5.36635,"is_reserved":false,"is_disabled":false,"rental_uris":{"android":"levelo://app?vid=afd1d01c-aebf-478b-b40c-d3361438a821","ios":"levelo://app?vid=afd1d01c-aebf-478b-b40c-d3361438a821"},"vehicle_type_id":"4","last_reported":1707336397,"current_range_meters":0,"station_id":"ce4bhap2rcd13ifvqek0","pricing_plan_id":"free"},{"bike_id":"21fbaf72-48c5-496a-8bf2-96464bd03cfe","system_id":"levelo_inurba_marseille","lat":43.29416,"lon":5.38628,"is_reserved":false,"is_disabled":false,"rental_uris":{"android":"levelo://app?vid=21fbaf72-48c5-496a-8bf2-96464bd03cfe","ios":"levelo://app?vid=21fbaf72-48c5-496a-8bf2-96464bd03cfe"},"vehicle_type_id":"4","last_reported":1707336397,"current_range_meters":0,"station_id":"ce4bh2h2rcd13ifvqdh0","pricing_plan_id":"free"},{"bike_id":"80fbb84e-6068-4a13-8f47-3f362e14265b","system_id":"levelo_inurba_marseille","lat":43.289307,"lon":5.38406,"is_reserved":false,"is_disabled":false,"rental_uris":{"android":"levelo://app?vid=80fbb84e-6068-4a13-8f47-3f362e14265b","ios":"levelo://app?vid=80fbb84e-6068-4a13-8f47-3f362e14265b"},"vehicle_type_id":"4","last_reported":1707336397,"current_range_meters":10400,"station_id":"ce4bh612rcd13ifvqe6g","pricing_plan_id":"free"},{"bike_id":"0289b7e2-80b3-418a-aaf8-a3841efb0e74","system_id":"levelo_inurba_marseille","lat":43.294153,"lon":5.386305,"is_reserved":false,"is_disabled":false,"rental_uris":{"android":"levelo://app?vid=0289b7e2-80b3-418a-aaf8-a3841efb0e74","ios":"levelo://app?vid=0289b7e2-80b3-418a-aaf8-a3841efb0e74"},"vehicle_type_id":"4","last_reported":1707336397,"current_range_meters":14000,"station_id":"ce4bh2h2rcd13ifvqdh0","pricing_plan_id":"free"},{"bike_id":"0f4feece-124a-4dca-8acf-da2a69cd8f25","system_id":"levelo_inurba_marseille","lat":43.29418,"lon":5.38638,"is_reserved":false,"is_disabled":false,"rental_uris":{"android":"levelo://app?vid=0f4feece-124a-4dca-8acf-da2a69cd8f25","ios":"levelo://app?vid=0f4feece-124a-4dca-8acf-da2a69cd8f25"},"vehicle_type_id":"4","last_reported":1707336397,"current_range_meters":10000,"station_id":"ce4bh2h2rcd13ifvqdh0","pricing_plan_id":"free"},{"bike_id":"82d28acd-7942-4d94-a5db-24533770794c","system_id":"levelo_inurba_marseille","lat":43.289184,"lon":5.366408,"is_reserved":false,"is_disabled":false,"rental_uris":{"android":"levelo://app?vid=82d28acd-7942-4d94-a5db-24533770794c","ios":"levelo://app?vid=82d28acd-7942-4d94-a5db-24533770794c"},"vehicle_type_id":"4","last_reported":1707336397,"current_range_meters":22800,"station_id":"ce4bhap2rcd13ifvqek0","pricing_plan_id":"free"},{"bike_id":"85c155af-7c01-4ebd-892d-e39d3bb33b04","system_id":"levelo_inurba_marseille","lat":43.29413,"lon":5.38633,"is_reserved":false,"is_disabled":false,"rental_uris":{"android":"levelo://app?vid=85c155af-7c01-4ebd-892d-e39d3bb33b04","ios":"levelo://app?vid=85c155af-7c01-4ebd-892d-e39d3bb33b04"},"vehicle_type_id":"4","last_reported":1707336397,"current_range_meters":5200,"station_id":"ce4bh2h2rcd13ifvqdh0","pricing_plan_id":"free"},{"bike_id":"5e127e38-f187-4b77-b5da-69ee48713284","system_id":"levelo_inurba_marseille","lat":43.293009,"lon":5.374584,"is_reserved":false,"is_disabled":false,"rental_uris":{"android":"levelo://app?vid=5e127e38-f187-4b77-b5da-69ee48713284","ios":"levelo://app?vid=5e127e38-f187-4b77-b5da-69ee48713284"},"vehicle_type_id":"4","last_reported":1707336397,"current_range_meters":4400,"station_id":"ce4bgi12rcd13ifvqb70","pricing_plan_id":"free"},{"bike_id":"67399342-2c36-43c6-bdc8-00dfa3a67a9c","system_id":"levelo_inurba_marseille","lat":43.289184,"lon":5.366408,"is_reserved":false,"is_disabled":false,"rental_uris":{"android":"levelo://app?vid=67399342-2c36-43c6-bdc8-00dfa3a67a9c","ios":"levelo://app?vid=67399342-2c36-43c6-bdc8-00dfa3a67a9c"},"vehicle_type_id":"4","last_reported":1707336397,"current_range_meters":6000,"station_id":"ce4bhap2rcd13ifvqek0","pricing_plan_id":"free"},{"bike_id":"353a9587-f08c-419f-8222-1dbdc68542b6","system_id":"levelo_inurba_marseille","lat":43.289184,"lon":5.366408,"is_reserved":false,"is_disabled":false,"rental_uris":{"android":"levelo://app?vid=353a9587-f08c-419f-8222-1dbdc68542b6","ios":"levelo://app?vid=353a9587-f08c-419f-8222-1dbdc68542b6"},"vehicle_type_id":"4","last_reported":1707336397,"current_range_meters":6000,"station_id":"ce4bhap2rcd13ifvqek0","pricing_plan_id":"free"},{"bike_id":"7997289f-6588-4b17-bcbc-e8ceca2b2121","system_id":"levelo_inurba_marseille","lat":43.289468,"lon":5.363719,"is_reserved":false,"is_disabled":false,"rental_uris":{"android":"levelo://app?vid=7997289f-6588-4b17-bcbc-e8ceca2b2121","ios":"levelo://app?vid=7997289f-6588-4b17-bcbc-e8ceca2b2121"},"vehicle_type_id":"4","last_reported":1707336397,"current_range_meters":10800,"station_id":"ce4bhc92rcd13ifvqetg","pricing_plan_id":"free"},{"bike_id":"800f08d2-4d31-4289-9a48-8f7a67315a43","system_id":"levelo_inurba_marseille","lat":43.289468,"lon":5.363719,"is_reserved":false,"is_disabled":false,"rental_uris":{"android":"levelo://app?vid=800f08d2-4d31-4289-9a48-8f7a67315a43","ios":"levelo://app?vid=800f08d2-4d31-4289-9a48-8f7a67315a43"},"vehicle_type_id":"4","last_reported":1707336397,"current_range_meters":5200,"station_id":"ce4bhc92rcd13ifvqetg","pricing_plan_id":"free"},{"bike_id":"0e5d69e6-4d37-43db-8a8e-6d2acf09d962","system_id":"levelo_inurba_marseille","lat":43.304274,"lon":5.397513,"is_reserved":false,"is_disabled":false,"rental_uris":{"android":"levelo://app?vid=0e5d69e6-4d37-43db-8a8e-6d2acf09d962","ios":"levelo://app?vid=0e5d69e6-4d37-43db-8a8e-6d2acf09d962"},"vehicle_type_id":"4","last_reported":1707336397,"current_range_meters":4000,"station_id":"ce4bh092rcd13ifvqd20","pricing_plan_id":"free"},{"bike_id":"0763390e-68bf-487f-9535-536e4bd278b8","system_id":"levelo_inurba_marseille","lat":43.29278,"lon":5.38449,"is_reserved":false,"is_disabled":false,"rental_uris":{"android":"levelo://app?vid=0763390e-68bf-487f-9535-536e4bd278b8","ios":"levelo://app?vid=0763390e-68bf-487f-9535-536e4bd278b8"},"vehicle_type_id":"4","last_reported":1707336397,"current_range_meters":800,"station_id":"ce4bh692rcd13ifvqea0","pricing_plan_id":"free"},{"bike_id":"41333f69-8cd0-4927-a747-09eba83f320a","system_id":"levelo_inurba_marseille","lat":43.2927,"lon":5.38435,"is_reserved":false,"is_disabled":false,"rental_uris":{"android":"levelo://app?vid=41333f69-8cd0-4927-a747-09eba83f320a","ios":"levelo://app?vid=41333f69-8cd0-4927-a747-09eba83f320a"},"vehicle_type_id":"4","last_reported":1707336397,"current_range_meters":23600,"station_id":"ce4bh692rcd13ifvqea0","pricing_plan_id":"free"},{"bike_id":"2040ad9b-f749-483a-8f12-535b7e2e70e9","system_id":"levelo_inurba_marseille","lat":43.292642,"lon":5.384254,"is_reserved":false,"is_disabled":false,"rental_uris":{"android":"levelo://app?vid=2040ad9b-f749-483a-8f12-535b7e2e70e9","ios":"levelo://app?vid=2040ad9b-f749-483a-8f12-535b7e2e70e9"},"vehicle_type_id":"4","last_reported":1707336397,"current_range_meters":4400,"station_id":"ce4bh692rcd13ifvqea0","pricing_plan_id":"free"},{"bike_id":"5c7b4cd7-d438-4988-bd99-afbebe64a9f8","system_id":"levelo_inurba_marseille","lat":43.29271,"lon":5.38445,"is_reserved":false,"is_disabled":false,"rental_uris":{"android":"levelo://app?vid=5c7b4cd7-d438-4988-bd99-afbebe64a9f8","ios":"levelo://app?vid=5c7b4cd7-d438-4988-bd99-afbebe64a9f8"},"vehicle_type_id":"4","last_reported":1707336397,"current_range_meters":24400,"station_id":"ce4bh692rcd13ifvqea0","pricing_plan_id":"free"},{"bike_id":"420bc864-b1c2-43b5-99c9-25cb128fa310","system_id":"levelo_inurba_marseille","lat":43.2927,"lon":5.38445,"is_reserved":false,"is_disabled":false,"rental_uris":{"android":"levelo://app?vid=420bc864-b1c2-43b5-99c9-25cb128fa310","ios":"levelo://app?vid=420bc864-b1c2-43b5-99c9-25cb128fa310"},"vehicle_type_id":"4","last_reported":1707336397,"current_range_meters":5200,"station_id":"ce4bh692rcd13ifvqea0","pricing_plan_id":"free"},{"bike_id":"2f9cc29b-a1bf-4e0f-b725-54c681ed0cb5","system_id":"levelo_inurba_marseille","lat":43.292642,"lon":5.384254,"is_reserved":false,"is_disabled":false,"rental_uris":{"android":"levelo://app?vid=2f9cc29b-a1bf-4e0f-b725-54c681ed0cb5","ios":"levelo://app?vid=2f9cc29b-a1bf-4e0f-b725-54c681ed0cb5"},"vehicle_type_id":"4","last_reported":1707336397,"current_range_meters":0,"station_id":"ce4bh692rcd13ifvqea0","pricing_plan_id":"free"},{"bike_id":"7e43dcb1-b8e3-4d4e-ba65-79825436701f","system_id":"levelo_inurba_marseille","lat":43.292667,"lon":5.38444,"is_reserved":false,"is_disabled":false,"rental_uris":{"android":"levelo://app?vid=7e43dcb1-b8e3-4d4e-ba65-79825436701f","ios":"levelo://app?vid=7e43dcb1-b8e3-4d4e-ba65-79825436701f"},"vehicle_type_id":"4","last_reported":1707336397,"current_range_meters":22000,"station_id":"ce4bh692rcd13ifvqea0","pricing_plan_id":"free"},{"bike_id":"a0f753fe-f25f-4bba-83b4-99c2b99099ad","system_id":"levelo_inurba_marseille","lat":43.292642,"lon":5.384254,"is_reserved":false,"is_disabled":false,"rental_uris":{"android":"levelo://app?vid=a0f753fe-f25f-4bba-83b4-99c2b99099ad","ios":"levelo://app?vid=a0f753fe-f25f-4bba-83b4-99c2b99099ad"},"vehicle_type_id":"4","last_reported":1707336397,"current_range_meters":20400,"station_id":"ce4bh692rcd13ifvqea0","pricing_plan_id":"free"},{"bike_id":"0871e1fc-1317-4690-9623-25f24968d2a2","system_id":"levelo_inurba_marseille","lat":43.29264,"lon":5.38439,"is_reserved":false,"is_disabled":false,"rental_uris":{"android":"levelo://app?vid=0871e1fc-1317-4690-9623-25f24968d2a2","ios":"levelo://app?vid=0871e1fc-1317-4690-9623-25f24968d2a2"},"vehicle_type_id":"4","last_reported":1707336397,"current_range_meters":0,"station_id":"ce4bh692rcd13ifvqea0","pricing_plan_id":"free"},{"bike_id":"cc0f128e-7d1f-4b75-a2d2-3f3d5085c7f9","system_id":"levelo_inurba_marseille","lat":43.292642,"lon":5.384254,"is_reserved":false,"is_disabled":false,"rental_uris":{"android":"levelo://app?vid=cc0f128e-7d1f-4b75-a2d2-3f3d5085c7f9","ios":"levelo://app?vid=cc0f128e-7d1f-4b75-a2d2-3f3d5085c7f9"},"vehicle_type_id":"4","last_reported":1707336397,"current_range_meters":16800,"station_id":"ce4bh692rcd13ifvqea0","pricing_plan_id":"free"},{"bike_id":"a775663f-ab34-4c67-9aec-7504c8d08c9c","system_id":"levelo_inurba_marseille","lat":43.29265,"lon":5.38447,"is_reserved":false,"is_disabled":false,"rental_uris":{"android":"levelo://app?vid=a775663f-ab34-4c67-9aec-7504c8d08c9c","ios":"levelo://app?vid=a775663f-ab34-4c67-9aec-7504c8d08c9c"},"vehicle_type_id":"4","last_reported":1707336397,"current_range_meters":26400,"station_id":"ce4bh692rcd13ifvqea0","pricing_plan_id":"free"},{"bike_id":"6416773e-031d-4d77-aea2-20062556282e","system_id":"levelo_inurba_marseille","lat":43.292642,"lon":5.384254,"is_reserved":false,"is_disabled":false,"rental_uris":{"android":"levelo://app?vid=6416773e-031d-4d77-aea2-20062556282e","ios":"levelo://app?vid=6416773e-031d-4d77-aea2-20062556282e"},"vehicle_type_id":"4","last_reported":1707336397,"current_range_meters":6400,"station_id":"ce4bh692rcd13ifvqea0","pricing_plan_id":"free"},{"bike_id":"3addc9cd-06ae-4dd8-8b01-5ae1a53e779e","system_id":"levelo_inurba_marseille","lat":43.292642,"lon":5.384254,"is_reserved":false,"is_disabled":false,"rental_uris":{"android":"levelo://app?vid=3addc9cd-06ae-4dd8-8b01-5ae1a53e779e","ios":"levelo://app?vid=3addc9cd-06ae-4dd8-8b01-5ae1a53e779e"},"vehicle_type_id":"4","last_reported":1707336397,"current_range_meters":18400,"station_id":"ce4bh692rcd13ifvqea0","pricing_plan_id":"free"},{"bike_id":"0cccf172-582d-4a96-825d-d71d08f63715","system_id":"levelo_inurba_marseille","lat":43.292642,"lon":5.384254,"is_reserved":false,"is_disabled":false,"rental_uris":{"android":"levelo://app?vid=0cccf172-582d-4a96-825d-d71d08f63715","ios":"levelo://app?vid=0cccf172-582d-4a96-825d-d71d08f63715"},"vehicle_type_id":"4","last_reported":1707336397,"current_range_meters":31200,"station_id":"ce4bh692rcd13ifvqea0","pricing_plan_id":"free"},{"bike_id":"1acd8de8-35bd-4a9e-a7c9-9a0bed0106d5","system_id":"levelo_inurba_marseille","lat":43.290103,"lon":5.356114,"is_reserved":false,"is_disabled":false,"rental_uris":{"android":"levelo://app?vid=1acd8de8-35bd-4a9e-a7c9-9a0bed0106d5","ios":"levelo://app?vid=1acd8de8-35bd-4a9e-a7c9-9a0bed0106d5"},"vehicle_type_id":"4","last_reported":1707336397,"current_range_meters":23200,"station_id":"ce4bhb92rcd13ifvqen0","pricing_plan_id":"free"},{"bike_id":"9bc86460-f133-494e-96d1-8db19a5a3fcf","system_id":"levelo_inurba_marseille","lat":43.290104,"lon":5.356111,"is_reserved":false,"is_disabled":false,"rental_uris":{"android":"levelo://app?vid=9bc86460-f133-494e-96d1-8db19a5a3fcf","ios":"levelo://app?vid=9bc86460-f133-494e-96d1-8db19a5a3fcf"},