{"last_updated":1733825461,"ttl":60,"version":"2.2","data":{"bikes":[{"bike_id":"cc832c36-3383-49a4-b52c-5913dffcd510","system_id":"levelo_inurba_marseille","lat":43.30547,"lon":5.36704,"is_reserved":false,"is_disabled":false,"rental_uris":{"android":"levelo://app?vid=cc832c36-3383-49a4-b52c-5913dffcd510","ios":"levelo://app?vid=cc832c36-3383-49a4-b52c-5913dffcd510"},"vehicle_type_id":"4","last_reported":1733825461,"current_range_meters":11200,"station_id":"ce4bgrp2rcd13ifvqc9g","pricing_plan_id":"cebpf4jnsgd1na2vs0mg"},{"bike_id":"3bae985c-4ec3-4449-8ab5-671c37ae0791","system_id":"levelo_inurba_marseille","lat":43.23152,"lon":5.43711,"is_reserved":false,"is_disabled":false,"rental_uris":{"android":"levelo://app?vid=3bae985c-4ec3-4449-8ab5-671c37ae0791","ios":"levelo://app?vid=3bae985c-4ec3-4449-8ab5-671c37ae0791"},"vehicle_type_id":"4","last_reported":1733825461,"current_range_meters":35600,"station_id":"ce4bhmp2rcd13ifvqgog","pricing_plan_id":"cebpf4jnsgd1na2vs0mg"},{"bike_id":"9e840671-2878-4845-b8fb-114afd1f4bc9","system_id":"levelo_inurba_marseille","lat":43.26684,"lon":5.38274,"is_reserved":false,"is_disabled":true,"rental_uris":{"android":"levelo://app?vid=9e840671-2878-4845-b8fb-114afd1f4bc9","ios":"levelo://app?vid=9e840671-2878-4845-b8fb-114afd1f4bc9"},"vehicle_type_id":"4","last_reported":1733825461,"current_range_meters":3200,"station_id":"ce4bhg92rcd13ifvqf90","pricing_plan_id":"cebpf4jnsgd1na2vs0mg"},{"bike_id":"3d8690d1-85e0-41da-826a-990a4f82f29e","system_id":"levelo_inurba_marseille","lat":43.26945,"lon":5.38627,"is_reserved":false,"is_disabled":true,"rental_uris":{"android":"levelo://app?vid=3d8690d1-85e0-41da-826a-990a4f82f29e","ios":"levelo://app?vid=3d8690d1-85e0-41da-826a-990a4f82f29e"},"vehicle_type_id":"4","last_reported":1733825461,"current_range_meters":31200,"station_id":"ce4bhh92rcd13ifvqfh0","pricing_plan_id":"cebpf4jnsgd1na2vs0mg"},{"bike_id":"8e029eaf-e104-4c5d-858d-6cd39de73d09","system_id":"levelo_inurba_marseille","lat":43.24164,"lon":5.36391,"is_reserved":false,"is_disabled":false,"rental_uris":{"android":"levelo://app?vid=8e029eaf-e104-4c5d-858d-6cd39de73d09","ios":"levelo://app?vid=8e029eaf-e104-4c5d-858d-6cd39de73d09"},"vehicle_type_id":"4","last_reported":1733825461,"current_range_meters":17200,"station_id":"cpo36qri1sfpv3e86is0","pricing_plan_id":"cebpf4jnsgd1na2vs0mg"},{"bike_id":"5ee88fa2-ea43-4fcc-81b6-7c648141d8f2","system_id":"levelo_inurba_marseille","lat":43.27572,"lon":5.38416,"is_reserved":false,"is_disabled":false,"rental_uris":{"android":"levelo://app?vid=5ee88fa2-ea43-4fcc-81b6-7c648141d8f2","ios":"levelo://app?vid=5ee88fa2-ea43-4fcc-81b6-7c648141d8f2"},"vehicle_type_id":"4","last_reported":1733825461,"current_range_meters":38800,"station_id":"ce4bhh92rcd13ifvqfi0","pricing_plan_id":"cebpf4jnsgd1na2vs0mg"},{"bike_id":"e5e8c7a3-ca47-4dbb-a387-7e79718e6cd2","system_id":"levelo_inurba_marseille","lat":43.24078,"lon":5.37745,"is_reserved":false,"is_disabled":false,"rental_uris":{"android":"levelo://app?vid=e5e8c7a3-ca47-4dbb-a387-7e79718e6cd2","ios":"levelo://app?vid=e5e8c7a3-ca47-4dbb-a387-7e79718e6cd2"},"vehicle_type_id":"4","last_reported":1733825461,"current_range_meters":36800,"station_id":"ce4bhnp2rcd13ifvqgvg","pricing_plan_id":"cebpf4jnsgd1na2vs0mg"},{"bike_id":"82daf91a-f22f-4c91-b4d7-872b365c74c5","system_id":"levelo_inurba_marseille","lat":43.29572,"lon":5.36737,"is_reserved":false,"is_disabled":false,"rental_uris":{"android":"levelo://app?vid=82daf91a-f22f-4c91-b4d7-872b365c74c5","ios":"levelo://app?vid=82daf91a-f22f-4c91-b4d7-872b365c74c5"},"vehicle_type_id":"4","last_reported":1733825461,"current_range_meters":30000,"station_id":"ce4bgph2rcd13ifvqc2g","pricing_plan_id":"cebpf4jnsgd1na2vs0mg"},{"bike_id":"d4059c04-3aaf-486f-b48f-694dc4e7c2c5","system_id":"levelo_inurba_marseille","lat":43.29906,"lon":5.38414,"is_reserved":false,"is_disabled":true,"rental_uris":{"android":"levelo://app?vid=d4059c04-3aaf-486f-b48f-694dc4e7c2c5","ios":"levelo://app?vid=d4059c04-3aaf-486f-b48f-694dc4e7c2c5"},"vehicle_type_id":"4","last_reported":1733825461,"current_range_meters":3600,"station_id":"","pricing_plan_id":"cebpf4jnsgd1na2vs0mg"},{"bike_id":"be530a03-3653-4b0a-afed-a7bd5fb92a18","system_id":"levelo_inurba_marseille","lat":43.26955,"lon":5.3863,"is_reserved":false,"is_disabled":false,"rental_uris":{"android":"levelo://app?vid=be530a03-3653-4b0a-afed-a7bd5fb92a18","ios":"levelo://app?vid=be530a03-3653-4b0a-afed-a7bd5fb92a18"},"vehicle_type_id":"4","last_reported":1733825461,"current_range_meters":16800,"station_id":"ce4bhh92rcd13ifvqfh0","pricing_plan_id":"cebpf4jnsgd1na2vs0mg"},{"bike_id":"014914cf-eb98-4b5d-8cd3-12a67a219c23","system_id":"levelo_inurba_marseille","lat":43.33613,"lon":5.41029,"is_reserved":false,"is_disabled":true,"rental_uris":{"android":"levelo://app?vid=014914cf-eb98-4b5d-8cd3-12a67a219c23","ios":"levelo://app?vid=014914cf-eb98-4b5d-8cd3-12a67a219c23"},"vehicle_type_id":"4","last_reported":1733825461,"current_range_meters":38400,"station_id":"ce4bhqh2rcd13ifvqhmg","pricing_plan_id":"cebpf4jnsgd1na2vs0mg"},{"bike_id":"187ce93f-434d-4732-bb2e-fef92a665e51","system_id":"levelo_inurba_marseille","lat":43.29371,"lon":5.37824,"is_reserved":false,"is_disabled":false,"rental_uris":{"android":"levelo://app?vid=187ce93f-434d-4732-bb2e-fef92a665e51","ios":"levelo://app?vid=187ce93f-434d-4732-bb2e-fef92a665e51"},"vehicle_type_id":"4","last_reported":1733825461,"current_range_meters":22000,"station_id":"ce4bgjh2rcd13ifvqbf0","pricing_plan_id":"cebpf4jnsgd1na2vs0mg"},{"bike_id":"2bbfd75b-3da0-4483-b669-f7ac974cee37","system_id":"levelo_inurba_marseille","lat":43.24996,"lon":5.38939,"is_reserved":false,"is_disabled":false,"rental_uris":{"android":"levelo://app?vid=2bbfd75b-3da0-4483-b669-f7ac974cee37","ios":"levelo://app?vid=2bbfd75b-3da0-4483-b669-f7ac974cee37"},"vehicle_type_id":"4","last_reported":1733825461,"current_range_meters":28000,"station_id":"ce4bhgp2rcd13ifvqfd0","pricing_plan_id":"cebpf4jnsgd1na2vs0mg"},{"bike_id":"8bd642b2-0279-44c7-9ee2-fc3b57332c83","system_id":"levelo_inurba_marseille","lat":43.27455,"lon":5.40073,"is_reserved":false,"is_disabled":true,"rental_uris":{"android":"levelo://app?vid=8bd642b2-0279-44c7-9ee2-fc3b57332c83","ios":"levelo://app?vid=8bd642b2-0279-44c7-9ee2-fc3b57332c83"},"vehicle_type_id":"4","last_reported":1733825461,"current_range_meters":0,"station_id":"","pricing_plan_id":"cebpf4jnsgd1na2vs0mg"},{"bike_id":"59b0b34c-6f92-4349-9ebf-bf641fd76061","system_id":"levelo_inurba_marseille","lat":43.27067,"lon":5.4228,"is_reserved":false,"is_disabled":true,"rental_uris":{"android":"levelo://app?vid=59b0b34c-6f92-4349-9ebf-bf641fd76061","ios":"levelo://app?vid=59b0b34c-6f92-4349-9ebf-bf641fd76061"},"vehicle_type_id":"4","last_reported":1733825461,"current_range_meters":32800,"station_id":"ce4bhk92rcd13ifvqgb0","pricing_plan_id":"cebpf4jnsgd1na2vs0mg"},{"bike_id":"7ac03d67-b7d2-4a2a-8a64-fffa58bb1b79","system_id":"levelo_inurba_marseille","lat":43.23152,"lon":5.43702,"is_reserved":false,"is_disabled":false,"rental_uris":{"android":"levelo://app?vid=7ac03d67-b7d2-4a2a-8a64-fffa58bb1b79","ios":"levelo://app?vid=7ac03d67-b7d2-4a2a-8a64-fffa58bb1b79"},"vehicle_type_id":"4","last_reported":1733825461,"current_range_meters":30000,"station_id":"ce4bhmp2rcd13ifvqgog","pricing_plan_id":"cebpf4jnsgd1na2vs0mg"},{"bike_id":"23e13357-1a61-45f6-b9c2-096e6eef4f81","system_id":"levelo_inurba_marseille","lat":43.29967,"lon":5.38498,"is_reserved":false,"is_disabled":false,"rental_uris":{"android":"levelo://app?vid=23e13357-1a61-45f6-b9c2-096e6eef4f81","ios":"levelo://app?vid=23e13357-1a61-45f6-b9c2-096e6eef4f81"},"vehicle_type_id":"4","last_reported":1733825461,"current_range_meters":20400,"station_id":"ce4bgj92rcd13ifvqbd0","pricing_plan_id":"cebpf4jnsgd1na2vs0mg"},{"bike_id":"f09914a1-032a-4233-965f-c73f49a269ba","system_id":"levelo_inurba_marseille","lat":43.337444,"lon":5.374475,"is_reserved":false,"is_disabled":true,"rental_uris":{"android":"levelo://app?vid=f09914a1-032a-4233-965f-c73f49a269ba","ios":"levelo://app?vid=f09914a1-032a-4233-965f-c73f49a269ba"},"vehicle_type_id":"4","last_reported":1733825461,"current_range_meters":0,"station_id":"","pricing_plan_id":"cebpf4jnsgd1na2vs0mg"},{"bike_id":"76525433-6ea2-4692-9f86-be767bddfa70","system_id":"levelo_inurba_marseille","lat":43.29365,"lon":5.37837,"is_reserved":false,"is_disabled":false,"rental_uris":{"android":"levelo://app?vid=76525433-6ea2-4692-9f86-be767bddfa70","ios":"levelo://app?vid=76525433-6ea2-4692-9f86-be767bddfa70"},"vehicle_type_id":"4","last_reported":1733825461,"current_range_meters":28400,"station_id":"ce4bgjh2rcd13ifvqbf0","pricing_plan_id":"cebpf4jnsgd1na2vs0mg"},{"bike_id":"f6ceca24-19af-4ed8-b20b-dad7699688ae","system_id":"levelo_inurba_marseille","lat":43.32479,"lon":5.36574,"is_reserved":false,"is_disabled":true,"rental_uris":{"android":"levelo://app?vid=f6ceca24-19af-4ed8-b20b-dad7699688ae","ios":"levelo://app?vid=f6ceca24-19af-4ed8-b20b-dad7699688ae"},"vehicle_type_id":"4","last_reported":1733825461,"current_range_meters":24400,"station_id":"ce4bhs12rcd13ifvqhvg","pricing_plan_id":"cebpf4jnsgd1na2vs0mg"},{"bike_id":"bab1fa96-23d8-4f98-a0bc-d7c095a449e4","system_id":"levelo_inurba_marseille","lat":43.31068,"lon":5.38347,"is_reserved":false,"is_disabled":false,"rental_uris":{"android":"levelo://app?vid=bab1fa96-23d8-4f98-a0bc-d7c095a449e4","ios":"levelo://app?vid=bab1fa96-23d8-4f98-a0bc-d7c095a449e4"},"vehicle_type_id":"4","last_reported":1733825461,"current_range_meters":20800,"station_id":"ce4bgv92rcd13ifvqcr0","pricing_plan_id":"cebpf4jnsgd1na2vs0mg"},{"bike_id":"db94f93e-1a6d-4830-8de3-e394317acd3b","system_id":"levelo_inurba_marseille","lat":43.32472,"lon":5.365616,"is_reserved":false,"is_disabled":false,"rental_uris":{"android":"levelo://app?vid=db94f93e-1a6d-4830-8de3-e394317acd3b","ios":"levelo://app?vid=db94f93e-1a6d-4830-8de3-e394317acd3b"},"vehicle_type_id":"4","last_reported":1733825461,"current_range_meters":8800,"station_id":"ce4bhs12rcd13ifvqhvg","pricing_plan_id":"cebpf4jnsgd1na2vs0mg"},{"bike_id":"1aa44ed9-e118-4ef3-bc76-ec2ddb64bcd0","system_id":"levelo_inurba_marseille","lat":43.27327,"lon":5.39092,"is_reserved":false,"is_disabled":false,"rental_uris":{"android":"levelo://app?vid=1aa44ed9-e118-4ef3-bc76-ec2ddb64bcd0","ios":"levelo://app?vid=1aa44ed9-e118-4ef3-bc76-ec2ddb64bcd0"},"vehicle_type_id":"4","last_reported":1733825461,"current_range_meters":12000,"station_id":"ce4bhgp2rcd13ifvqfe0","pricing_plan_id":"cebpf4jnsgd1na2vs0mg"},{"bike_id":"81661c2c-aea5-44c0-8cb4-c9a2f0065120","system_id":"levelo_inurba_marseille","lat":43.30435,"lon":5.38886,"is_reserved":false,"is_disabled":false,"rental_uris":{"android":"levelo://app?vid=81661c2c-aea5-44c0-8cb4-c9a2f0065120","ios":"levelo://app?vid=81661c2c-aea5-44c0-8cb4-c9a2f0065120"},"vehicle_type_id":"4","last_reported":1733825461,"current_range_meters":26800,"station_id":"ce4bgk12rcd13ifvqbi0","pricing_plan_id":"cebpf4jnsgd1na2vs0mg"},{"bike_id":"89d9008a-5b98-450d-b861-4f1fed1949d5","system_id":"levelo_inurba_marseille","lat":43.29627,"lon":5.40599,"is_reserved":false,"is_disabled":false,"rental_uris":{"android":"levelo://app?vid=89d9008a-5b98-450d-b861-4f1fed1949d5","ios":"levelo://app?vid=89d9008a-5b98-450d-b861-4f1fed1949d5"},"vehicle_type_id":"4","last_reported":1733825461,"current_range_meters":9200,"station_id":"ce4bh0h2rcd13ifvqd60","pricing_plan_id":"cebpf4jnsgd1na2vs0mg"},{"bike_id":"7b6303aa-d3cb-4a7d-a2ee-9fb94413b06e","system_id":"levelo_inurba_marseille","lat":43.27835,"lon":5.391992,"is_reserved":false,"is_disabled":false,"rental_uris":{"android":"levelo://app?vid=7b6303aa-d3cb-4a7d-a2ee-9fb94413b06e","ios":"levelo://app?vid=7b6303aa-d3cb-4a7d-a2ee-9fb94413b06e"},"vehicle_type_id":"4","last_reported":1733825461,"current_range_meters":14800,"station_id":"ce4bhjp2rcd13ifvqga0","pricing_plan_id":"cebpf4jnsgd1na2vs0mg"},{"bike_id":"5ccbff1c-0270-4693-82e0-c9e934e1827b","system_id":"levelo_inurba_marseille","lat":43.28275,"lon":5.35065,"is_reserved":false,"is_disabled":false,"rental_uris":{"android":"levelo://app?vid=5ccbff1c-0270-4693-82e0-c9e934e1827b","ios":"levelo://app?vid=5ccbff1c-0270-4693-82e0-c9e934e1827b"},"vehicle_type_id":"4","last_reported":1733825461,"current_range_meters":10000,"station_id":"ce4bhbp2rcd13ifvqerg","pricing_plan_id":"cebpf4jnsgd1na2vs0mg"},{"bike_id":"75701b26-361c-41a5-86cc-cb78b6f05388","system_id":"levelo_inurba_marseille","lat":43.25929,"lon":5.40912,"is_reserved":false,"is_disabled":true,"rental_uris":{"android":"levelo://app?vid=75701b26-361c-41a5-86cc-cb78b6f05388","ios":"levelo://app?vid=75701b26-361c-41a5-86cc-cb78b6f05388"},"vehicle_type_id":"4","last_reported":1733825461,"current_range_meters":33200,"station_id":"ce4bhm92rcd13ifvqglg","pricing_plan_id":"cebpf4jnsgd1na2vs0mg"},{"bike_id":"724c48f1-2175-4730-9579-aceff44261ff","system_id":"levelo_inurba_marseille","lat":43.24179,"lon":5.39737,"is_reserved":false,"is_disabled":false,"rental_uris":{"android":"levelo://app?vid=724c48f1-2175-4730-9579-aceff44261ff","ios":"levelo://app?vid=724c48f1-2175-4730-9579-aceff44261ff"},"vehicle_type_id":"4","last_reported":1733825461,"current_range_meters":36400,"station_id":"ce4bhn12rcd13ifvqgpg","pricing_plan_id":"cebpf4jnsgd1na2vs0mg"},{"bike_id":"98307136-80a4-466f-817c-d269e3457acc","system_id":"levelo_inurba_marseille","lat":43.32235,"lon":5.37641,"is_reserved":false,"is_disabled":false,"rental_uris":{"android":"levelo://app?vid=98307136-80a4-466f-817c-d269e3457acc","ios":"levelo://app?vid=98307136-80a4-466f-817c-d269e3457acc"},"vehicle_type_id":"4","last_reported":1733825461,"current_range_meters":34000,"station_id":"","pricing_plan_id":"cebpf4jnsgd1na2vs0mg"},{"bike_id":"4988be4a-3d9e-4802-b79b-fc9ef468c795","system_id":"levelo_inurba_marseille","lat":43.27202,"lon":5.3918,"is_reserved":false,"is_disabled":false,"rental_uris":{"android":"levelo://app?vid=4988be4a-3d9e-4802-b79b-fc9ef468c795","ios":"levelo://app?vid=4988be4a-3d9e-4802-b79b-fc9ef468c795"},"vehicle_type_id":"4","last_reported":1733825461,"current_range_meters":38800,"station_id":"ce4bhhp2rcd13ifvqfm0","pricing_plan_id":"cebpf4jnsgd1na2vs0mg"},{"bike_id":"a446d14f-fc77-45fa-b093-3395a62566ca","system_id":"levelo_inurba_marseille","lat":43.29205,"lon":5.39331,"is_reserved":false,"is_disabled":false,"rental_uris":{"android":"levelo://app?vid=a446d14f-fc77-45fa-b093-3395a62566ca","ios":"levelo://app?vid=a446d14f-fc77-45fa-b093-3395a62566ca"},"vehicle_type_id":"4","last_reported":1733825461,"current_range_meters":31200,"station_id":"ce4bh192rcd13ifvqdd0","pricing_plan_id":"cebpf4jnsgd1na2vs0mg"},{"bike_id":"938640b4-f78c-4def-9b16-e6205edb88bc","system_id":"levelo_inurba_marseille","lat":43.28154,"lon":5.42637,"is_reserved":false,"is_disabled":true,"rental_uris":{"android":"levelo://app?vid=938640b4-f78c-4def-9b16-e6205edb88bc","ios":"levelo://app?vid=938640b4-f78c-4def-9b16-e6205edb88bc"},"vehicle_type_id":"4","last_reported":1733825461,"current_range_meters":30800,"station_id":"ce4bhnh2rcd13ifvqgug","pricing_plan_id":"cebpf4jnsgd1na2vs0mg"},{"bike_id":"574055d4-8f2a-47d7-b687-bc3ba904ca2d","system_id":"levelo_inurba_marseille","lat":43.23148,"lon":5.43725,"is_reserved":false,"is_disabled":false,"rental_uris":{"android":"levelo://app?vid=574055d4-8f2a-47d7-b687-bc3ba904ca2d","ios":"levelo://app?vid=574055d4-8f2a-47d7-b687-bc3ba904ca2d"},"vehicle_type_id":"4","last_reported":1733825461,"current_range_meters":9600,"station_id":"ce4bhmp2rcd13ifvqgog","pricing_plan_id":"cebpf4jnsgd1na2vs0mg"},{"bike_id":"ea9d4249-69ee-4a2d-857e-bb5f7820465f","system_id":"levelo_inurba_marseille","lat":43.29437,"lon":5.39739,"is_reserved":false,"is_disabled":false,"rental_uris":{"android":"levelo://app?vid=ea9d4249-69ee-4a2d-857e-bb5f7820465f","ios":"levelo://app?vid=ea9d4249-69ee-4a2d-857e-bb5f7820465f"},"vehicle_type_id":"4","last_reported":1733825461,"current_range_meters":38800,"station_id":"ce4bh3h2rcd13ifvqdo0","pricing_plan_id":"cebpf4jnsgd1na2vs0mg"},{"bike_id":"cf55b169-9388-4819-bfa4-c55a8fa03873","system_id":"levelo_inurba_marseille","lat":43.27609,"lon":5.3612,"is_reserved":false,"is_disabled":false,"rental_uris":{"android":"levelo://app?vid=cf55b169-9388-4819-bfa4-c55a8fa03873","ios":"levelo://app?vid=cf55b169-9388-4819-bfa4-c55a8fa03873"},"vehicle_type_id":"4","last_reported":1733825461,"current_range_meters":36800,"station_id":"ce4bgj92rcd13ifvqbe0","pricing_plan_id":"cebpf4jnsgd1na2vs0mg"},{"bike_id":"2f3968e7-9336-4ee4-ba78-8e92c0a818cc","system_id":"levelo_inurba_marseille","lat":43.31322,"lon":5.36647,"is_reserved":false,"is_disabled":true,"rental_uris":{"android":"levelo://app?vid=2f3968e7-9336-4ee4-ba78-8e92c0a818cc","ios":"levelo://app?vid=2f3968e7-9336-4ee4-ba78-8e92c0a818cc"},"vehicle_type_id":"4","last_reported":1733825461,"current_range_meters":0,"station_id":"","pricing_plan_id":"cebpf4jnsgd1na2vs0mg"},{"bike_id":"e5aac24b-8acb-4dfb-985c-85170e7397ed","system_id":"levelo_inurba_marseille","lat":43.33603,"lon":5.41022,"is_reserved":false,"is_disabled":true,"rental_uris":{"android":"levelo://app?vid=e5aac24b-8acb-4dfb-985c-85170e7397ed","ios":"levelo://app?vid=e5aac24b-8acb-4dfb-985c-85170e7397ed"},"vehicle_type_id":"4","last_reported":1733825461,"current_range_meters":38800,"station_id":"ce4bhqh2rcd13ifvqhmg","pricing_plan_id":"cebpf4jnsgd1na2vs0mg"},{"bike_id":"43102b0d-95c3-4fd3-a1c5-3dba3613f6fe","system_id":"levelo_inurba_marseille","lat":43.31486,"lon":5.37298,"is_reserved":false,"is_disabled":true,"rental_uris":{"android":"levelo://app?vid=43102b0d-95c3-4fd3-a1c5-3dba3613f6fe","ios":"levelo://app?vid=43102b0d-95c3-4fd3-a1c5-3dba3613f6fe"},"vehicle_type_id":"4","last_reported":1733825461,"current_range_meters":1200,"station_id":"ce4bgt12rcd13ifvqcd0","pricing_plan_id":"cebpf4jnsgd1na2vs0mg"},{"bike_id":"fba7a6f8-8e70-4648-8e2d-a359fa07bc07","system_id":"levelo_inurba_marseille","lat":43.29041,"lon":5.39962,"is_reserved":false,"is_disabled":true,"rental_uris":{"android":"levelo://app?vid=fba7a6f8-8e70-4648-8e2d-a359fa07bc07","ios":"levelo://app?vid=fba7a6f8-8e70-4648-8e2d-a359fa07bc07"},"vehicle_type_id":"4","last_reported":1733825461,"current_range_meters":27200,"station_id":"ce4bh392rcd13ifvqdm0","pricing_plan_id":"cebpf4jnsgd1na2vs0mg"},{"bike_id":"5e500cd8-272c-4cad-9de6-6d8befa6295b","system_id":"levelo_inurba_marseille","lat":43.33606,"lon":5.41031,"is_reserved":false,"is_disabled":false,"rental_uris":{"android":"levelo://app?vid=5e500cd8-272c-4cad-9de6-6d8befa6295b","ios":"levelo://app?vid=5e500cd8-272c-4cad-9de6-6d8befa6295b"},"vehicle_type_id":"4","last_reported":1733825461,"current_range_meters":25600,"station_id":"ce4bhqh2rcd13ifvqhmg","pricing_plan_id":"cebpf4jnsgd1na2vs0mg"},{"bike_id":"778ef0c3-c80a-4b75-8fd9-72aa57611aea","system_id":"levelo_inurba_marseille","lat":43.29029,"lon":5.38645,"is_reserved":false,"is_disabled":false,"rental_uris":{"android":"levelo://app?vid=778ef0c3-c80a-4b75-8fd9-72aa57611aea","ios":"levelo://app?vid=778ef0c3-c80a-4b75-8fd9-72aa57611aea"},"vehicle_type_id":"4","last_reported":1733825461,"current_range_meters":18800,"station_id":"ce4bh4p2rcd13ifvqe0g","pricing_plan_id":"cebpf4jnsgd1na2vs0mg"},{"bike_id":"7f0b121b-7748-43bd-b861-318cbdf6fb69","system_id":"levelo_inurba_marseille","lat":43.28452,"lon":5.35892,"is_reserved":false,"is_disabled":true,"rental_uris":{"android":"levelo://app?vid=7f0b121b-7748-43bd-b861-318cbdf6fb69","ios":"levelo://app?vid=7f0b121b-7748-43bd-b861-318cbdf6fb69"},"vehicle_type_id":"4","last_reported":1733825461,"current_range_meters":38800,"station_id":"ce4bhah2rcd13ifvqei0","pricing_plan_id":"cebpf4jnsgd1na2vs0mg"},{"bike_id":"6583aefc-6815-4bd5-8f5c-a9c5d794f47e","system_id":"levelo_inurba_marseille","lat":43.36385,"lon":5.34187,"is_reserved":false,"is_disabled":false,"rental_uris":{"android":"levelo://app?vid=6583aefc-6815-4bd5-8f5c-a9c5d794f47e","ios":"levelo://app?vid=6583aefc-6815-4bd5-8f5c-a9c5d794f47e"},"vehicle_type_id":"4","last_reported":1733825461,"current_range_meters":8800,"station_id":"","pricing_plan_id":"cebpf4jnsgd1na2vs0mg"},{"bike_id":"78711c2a-505e-42d7-917e-cbcebded6deb","system_id":"levelo_inurba_marseille","lat":43.2418,"lon":5.39743,"is_reserved":false,"is_disabled":false,"rental_uris":{"android":"levelo://app?vid=78711c2a-505e-42d7-917e-cbcebded6deb","ios":"levelo://app?vid=78711c2a-505e-42d7-917e-cbcebded6deb"},"vehicle_type_id":"4","last_reported":1733825461,"current_range_meters":27200,"station_id":"ce4bhn12rcd13ifvqgpg","pricing_plan_id":"cebpf4jnsgd1na2vs0mg"},{"bike_id":"a822604e-5a8f-4665-b875-586d39d61022","system_id":"levelo_inurba_marseille","lat":43.32471,"lon":5.36552,"is_reserved":false,"is_disabled":false,"rental_uris":{"android":"levelo://app?vid=a822604e-5a8f-4665-b875-586d39d61022","ios":"levelo://app?vid=a822604e-5a8f-4665-b875-586d39d61022"},"vehicle_type_id":"4","last_reported":1733825461,"current_range_meters":33200,"station_id":"ce4bhs12rcd13ifvqhvg","pricing_plan_id":"cebpf4jnsgd1na2vs0mg"},{"bike_id":"e064d527-882e-4a32-a3cc-607468c6510c","system_id":"levelo_inurba_marseille","lat":43.33604,"lon":5.41023,"is_reserved":false,"is_disabled":false,"rental_uris":{"android":"levelo://app?vid=e064d527-882e-4a32-a3cc-607468c6510c","ios":"levelo://app?vid=e064d527-882e-4a32-a3cc-607468c6510c"},"vehicle_type_id":"4","last_reported":1733825461,"current_range_meters":38800,"station_id":"ce4bhqh2rcd13ifvqhmg","pricing_plan_id":"cebpf4jnsgd1na2vs0mg"},{"bike_id":"9a9f239c-2d73-4e51-871f-07536d036d34","system_id":"levelo_inurba_marseille","lat":43.26954,"lon":5.38631,"is_reserved":false,"is_disabled":false,"rental_uris":{"android":"levelo://app?vid=9a9f239c-2d73-4e51-871f-07536d036d34","ios":"levelo://app?vid=9a9f239c-2d73-4e51-871f-07536d036d34"},"vehicle_type_id":"4","last_reported":1733825461,"current_range_meters":12400,"station_id":"ce4bhh92rcd13ifvqfh0","pricing_plan_id":"cebpf4jnsgd1na2vs0mg"},{"bike_id":"9fe561d4-aed0-4af9-acd6-6de149a2afa8","system_id":"levelo_inurba_marseille","lat":43.30539,"lon":5.36538,"is_reserved":false,"is_disabled":false,"rental_uris":{"android":"levelo://app?vid=9fe561d4-aed0-4af9-acd6-6de149a2afa8","ios":"levelo://app?vid=9fe561d4-aed0-4af9-acd6-6de149a2afa8"},"vehicle_type_id":"4","last_reported":1733825461,"current_range_meters":38800,"station_id":"ce4bgs12rcd13ifvqcag","pricing_plan_id":"cebpf4jnsgd1na2vs0mg"},{"bike_id":"e9028a39-964f-4e5f-b1cd-10593d44d8af","system_id":"levelo_inurba_marseille","lat":43.30142,"lon":5.38076,"is_reserved":false,"is_disabled":false,"rental_uris":{"android":"levelo://app?vid=e9028a39-964f-4e5f-b1cd-10593d44d8af","ios":"levelo://app?vid=e9028a39-964f-4e5f-b1cd-10593d44d8af"},"vehicle_type_id":"4","last_reported":1733825461,"current_range_meters":33600,"station_id":"ce4bgjp2rcd13ifvqbh0","pricing_plan_id":"cebpf4jnsgd1na2vs0mg"},{"bike_id":"ab1765a6-6c00-420c-b72e-88228cba39da","system_id":"levelo_inurba_marseille","lat":43.27176,"lon":5.4099,"is_reserved":false,"is_disabled":false,"rental_uris":{"android":"levelo://app?vid=ab1765a6-6c00-420c-b72e-88228cba39da","ios":"levelo://app?vid=ab1765a6-6c00-420c-b72e-88228cba39da"},"vehicle_type_id":"4","last_reported":1733825461,"current_range_meters":38000,"station_id":"ce4bhl12rcd13ifvqgf0","pricing_plan_id":"cebpf4jnsgd1na2vs0mg"},{"bike_id":"c901a794-496e-44e0-9d84-45e9988be1b0","system_id":"levelo_inurba_marseille","lat":43.27174,"lon":5.41003,"is_reserved":false,"is_disabled":false,"rental_uris":{"android":"levelo://app?vid=c901a794-496e-44e0-9d84-45e9988be1b0","ios":"levelo://app?vid=c901a794-496e-44e0-9d84-45e9988be1b0"},"vehicle_type_id":"4","last_reported":1733825461,"current_range_meters":6400,"station_id":"ce4bhl12rcd13ifvqgf0","pricing_plan_id":"cebpf4jnsgd1na2vs0mg"},{"bike_id":"f10c5e90-601b-4bd4-87e7-4cbb6a13a4fb","system_id":"levelo_inurba_marseille","lat":43.26123,"lon":5.39268,"is_reserved":false,"is_disabled":true,"rental_uris":{"android":"levelo://app?vid=f10c5e90-601b-4bd4-87e7-4cbb6a13a4fb","ios":"levelo://app?vid=f10c5e90-601b-4bd4-87e7-4cbb6a13a4fb"},"vehicle_type_id":"4","last_reported":1733825461,"current_range_meters":0,"station_id":"","pricing_plan_id":"cebpf4jnsgd1na2vs0mg"},{"bike_id":"35a9e972-3d70-4c02-b4d2-95bd849e6ce8","system_id":"levelo_inurba_marseille","lat":43.27054,"lon":5.40258,"is_reserved":false,"is_disabled":false,"rental_uris":{"android":"levelo://app?vid=35a9e972-3d70-4c02-b4d2-95bd849e6ce8","ios":"levelo://app?vid=35a9e972-3d70-4c02-b4d2-95bd849e6ce8"},"vehicle_type_id":"4","last_reported":1733825461,"current_range_meters":25200,"station_id":"ce4bhk92rcd13ifvqgc0","pricing_plan_id":"cebpf4jnsgd1na2vs0mg"},{"bike_id":"ce93eba4-a260-4242-bfd1-eb4a1083d4a6","system_id":"levelo_inurba_marseille","lat":43.337444,"lon":5.374475,"is_reserved":false,"is_disabled":false,"rental_uris":{"android":"levelo://app?vid=ce93eba4-a260-4242-bfd1-eb4a1083d4a6","ios":"levelo://app?vid=ce93eba4-a260-4242-bfd1-eb4a1083d4a6"},"vehicle_type_id":"4","last_reported":1733825461,"current_range_meters":39200,"station_id":"ce4bhbh2rcd13ifvqeo0","pricing_plan_id":"cebpf4jnsgd1na2vs0mg"},{"bike_id":"d311fe08-5112-4967-a7a8-f7258dbbda95","system_id":"levelo_inurba_marseille","lat":43.2885,"lon":5.35857,"is_reserved":false,"is_disabled":false,"rental_uris":{"android":"levelo://app?vid=d311fe08-5112-4967-a7a8-f7258dbbda95","ios":"levelo://app?vid=d311fe08-5112-4967-a7a8-f7258dbbda95"},"vehicle_type_id":"4","last_reported":1733825461,"current_range_meters":26000,"station_id":"ce4bhb12rcd13ifvqem0","pricing_plan_id":"cebpf4jnsgd1na2vs0mg"},{"bike_id":"dd93c396-3e53-4e62-b4e2-c81714e6c408","system_id":"levelo_inurba_marseille","lat":43.29365,"lon":5.37848,"is_reserved":false,"is_disabled":false,"rental_uris":{"android":"levelo://app?vid=dd93c396-3e53-4e62-b4e2-c81714e6c408","ios":"levelo://app?vid=dd93c396-3e53-4e62-b4e2-c81714e6c408"},"vehicle_type_id":"4","last_reported":1733825461,"current_range_meters":29600,"station_id":"ce4bgjh2rcd13ifvqbf0","pricing_plan_id":"cebpf4jnsgd1na2vs0mg"},{"bike_id":"ca77975e-1625-42dc-b2ce-0feb8a5ed983","system_id":"levelo_inurba_marseille","lat":43.3135,"lon":5.36715,"is_reserved":false,"is_disabled":false,"rental_uris":{"android":"levelo://app?vid=ca77975e-1625-42dc-b2ce-0feb8a5ed983","ios":"levelo://app?vid=ca77975e-1625-42dc-b2ce-0feb8a5ed983"},"vehicle_type_id":"4","last_reported":1733825461,"current_range_meters":32800,"station_id":"ce4bgr92rcd13ifvqc6g","pricing_plan_id":"cebpf4jnsgd1na2vs0mg"},{"bike_id":"c1af07c0-ed11-49c8-aa2e-1104638a28b7","system_id":"levelo_inurba_marseille","lat":43.23067,"lon":5.3549,"is_reserved":false,"is_disabled":false,"rental_uris":{"android":"levelo://app?vid=c1af07c0-ed11-49c8-aa2e-1104638a28b7","ios":"levelo://app?vid=c1af07c0-ed11-49c8-aa2e-1104638a28b7"},"vehicle_type_id":"4","last_reported":1733825461,"current_range_meters":20400,"station_id":"cpo3342slgdg3j2ifvpg","pricing_plan_id":"cebpf4jnsgd1na2vs0mg"},{"bike_id":"86b6a641-e596-4a79-b2f6-304d0457dea7","system_id":"levelo_inurba_marseille","lat":43.30912,"lon":5.36849,"is_reserved":false,"is_disabled":false,"rental_uris":{"android":"levelo://app?vid=86b6a641-e596-4a79-b2f6-304d0457dea7","ios":"levelo://app?vid=86b6a641-e596-4a79-b2f6-304d0457dea7"},"vehicle_type_id":"4","last_reported":1733825461,"current_range_meters":27600,"station_id":"ce4bgn92rcd13ifvqbvg","pricing_plan_id":"cebpf4jnsgd1na2vs0mg"},{"bike_id":"6cdc05c9-2182-49df-b6b7-29c4a29ceb14","system_id":"levelo_inurba_marseille","lat":43.29272,"lon":5.36847,"is_reserved":false,"is_disabled":false,"rental_uris":{"android":"levelo://app?vid=6cdc05c9-2182-49df-b6b7-29c4a29ceb14","ios":"levelo://app?vid=6cdc05c9-2182-49df-b6b7-29c4a29ceb14"},"vehicle_type_id":"4","last_reported":1733825461,"current_range_meters":12000,"station_id":"ce4bhbp2rcd13ifvqesg","pricing_plan_id":"cebpf4jnsgd1na2vs0mg"},{"bike_id":"1770e0f3-9ae9-4bf9-a84d-08bd0866f736","system_id":"levelo_inurba_marseille","lat":43.31353,"lon":5.3672,"is_reserved":false,"is_disabled":false,"rental_uris":{"android":"levelo://app?vid=1770e0f3-9ae9-4bf9-a84d-08bd0866f736","ios":"levelo://app?vid=1770e0f3-9ae9-4bf9-a84d-08bd0866f736"},"vehicle_type_id":"4","last_reported":1733825461,"current_range_meters":35600,"station_id":"ce4bgr92rcd13ifvqc6g","pricing_plan_id":"cebpf4jnsgd1na2vs0mg"},{"bike_id":"6f5aafc4-06b9-4dba-b612-5d926167490b","system_id":"levelo_inurba_marseille","lat":43.32477,"lon":5.36582,"is_reserved":false,"is_disabled":true,"rental_uris":{"android":"levelo://app?vid=6f5aafc4-06b9-4dba-b612-5d926167490b","ios":"levelo://app?vid=6f5aafc4-06b9-4dba-b612-5d926167490b"},"vehicle_type_id":"4","last_reported":1733825461,"current_range_meters":0,"station_id":"ce4bhs12rcd13ifvqhvg","pricing_plan_id":"cebpf4jnsgd1na2vs0mg"},{"bike_id":"2fbb7ca2-ba2c-40dd-9d15-784c074714c8","system_id":"levelo_inurba_marseille","lat":43.31484,"lon":5.37301,"is_reserved":false,"is_disabled":false,"rental_uris":{"android":"levelo://app?vid=2fbb7ca2-ba2c-40dd-9d15-784c074714c8","ios":"levelo://app?vid=2fbb7ca2-ba2c-40dd-9d15-784c074714c8"},"vehicle_type_id":"4","last_reported":1733825461,"current_range_meters":24800,"station_id":"ce4bgt12rcd13ifvqcd0","pricing_plan_id":"cebpf4jnsgd1na2vs0mg"},{"bike_id":"5fefcf9d-7cc1-41a7-8c5a-70f7639f379f","system_id":"levelo_inurba_marseille","lat":43.30797,"lon":5.43528,"is_reserved":false,"is_disabled":false,"rental_uris":{"android":"levelo://app?vid=5fefcf9d-7cc1-41a7-8c5a-70f7639f379f","ios":"levelo://app?vid=5fefcf9d-7cc1-41a7-8c5a-70f7639f379f"},"vehicle_type_id":"4","last_reported":1733825461,"current_range_meters":12400,"station_id":"ce4bhph2rcd13ifvqheg","pricing_plan_id":"cebpf4jnsgd1na2vs0mg"},{"bike_id":"a219fafe-7330-4217-b6f5-a3960af98422","system_id":"levelo_inurba_marseille","lat":43.2919,"lon":5.35799,"is_reserved":false,"is_disabled":false,"rental_uris":{"android":"levelo://app?vid=a219fafe-7330-4217-b6f5-a3960af98422","ios":"levelo://app?vid=a219fafe-7330-4217-b6f5-a3960af98422"},"vehicle_type_id":"4","last_reported":1733825461,"current_range_meters":38800,"station_id":"ce4bhb12rcd13ifvqel0","pricing_plan_id":"cebpf4jnsgd1na2vs0mg"},{"bike_id":"74ddbdc3-b082-4f44-a075-38dfc2e6b2cd","system_id":"levelo_inurba_marseille","lat":43.24167,"lon":5.36387,"is_reserved":false,"is_disabled":false,"rental_uris":{"android":"levelo://app?vid=74ddbdc3-b082-4f44-a075-38dfc2e6b2cd","ios":"levelo://app?vid=74ddbdc3-b082-4f44-a075-38dfc2e6b2cd"},"vehicle_type_id":"4","last_reported":1733825461,"current_range_meters":23200,"station_id":"cpo36qri1sfpv3e86is0","pricing_plan_id":"cebpf4jnsgd1na2vs0mg"},{"bike_id":"bd5cf351-0ac5-4251-8c87-d57b89ea3995","system_id":"levelo_inurba_marseille","lat":43.2558,"lon":5.38228,"is_reserved":false,"is_disabled":false,"rental_uris":{"android":"levelo://app?vid=bd5cf351-0ac5-4251-8c87-d57b89ea3995","ios":"levelo://app?vid=bd5cf351-0ac5-4251-8c87-d57b89ea3995"},"vehicle_type_id":"4","last_reported":1733825461,"current_range_meters":16800,"station_id":"ce4bhih2rcd13ifvqfs0","pricing_plan_id":"cebpf4jnsgd1na2vs0mg"},{"bike_id":"27e6f065-f705-448c-a93f-955186320b4a","system_id":"levelo_inurba_marseille","lat":43.30354,"lon":5.41878,"is_reserved":false,"is_disabled":true,"rental_uris":{"android":"levelo://app?vid=27e6f065-f705-448c-a93f-955186320b4a","ios":"levelo://app?vid=27e6f065-f705-448c-a93f-955186320b4a"},"vehicle_type_id":"4","last_reported":1733825461,"current_range_meters":37600,"station_id":"ce4bhop2rcd13ifvqh7g","pricing_plan_id":"cebpf4jnsgd1na2vs0mg"},{"bike_id":"9cd79aab-6f4c-4919-b570-803a9e8b35c5","system_id":"levelo_inurba_marseille","lat":43.30461,"lon":5.36712,"is_reserved":false,"is_disabled":true,"rental_uris":{"android":"levelo://app?vid=9cd79aab-6f4c-4919-b570-803a9e8b35c5","ios":"levelo://app?vid=9cd79aab-6f4c-4919-b570-803a9e8b35c5"},"vehicle_type_id":"4","last_reported":1733825461,"current_range_meters":24400,"station_id":"","pricing_plan_id":"cebpf4jnsgd1na2vs0mg"},{"bike_id":"af4b543e-2220-493b-90f2-eed217728c31","system_id":"levelo_inurba_marseille","lat":43.31355,"lon":5.36723,"is_reserved":false,"is_disabled":true,"rental_uris":{"android":"levelo://app?vid=af4b543e-2220-493b-90f2-eed217728c31","ios":"levelo://app?vid=af4b543e-2220-493b-90f2-eed217728c31"},"vehicle_type_id":"4","last_reported":1733825461,"current_range_meters":36800,"station_id":"ce4bgr92rcd13ifvqc6g","pricing_plan_id":"cebpf4jnsgd1na2vs0mg"},{"bike_id":"95381e5f-d6b7-4d89-ada8-652b4e8fa3ed","system_id":"levelo_inurba_marseille","lat":43.250865,"lon":5.395319,"is_reserved":false,"is_disabled":true,"rental_uris":{"android":"levelo://app?vid=95381e5f-d6b7-4d89-ada8-652b4e8fa3ed","ios":"levelo://app?vid=95381e5f-d6b7-4d89-ada8-652b4e8fa3ed"},"vehicle_type_id":"4","last_reported":1733825461,"current_range_meters":14800,"station_id":"ce4bhm12rcd13ifvqgkg","pricing_plan_id":"cebpf4jnsgd1na2vs0mg"},{"bike_id":"46db13a8-8140-4b0a-8610-c48cf09c8007","system_id":"levelo_inurba_marseille","lat":43.279,"lon":5.3801,"is_reserved":false,"is_disabled":false,"rental_uris":{"android":"levelo://app?vid=46db13a8-8140-4b0a-8610-c48cf09c8007","ios":"levelo://app?vid=46db13a8-8140-4b0a-8610-c48cf09c8007"},"vehicle_type_id":"4","last_reported":1733825461,"current_range_meters":36000,"station_id":"","pricing_plan_id":"cebpf4jnsgd1na2vs0mg"},{"bike_id":"c9c1169b-02e1-4760-958d-f67ed25b5ac9","system_id":"levelo_inurba_marseille","lat":43.2904,"lon":5.37578,"is_reserved":false,"is_disabled":false,"rental_uris":{"android":"levelo://app?vid=c9c1169b-02e1-4760-958d-f67ed25b5ac9","ios":"levelo://app?vid=c9c1169b-02e1-4760-958d-f67ed25b5ac9"},"vehicle_type_id":"4","last_reported":1733825461,"current_range_meters":38800,"station_id":"ce4bh692rcd13ifvqe90","pricing_plan_id":"cebpf4jnsgd1na2vs0mg"},{"bike_id":"2efed607-8d64-4c08-b775-d52002165d3b","system_id":"levelo_inurba_marseille","lat":43.27206,"lon":5.39189,"is_reserved":false,"is_disabled":false,"rental_uris":{"android":"levelo://app?vid=2efed607-8d64-4c08-b775-d52002165d3b","ios":"levelo://app?vid=2efed607-8d64-4c08-b775-d52002165d3b"},"vehicle_type_id":"4","last_reported":1733825461,"current_range_meters":36800,"station_id":"ce4bhhp2rcd13ifvqfm0","pricing_plan_id":"cebpf4jnsgd1na2vs0mg"},{"bike_id":"f97ddc52-5758-4192-8ca1-71254ad1a77e","system_id":"levelo_inurba_marseille","lat":43.26196,"lon":5.37452,"is_reserved":false,"is_disabled":false,"rental_uris":{"android":"levelo://app?vid=f97ddc52-5758-4192-8ca1-71254ad1a77e","ios":"levelo://app?vid=f97ddc52-5758-4192-8ca1-71254ad1a77e"},"vehicle_type_id":"4","last_reported":1733825461,"current_range_meters":38800,"station_id":"ce4bhgp2rcd13ifvqfc0","pricing_plan_id":"cebpf4jnsgd1na2vs0mg"},{"bike_id":"11e86528-eb6b-4391-86a5-9b1822d069a4","system_id":"levelo_inurba_marseille","lat":43.278805,"lon":5.388003,"is_reserved":false,"is_disabled":true,"rental_uris":{"android":"levelo://app?vid=11e86528-eb6b-4391-86a5-9b1822d069a4","ios":"levelo://app?vid=11e86528-eb6b-4391-86a5-9b1822d069a4"},"vehicle_type_id":"4","last_reported":1733825461,"current_range_meters":0,"station_id":"","pricing_plan_id":"cebpf4jnsgd1na2vs0mg"},{"bike_id":"6cc6805f-c0ca-4585-bdf1-b5a0339762b0","system_id":"levelo_inurba_marseille","lat":43.29027,"lon":5.42744,"is_reserved":false,"is_disabled":true,"rental_uris":{"android":"levelo://app?vid=6cc6805f-c0ca-4585-bdf1-b5a0339762b0","ios":"levelo://app?vid=6cc6805f-c0ca-4585-bdf1-b5a0339762b0"},"vehicle_type_id":"4","last_reported":1733825461,"current_range_meters":0,"station_id":"","pricing_plan_id":"cebpf4jnsgd1na2vs0mg"},{"bike_id":"32d6d417-6270-431d-9a71-571d74842a60","system_id":"levelo_inurba_marseille","lat":43.26198,"lon":5.37933,"is_reserved":false,"is_disabled":false,"rental_uris":{"android":"levelo://app?vid=32d6d417-6270-431d-9a71-571d74842a60","ios":"levelo://app?vid=32d6d417-6270-431d-9a71-571d74842a60"},"vehicle_type_id":"4","last_reported":1733825461,"current_range_meters":36800,"station_id":"ce4bhjp2rcd13ifvqg90","pricing_plan_id":"cebpf4jnsgd1na2vs0mg"},{"bike_id":"a478bcff-2af8-4db5-8351-cdbe6b849a6d","system_id":"levelo_inurba_marseille","lat":43.33424,"lon":5.36204,"is_reserved":false,"is_disabled":true,"rental_uris":{"android":"levelo://app?vid=a478bcff-2af8-4db5-8351-cdbe6b849a6d","ios":"levelo://app?vid=a478bcff-2af8-4db5-8351-cdbe6b849a6d"},"vehicle_type_id":"4","last_reported":1733825461,"current_range_meters":0,"station_id":"","pricing_plan_id":"cebpf4jnsgd1na2vs0mg"},{"bike_id":"ba49e68c-6062-4c0f-9a57-98cf34dedcad","system_id":"levelo_inurba_marseille","lat":43.305402,"lon":5.366982,"is_reserved":false,"is_disabled":false,"rental_uris":{"android":"levelo://app?vid=ba49e68c-6062-4c0f-9a57-98cf34dedcad","ios":"levelo://app?vid=ba49e68c-6062-4c0f-9a57-98cf34dedcad"},"vehicle_type_id":"4","last_reported":1733825461,"current_range_meters":10000,"station_id":"ce4bgrp2rcd13ifvqc9g","pricing_plan_id":"cebpf4jnsgd1na2vs0mg"},{"bike_id":"e069ac01-6fd1-4791-b354-d75427625257","system_id":"levelo_inurba_marseille","lat":43.24996,"lon":5.38931,"is_reserved":false,"is_disabled":false,"rental_uris":{"android":"levelo://app?vid=e069ac01-6fd1-4791-b354-d75427625257","ios":"levelo://app?vid=e069ac01-6fd1-4791-b354-d75427625257"},"vehicle_type_id":"4","last_reported":1733825461,"current_range_meters":18800,"station_id":"ce4bhgp2rcd13ifvqfd0","pricing_plan_id":"cebpf4jnsgd1na2vs0mg"},{"bike_id":"9f03dca4-237a-49dc-8f4b-3b6a07909c99","system_id":"levelo_inurba_marseille","lat":43.23185,"lon":5.35555,"is_reserved":false,"is_disabled":false,"rental_uris":{"android":"levelo://app?vid=9f03dca4-237a-49dc-8f4b-3b6a07909c99","ios":"levelo://app?vid=9f03dca4-237a-49dc-8f4b-3b6a07909c99"},"vehicle_type_id":"4","last_reported":1733825461,"current_range_meters":38000,"station_id":"ce4bhu92rcd13ifvqi70","pricing_plan_id":"cebpf4jnsgd1na2vs0mg"},{"bike_id":"d5d2c678-6112-4223-922d-63bbc928a3ef","system_id":"levelo_inurba_marseille","lat":43.31226,"lon":5.36859,"is_reserved":false,"is_disabled":false,"rental_uris":{"android":"levelo://app?vid=d5d2c678-6112-4223-922d-63bbc928a3ef","ios":"levelo://app?vid=d5d2c678-6112-4223-922d-63bbc928a3ef"},"vehicle_type_id":"4","last_reported":1733825461,"current_range_meters":37600,"station_id":"ce4bgl92rcd13ifvqbq0","pricing_plan_id":"cebpf4jnsgd1na2vs0mg"},{"bike_id":"59aafc72-096f-442c-91b7-4a6db03dcb4d","system_id":"levelo_inurba_marseille","lat":43.30427,"lon":5.39749,"is_reserved":false,"is_disabled":false,"rental_uris":{"android":"levelo://app?vid=59aafc72-096f-442c-91b7-4a6db03dcb4d","ios":"levelo://app?vid=59aafc72-096f-442c-91b7-4a6db03dcb4d"},"vehicle_type_id":"4","last_reported":1733825461,"current_range_meters":23200,"station_id":"ce4bh092rcd13ifvqd20","pricing_plan_id":"cebpf4jnsgd1na2vs0mg"},{"bike_id":"e04ac60e-d0b6-4518-b264-fc2f84db2e8c","system_id":"levelo_inurba_marseille","lat":43.27494,"lon":5.42451,"is_reserved":false,"is_disabled":false,"rental_uris":{"android":"levelo://app?vid=e04ac60e-d0b6-4518-b264-fc2f84db2e8c","ios":"levelo://app?vid=e04ac60e-d0b6-4518-b264-fc2f84db2e8c"},"vehicle_type_id":"4","last_reported":1733825461,"current_range_meters":27200,"station_id":"ce4bhn92rcd13ifvqgrg","pricing_plan_id":"cebpf4jnsgd1na2vs0mg"},{"bike_id":"b190d74e-7a8a-4272-b185-2768123358c4","system_id":"levelo_inurba_marseille","lat":43.29063,"lon":5.37172,"is_reserved":false,"is_disabled":false,"rental_uris":{"android":"levelo://app?vid=b190d74e-7a8a-4272-b185-2768123358c4","ios":"levelo://app?vid=b190d74e-7a8a-4272-b185-2768123358c4"},"vehicle_type_id":"4","last_reported":1733825461,"current_range_meters":27600,"station_id":"ce4bh5p2rcd13ifvqe4g","pricing_plan_id":"cebpf4jnsgd1na2vs0mg"},{"bike_id":"451e826c-7f87-402a-a367-9336464ab951","system_id":"levelo_inurba_marseille","lat":43.32542,"lon":5.41423,"is_reserved":false,"is_disabled":false,"rental_uris":{"android":"levelo://app?vid=451e826c-7f87-402a-a367-9336464ab951","ios":"levelo://app?vid=451e826c-7f87-402a-a367-9336464ab951"},"vehicle_type_id":"4","last_reported":1733825461,"current_range_meters":38800,"station_id":"ce4bhq12rcd13ifvqhhg","pricing_plan_id":"cebpf4jnsgd1na2vs0mg"},{"bike_id":"1f79d3c5-4a16-4992-bfa2-d0413e34b4f6","system_id":"levelo_inurba_marseille","lat":43.26031,"lon":5.37552,"is_reserved":false,"is_disabled":false,"rental_uris":{"android":"levelo://app?vid=1f79d3c5-4a16-4992-bfa2-d0413e34b4f6","ios":"levelo://app?vid=1f79d3c5-4a16-4992-bfa2-d0413e34b4f6"},"vehicle_type_id":"4","last_reported":1733825461,"current_range_meters":4000,"station_id":"ce4bhgh2rcd13ifvqfa0","pricing_plan_id":"cebpf4jnsgd1na2vs0mg"},{"bike_id":"c14bb31e-e38d-4b57-ba39-038e777ad5bf","system_id":"levelo_inurba_marseille","lat":43.3248,"lon":5.3657,"is_reserved":false,"is_disabled":false,"rental_uris":{"android":"levelo://app?vid=c14bb31e-e38d-4b57-ba39-038e777ad5bf","ios":"levelo://app?vid=c14bb31e-e38d-4b57-ba39-038e777ad5bf"},"vehicle_type_id":"4","last_reported":1733825461,"current_range_meters":22000,"station_id":"ce4bhs12rcd13ifvqhvg","pricing_plan_id":"cebpf4jnsgd1na2vs0mg"},{"bike_id":"3853b148-3f14-48b4-b89b-4279e5f582b6","system_id":"levelo_inurba_marseille","lat":43.26204,"lon":5.37442,"is_reserved":false,"is_disabled":false,"rental_uris":{"android":"levelo://app?vid=3853b148-3f14-48b4-b89b-4279e5f582b6","ios":"levelo://app?vid=3853b148-3f14-48b4-b89b-4279e5f582b6"},"vehicle_type_id":"4","last_reported":1733825461,"current_range_meters":22000,"station_id":"ce4bhgp2rcd13ifvqfc0","pricing_plan_id":"cebpf4jnsgd1na2vs0mg"},{"bike_id":"eb58eff4-a602-4f83-ba71-d540b59df636","system_id":"levelo_inurba_marseille","lat":43.30799,"lon":5.38154,"is_reserved":false,"is_disabled":false,"rental_uris":{"android":"levelo://app?vid=eb58eff4-a602-4f83-ba71-d540b59df636","ios":"levelo://app?vid=eb58eff4-a602-4f83-ba71-d540b59df636"},"vehicle_type_id":"4","last_reported":1733825461,"current_range_meters":25600,"station_id":"ce4bgt12rcd13ifvqce0","pricing_plan_id":"cebpf4jnsgd1na2vs0mg"},{"bike_id":"a7ea9ae5-4db2-4fd6-a405-d887f48ee93a","system_id":"levelo_inurba_marseille","lat":43.31217,"lon":5.36856,"is_reserved":false,"is_disabled":false,"rental_uris":{"android":"levelo://app?vid=a7ea9ae5-4db2-4fd6-a405-d887f48ee93a","ios":"levelo://app?vid=a7ea9ae5-4db2-4fd6-a405-d887f48ee93a"},"vehicle_type_id":"4","last_reported":1733825461,"current_range_meters":20400,"station_id":"ce4bgl92rcd13ifvqbq0","pricing_plan_id":"cebpf4jnsgd1na2vs0mg"},{"bike_id":"6a697f1a-fdd7-41b0-901f-cff9b8875cb6","system_id":"levelo_inurba_marseille","lat":43.26949,"lon":5.38637,"is_reserved":false,"is_disabled":false,"rental_uris":{"android":"levelo://app?vid=6a697f1a-fdd7-41b0-901f-cff9b8875cb6","ios":"levelo://app?vid=6a697f1a-fdd7-41b0-901f-cff9b8875cb6"},"vehicle_type_id":"4","last_reported":1733825461,"current_range_meters":35600,"station_id":"ce4bhh92rcd13ifvqfh0","pricing_plan_id":"cebpf4jnsgd1na2vs0mg"},{"bike_id":"23223e0c-3479-4ebd-9cd6-014692862b52","system_id":"levelo_inurba_marseille","lat":43.30907,"lon":5.36857,"is_reserved":false,"is_disabled":false,"rental_uris":{"android":"levelo://app?vid=23223e0c-3479-4ebd-9cd6-014692862b52","ios":"levelo://app?vid=23223e0c-3479-4ebd-9cd6-014692862b52"},"vehicle_type_id":"4","last_reported":1733825461,"current_range_meters":38800,"station_id":"ce4bgn92rcd13ifvqbvg","pricing_plan_id":"cebpf4jnsgd1na2vs0mg"},{"bike_id":"e886377d-1636-4037-84be-67b340bc121b","system_id":"levelo_inurba_marseille","lat":43.29271,"lon":5.36842,"is_reserved":false,"is_disabled":false,"rental_uris":{"android":"levelo://app?vid=e886377d-1636-4037-84be-67b340bc121b","ios":"levelo://app?vid=e886377d-1636-4037-84be-67b340bc121b"},"vehicle_type_id":"4","last_reported":1733825461,"current_range_meters":23200,"station_id":"ce4bhbp2rcd13ifvqesg","pricing_plan_id":"cebpf4jnsgd1na2vs0mg"},{"bike_id":"831e6911-6c25-44f4-b571-91f2d5c2849e","system_id":"levelo_inurba_marseille","lat":43.308,"lon":5.37662,"is_reserved":false,"is_disabled":false,"rental_uris":{"android":"levelo://app?vid=831e6911-6c25-44f4-b571-91f2d5c2849e","ios":"levelo://app?vid=831e6911-6c25-44f4-b571-91f2d5c2849e"},"vehicle_type_id":"4","last_reported":1733825461,"current_range_meters":20000,"station_id":"ce4bgv92rcd13ifvqcq0","pricing_plan_id":"cebpf4jnsgd1na2vs0mg"},{"bike_id":"25bc65ef-82a2-4c1b-8947-6adb9c03158c","system_id":"levelo_inurba_marseille","lat":43.30188,"lon":5.36604,"is_reserved":false,"is_disabled":false,"rental_uris":{"android":"levelo://app?vid=25bc65ef-82a2-4c1b-8947-6adb9c03158c","ios":"levelo://app?vid=25bc65ef-82a2-4c1b-8947-6adb9c03158c"},"vehicle_type_id":"4","last_reported":1733825461,"current_range_meters":38800,"station_id":"ce4bgrh2rcd13ifvqc8g","pricing_plan_id":"cebpf4jnsgd1na2vs0mg"},{"bike_id":"e4f22d54-a9cf-4748-9704-1cd3e3d12b7c","system_id":"levelo_inurba_marseille","lat":43.3026,"lon":5.38936,"is_reserved":false,"is_disabled":true,"rental_uris":{"android":"levelo://app?vid=e4f22d54-a9cf-4748-9704-1cd3e3d12b7c","ios":"levelo://app?vid=e4f22d54-a9cf-4748-9704-1cd3e3d12b7c"},"vehicle_type_id":"4","last_reported":1733825461,"current_range_meters":34800,"station_id":"","pricing_plan_id":"cebpf4jnsgd1na2vs0mg"},{"bike_id":"72369e3c-7a31-4199-a732-76fa73093ac4","system_id":"levelo_inurba_marseille","lat":43.31382,"lon":5.36724,"is_reserved":false,"is_disabled":true,"rental_uris":{"android":"levelo://app?vid=72369e3c-7a31-4199-a732-76fa73093ac4","ios":"levelo://app?vid=72369e3c-7a31-4199-a732-76fa73093ac4"},"vehicle_type_id":"4","last_reported":1733825461,"current_range_meters":24800,"station_id":"ce4bgr92rcd13ifvqc6g","pricing_plan_id":"cebpf4jnsgd1na2vs0mg"},{"bike_id":"e9451c60-f81d-43fd-9688-d301db1b3faa","system_id":"levelo_inurba_marseille","lat":43.25941,"lon":5.40901,"is_reserved":false,"is_disabled":false,"rental_uris":{"android":"levelo://app?vid=e9451c60-f81d-43fd-9688-d301db1b3faa","ios":"levelo://app?vid=e9451c60-f81d-43fd-9688-d301db1b3faa"},"vehicle_type_id":"4","last_reported":1733825461,"current_range_meters":28800,"station_id":"ce4bhm92rcd13ifvqglg","pricing_plan_id":"cebpf4jnsgd1na2vs0mg"},{"bike_id":"067d4f8e-eded-4040-9b89-eb14aebc4852","system_id":"levelo_inurba_marseille","lat":43.298977,"lon":5.436741,"is_reserved":false,"is_disabled":false,"rental_uris":{"android":"levelo://app?vid=067d4f8e-eded-4040-9b89-eb14aebc4852","ios":"levelo://app?vid=067d4f8e-eded-4040-9b89-eb14aebc4852"},"vehicle_type_id":"4","last_reported":1733825461,"current_range_meters":34000,"station_id":"ce4bhpp2rcd13ifvqhfg","pricing_plan_id":"cebpf4jnsgd1na2vs0mg"},{"bike_id":"c53d3e3f-2e86-474d-a49c-eef617eca619","system_id":"levelo_inurba_marseille","lat":43.2861,"lon":5.35107,"is_reserved":false,"is_disabled":false,"rental_uris":{"android":"levelo://app?vid=c53d3e3f-2e86-474d-a49c-eef617eca619","ios":"levelo://app?vid=c53d3e3f-2e86-474d-a49c-eef617eca619"},"vehicle_type_id":"4","last_reported":1733825461,"current_range_meters":22400,"station_id":"ce4bhch2rcd13ifvqeug","pricing_plan_id":"cebpf4jnsgd1na2vs0mg"},{"bike_id":"da1aefdb-caf1-4155-81fa-858ff49c920b","system_id":"levelo_inurba_marseille","lat":43.26217,"lon":5.37439,"is_reserved":false,"is_disabled":false,"rental_uris":{"android":"levelo://app?vid=da1aefdb-caf1-4155-81fa-858ff49c920b","ios":"levelo://app?vid=da1aefdb-caf1-4155-81fa-858ff49c920b"},"vehicle_type_id":"4","last_reported":1733825461,"current_range_meters":39200,"station_id":"ce4bhgp2rcd13ifvqfc0","pricing_plan_id":"cebpf4jnsgd1na2vs0mg"},{"bike_id":"5296114b-8626-48f5-977d-e8d6150c1950","system_id":"levelo_inurba_marseille","lat":43.26024,"lon":5.37549,"is_reserved":false,"is_disabled":false,"rental_uris":{"android":"levelo://app?vid=5296114b-8626-48f5-977d-e8d6150c1950","ios":"levelo://app?vid=5296114b-8626-48f5-977d-e8d6150c1950"},"vehicle_type_id":"4","last_reported":1733825461,"current_range_meters":38400,"station_id":"ce4bhgh2rcd13ifvqfa0","pricing_plan_id":"cebpf4jnsgd1na2vs0mg"},{"bike_id":"9f3769a7-f392-475e-913a-8ad10d3e2daf","system_id":"levelo_inurba_marseille","lat":43.24158,"lon":5.36401,"is_reserved":false,"is_disabled":false,"rental_uris":{"android":"levelo://app?vid=9f3769a7-f392-475e-913a-8ad10d3e2daf","ios":"levelo://app?vid=9f3769a7-f392-475e-913a-8ad10d3e2daf"},"vehicle_type_id":"4","last_reported":1733825461,"current_range_meters":16800,"station_id":"cpo36qri1sfpv3e86is0","pricing_plan_id":"cebpf4jnsgd1na2vs0mg"},{"bike_id":"896d4ccf-3d83-4122-b2f2-1a77a517b0e7","system_id":"levelo_inurba_marseille","lat":43.23962,"lon":5.36628,"is_reserved":false,"is_disabled":false,"rental_uris":{"android":"levelo://app?vid=896d4ccf-3d83-4122-b2f2-1a77a517b0e7","ios":"levelo://app?vid=896d4ccf-3d83-4122-b2f2-1a77a517b0e7"},"vehicle_type_id":"4","last_reported":1733825461,"current_range_meters":38800,"station_id":"ce4bhi12rcd13ifvqfp0","pricing_plan_id":"cebpf4jnsgd1na2vs0mg"},{"bike_id":"ba894591-2158-4304-9623-1dab36ae7414","system_id":"levelo_inurba_marseille","lat":43.3054,"lon":5.38424,"is_reserved":false,"is_disabled":false,"rental_uris":{"android":"levelo://app?vid=ba894591-2158-4304-9623-1dab36ae7414","ios":"levelo://app?vid=ba894591-2158-4304-9623-1dab36ae7414"},"vehicle_type_id":"4","last_reported":1733825461,"current_range_meters":38000,"station_id":"ce4bgg92rcd13ifvqb30","pricing_plan_id":"cebpf4jnsgd1na2vs0mg"},{"bike_id":"068f3a77-c24d-4974-bfcb-4cf4b9b99ea9","system_id":"levelo_inurba_marseille","lat":43.30146,"lon":5.38087,"is_reserved":false,"is_disabled":false,"rental_uris":{"android":"levelo://app?vid=068f3a77-c24d-4974-bfcb-4cf4b9b99ea9","ios":"levelo://app?vid=068f3a77-c24d-4974-bfcb-4cf4b9b99ea9"},"vehicle_type_id":"4","last_reported":1733825461,"current_range_meters":36800,"station_id":"ce4bgjp2rcd13ifvqbh0","pricing_plan_id":"cebpf4jnsgd1na2vs0mg"},{"bike_id":"fd72cccf-a3bc-42f2-bdc3-6f149665ca78","system_id":"levelo_inurba_marseille","lat":43.26952,"lon":5.3863,"is_reserved":false,"is_disabled":false,"rental_uris":{"android":"levelo://app?vid=fd72cccf-a3bc-42f2-bdc3-6f149665ca78","ios":"levelo://app?vid=fd72cccf-a3bc-42f2-bdc3-6f149665ca78"},"vehicle_type_id":"4","last_reported":1733825461,"current_range_meters":26800,"station_id":"ce4bhh92rcd13ifvqfh0","pricing_plan_id":"cebpf4jnsgd1na2vs0mg"},{"bike_id":"667d051e-e6c5-4876-8ffe-911a7574be59","system_id":"levelo_inurba_marseille","lat":43.29096,"lon":5.38146,"is_reserved":false,"is_disabled":false,"rental_uris":{"android":"levelo://app?vid=667d051e-e6c5-4876-8ffe-911a7574be59","ios":"levelo://app?vid=667d051e-e6c5-4876-8ffe-911a7574be59"},"vehicle_type_id":"4","last_reported":1733825461,"current_range_meters":14800,"station_id":"ce4bh512rcd13ifvqe2g","pricing_plan_id":"cebpf4jnsgd1na2vs0mg"},{"bike_id":"ed07bb23-be8c-483a-8a32-2e109661f6f0","system_id":"levelo_inurba_marseille","lat":43.25937,"lon":5.40903,"is_reserved":false,"is_disabled":false,"rental_uris":{"android":"levelo://app?vid=ed07bb23-be8c-483a-8a32-2e109661f6f0","ios":"levelo://app?vid=ed07bb23-be8c-483a-8a32-2e109661f6f0"},"vehicle_type_id":"4","last_reported":1733825461,"current_range_meters":36000,"station_id":"ce4bhm92rcd13ifvqglg","pricing_plan_id":"cebpf4jnsgd1na2vs0mg"},{"bike_id":"0bc1a7fb-7f9c-4e77-8b6e-dded50a369c5","system_id":"levelo_inurba_marseille","lat":43.24387,"lon":5.37051,"is_reserved":false,"is_disabled":false,"rental_uris":{"android":"levelo://app?vid=0bc1a7fb-7f9c-4e77-8b6e-dded50a369c5","ios":"levelo://app?vid=0bc1a7fb-7f9c-4e77-8b6e-dded50a369c5"},"vehicle_type_id":"4","last_reported":1733825461,"current_range_meters":37600,"station_id":"ce4bhhh2rcd13ifvqfk0","pricing_plan_id":"cebpf4jnsgd1na2vs0mg"},{"bike_id":"71ede6cb-3773-4924-948e-77ec53727c8f","system_id":"levelo_inurba_marseille","lat":43.31764,"lon":5.37541,"is_reserved":false,"is_disabled":false,"rental_uris":{"android":"levelo://app?vid=71ede6cb-3773-4924-948e-77ec53727c8f","ios":"levelo://app?vid=71ede6cb-3773-4924-948e-77ec53727c8f"},"vehicle_type_id":"4","last_reported":1733825461,"current_range_meters":38000,"station_id":"","pricing_plan_id":"cebpf4jnsgd1na2vs0mg"},{"bike_id":"e78bb842-c0c3-479f-a9e7-b1d131ab4055","system_id":"levelo_inurba_marseille","lat":43.26051,"lon":5.39403,"is_reserved":false,"is_disabled":false,"rental_uris":{"android":"levelo://app?vid=e78bb842-c0c3-479f-a9e7-b1d131ab4055","ios":"levelo://app?vid=e78bb842-c0c3-479f-a9e7-b1d131ab4055"},"vehicle_type_id":"4","last_reported":1733825461,"current_range_meters":38800,"station_id":"ce4bhh92rcd13ifvqfj0","pricing_plan_id":"cebpf4jnsgd1na2vs0mg"},{"bike_id":"e483dd56-145d-4d72-bf90-df5cf7266098","system_id":"levelo_inurba_marseille","lat":43.30133,"lon":5.39861,"is_reserved":false,"is_disabled":false,"rental_uris":{"android":"levelo://app?vid=e483dd56-145d-4d72-bf90-df5cf7266098","ios":"levelo://app?vid=e483dd56-145d-4d72-bf90-df5cf7266098"},"vehicle_type_id":"4","last_reported":1733825461,"current_range_meters":8800,"station_id":"ce4bh0h2rcd13ifvqd40","pricing_plan_id":"cebpf4jnsgd1na2vs0mg"},{"bike_id":"5b13a7d9-5705-40b9-87ac-458d65bddfef","system_id":"levelo_inurba_marseille","lat":43.28664,"lon":5.36354,"is_reserved":false,"is_disabled":false,"rental_uris":{"android":"levelo://app?vid=5b13a7d9-5705-40b9-87ac-458d65bddfef","ios":"levelo://app?vid=5b13a7d9-5705-40b9-87ac-458d65bddfef"},"vehicle_type_id":"4","last_reported":1733825461,"current_range_meters":35600,"station_id":"ce4bhah2rcd13ifvqej0","pricing_plan_id":"cebpf4jnsgd1na2vs0mg"},{"bike_id":"25a20b03-9830-4773-bc6b-d425633d2c5c","system_id":"levelo_inurba_marseille","lat":43.24765,"lon":5.4002,"is_reserved":false,"is_disabled":true,"rental_uris":{"android":"levelo://app?vid=25a20b03-9830-4773-bc6b-d425633d2c5c","ios":"levelo://app?vid=25a20b03-9830-4773-bc6b-d425633d2c5c"},"vehicle_type_id":"4","last_reported":1733825461,"current_range_meters":0,"station_id":"","pricing_plan_id":"cebpf4jnsgd1na2vs0mg"},{"bike_id":"1a3c0bbd-7736-49b6-a0d0-cf32e3bf1fbe","system_id":"levelo_inurba_marseille","lat":43.27374,"lon":5.36259,"is_reserved":false,"is_disabled":false,"rental_uris":{"android":"levelo://app?vid=1a3c0bbd-7736-49b6-a0d0-cf32e3bf1fbe","ios":"levelo://app?vid=1a3c0bbd-7736-49b6-a0d0-cf32e3bf1fbe"},"vehicle_type_id":"4","last_reported":1733825461,"current_range_meters":38800,"station_id":"ce4bhbh2rcd13ifvqeo0","pricing_plan_id":"cebpf4jnsgd1na2vs0mg"},{"bike_id":"cff2c4bb-1006-46ba-83c3-25b24553905c","system_id":"levelo_inurba_marseille","lat":43.321012,"lon":5.36774,"is_reserved":false,"is_disabled":false,"rental_uris":{"android":"levelo://app?vid=cff2c4bb-1006-46ba-83c3-25b24553905c","ios":"levelo://app?vid=cff2c4bb-1006-46ba-83c3-25b24553905c"},"vehicle_type_id":"4","last_reported":1733825461,"current_range_meters":32400,"station_id":"ce4bhrh2rcd13ifvqhug","pricing_plan_id":"cebpf4jnsgd1na2vs0mg"},{"bike_id":"845a1e5f-8df3-4e13-a702-8b68ebdb22c7","system_id":"levelo_inurba_marseille","lat":43.31349,"lon":5.36727,"is_reserved":false,"is_disabled":false,"rental_uris":{"android":"levelo://app?vid=845a1e5f-8df3-4e13-a702-8b68ebdb22c7","ios":"levelo://app?vid=845a1e5f-8df3-4e13-a702-8b68ebdb22c7"},"vehicle_type_id":"4","last_reported":1733825461,"current_range_meters":34000,"station_id":"ce4bgr92rcd13ifvqc6g","pricing_plan_id":"cebpf4jnsgd1na2vs0mg"},{"bike_id":"1a37e268-21c3-4e1d-9078-98fc2beff8f3","system_id":"levelo_inurba_marseille","lat":43.26193,"lon":5.37449,"is_reserved":false,"is_disabled":false,"rental_uris":{"android":"levelo://app?vid=1a37e268-21c3-4e1d-9078-98fc2beff8f3","ios":"levelo://app?vid=1a37e268-21c3-4e1d-9078-98fc2beff8f3"},"vehicle_type_id":"4","last_reported":1733825461,"current_range_meters":17200,"station_id":"ce4bhgp2rcd13ifvqfc0","pricing_plan_id":"cebpf4jnsgd1na2vs0mg"},{"bike_id":"c83502ec-8d3c-4993-b0f8-d8c9effc335d","system_id":"levelo_inurba_marseille","lat":43.29909,"lon":5.37466,"is_reserved":false,"is_disabled":false,"rental_uris":{"android":"levelo://app?vid=c83502ec-8d3c-4993-b0f8-d8c9effc335d","ios":"levelo://app?vid=c83502ec-8d3c-4993-b0f8-d8c9effc335d"},"vehicle_type_id":"4","last_reported":1733825461,"current_range_meters":38000,"station_id":"ce4bgjh2rcd13ifvqbg0","pricing_plan_id":"cebpf4jnsgd1na2vs0mg"},{"bike_id":"8b90ed47-6e40-43a2-9844-c6f3229da296","system_id":"levelo_inurba_marseille","lat":43.26197,"lon":5.37932,"is_reserved":false,"is_disabled":false,"rental_uris":{"android":"levelo://app?vid=8b90ed47-6e40-43a2-9844-c6f3229da296","ios":"levelo://app?vid=8b90ed47-6e40-43a2-9844-c6f3229da296"},"vehicle_type_id":"4","last_reported":1733825461,"current_range_meters":38800,"station_id":"ce4bhjp2rcd13ifvqg90","pricing_plan_id":"cebpf4jnsgd1na2vs0mg"},{"bike_id":"f1e1b83c-6b4c-4d52-9b3f-becfd8274a79","system_id":"levelo_inurba_marseille","lat":43.24998,"lon":5.38938,"is_reserved":false,"is_disabled":false,"rental_uris":{"android":"levelo://app?vid=f1e1b83c-6b4c-4d52-9b3f-becfd8274a79","ios":"levelo://app?vid=f1e1b83c-6b4c-4d52-9b3f-becfd8274a79"},"vehicle_type_id":"4","last_reported":1733825461,"current_range_meters":38800,"station_id":"ce4bhgp2rcd13ifvqfd0","pricing_plan_id":"cebpf4jnsgd1na2vs0mg"},{"bike_id":"79eec760-3148-415c-9486-9ff642f00208","system_id":"levelo_inurba_marseille","lat":43.34656,"lon":5.34568,"is_reserved":false,"is_disabled":true,"rental_uris":{"android":"levelo://app?vid=79eec760-3148-415c-9486-9ff642f00208","ios":"levelo://app?vid=79eec760-3148-415c-9486-9ff642f00208"},"vehicle_type_id":"4","last_reported":1733825461,"current_range_meters":0,"station_id":"","pricing_plan_id":"cebpf4jnsgd1na2vs0mg"},{"bike_id":"90c268a2-699c-43ad-8238-a6b11d1de828","system_id":"levelo_inurba_marseille","lat":43.25933,"lon":5.40896,"is_reserved":false,"is_disabled":false,"rental_uris":{"android":"levelo://app?vid=90c268a2-699c-43ad-8238-a6b11d1de828","ios":"levelo://app?vid=90c268a2-699c-43ad-8238-a6b11d1de828"},"vehicle_type_id":"4","last_reported":1733825461,"current_range_meters":21600,"station_id":"ce4bhm92rcd13ifvqglg","pricing_plan_id":"cebpf4jnsgd1na2vs0mg"},{"bike_id":"93be04b9-75e0-475d-b26f-28f7bd413bad","system_id":"levelo_inurba_marseille","lat":43.24077,"lon":5.37746,"is_reserved":false,"is_disabled":false,"rental_uris":{"android":"levelo://app?vid=93be04b9-75e0-475d-b26f-28f7bd413bad","ios":"levelo://app?vid=93be04b9-75e0-475d-b26f-28f7bd413bad"},"vehicle_type_id":"4","last_reported":1733825461,"current_range_meters":8400,"station_id":"ce4bhnp2rcd13ifvqgvg","pricing_plan_id":"cebpf4jnsgd1na2vs0mg"},{"bike_id":"097d539c-2fb0-4695-9c7a-c109fd16c513","system_id":"levelo_inurba_marseille","lat":43.27063,"lon":5.42272,"is_reserved":false,"is_disabled":false,"rental_uris":{"android":"levelo://app?vid=097d539c-2fb0-4695-9c7a-c109fd16c513","ios":"levelo://app?vid=097d539c-2fb0-4695-9c7a-c109fd16c513"},"vehicle_type_id":"4","last_reported":1733825461,"current_range_meters":38800,"station_id":"ce4bhk92rcd13ifvqgb0","pricing_plan_id":"cebpf4jnsgd1na2vs0mg"},{"bike_id":"af9e5fa5-92e7-413c-b445-9bb99172576a","system_id":"levelo_inurba_marseille","lat":43.29636,"lon":5.40603,"is_reserved":false,"is_disabled":false,"rental_uris":{"android":"levelo://app?vid=af9e5fa5-92e7-413c-b445-9bb99172576a","ios":"levelo://app?vid=af9e5fa5-92e7-413c-b445-9bb99172576a"},"vehicle_type_id":"4","last_reported":1733825461,"current_range_meters":27200,"station_id":"ce4bh0h2rcd13ifvqd60","pricing_plan_id":"cebpf4jnsgd1na2vs0mg"},{"bike_id":"b135bff0-8e87-4e47-af7a-2fa72d222280","system_id":"levelo_inurba_marseille","lat":43.25723,"lon":5.41113,"is_reserved":false,"is_disabled":true,"rental_uris":{"android":"levelo://app?vid=b135bff0-8e87-4e47-af7a-2fa72d222280","ios":"levelo://app?vid=b135bff0-8e87-4e47-af7a-2fa72d222280"},"vehicle_type_id":"4","last_reported":1733825461,"current_range_meters":34800,"station_id":"ce4bhkp2rcd13ifvqgd0","pricing_plan_id":"cebpf4jnsgd1na2vs0mg"},{"bike_id":"a5f17540-08e1-42ac-bda0-78fdd3f3a47d","system_id":"levelo_inurba_marseille","lat":43.28156,"lon":5.4265,"is_reserved":false,"is_disabled":false,"rental_uris":{"android":"levelo://app?vid=a5f17540-08e1-42ac-bda0-78fdd3f3a47d","ios":"levelo://app?vid=a5f17540-08e1-42ac-bda0-78fdd3f3a47d"},"vehicle_type_id":"4","last_reported":1733825461,"current_range_meters":7200,"station_id":"ce4bhnh2rcd13ifvqgug","pricing_plan_id":"cebpf4jnsgd1na2vs0mg"},{"bike_id":"09e8f3a7-5e09-4c1d-acc9-e200de530ef1","system_id":"levelo_inurba_marseille","lat":43.23151,"lon":5.43711,"is_reserved":false,"is_disabled":false,"rental_uris":{"android":"levelo://app?vid=09e8f3a7-5e09-4c1d-acc9-e200de530ef1","ios":"levelo://app?vid=09e8f3a7-5e09-4c1d-acc9-e200de530ef1"},"vehicle_type_id":"4","last_reported":1733825461,"current_range_meters":39200,"station_id":"ce4bhmp2rcd13ifvqgog","pricing_plan_id":"cebpf4jnsgd1na2vs0mg"},{"bike_id":"0c53f6b6-79db-44f6-861b-7b67e669176c","system_id":"levelo_inurba_marseille","lat":43.28851,"lon":5.35838,"is_reserved":false,"is_disabled":true,"rental_uris":{"android":"levelo://app?vid=0c53f6b6-79db-44f6-861b-7b67e669176c","ios":"levelo://app?vid=0c53f6b6-79db-44f6-861b-7b67e669176c"},"vehicle_type_id":"4","last_reported":1733825461,"current_range_meters":28400,"station_id":"ce4bhb12rcd13ifvqem0","pricing_plan_id":"cebpf4jnsgd1na2vs0mg"},{"bike_id":"e3650a39-7faf-4bef-874a-053482a93766","system_id":"levelo_inurba_marseille","lat":43.2973,"lon":5.37691,"is_reserved":false,"is_disabled":true,"rental_uris":{"android":"levelo://app?vid=e3650a39-7faf-4bef-874a-053482a93766","ios":"levelo://app?vid=e3650a39-7faf-4bef-874a-053482a93766"},"vehicle_type_id":"4","last_reported":1733825461,"current_range_meters":27600,"station_id":"ce4bgkh2rcd13ifvqbl0","pricing_plan_id":"cebpf4jnsgd1na2vs0mg"},{"bike_id":"552782d8-e5d7-4772-94a4-001461c0cb80","system_id":"levelo_inurba_marseille","lat":43.24069,"lon":5.37763,"is_reserved":false,"is_disabled":false,"rental_uris":{"android":"levelo://app?vid=552782d8-e5d7-4772-94a4-001461c0cb80","ios":"levelo://app?vid=552782d8-e5d7-4772-94a4-001461c0cb80"},"vehicle_type_id":"4","last_reported":1733825461,"current_range_meters":39200,"station_id":"ce4bhnp2rcd13ifvqgvg","pricing_plan_id":"cebpf4jnsgd1na2vs0mg"},{"bike_id":"16a95073-a510-4250-a0cb-0a1df2fad077","system_id":"levelo_inurba_marseille","lat":43.26499,"lon":5.39542,"is_reserved":false,"is_disabled":false,"rental_uris":{"android":"levelo://app?vid=16a95073-a510-4250-a0cb-0a1df2fad077","ios":"levelo://app?vid=16a95073-a510-4250-a0cb-0a1df2fad077"},"vehicle_type_id":"4","last_reported":1733825461,"current_range_meters":28000,"station_id":"ce4bhi12rcd13ifvqfq0","pricing_plan_id":"cebpf4jnsgd1na2vs0mg"},{"bike_id":"50f52497-54ca-47ea-a19e-1fc86f8c6045","system_id":"levelo_inurba_marseille","lat":43.28231,"lon":5.42407,"is_reserved":false,"is_disabled":true,"rental_uris":{"android":"levelo://app?vid=50f52497-54ca-47ea-a19e-1fc86f8c6045","ios":"levelo://app?vid=50f52497-54ca-47ea-a19e-1fc86f8c6045"},"vehicle_type_id":"4","last_reported":1733825461,"current_range_meters":5600,"station_id":"","pricing_plan_id":"cebpf4jnsgd1na2vs0mg"},{"bike_id":"1b2d4db1-cec0-4376-9abf-f3b964e5dcb7","system_id":"levelo_inurba_marseille","lat":43.23195,"lon":5.35551,"is_reserved":false,"is_disabled":false,"rental_uris":{"android":"levelo://app?vid=1b2d4db1-cec0-4376-9abf-f3b964e5dcb7","ios":"levelo://app?vid=1b2d4db1-cec0-4376-9abf-f3b964e5dcb7"},"vehicle_type_id":"4","last_reported":1733825461,"current_range_meters":38000,"station_id":"ce4bhu92rcd13ifvqi70","pricing_plan_id":"cebpf4jnsgd1na2vs0mg"},{"bike_id":"01daacb2-1ea0-4b66-a8d6-1921ffcbdd6b","system_id":"levelo_inurba_marseille","lat":43.24069,"lon":5.37745,"is_reserved":false,"is_disabled":false,"rental_uris":{"android":"levelo://app?vid=01daacb2-1ea0-4b66-a8d6-1921ffcbdd6b","ios":"levelo://app?vid=01daacb2-1ea0-4b66-a8d6-1921ffcbdd6b"},"vehicle_type_id":"4","last_reported":1733825461,"current_range_meters":38800,"station_id":"ce4bhnp2rcd13ifvqgvg","pricing_plan_id":"cebpf4jnsgd1na2vs0mg"},{"bike_id":"33f1a526-a5a3-4261-b1e0-d90c46ff918d","system_id":"levelo_inurba_marseille","lat":43.28151,"lon":5.42643,"is_reserved":false,"is_disabled":true,"rental_uris":{"android":"levelo://app?vid=33f1a526-a5a3-4261-b1e0-d90c46ff918d","ios":"levelo://app?vid=33f1a526-a5a3-4261-b1e0-d90c46ff918d"},"vehicle_type_id":"4","last_reported":1733825461,"current_range_meters":16000,"station_id":"ce4bhnh2rcd13ifvqgug","pricing_plan_id":"cebpf4jnsgd1na2vs0mg"},{"bike_id":"c14d1924-7ea2-4263-96f3-e5e91573ad18","system_id":"levelo_inurba_marseille","lat":43.30352,"lon":5.4188,"is_reserved":false,"is_disabled":false,"rental_uris":{"android":"levelo://app?vid=c14d1924-7ea2-4263-96f3-e5e91573ad18","ios":"levelo://app?vid=c14d1924-7ea2-4263-96f3-e5e91573ad18"},"vehicle_type_id":"4","last_reported":1733825461,"current_range_meters":24000,"station_id":"ce4bhop2rcd13ifvqh7g","pricing_plan_id":"cebpf4jnsgd1na2vs0mg"},{"bike_id":"2bf8a75a-5758-4b6c-b900-5b9792635b73","system_id":"levelo_inurba_marseille","lat":43.27492,"lon":5.42453,"is_reserved":false,"is_disabled":false,"rental_uris":{"android":"levelo://app?vid=2bf8a75a-5758-4b6c-b900-5b9792635b73","ios":"levelo://app?vid=2bf8a75a-5758-4b6c-b900-5b9792635b73"},"vehicle_type_id":"4","last_reported":1733825461,"current_range_meters":19200,"station_id":"ce4bhn92rcd13ifvqgrg","pricing_plan_id":"cebpf4jnsgd1na2vs0mg"},{"bike_id":"e867e4df-bdaf-4905-9f4f-695c75d7fdb0","system_id":"levelo_inurba_marseille","lat":43.26211,"lon":5.37443,"is_reserved":false,"is_disabled":false,"rental_uris":{"android":"levelo://app?vid=e867e4df-bdaf-4905-9f4f-695c75d7fdb0","ios":"levelo://app?vid=e867e4df-bdaf-4905-9f4f-695c75d7fdb0"},"vehicle_type_id":"4","last_reported":1733825461,"current_range_meters":21600,"station_id":"ce4bhgp2rcd13ifvqfc0","pricing_plan_id":"cebpf4jnsgd1na2vs0mg"},{"bike_id":"a434a58d-cb3d-461f-96a2-beff1069321a","system_id":"levelo_inurba_marseille","lat":43.29006,"lon":5.35608,"is_reserved":false,"is_disabled":false,"rental_uris":{"android":"levelo://app?vid=a434a58d-cb3d-461f-96a2-beff1069321a","ios":"levelo://app?vid=a434a58d-cb3d-461f-96a2-beff1069321a"},"vehicle_type_id":"4","last_reported":1733825461,"current_range_meters":33200,"station_id":"ce4bhb92rcd13ifvqen0","pricing_plan_id":"cebpf4jnsgd1na2vs0mg"},{"bike_id":"8073680c-7fdf-44d8-b9e7-92d898dbeedb","system_id":"levelo_inurba_marseille","lat":43.29056,"lon":5.37162,"is_reserved":false,"is_disabled":false,"rental_uris":{"android":"levelo://app?vid=8073680c-7fdf-44d8-b9e7-92d898dbeedb","ios":"levelo://app?vid=8073680c-7fdf-44d8-b9e7-92d898dbeedb"},"vehicle_type_id":"4","last_reported":1733825461,"current_range_meters":22800,"station_id":"ce4bh5p2rcd13ifvqe4g","pricing_plan_id":"cebpf4jnsgd1na2vs0mg"},{"bike_id":"76a93929-4667-4f21-85b2-d2021e09cc4f","system_id":"levelo_inurba_marseille","lat":43.28617,"lon":5.35098,"is_reserved":false,"is_disabled":false,"rental_uris":{"android":"levelo://app?vid=76a93929-4667-4f21-85b2-d2021e09cc4f","ios":"levelo://app?vid=76a93929-4667-4f21-85b2-d2021e09cc4f"},"vehicle_type_id":"4","last_reported":1733825461,"current_range_meters":24800,"station_id":"ce4bhch2rcd13ifvqeug","pricing_plan_id":"cebpf4jnsgd1na2vs0mg"},{"bike_id":"5d9d33ed-3cf9-4f40-bcf4-4fd075009d99","system_id":"levelo_inurba_marseille","lat":43.26938,"lon":5.40253,"is_reserved":false,"is_disabled":false,"rental_uris":{"android":"levelo://app?vid=5d9d33ed-3cf9-4f40-bcf4-4fd075009d99","ios":"levelo://app?vid=5d9d33ed-3cf9-4f40-bcf4-4fd075009d99"},"vehicle_type_id":"4","last_reported":1733825461,"current_range_meters":39200,"station_id":"cjm6bp8fraef2m0cb0m0","pricing_plan_id":"cebpf4jnsgd1na2vs0mg"},{"bike_id":"e2e5fff8-dab3-4021-a87d-3c7c833d47d1","system_id":"levelo_inurba_marseille","lat":43.26214,"lon":5.37458,"is_reserved":false,"is_disabled":true,"rental_uris":{"android":"levelo://app?vid=e2e5fff8-dab3-4021-a87d-3c7c833d47d1","ios":"levelo://app?vid=e2e5fff8-dab3-4021-a87d-3c7c833d47d1"},"vehicle_type_id":"4","last_reported":1733825461,"current_range_meters":9200,"station_id":"ce4bhgp2rcd13ifvqfc0","pricing_plan_id":"cebpf4jnsgd1na2vs0mg"},{"bike_id":"30417ada-3426-48fe-8bb5-7012078b6979","system_id":"levelo_inurba_marseille","lat":43.29299,"lon":5.37161,"is_reserved":false,"is_disabled":false,"rental_uris":{"android":"levelo://app?vid=30417ada-3426-48fe-8bb5-7012078b6979","ios":"levelo://app?vid=30417ada-3426-48fe-8bb5-7012078b6979"},"vehicle_type_id":"4","last_reported":1733825461,"current_range_meters":36400,"station_id":"ce4bgh92rcd13ifvqb40","pricing_plan_id":"cebpf4jnsgd1na2vs0mg"},{"bike_id":"38af7c52-a2d7-4a86-b713-356ac06a533a","system_id":"levelo_inurba_marseille","lat":43.27063,"lon":5.40257,"is_reserved":false,"is_disabled":false,"rental_uris":{"android":"levelo://app?vid=38af7c52-a2d7-4a86-b713-356ac06a533a","ios":"levelo://app?vid=38af7c52-a2d7-4a86-b713-356ac06a533a"},"vehicle_type_id":"4","last_reported":1733825461,"current_range_meters":21600,"station_id":"ce4bhk92rcd13ifvqgc0","pricing_plan_id":"cebpf4jnsgd1na2vs0mg"},{"bike_id":"7e64d5ae-4fec-4721-8142-9d12e3a25b56","system_id":"levelo_inurba_marseille","lat":43.30465,"lon":5.37903,"is_reserved":false,"is_disabled":false,"rental_uris":{"android":"levelo://app?vid=7e64d5ae-4fec-4721-8142-9d12e3a25b56","ios":"levelo://app?vid=7e64d5ae-4fec-4721-8142-9d12e3a25b56"},"vehicle_type_id":"4","last_reported":1733825461,"current_range_meters":23200,"station_id":"ce4bgup2rcd13ifvqcn0","pricing_plan_id":"cebpf4jnsgd1na2vs0mg"},{"bike_id":"2cdc68bc-783f-42f1-8a2a-30a830fd99d3","system_id":"levelo_inurba_marseille","lat":43.30139,"lon":5.37405,"is_reserved":false,"is_disabled":true,"rental_uris":{"android":"levelo://app?vid=2cdc68bc-783f-42f1-8a2a-30a830fd99d3","ios":"levelo://app?vid=2cdc68bc-783f-42f1-8a2a-30a830fd99d3"},"vehicle_type_id":"4","last_reported":1733825461,"current_range_meters":400,"station_id":"ce4bgs92rcd13ifvqcc0","pricing_plan_id":"cebpf4jnsgd1na2vs0mg"},{"bike_id":"4dbc0102-fa7f-4abb-a08e-385424c87296","system_id":"levelo_inurba_marseille","lat":43.3372,"lon":5.39184,"is_reserved":false,"is_disabled":false,"rental_uris":{"android":"levelo://app?vid=4dbc0102-fa7f-4abb-a08e-385424c87296","ios":"levelo://app?vid=4dbc0102-fa7f-4abb-a08e-385424c87296"},"vehicle_type_id":"4","last_reported":1733825461,"current_range_meters":25200,"station_id":"ce4bhr92rcd13ifvqhsg","pricing_plan_id":"cebpf4jnsgd1na2vs0mg"},{"bike_id":"b7704992-265d-44ce-8e30-e3b1a140a380","system_id":"levelo_inurba_marseille","lat":43.297902,"lon":5.381098,"is_reserved":false,"is_disabled":true,"rental_uris":{"android":"levelo://app?vid=b7704992-265d-44ce-8e30-e3b1a140a380","ios":"levelo://app?vid=b7704992-265d-44ce-8e30-e3b1a140a380"},"vehicle_type_id":"4","last_reported":1733825461,"current_range_meters":0,"station_id":"ce4bgip2rcd13ifvqbb0","pricing_plan_id":"cebpf4jnsgd1na2vs0mg"},{"bike_id":"b5461919-9d26-4f6d-8661-a7691ba11c9d","system_id":"levelo_inurba_marseille","lat":43.28264,"lon":5.35062,"is_reserved":false,"is_disabled":false,"rental_uris":{"android":"levelo://app?vid=b5461919-9d26-4f6d-8661-a7691ba11c9d","ios":"levelo://app?vid=b5461919-9d26-4f6d-8661-a7691ba11c9d"},"vehicle_type_id":"4","last_reported":1733825461,"current_range_meters":34000,"station_id":"ce4bhbp2rcd13ifvqerg","pricing_plan_id":"cebpf4jnsgd1na2vs0mg"},{"bike_id":"d93e5c4d-b63a-4a17-a6d2-e5ee3187172a","system_id":"levelo_inurba_marseille","lat":43.337444,"lon":5.374475,"is_reserved":false,"is_disabled":false,"rental_uris":{"android":"levelo://app?vid=d93e5c4d-b63a-4a17-a6d2-e5ee3187172a","ios":"levelo://app?vid=d93e5c4d-b63a-4a17-a6d2-e5ee3187172a"},"vehicle_type_id":"4","last_reported":1733825461,"current_range_meters":33200,"station_id":"","pricing_plan_id":"cebpf4jnsgd1na2vs0mg"},{"bike_id":"d43e5ea8-13b0-4ee3-b5ea-caee40935a00","system_id":"levelo_inurba_marseille","lat":43.27174,"lon":5.40991,"is_reserved":false,"is_disabled":true,"rental_uris":{"android":"levelo://app?vid=d43e5ea8-13b0-4ee3-b5ea-caee40935a00","ios":"levelo://app?vid=d43e5ea8-13b0-4ee3-b5ea-caee40935a00"},"vehicle_type_id":"4","last_reported":1733825461,"current_range_meters":2800,"station_id":"ce4bhl12rcd13ifvqgf0","pricing_plan_id":"cebpf4jnsgd1na2vs0mg"},{"bike_id":"51827b30-1054-4023-966a-04e7ca050fbb","system_id":"levelo_inurba_marseille","lat":43.30126,"lon":5.37416,"is_reserved":false,"is_disabled":false,"rental_uris":{"android":"levelo://app?vid=51827b30-1054-4023-966a-04e7ca050fbb","ios":"levelo://app?vid=51827b30-1054-4023-966a-04e7ca050fbb"},"vehicle_type_id":"4","last_reported":1733825461,"current_range_meters":21600,"station_id":"ce4bgs92rcd13ifvqcc0","pricing_plan_id":"cebpf4jnsgd1na2vs0mg"},{"bike_id":"dd79d1e9-79ed-4c01-9301-9d51389a73fe","system_id":"levelo_inurba_marseille","lat":43.27902,"lon":5.38015,"is_reserved":false,"is_disabled":false,"rental_uris":{"android":"levelo://app?vid=dd79d1e9-79ed-4c01-9301-9d51389a73fe","ios":"levelo://app?vid=dd79d1e9-79ed-4c01-9301-9d51389a73fe"},"vehicle_type_id":"4","last_reported":1733825461,"current_range_meters":20400,"station_id":"ce4bhf92rcd13ifvqf50","pricing_plan_id":"cebpf4jnsgd1na2vs0mg"},{"bike_id":"c349e029-d6ee-4b3d-be4b-ceebcfb463b6","system_id":"levelo_inurba_marseille","lat":43.30904,"lon":5.36854,"is_reserved":false,"is_disabled":false,"rental_uris":{"android":"levelo://app?vid=c349e029-d6ee-4b3d-be4b-ceebcfb463b6","ios":"levelo://app?vid=c349e029-d6ee-4b3d-be4b-ceebcfb463b6"},"vehicle_type_id":"4","last_reported":1733825461,"current_range_meters":38800,"station_id":"ce4bgn92rcd13ifvqbvg","pricing_plan_id":"cebpf4jnsgd1na2vs0mg"},{"bike_id":"2a8b23eb-d251-4f9a-825b-2bccc8b4aedd","system_id":"levelo_inurba_marseille","lat":43.26787,"lon":5.39419,"is_reserved":false,"is_disabled":false,"rental_uris":{"android":"levelo://app?vid=2a8b23eb-d251-4f9a-825b-2bccc8b4aedd","ios":"levelo://app?vid=2a8b23eb-d251-4f9a-825b-2bccc8b4aedd"},"vehicle_type_id":"4","last_reported":1733825461,"current_range_meters":27200,"station_id":"ce4bhh12rcd13ifvqfg0","pricing_plan_id":"cebpf4jnsgd1na2vs0mg"},{"bike_id":"eb4e32cd-a02d-4e92-a013-1fdc0dd71ccb","system_id":"levelo_inurba_marseille","lat":43.324799,"lon":5.365716,"is_reserved":false,"is_disabled":true,"rental_uris":{"android":"levelo://app?vid=eb4e32cd-a02d-4e92-a013-1fdc0dd71ccb","ios":"levelo://app?vid=eb4e32cd-a02d-4e92-a013-1fdc0dd71ccb"},"vehicle_type_id":"4","last_reported":1733825461,"current_range_meters":0,"station_id":"","pricing_plan_id":"cebpf4jnsgd1na2vs0mg"},{"bike_id":"ad24f16e-2206-4a3c-9b57-73b59ffe17ba","system_id":"levelo_inurba_marseille","lat":43.24164,"lon":5.36383,"is_reserved":false,"is_disabled":false,"rental_uris":{"android":"levelo://app?vid=ad24f16e-2206-4a3c-9b57-73b59ffe17ba","ios":"levelo://app?vid=ad24f16e-2206-4a3c-9b57-73b59ffe17ba"},"vehicle_type_id":"4","last_reported":1733825461,"current_range_meters":36000,"station_id":"cpo36qri1sfpv3e86is0","pricing_plan_id":"cebpf4jnsgd1na2vs0mg"},{"bike_id":"587d3624-0230-4792-967d-f8a4c012d5bf","system_id":"levelo_inurba_marseille","lat":43.29291,"lon":5.37444,"is_reserved":false,"is_disabled":false,"rental_uris":{"android":"levelo://app?vid=587d3624-0230-4792-967d-f8a4c012d5bf","ios":"levelo://app?vid=587d3624-0230-4792-967d-f8a4c012d5bf"},"vehicle_type_id":"4","last_reported":1733825461,"current_range_meters":14800,"station_id":"ce4bgi12rcd13ifvqb70","pricing_plan_id":"cebpf4jnsgd1na2vs0mg"},{"bike_id":"6765f4bc-ceaa-4e17-86b8-fde388bd4b42","system_id":"levelo_inurba_marseille","lat":43.29095,"lon":5.38147,"is_reserved":false,"is_disabled":false,"rental_uris":{"android":"levelo://app?vid=6765f4bc-ceaa-4e17-86b8-fde388bd4b42","ios":"levelo://app?vid=6765f4bc-ceaa-4e17-86b8-fde388bd4b42"},"vehicle_type_id":"4","last_reported":1733825461,"current_range_meters":15200,"station_id":"ce4bh512rcd13ifvqe2g","pricing_plan_id":"cebpf4jnsgd1na2vs0mg"},{"bike_id":"2e9bb92c-ad97-4a19-898b-037006ff3892","system_id":"levelo_inurba_marseille","lat":43.24995,"lon":5.38927,"is_reserved":false,"is_disabled":false,"rental_uris":{"android":"levelo://app?vid=2e9bb92c-ad97-4a19-898b-037006ff3892","ios":"levelo://app?vid=2e9bb92c-ad97-4a19-898b-037006ff3892"},"vehicle_type_id":"4","last_reported":1733825461,"current_range_meters":38800,"station_id":"ce4bhgp2rcd13ifvqfd0","pricing_plan_id":"cebpf4jnsgd1na2vs0mg"},{"bike_id":"fdccdfdc-9e02-42d3-bb31-3127ff0c6309","system_id":"levelo_inurba_marseille","lat":43.25941,"lon":5.40902,"is_reserved":false,"is_disabled":true,"rental_uris":{"android":"levelo://app?vid=fdccdfdc-9e02-42d3-bb31-3127ff0c6309","ios":"levelo://app?vid=fdccdfdc-9e02-42d3-bb31-3127ff0c6309"},"vehicle_type_id":"4","last_reported":1733825461,"current_range_meters":32000,"station_id":"ce4bhm92rcd13ifvqglg","pricing_plan_id":"cebpf4jnsgd1na2vs0mg"},{"bike_id":"26924fb9-4179-4abe-8b03-e0d47c141d92","system_id":"levelo_inurba_marseille","lat":43.27171,"lon":5.40991,"is_reserved":false,"is_disabled":false,"rental_uris":{"android":"levelo://app?vid=26924fb9-4179-4abe-8b03-e0d47c141d92","ios":"levelo://app?vid=26924fb9-4179-4abe-8b03-e0d47c141d92"},"vehicle_type_id":"4","last_reported":1733825461,"current_range_meters":27600,"station_id":"ce4bhl12rcd13ifvqgf0","pricing_plan_id":"cebpf4jnsgd1na2vs0mg"},{"bike_id":"2baa0bd7-84ae-47ca-8605-62b52488ff89","system_id":"levelo_inurba_marseille","lat":43.24075,"lon":5.3775,"is_reserved":false,"is_disabled":false,"rental_uris":{"android":"levelo://app?vid=2baa0bd7-84ae-47ca-8605-62b52488ff89","ios":"levelo://app?vid=2baa0bd7-84ae-47ca-8605-62b52488ff89"},"vehicle_type_id":"4","last_reported":1733825461,"current_range_meters":28400,"station_id":"ce4bhnp2rcd13ifvqgvg","pricing_plan_id":"cebpf4jnsgd1na2vs0mg"},{"bike_id":"1fcf705e-c0b1-401f-9c9d-8c8d155ad96a","system_id":"levelo_inurba_marseille","lat":43.290994,"lon":5.381276,"is_reserved":false,"is_disabled":false,"rental_uris":{"android":"levelo://app?vid=1fcf705e-c0b1-401f-9c9d-8c8d155ad96a","ios":"levelo://app?vid=1fcf705e-c0b1-401f-9c9d-8c8d155ad96a"},"vehicle_type_id":"4","last_reported":1733825461,"current_range_meters":17600,"station_id":"ce4bh512rcd13ifvqe2g","pricing_plan_id":"cebpf4jnsgd1na2vs0mg"},{"bike_id":"7bdec345-eeec-47c0-a1aa-d0b0f44ab6d1","system_id":"levelo_inurba_marseille","lat":43.32662,"lon":5.40985,"is_reserved":false,"is_disabled":true,"rental_uris":{"android":"levelo://app?vid=7bdec345-eeec-47c0-a1aa-d0b0f44ab6d1","ios":"levelo://app?vid=7bdec345-eeec-47c0-a1aa-d0b0f44ab6d1"},"vehicle_type_id":"4","last_reported":1733825461,"current_range_meters":38800,"station_id":"ce4bhpp2rcd13ifvqhgg","pricing_plan_id":"cebpf4jnsgd1na2vs0mg"},{"bike_id":"a802ac54-c436-4285-9977-b3bd374ee43d","system_id":"levelo_inurba_marseille","lat":43.30537,"lon":5.367,"is_reserved":false,"is_disabled":false,"rental_uris":{"android":"levelo://app?vid=a802ac54-c436-4285-9977-b3bd374ee43d","ios":"levelo://app?vid=a802ac54-c436-4285-9977-b3bd374ee43d"},"vehicle_type_id":"4","last_reported":1733825461,"current_range_meters":38400,"station_id":"ce4bgrp2rcd13ifvqc9g","pricing_plan_id":"cebpf4jnsgd1na2vs0mg"},{"bike_id":"50001e30-96a7-4efc-8aa7-d88e16f2c290","system_id":"levelo_inurba_marseille","lat":43.26789,"lon":5.39417,"is_reserved":false,"is_disabled":false,"rental_uris":{"android":"levelo://app?vid=50001e30-96a7-4efc-8aa7-d88e16f2c290","ios":"levelo://app?vid=50001e30-96a7-4efc-8aa7-d88e16f2c290"},"vehicle_type_id":"4","last_reported":1733825461,"current_range_meters":22400,"station_id":"ce4bhh12rcd13ifvqfg0","pricing_plan_id":"cebpf4jnsgd1na2vs0mg"},{"bike_id":"597d0862-53df-4de0-875a-d52fcbcfa6b8","system_id":"levelo_inurba_marseille","lat":43.27058,"lon":5.40266,"is_reserved":false,"is_disabled":false,"rental_uris":{"android":"levelo://app?vid=597d0862-53df-4de0-875a-d52fcbcfa6b8","ios":"levelo://app?vid=597d0862-53df-4de0-875a-d52fcbcfa6b8"},"vehicle_type_id":"4","last_reported":1733825461,"current_range_meters":33200,"station_id":"ce4bhk92rcd13ifvqgc0","pricing_plan_id":"cebpf4jnsgd1na2vs0mg"},{"bike_id":"abc387ef-2ef7-406a-bf97-ca14994ce474","system_id":"levelo_inurba_marseille","lat":43.26928,"lon":5.38916,"is_reserved":false,"is_disabled":false,"rental_uris":{"android":"levelo://app?vid=abc387ef-2ef7-406a-bf97-ca14994ce474","ios":"levelo://app?vid=abc387ef-2ef7-406a-bf97-ca14994ce474"},"vehicle_type_id":"4","last_reported":1733825461,"current_range_meters":36000,"station_id":"ce4bhhh2rcd13ifvqfl0","pricing_plan_id":"cebpf4jnsgd1na2vs0mg"},{"bike_id":"331c3cb7-3c0c-4a72-84b8-3b43db8516fe","system_id":"levelo_inurba_marseille","lat":43.2986,"lon":5.36263,"is_reserved":false,"is_disabled":false,"rental_uris":{"android":"levelo://app?vid=331c3cb7-3c0c-4a72-84b8-3b43db8516fe","ios":"levelo://app?vid=331c3cb7-3c0c-4a72-84b8-3b43db8516fe"},"vehicle_type_id":"4","last_reported":1733825461,"current_range_meters":28000,"station_id":"ce4bgpp2rcd13ifvqc3g","pricing_plan_id":"cebpf4jnsgd1na2vs0mg"},{"bike_id":"2d8ac75e-dbd9-4b9e-ae5d-876fd791d6e9","system_id":"levelo_inurba_marseille","lat":43.25862,"lon":5.39898,"is_reserved":false,"is_disabled":false,"rental_uris":{"android":"levelo://app?vid=2d8ac75e-dbd9-4b9e-ae5d-876fd791d6e9","ios":"levelo://app?vid=2d8ac75e-dbd9-4b9e-ae5d-876fd791d6e9"},"vehicle_type_id":"4","last_reported":1733825461,"current_range_meters":38000,"station_id":"ce4bhl92rcd13ifvqghg","pricing_plan_id":"cebpf4jnsgd1na2vs0mg"},{"bike_id":"0ccd581d-9c76-4795-b702-2d923b116e9d","system_id":"levelo_inurba_marseille","lat":43.27176,"lon":5.40987,"is_reserved":false,"is_disabled":false,"rental_uris":{"android":"levelo://app?vid=0ccd581d-9c76-4795-b702-2d923b116e9d","ios":"levelo://app?vid=0ccd581d-9c76-4795-b702-2d923b116e9d"},"vehicle_type_id":"4","last_reported":1733825461,"current_range_meters":32000,"station_id":"ce4bhl12rcd13ifvqgf0","pricing_plan_id":"cebpf4jnsgd1na2vs0mg"},{"bike_id":"dff9d858-7b1c-495f-b2c9-4a34acf645c1","system_id":"levelo_inurba_marseille","lat":43.25941,"lon":5.40898,"is_reserved":false,"is_disabled":false,"rental_uris":{"android":"levelo://app?vid=dff9d858-7b1c-495f-b2c9-4a34acf645c1","ios":"levelo://app?vid=dff9d858-7b1c-495f-b2c9-4a34acf645c1"},"vehicle_type_id":"4","last_reported":1733825461,"current_range_meters":32800,"station_id":"ce4bhm92rcd13ifvqglg","pricing_plan_id":"cebpf4jnsgd1na2vs0mg"},{"bike_id":"884eed1d-3860-424d-8e6c-ba300c9bdf29","system_id":"levelo_inurba_marseille","lat":43.29091,"lon":5.38117,"is_reserved":false,"is_disabled":false,"rental_uris":{"android":"levelo://app?vid=884eed1d-3860-424d-8e6c-ba300c9bdf29","ios":"levelo://app?vid=884eed1d-3860-424d-8e6c-ba300c9bdf29"},"vehicle_type_id":"4","last_reported":1733825461,"current_range_meters":24400,"station_id":"ce4bh512rcd13ifvqe2g","pricing_plan_id":"cebpf4jnsgd1na2vs0mg"},{"bike_id":"95d8628d-10b1-47e7-9a42-9b126ec315c6","system_id":"levelo_inurba_marseille","lat":43.23197,"lon":5.35538,"is_reserved":false,"is_disabled":false,"rental_uris":{"android":"levelo://app?vid=95d8628d-10b1-47e7-9a42-9b126ec315c6","ios":"levelo://app?vid=95d8628d-10b1-47e7-9a42-9b126ec315c6"},"vehicle_type_id":"4","last_reported":1733825461,"current_range_meters":25200,"station_id":"ce4bhu92rcd13ifvqi70","pricing_plan_id":"cebpf4jnsgd1na2vs0mg"},{"bike_id":"7241496b-c0e0-4e83-925f-f515cbbcb333","system_id":"levelo_inurba_marseille","lat":43.27054,"lon":5.40262,"is_reserved":false,"is_disabled":false,"rental_uris":{"android":"levelo://app?vid=7241496b-c0e0-4e83-925f-f515cbbcb333","ios":"levelo://app?vid=7241496b-c0e0-4e83-925f-f515cbbcb333"},"vehicle_type_id":"4","last_reported":1733825461,"current_range_meters":8400,"station_id":"ce4bhk92rcd13ifvqgc0","pricing_plan_id":"cebpf4jnsgd1na2vs0mg"},{"bike_id":"58c7a0a7-2cec-4df4-b984-8aff6a48b359","system_id":"levelo_inurba_marseille","lat":43.2407,"lon":5.37758,"is_reserved":false,"is_disabled":false,"rental_uris":{"android":"levelo://app?vid=58c7a0a7-2cec-4df4-b984-8aff6a48b359","ios":"levelo://app?vid=58c7a0a7-2cec-4df4-b984-8aff6a48b359"},"vehicle_type_id":"4","last_reported":1733825461,"current_range_meters":14800,"station_id":"ce4bhnp2rcd13ifvqgvg","pricing_plan_id":"cebpf4jnsgd1na2vs0mg"},{"bike_id":"6b6aa8a1-1c65-4125-9c8b-d28d13870c26","system_id":"levelo_inurba_marseille","lat":43.26943,"lon":5.38641,"is_reserved":false,"is_disabled":false,"rental_uris":{"android":"levelo://app?vid=6b6aa8a1-1c65-4125-9c8b-d28d13870c26","ios":"levelo://app?vid=6b6aa8a1-1c65-4125-9c8b-d28d13870c26"},"vehicle_type_id":"4","last_reported":1733825461,"current_range_meters":4400,"station_id":"ce4bhh92rcd13ifvqfh0","pricing_plan_id":"cebpf4jnsgd1na2vs0mg"},{"bike_id":"d73d3545-2353-4b3c-a55a-93460c368d73","system_id":"levelo_inurba_marseille","lat":43.28472,"lon":5.38425,"is_reserved":false,"is_disabled":false,"rental_uris":{"android":"levelo://app?vid=d73d3545-2353-4b3c-a55a-93460c368d73","ios":"levelo://app?vid=d73d3545-2353-4b3c-a55a-93460c368d73"},"vehicle_type_id":"4","last_reported":1733825461,"current_range_meters":38800,"station_id":"ce4bh512rcd13ifvqe3g","pricing_plan_id":"cebpf4jnsgd1na2vs0mg"},{"bike_id":"55fb5cce-a387-4942-8b44-0194802fccc0","system_id":"levelo_inurba_marseille","lat":43.32069,"lon":5.41533,"is_reserved":false,"is_disabled":false,"rental_uris":{"android":"levelo://app?vid=55fb5cce-a387-4942-8b44-0194802fccc0","ios":"levelo://app?vid=55fb5cce-a387-4942-8b44-0194802fccc0"},"vehicle_type_id":"4","last_reported":1733825461,"current_range_meters":10800,"station_id":"ce4bhq92rcd13ifvqhkg","pricing_plan_id":"cebpf4jnsgd1na2vs0mg"},{"bike_id":"95f09589-31b2-42ab-abe2-f206bd940489","system_id":"levelo_inurba_marseille","lat":43.30167,"lon":5.38098,"is_reserved":false,"is_disabled":false,"rental_uris":{"android":"levelo://app?vid=95f09589-31b2-42ab-abe2-f206bd940489","ios":"levelo://app?vid=95f09589-31b2-42ab-abe2-f206bd940489"},"vehicle_type_id":"4","last_reported":1733825461,"current_range_meters":33200,"station_id":"ce4bgjp2rcd13ifvqbh0","pricing_plan_id":"cebpf4jnsgd1na2vs0mg"},{"bike_id":"570bad79-da0a-4f0e-bd71-fcfb4fde31b3","system_id":"levelo_inurba_marseille","lat":43.23955,"lon":5.36635,"is_reserved":false,"is_disabled":true,"rental_uris":{"android":"levelo://app?vid=570bad79-da0a-4f0e-bd71-fcfb4fde31b3","ios":"levelo://app?vid=570bad79-da0a-4f0e-bd71-fcfb4fde31b3"},"vehicle_type_id":"4","last_reported":1733825461,"current_range_meters":33600,"station_id":"ce4bhi12rcd13ifvqfp0","pricing_plan_id":"cebpf4jnsgd1na2vs0mg"},{"bike_id":"0f20b602-7b45-4989-92b6-4d1c64ab5468","system_id":"levelo_inurba_marseille","lat":43.26553,"lon":5.37292,"is_reserved":false,"is_disabled":false,"rental_uris":{"android":"levelo://app?vid=0f20b602-7b45-4989-92b6-4d1c64ab5468","ios":"levelo://app?vid=0f20b602-7b45-4989-92b6-4d1c64ab5468"},"vehicle_type_id":"4","last_reported":1733825461,"current_range_meters":34000,"station_id":"ce4bhg12rcd13ifvqf70","pricing_plan_id":"cebpf4jnsgd1na2vs0mg"},{"bike_id":"a82d634a-a49c-4d39-abc7-6109fc7823f3","system_id":"levelo_inurba_marseille","lat":43.26944,"lon":5.4025,"is_reserved":false,"is_disabled":false,"rental_uris":{"android":"levelo://app?vid=a82d634a-a49c-4d39-abc7-6109fc7823f3","ios":"levelo://app?vid=a82d634a-a49c-4d39-abc7-6109fc7823f3"},"vehicle_type_id":"4","last_reported":1733825461,"current_range_meters":38800,"station_id":"cjm6bp8fraef2m0cb0m0","pricing_plan_id":"cebpf4jnsgd1na2vs0mg"},{"bike_id":"a137d7c7-faef-4058-8263-868184c3ace6","system_id":"levelo_inurba_marseille","lat":43.30544,"lon":5.36695,"is_reserved":false,"is_disabled":false,"rental_uris":{"android":"levelo://app?vid=a137d7c7-faef-4058-8263-868184c3ace6","ios":"levelo://app?vid=a137d7c7-faef-4058-8263-868184c3ace6"},"vehicle_type_id":"4","last_reported":1733825461,"current_range_meters":18800,"station_id":"ce4bgrp2rcd13ifvqc9g","pricing_plan_id":"cebpf4jnsgd1na2vs0mg"},{"bike_id":"8f223178-6a38-4832-a975-4b3ff773e01b","system_id":"levelo_inurba_marseille","lat":43.337444,"lon":5.374475,"is_reserved":false,"is_disabled":false,"rental_uris":{"android":"levelo://app?vid=8f223178-6a38-4832-a975-4b3ff773e01b","ios":"levelo://app?vid=8f223178-6a38-4832-a975-4b3ff773e01b"},"vehicle_type_id":"4","last_reported":1733825461,"current_range_meters":38400,"station_id":"ce4bhbh2rcd13ifvqeo0","pricing_plan_id":"cebpf4jnsgd1na2vs0mg"},{"bike_id":"b45c82dc-9d61-456b-8989-c932c8c42115","system_id":"levelo_inurba_marseille","lat":43.29598,"lon":5.38102,"is_reserved":false,"is_disabled":false,"rental_uris":{"android":"levelo://app?vid=b45c82dc-9d61-456b-8989-c932c8c42115","ios":"levelo://app?vid=b45c82dc-9d61-456b-8989-c932c8c42115"},"vehicle_type_id":"4","last_reported":1733825461,"current_range_meters":38000,"station_id":"ce4bgl12rcd13ifvqbo0","pricing_plan_id":"cebpf4jnsgd1na2vs0mg"},{"bike_id":"e19bbcd4-547c-4c48-9d1e-941b58bfe99b","system_id":"levelo_inurba_marseille","lat":43.31351,"lon":5.36705,"is_reserved":false,"is_disabled":false,"rental_uris":{"android":"levelo://app?vid=e19bbcd4-547c-4c48-9d1e-941b58bfe99b","ios":"levelo://app?vid=e19bbcd4-547c-4c48-9d1e-941b58bfe99b"},"vehicle_type_id":"4","last_reported":1733825461,"current_range_meters":37600,"station_id":"ce4bgr92rcd13ifvqc6g","pricing_plan_id":"cebpf4jnsgd1na2vs0mg"},{"bike_id":"b8e7f883-5b9b-422d-81e9-d00c2442da3b","system_id":"levelo_inurba_marseille","lat":43.23055,"lon":5.35491,"is_reserved":false,"is_disabled":false,"rental_uris":{"android":"levelo://app?vid=b8e7f883-5b9b-422d-81e9-d00c2442da3b","ios":"levelo://app?vid=b8e7f883-5b9b-422d-81e9-d00c2442da3b"},"vehicle_type_id":"4","last_reported":1733825461,"current_range_meters":36800,"station_id":"cpo3342slgdg3j2ifvpg","pricing_plan_id":"cebpf4jnsgd1na2vs0mg"},{"bike_id":"bd8fb896-4629-4fdb-a7c3-d5e4c76b6b63","system_id":"levelo_inurba_marseille","lat":43.33601,"lon":5.4101,"is_reserved":false,"is_disabled":false,"rental_uris":{"android":"levelo://app?vid=bd8fb896-4629-4fdb-a7c3-d5e4c76b6b63","ios":"levelo://app?vid=bd8fb896-4629-4fdb-a7c3-d5e4c76b6b63"},"vehicle_type_id":"4","last_reported":1733825461,"current_range_meters":36800,"station_id":"ce4bhqh2rcd13ifvqhmg","pricing_plan_id":"cebpf4jnsgd1na2vs0mg"},{"bike_id":"c1598c12-4bef-4141-a99f-8dd71c41b81d","system_id":"levelo_inurba_marseille","lat":43.24183,"lon":5.39729,"is_reserved":false,"is_disabled":false,"rental_uris":{"android":"levelo://app?vid=c1598c12-4bef-4141-a99f-8dd71c41b81d","ios":"levelo://app?vid=c1598c12-4bef-4141-a99f-8dd71c41b81d"},"vehicle_type_id":"4","last_reported":1733825461,"current_range_meters":38800,"station_id":"ce4bhn12rcd13ifvqgpg","pricing_plan_id":"cebpf4jnsgd1na2vs0mg"},{"bike_id":"fadc8261-4904-41bb-91df-440ac781a57f","system_id":"levelo_inurba_marseille","lat":43.26666,"lon":5.38273,"is_reserved":false,"is_disabled":false,"rental_uris":{"android":"levelo://app?vid=fadc8261-4904-41bb-91df-440ac781a57f","ios":"levelo://app?vid=fadc8261-4904-41bb-91df-440ac781a57f"},"vehicle_type_id":"4","last_reported":1733825461,"current_range_meters":20400,"station_id":"ce4bhg92rcd13ifvqf90","pricing_plan_id":"cebpf4jnsgd1na2vs0mg"},{"bike_id":"e16c224a-e51e-4885-b82d-7931df0de257","system_id":"levelo_inurba_marseille","lat":43.29938,"lon":5.36545,"is_reserved":false,"is_disabled":false,"rental_uris":{"android":"levelo://app?vid=e16c224a-e51e-4885-b82d-7931df0de257","ios":"levelo://app?vid=e16c224a-e51e-4885-b82d-7931df0de257"},"vehicle_type_id":"4","last_reported":1733825461,"current_range_meters":26800,"station_id":"ce4bgm92rcd13ifvqbr0","pricing_plan_id":"cebpf4jnsgd1na2vs0mg"},{"bike_id":"d89f8d1d-b4f7-42e6-b315-b024fc7c9287","system_id":"levelo_inurba_marseille","lat":43.30543,"lon":5.3843,"is_reserved":false,"is_disabled":false,"rental_uris":{"android":"levelo://app?vid=d89f8d1d-b4f7-42e6-b315-b024fc7c9287","ios":"levelo://app?vid=d89f8d1d-b4f7-42e6-b315-b024fc7c9287"},"vehicle_type_id":"4","last_reported":1733825461,"current_range_meters":38800,"station_id":"ce4bgg92rcd13ifvqb30","pricing_plan_id":"cebpf4jnsgd1na2vs0mg"},{"bike_id":"a93ac60c-1cc7-40c5-952e-5e62a68cd202","system_id":"levelo_inurba_marseille","lat":43.27492,"lon":5.42455,"is_reserved":false,"is_disabled":false,"rental_uris":{"android":"levelo://app?vid=a93ac60c-1cc7-40c5-952e-5e62a68cd202","ios":"levelo://app?vid=a93ac60c-1cc7-40c5-952e-5e62a68cd202"},"vehicle_type_id":"4","last_reported":1733825461,"current_range_meters":31200,"station_id":"ce4bhn92rcd13ifvqgrg","pricing_plan_id":"cebpf4jnsgd1na2vs0mg"},{"bike_id":"a0b44e86-9121-4df3-b62a-0fc9a0d1110c","system_id":"levelo_inurba_marseille","lat":43.23062,"lon":5.3549,"is_reserved":false,"is_disabled":false,"rental_uris":{"android":"levelo://app?vid=a0b44e86-9121-4df3-b62a-0fc9a0d1110c","ios":"levelo://app?vid=a0b44e86-9121-4df3-b62a-0fc9a0d1110c"},"vehicle_type_id":"4","last_reported":1733825461,"current_range_meters":36800,"station_id":"cpo3342slgdg3j2ifvpg","pricing_plan_id":"cebpf4jnsgd1na2vs0mg"},{"bike_id":"2e01685f-56b8-43fb-8326-4885035c7450","system_id":"levelo_inurba_marseille","lat":43.30125,"lon":5.38789,"is_reserved":false,"is_disabled":true,"rental_uris":{"android":"levelo://app?vid=2e01685f-56b8-43fb-8326-4885035c7450","ios":"levelo://app?vid=2e01685f-56b8-43fb-8326-4885035c7450"},"vehicle_type_id":"4","last_reported":1733825461,"current_range_meters":0,"station_id":"ce4bghh2rcd13ifvqb60","pricing_plan_id":"cebpf4jnsgd1na2vs0mg"},{"bike_id":"f87cf9e6-dfc9-4626-bb94-2221a897c82e","system_id":"levelo_inurba_marseille","lat":43.25503,"lon":5.37652,"is_reserved":false,"is_disabled":false,"rental_uris":{"android":"levelo://app?vid=f87cf9e6-dfc9-4626-bb94-2221a897c82e","ios":"levelo://app?vid=f87cf9e6-dfc9-4626-bb94-2221a897c82e"},"vehicle_type_id":"4","last_reported":1733825461,"current_range_meters":38800,"station_id":"ce4bhh12rcd13ifvqff0","pricing_plan_id":"cebpf4jnsgd1na2vs0mg"},{"bike_id":"49ea9bbd-2ccd-404e-be2a-db96c6955249","system_id":"levelo_inurba_marseille","lat":43.26944,"lon":5.38627,"is_reserved":false,"is_disabled":false,"rental_uris":{"android":"levelo://app?vid=49ea9bbd-2ccd-404e-be2a-db96c6955249","ios":"levelo://app?vid=49ea9bbd-2ccd-404e-be2a-db96c6955249"},"vehicle_type_id":"4","last_reported":1733825461,"current_range_meters":18000,"station_id":"ce4bhh92rcd13ifvqfh0","pricing_plan_id":"cebpf4jnsgd1na2vs0mg"},{"bike_id":"127262d1-6a7c-4722-a817-f0ae38c2b2d7","system_id":"levelo_inurba_marseille","lat":43.25492,"lon":5.37648,"is_reserved":false,"is_disabled":false,"rental_uris":{"android":"levelo://app?vid=127262d1-6a7c-4722-a817-f0ae38c2b2d7","ios":"levelo://app?vid=127262d1-6a7c-4722-a817-f0ae38c2b2d7"},"vehicle_type_id":"4","last_reported":1733825461,"current_range_meters":38800,"station_id":"ce4bhh12rcd13ifvqff0","pricing_plan_id":"cebpf4jnsgd1na2vs0mg"},{"bike_id":"7e749203-e65f-4568-9a38-3d171fcfa066","system_id":"levelo_inurba_marseille","lat":43.29191,"lon":5.39322,"is_reserved":false,"is_disabled":false,"rental_uris":{"android":"levelo://app?vid=7e749203-e65f-4568-9a38-3d171fcfa066","ios":"levelo://app?vid=7e749203-e65f-4568-9a38-3d171fcfa066"},"vehicle_type_id":"4","last_reported":1733825461,"current_range_meters":36800,"station_id":"ce4bh192rcd13ifvqdd0","pricing_plan_id":"cebpf4jnsgd1na2vs0mg"},{"bike_id":"4ae5fe7f-a755-40fe-9b35-59fbb2437146","system_id":"levelo_inurba_marseille","lat":43.24165,"lon":5.36408,"is_reserved":false,"is_disabled":false,"rental_uris":{"android":"levelo://app?vid=4ae5fe7f-a755-40fe-9b35-59fbb2437146","ios":"levelo://app?vid=4ae5fe7f-a755-40fe-9b35-59fbb2437146"},"vehicle_type_id":"4","last_reported":1733825461,"current_range_meters":17200,"station_id":"cpo36qri1sfpv3e86is0","pricing_plan_id":"cebpf4jnsgd1na2vs0mg"},{"bike_id":"eab7c24e-3533-4637-b397-5e46bc48ccfd","system_id":"levelo_inurba_marseille","lat":43.23143,"lon":5.43725,"is_reserved":false,"is_disabled":true,"rental_uris":{"android":"levelo://app?vid=eab7c24e-3533-4637-b397-5e46bc48ccfd","ios":"levelo://app?vid=eab7c24e-3533-4637-b397-5e46bc48ccfd"},"vehicle_type_id":"4","last_reported":1733825461,"current_range_meters":6000,"station_id":"ce4bhmp2rcd13ifvqgog","pricing_plan_id":"cebpf4jnsgd1na2vs0mg"},{"bike_id":"25cc2f20-0fb1-4ffa-aae8-82c0b8146d0a","system_id":"levelo_inurba_marseille","lat":43.30906,"lon":5.3686,"is_reserved":false,"is_disabled":false,"rental_uris":{"android":"levelo://app?vid=25cc2f20-0fb1-4ffa-aae8-82c0b8146d0a","ios":"levelo://app?vid=25cc2f20-0fb1-4ffa-aae8-82c0b8146d0a"},"vehicle_type_id":"4","last_reported":1733825461,"current_range_meters":24800,"station_id":"ce4bgn92rcd13ifvqbvg","pricing_plan_id":"cebpf4jnsgd1na2vs0mg"},{"bike_id":"80d13639-8a13-4cb2-936c-9770fc09ac47","system_id":"levelo_inurba_marseille","lat":43.29197,"lon":5.39332,"is_reserved":false,"is_disabled":false,"rental_uris":{"android":"levelo://app?vid=80d13639-8a13-4cb2-936c-9770fc09ac47","ios":"levelo://app?vid=80d13639-8a13-4cb2-936c-9770fc09ac47"},"vehicle_type_id":"4","last_reported":1733825461,"current_range_meters":19600,"station_id":"ce4bh192rcd13ifvqdd0","pricing_plan_id":"cebpf4jnsgd1na2vs0mg"},{"bike_id":"52faddf1-0ff3-4206-8aa8-aff9638128da","system_id":"levelo_inurba_marseille","lat":43.29286,"lon":5.37448,"is_reserved":false,"is_disabled":true,"rental_uris":{"android":"levelo://app?vid=52faddf1-0ff3-4206-8aa8-aff9638128da","ios":"levelo://app?vid=52faddf1-0ff3-4206-8aa8-aff9638128da"},"vehicle_type_id":"4","last_reported":1733825461,"current_range_meters":38800,"station_id":"ce4bgi12rcd13ifvqb70","pricing_plan_id":"cebpf4jnsgd1na2vs0mg"},{"bike_id":"544c27fd-ed8e-4be4-bdf7-816e7be9ce00","system_id":"levelo_inurba_marseille","lat":43.28941,"lon":5.36643,"is_reserved":false,"is_disabled":false,"rental_uris":{"android":"levelo://app?vid=544c27fd-ed8e-4be4-bdf7-816e7be9ce00","ios":"levelo://app?vid=544c27fd-ed8e-4be4-bdf7-816e7be9ce00"},"vehicle_type_id":"4","last_reported":1733825461,"current_range_meters":24800,"station_id":"ce4bhap2rcd13ifvqek0","pricing_plan_id":"cebpf4jnsgd1na2vs0mg"},{"bike_id":"41b109e1-7867-4eed-b84d-27444e7d34b9","system_id":"levelo_inurba_marseille","lat":43.29372,"lon":5.37858,"is_reserved":false,"is_disabled":false,"rental_uris":{"android":"levelo://app?vid=41b109e1-7867-4eed-b84d-27444e7d34b9","ios":"levelo://app?vid=41b109e1-7867-4eed-b84d-27444e7d34b9"},"vehicle_type_id":"4","last_reported":1733825461,"current_range_meters":38000,"station_id":"ce4bgjh2rcd13ifvqbf0","pricing_plan_id":"cebpf4jnsgd1na2vs0mg"},{"bike_id":"962a96b4-3298-40d0-92e0-1b449f02c0fe","system_id":"levelo_inurba_marseille","lat":43.25494,"lon":5.37647,"is_reserved":false,"is_disabled":true,"rental_uris":{"android":"levelo://app?vid=962a96b4-3298-40d0-92e0-1b449f02c0fe","ios":"levelo://app?vid=962a96b4-3298-40d0-92e0-1b449f02c0fe"},"vehicle_type_id":"4","last_reported":1733825461,"current_range_meters":36800,"station_id":"ce4bhh12rcd13ifvqff0","pricing_plan_id":"cebpf4jnsgd1na2vs0mg"},{"bike_id":"d73fdcb9-23ea-4494-b7d9-77b27c38bfbd","system_id":"levelo_inurba_marseille","lat":43.31225,"lon":5.36863,"is_reserved":false,"is_disabled":false,"rental_uris":{"android":"levelo://app?vid=d73fdcb9-23ea-4494-b7d9-77b27c38bfbd","ios":"levelo://app?vid=d73fdcb9-23ea-4494-b7d9-77b27c38bfbd"},"vehicle_type_id":"4","last_reported":1733825461,"current_range_meters":38800,"station_id":"ce4bgl92rcd13ifvqbq0","pricing_plan_id":"cebpf4jnsgd1na2vs0mg"},{"bike_id":"ba5e4c54-9e0f-419d-acd3-894b4507a88b","system_id":"levelo_inurba_marseille","lat":43.23055,"lon":5.35487,"is_reserved":false,"is_disabled":false,"rental_uris":{"android":"levelo://app?vid=ba5e4c54-9e0f-419d-acd3-894b4507a88b","ios":"levelo://app?vid=ba5e4c54-9e0f-419d-acd3-894b4507a88b"},"vehicle_type_id":"4","last_reported":1733825461,"current_range_meters":26800,"station_id":"cpo3342slgdg3j2ifvpg","pricing_plan_id":"cebpf4jnsgd1na2vs0mg"},{"bike_id":"5afb1b92-fb80-47e9-aa2d-ce68d5b76fee","system_id":"levelo_inurba_marseille","lat":43.29894,"lon":5.38904,"is_reserved":false,"is_disabled":false,"rental_uris":{"android":"levelo://app?vid=5afb1b92-fb80-47e9-aa2d-ce68d5b76fee","ios":"levelo://app?vid=5afb1b92-fb80-47e9-aa2d-ce68d5b76fee"},"vehicle_type_id":"4","last_reported":1733825461,"current_range_meters":30400,"station_id":"ce4bh392rcd13ifvqdl0","pricing_plan_id":"cebpf4jnsgd1na2vs0mg"},{"bike_id":"e11e5398-2b26-4eb7-9ef7-831791928bde","system_id":"levelo_inurba_marseille","lat":43.31343,"lon":5.36727,"is_reserved":false,"is_disabled":false,"rental_uris":{"android":"levelo://app?vid=e11e5398-2b26-4eb7-9ef7-831791928bde","ios":"levelo://app?vid=e11e5398-2b26-4eb7-9ef7-831791928bde"},