{"last_updated":1752700249,"ttl":60,"version":"2.2","data":{"bikes":[{"bike_id":"53b742a7-31ae-4272-9bba-7740339e2a2f","system_id":"levelo_inurba_marseille","lat":43.33747,"lon":5.37463,"is_reserved":false,"is_disabled":false,"rental_uris":{"android":"levelo://app?vid=53b742a7-31ae-4272-9bba-7740339e2a2f","ios":"levelo://app?vid=53b742a7-31ae-4272-9bba-7740339e2a2f"},"vehicle_type_id":"1","last_reported":1752700250,"current_range_meters":27600,"station_id":"","pricing_plan_id":"cebpf4jnsgd1na2vs0mg"},{"bike_id":"1ee19f79-d7f7-44cf-9385-f9958580de39","system_id":"levelo_inurba_marseille","lat":43.33608,"lon":5.40994,"is_reserved":false,"is_disabled":false,"rental_uris":{"android":"levelo://app?vid=1ee19f79-d7f7-44cf-9385-f9958580de39","ios":"levelo://app?vid=1ee19f79-d7f7-44cf-9385-f9958580de39"},"vehicle_type_id":"4","last_reported":1752700250,"current_range_meters":2800,"station_id":"ce4bhqh2rcd13ifvqhmg","pricing_plan_id":"cebpf4jnsgd1na2vs0mg"},{"bike_id":"da62ebd2-75ff-45b9-8331-5082331eb1fb","system_id":"levelo_inurba_marseille","lat":43.31306,"lon":5.38498,"is_reserved":false,"is_disabled":false,"rental_uris":{"android":"levelo://app?vid=da62ebd2-75ff-45b9-8331-5082331eb1fb","ios":"levelo://app?vid=da62ebd2-75ff-45b9-8331-5082331eb1fb"},"vehicle_type_id":"4","last_reported":1752700250,"current_range_meters":2800,"station_id":"","pricing_plan_id":"cebpf4jnsgd1na2vs0mg"},{"bike_id":"5579b2a6-8c50-448a-accc-694b66a7eb0e","system_id":"levelo_inurba_marseille","lat":43.30608,"lon":5.3718,"is_reserved":false,"is_disabled":false,"rental_uris":{"android":"levelo://app?vid=5579b2a6-8c50-448a-accc-694b66a7eb0e","ios":"levelo://app?vid=5579b2a6-8c50-448a-accc-694b66a7eb0e"},"vehicle_type_id":"4","last_reported":1752700250,"current_range_meters":3200,"station_id":"ce4bgqh2rcd13ifvqc4g","pricing_plan_id":"cebpf4jnsgd1na2vs0mg"},{"bike_id":"1d35db65-de52-4c31-9b60-51439196987d","system_id":"levelo_inurba_marseille","lat":43.26212,"lon":5.37443,"is_reserved":false,"is_disabled":false,"rental_uris":{"android":"levelo://app?vid=1d35db65-de52-4c31-9b60-51439196987d","ios":"levelo://app?vid=1d35db65-de52-4c31-9b60-51439196987d"},"vehicle_type_id":"4","last_reported":1752700250,"current_range_meters":3200,"station_id":"ce4bhgp2rcd13ifvqfc0","pricing_plan_id":"cebpf4jnsgd1na2vs0mg"},{"bike_id":"8b40b24c-d155-47a8-9e93-ba1841c8e603","system_id":"levelo_inurba_marseille","lat":43.2603,"lon":5.37548,"is_reserved":false,"is_disabled":false,"rental_uris":{"android":"levelo://app?vid=8b40b24c-d155-47a8-9e93-ba1841c8e603","ios":"levelo://app?vid=8b40b24c-d155-47a8-9e93-ba1841c8e603"},"vehicle_type_id":"4","last_reported":1752700250,"current_range_meters":3200,"station_id":"ce4bhgh2rcd13ifvqfa0","pricing_plan_id":"cebpf4jnsgd1na2vs0mg"},{"bike_id":"37d6cf8b-ff71-4623-ad2e-6b4c6fc28c73","system_id":"levelo_inurba_marseille","lat":43.28607,"lon":5.37069,"is_reserved":false,"is_disabled":false,"rental_uris":{"android":"levelo://app?vid=37d6cf8b-ff71-4623-ad2e-6b4c6fc28c73","ios":"levelo://app?vid=37d6cf8b-ff71-4623-ad2e-6b4c6fc28c73"},"vehicle_type_id":"4","last_reported":1752700250,"current_range_meters":3600,"station_id":"ce4bht12rcd13ifvqi60","pricing_plan_id":"cebpf4jnsgd1na2vs0mg"},{"bike_id":"1ca96a3a-e695-4598-9226-8ef43ee55fb4","system_id":"levelo_inurba_marseille","lat":43.31271,"lon":5.40184,"is_reserved":false,"is_disabled":false,"rental_uris":{"android":"levelo://app?vid=1ca96a3a-e695-4598-9226-8ef43ee55fb4","ios":"levelo://app?vid=1ca96a3a-e695-4598-9226-8ef43ee55fb4"},"vehicle_type_id":"4","last_reported":1752700250,"current_range_meters":4000,"station_id":"ce4bh092rcd13ifvqd30","pricing_plan_id":"cebpf4jnsgd1na2vs0mg"},{"bike_id":"8e976a61-6649-4d3f-9413-89bdc40bf74f","system_id":"levelo_inurba_marseille","lat":43.2904,"lon":5.39962,"is_reserved":false,"is_disabled":false,"rental_uris":{"android":"levelo://app?vid=8e976a61-6649-4d3f-9413-89bdc40bf74f","ios":"levelo://app?vid=8e976a61-6649-4d3f-9413-89bdc40bf74f"},"vehicle_type_id":"4","last_reported":1752700250,"current_range_meters":4400,"station_id":"ce4bh392rcd13ifvqdm0","pricing_plan_id":"cebpf4jnsgd1na2vs0mg"},{"bike_id":"892165f6-25a5-4f0a-a9a6-cf4efe50c3be","system_id":"levelo_inurba_marseille","lat":43.248461,"lon":5.425297,"is_reserved":false,"is_disabled":false,"rental_uris":{"android":"levelo://app?vid=892165f6-25a5-4f0a-a9a6-cf4efe50c3be","ios":"levelo://app?vid=892165f6-25a5-4f0a-a9a6-cf4efe50c3be"},"vehicle_type_id":"4","last_reported":1752700250,"current_range_meters":4800,"station_id":"","pricing_plan_id":"cebpf4jnsgd1na2vs0mg"},{"bike_id":"4e1c2498-b254-44c2-990c-637e3157b71e","system_id":"levelo_inurba_marseille","lat":43.26212,"lon":5.37442,"is_reserved":false,"is_disabled":true,"rental_uris":{"android":"levelo://app?vid=4e1c2498-b254-44c2-990c-637e3157b71e","ios":"levelo://app?vid=4e1c2498-b254-44c2-990c-637e3157b71e"},"vehicle_type_id":"4","last_reported":1752700250,"current_range_meters":4800,"station_id":"ce4bhgp2rcd13ifvqfc0","pricing_plan_id":"cebpf4jnsgd1na2vs0mg"},{"bike_id":"cde8ad4b-763f-4987-b138-0c4e040ad4cb","system_id":"levelo_inurba_marseille","lat":43.292816,"lon":5.384375,"is_reserved":false,"is_disabled":false,"rental_uris":{"android":"levelo://app?vid=cde8ad4b-763f-4987-b138-0c4e040ad4cb","ios":"levelo://app?vid=cde8ad4b-763f-4987-b138-0c4e040ad4cb"},"vehicle_type_id":"4","last_reported":1752700250,"current_range_meters":4800,"station_id":"ce4bh692rcd13ifvqea0","pricing_plan_id":"cebpf4jnsgd1na2vs0mg"},{"bike_id":"7df8af66-1dbf-453d-99b6-35b0fe82d7da","system_id":"levelo_inurba_marseille","lat":43.29575,"lon":5.36768,"is_reserved":false,"is_disabled":false,"rental_uris":{"android":"levelo://app?vid=7df8af66-1dbf-453d-99b6-35b0fe82d7da","ios":"levelo://app?vid=7df8af66-1dbf-453d-99b6-35b0fe82d7da"},"vehicle_type_id":"4","last_reported":1752700250,"current_range_meters":4800,"station_id":"ce4bgph2rcd13ifvqc2g","pricing_plan_id":"cebpf4jnsgd1na2vs0mg"},{"bike_id":"50f98cc7-e2ed-4546-88a0-2f6fa5efb653","system_id":"levelo_inurba_marseille","lat":43.24164,"lon":5.36398,"is_reserved":false,"is_disabled":false,"rental_uris":{"android":"levelo://app?vid=50f98cc7-e2ed-4546-88a0-2f6fa5efb653","ios":"levelo://app?vid=50f98cc7-e2ed-4546-88a0-2f6fa5efb653"},"vehicle_type_id":"4","last_reported":1752700250,"current_range_meters":4800,"station_id":"cpo36qri1sfpv3e86is0","pricing_plan_id":"cebpf4jnsgd1na2vs0mg"},{"bike_id":"cb98f2d1-9294-40aa-8451-6bcf39af84aa","system_id":"levelo_inurba_marseille","lat":43.26202,"lon":5.37424,"is_reserved":false,"is_disabled":true,"rental_uris":{"android":"levelo://app?vid=cb98f2d1-9294-40aa-8451-6bcf39af84aa","ios":"levelo://app?vid=cb98f2d1-9294-40aa-8451-6bcf39af84aa"},"vehicle_type_id":"4","last_reported":1752700250,"current_range_meters":4800,"station_id":"ce4bhgp2rcd13ifvqfc0","pricing_plan_id":"cebpf4jnsgd1na2vs0mg"},{"bike_id":"c3f89d9a-6fab-44a9-a1b1-0ff568c75c33","system_id":"levelo_inurba_marseille","lat":43.2872,"lon":5.36093,"is_reserved":false,"is_disabled":false,"rental_uris":{"android":"levelo://app?vid=c3f89d9a-6fab-44a9-a1b1-0ff568c75c33","ios":"levelo://app?vid=c3f89d9a-6fab-44a9-a1b1-0ff568c75c33"},"vehicle_type_id":"4","last_reported":1752700250,"current_range_meters":4800,"station_id":"cki0cbj6b192h4jlfktg","pricing_plan_id":"cebpf4jnsgd1na2vs0mg"},{"bike_id":"c2524652-ff1d-4e83-8858-3f008135ece5","system_id":"levelo_inurba_marseille","lat":43.28078,"lon":5.39662,"is_reserved":false,"is_disabled":false,"rental_uris":{"android":"levelo://app?vid=c2524652-ff1d-4e83-8858-3f008135ece5","ios":"levelo://app?vid=c2524652-ff1d-4e83-8858-3f008135ece5"},"vehicle_type_id":"4","last_reported":1752700250,"current_range_meters":5600,"station_id":"ce4bho12rcd13ifvqh2g","pricing_plan_id":"cebpf4jnsgd1na2vs0mg"},{"bike_id":"2eded889-71fd-47e9-8cec-174384ab95b9","system_id":"levelo_inurba_marseille","lat":43.28407,"lon":5.37519,"is_reserved":false,"is_disabled":false,"rental_uris":{"android":"levelo://app?vid=2eded889-71fd-47e9-8cec-174384ab95b9","ios":"levelo://app?vid=2eded889-71fd-47e9-8cec-174384ab95b9"},"vehicle_type_id":"4","last_reported":1752700250,"current_range_meters":4800,"station_id":"ce4bh412rcd13ifvqds0","pricing_plan_id":"cebpf4jnsgd1na2vs0mg"},{"bike_id":"e2f2f893-16c7-42e5-8c51-893940a1136e","system_id":"levelo_inurba_marseille","lat":43.30111,"lon":5.36875,"is_reserved":false,"is_disabled":false,"rental_uris":{"android":"levelo://app?vid=e2f2f893-16c7-42e5-8c51-893940a1136e","ios":"levelo://app?vid=e2f2f893-16c7-42e5-8c51-893940a1136e"},"vehicle_type_id":"4","last_reported":1752700250,"current_range_meters":6000,"station_id":"","pricing_plan_id":"cebpf4jnsgd1na2vs0mg"},{"bike_id":"4f104e46-b7c9-4389-9184-0220dfe15939","system_id":"levelo_inurba_marseille","lat":43.28079,"lon":5.39664,"is_reserved":false,"is_disabled":false,"rental_uris":{"android":"levelo://app?vid=4f104e46-b7c9-4389-9184-0220dfe15939","ios":"levelo://app?vid=4f104e46-b7c9-4389-9184-0220dfe15939"},"vehicle_type_id":"4","last_reported":1752700250,"current_range_meters":6000,"station_id":"ce4bho12rcd13ifvqh2g","pricing_plan_id":"cebpf4jnsgd1na2vs0mg"},{"bike_id":"cce8c47e-3516-4b27-8a7b-35a00b5e6d2f","system_id":"levelo_inurba_marseille","lat":43.267829,"lon":5.394134,"is_reserved":false,"is_disabled":false,"rental_uris":{"android":"levelo://app?vid=cce8c47e-3516-4b27-8a7b-35a00b5e6d2f","ios":"levelo://app?vid=cce8c47e-3516-4b27-8a7b-35a00b5e6d2f"},"vehicle_type_id":"4","last_reported":1752700250,"current_range_meters":6000,"station_id":"ce4bhh12rcd13ifvqfg0","pricing_plan_id":"cebpf4jnsgd1na2vs0mg"},{"bike_id":"5ff06d2e-1fcb-4f7f-b26f-494ef01051e2","system_id":"levelo_inurba_marseille","lat":43.26587,"lon":5.39483,"is_reserved":false,"is_disabled":true,"rental_uris":{"android":"levelo://app?vid=5ff06d2e-1fcb-4f7f-b26f-494ef01051e2","ios":"levelo://app?vid=5ff06d2e-1fcb-4f7f-b26f-494ef01051e2"},"vehicle_type_id":"4","last_reported":1752700250,"current_range_meters":6000,"station_id":"","pricing_plan_id":"cebpf4jnsgd1na2vs0mg"},{"bike_id":"00675259-8d54-4e3d-b47e-c11ab42c6d39","system_id":"levelo_inurba_marseille","lat":43.29783,"lon":5.39364,"is_reserved":false,"is_disabled":false,"rental_uris":{"android":"levelo://app?vid=00675259-8d54-4e3d-b47e-c11ab42c6d39","ios":"levelo://app?vid=00675259-8d54-4e3d-b47e-c11ab42c6d39"},"vehicle_type_id":"4","last_reported":1752700250,"current_range_meters":6000,"station_id":"chh1huq6cuj3fo74tm60","pricing_plan_id":"cebpf4jnsgd1na2vs0mg"},{"bike_id":"937e3fcf-18b1-43e4-b052-13ba8fcb4955","system_id":"levelo_inurba_marseille","lat":43.31713,"lon":5.37741,"is_reserved":false,"is_disabled":false,"rental_uris":{"android":"levelo://app?vid=937e3fcf-18b1-43e4-b052-13ba8fcb4955","ios":"levelo://app?vid=937e3fcf-18b1-43e4-b052-13ba8fcb4955"},"vehicle_type_id":"4","last_reported":1752700250,"current_range_meters":5600,"station_id":"ce4bgth2rcd13ifvqch0","pricing_plan_id":"cebpf4jnsgd1na2vs0mg"},{"bike_id":"a8ce6efe-50ae-4699-a953-570b09452efb","system_id":"levelo_inurba_marseille","lat":43.25008,"lon":5.38918,"is_reserved":false,"is_disabled":true,"rental_uris":{"android":"levelo://app?vid=a8ce6efe-50ae-4699-a953-570b09452efb","ios":"levelo://app?vid=a8ce6efe-50ae-4699-a953-570b09452efb"},"vehicle_type_id":"4","last_reported":1752700250,"current_range_meters":6000,"station_id":"ce4bhgp2rcd13ifvqfd0","pricing_plan_id":"cebpf4jnsgd1na2vs0mg"},{"bike_id":"8b34f05a-b686-47a9-8a82-50a771bc1c45","system_id":"levelo_inurba_marseille","lat":43.28851,"lon":5.39313,"is_reserved":false,"is_disabled":false,"rental_uris":{"android":"levelo://app?vid=8b34f05a-b686-47a9-8a82-50a771bc1c45","ios":"levelo://app?vid=8b34f05a-b686-47a9-8a82-50a771bc1c45"},"vehicle_type_id":"4","last_reported":1752700250,"current_range_meters":6400,"station_id":"ce4bh2p2rcd13ifvqdi0","pricing_plan_id":"cebpf4jnsgd1na2vs0mg"},{"bike_id":"9b17552d-01e4-44a4-80ff-8c26a3e08876","system_id":"levelo_inurba_marseille","lat":43.298859,"lon":5.388982,"is_reserved":false,"is_disabled":false,"rental_uris":{"android":"levelo://app?vid=9b17552d-01e4-44a4-80ff-8c26a3e08876","ios":"levelo://app?vid=9b17552d-01e4-44a4-80ff-8c26a3e08876"},"vehicle_type_id":"4","last_reported":1752700250,"current_range_meters":6400,"station_id":"ce4bh392rcd13ifvqdl0","pricing_plan_id":"cebpf4jnsgd1na2vs0mg"},{"bike_id":"5b439a38-1847-48b1-994f-6e8393860143","system_id":"levelo_inurba_marseille","lat":43.29032,"lon":5.39973,"is_reserved":false,"is_disabled":false,"rental_uris":{"android":"levelo://app?vid=5b439a38-1847-48b1-994f-6e8393860143","ios":"levelo://app?vid=5b439a38-1847-48b1-994f-6e8393860143"},"vehicle_type_id":"4","last_reported":1752700250,"current_range_meters":6800,"station_id":"ce4bh392rcd13ifvqdm0","pricing_plan_id":"cebpf4jnsgd1na2vs0mg"},{"bike_id":"58f95986-ca12-4bd6-92b2-9e0124bf46e5","system_id":"levelo_inurba_marseille","lat":43.28662,"lon":5.38677,"is_reserved":false,"is_disabled":false,"rental_uris":{"android":"levelo://app?vid=58f95986-ca12-4bd6-92b2-9e0124bf46e5","ios":"levelo://app?vid=58f95986-ca12-4bd6-92b2-9e0124bf46e5"},"vehicle_type_id":"4","last_reported":1752700250,"current_range_meters":6800,"station_id":"ce4bh492rcd13ifvqdug","pricing_plan_id":"cebpf4jnsgd1na2vs0mg"},{"bike_id":"3859f018-7b5f-469a-871e-d6832dcfaf8e","system_id":"levelo_inurba_marseille","lat":43.24815,"lon":5.37467,"is_reserved":false,"is_disabled":true,"rental_uris":{"android":"levelo://app?vid=3859f018-7b5f-469a-871e-d6832dcfaf8e","ios":"levelo://app?vid=3859f018-7b5f-469a-871e-d6832dcfaf8e"},"vehicle_type_id":"4","last_reported":1752700250,"current_range_meters":6800,"station_id":"ce4bhgh2rcd13ifvqfb0","pricing_plan_id":"cebpf4jnsgd1na2vs0mg"},{"bike_id":"d4fc0619-e005-4355-a8e5-f4bcbe0879ed","system_id":"levelo_inurba_marseille","lat":43.31077,"lon":5.42432,"is_reserved":false,"is_disabled":false,"rental_uris":{"android":"levelo://app?vid=d4fc0619-e005-4355-a8e5-f4bcbe0879ed","ios":"levelo://app?vid=d4fc0619-e005-4355-a8e5-f4bcbe0879ed"},"vehicle_type_id":"4","last_reported":1752700250,"current_range_meters":6800,"station_id":"ce4bhp92rcd13ifvqhag","pricing_plan_id":"cebpf4jnsgd1na2vs0mg"},{"bike_id":"e5ec4b25-dbcc-42eb-bf86-2cca309a0b15","system_id":"levelo_inurba_marseille","lat":43.264945,"lon":5.395365,"is_reserved":false,"is_disabled":true,"rental_uris":{"android":"levelo://app?vid=e5ec4b25-dbcc-42eb-bf86-2cca309a0b15","ios":"levelo://app?vid=e5ec4b25-dbcc-42eb-bf86-2cca309a0b15"},"vehicle_type_id":"4","last_reported":1752700250,"current_range_meters":6800,"station_id":"","pricing_plan_id":"cebpf4jnsgd1na2vs0mg"},{"bike_id":"a5bdb2e0-c3f4-41aa-9533-167aa90b02d7","system_id":"levelo_inurba_marseille","lat":43.292631,"lon":5.3844,"is_reserved":false,"is_disabled":false,"rental_uris":{"android":"levelo://app?vid=a5bdb2e0-c3f4-41aa-9533-167aa90b02d7","ios":"levelo://app?vid=a5bdb2e0-c3f4-41aa-9533-167aa90b02d7"},"vehicle_type_id":"4","last_reported":1752700250,"current_range_meters":6800,"station_id":"","pricing_plan_id":"cebpf4jnsgd1na2vs0mg"},{"bike_id":"1b34f383-6b09-4fb5-9d9d-a5b977d6b4c3","system_id":"levelo_inurba_marseille","lat":43.2466,"lon":5.38165,"is_reserved":false,"is_disabled":false,"rental_uris":{"android":"levelo://app?vid=1b34f383-6b09-4fb5-9d9d-a5b977d6b4c3","ios":"levelo://app?vid=1b34f383-6b09-4fb5-9d9d-a5b977d6b4c3"},"vehicle_type_id":"4","last_reported":1752700250,"current_range_meters":7200,"station_id":"ce4bhih2rcd13ifvqfr0","pricing_plan_id":"cebpf4jnsgd1na2vs0mg"},{"bike_id":"d758fb97-b2c6-4a33-8384-4d96bde9cf1a","system_id":"levelo_inurba_marseille","lat":43.336111,"lon":5.410386,"is_reserved":false,"is_disabled":false,"rental_uris":{"android":"levelo://app?vid=d758fb97-b2c6-4a33-8384-4d96bde9cf1a","ios":"levelo://app?vid=d758fb97-b2c6-4a33-8384-4d96bde9cf1a"},"vehicle_type_id":"4","last_reported":1752700250,"current_range_meters":7200,"station_id":"ce4bhqh2rcd13ifvqhmg","pricing_plan_id":"cebpf4jnsgd1na2vs0mg"},{"bike_id":"19ffc124-6e73-4ffc-990d-526b1ee71b86","system_id":"levelo_inurba_marseille","lat":43.29949,"lon":5.36534,"is_reserved":false,"is_disabled":false,"rental_uris":{"android":"levelo://app?vid=19ffc124-6e73-4ffc-990d-526b1ee71b86","ios":"levelo://app?vid=19ffc124-6e73-4ffc-990d-526b1ee71b86"},"vehicle_type_id":"4","last_reported":1752700250,"current_range_meters":7200,"station_id":"ce4bgm92rcd13ifvqbr0","pricing_plan_id":"cebpf4jnsgd1na2vs0mg"},{"bike_id":"bdadbfdd-02ec-43df-a8ac-0ce1d617c55c","system_id":"levelo_inurba_marseille","lat":43.28706,"lon":5.3739,"is_reserved":false,"is_disabled":false,"rental_uris":{"android":"levelo://app?vid=bdadbfdd-02ec-43df-a8ac-0ce1d617c55c","ios":"levelo://app?vid=bdadbfdd-02ec-43df-a8ac-0ce1d617c55c"},"vehicle_type_id":"4","last_reported":1752700250,"current_range_meters":7200,"station_id":"ce4bh3p2rcd13ifvqdq0","pricing_plan_id":"cebpf4jnsgd1na2vs0mg"},{"bike_id":"9bef9fd3-a179-4977-b5c1-723a39183134","system_id":"levelo_inurba_marseille","lat":43.29571,"lon":5.42285,"is_reserved":false,"is_disabled":false,"rental_uris":{"android":"levelo://app?vid=9bef9fd3-a179-4977-b5c1-723a39183134","ios":"levelo://app?vid=9bef9fd3-a179-4977-b5c1-723a39183134"},"vehicle_type_id":"4","last_reported":1752700250,"current_range_meters":7200,"station_id":"ce4bhph2rcd13ifvqhdg","pricing_plan_id":"cebpf4jnsgd1na2vs0mg"},{"bike_id":"3dac9d7d-1ff5-4f52-afe9-34afece65d9e","system_id":"levelo_inurba_marseille","lat":43.2991,"lon":5.38161,"is_reserved":false,"is_disabled":false,"rental_uris":{"android":"levelo://app?vid=3dac9d7d-1ff5-4f52-afe9-34afece65d9e","ios":"levelo://app?vid=3dac9d7d-1ff5-4f52-afe9-34afece65d9e"},"vehicle_type_id":"4","last_reported":1752700250,"current_range_meters":8000,"station_id":"ce4bgj12rcd13ifvqbc0","pricing_plan_id":"cebpf4jnsgd1na2vs0mg"},{"bike_id":"b2691039-7ff6-41ed-9b25-53013cba226e","system_id":"levelo_inurba_marseille","lat":43.34163,"lon":5.40904,"is_reserved":false,"is_disabled":false,"rental_uris":{"android":"levelo://app?vid=b2691039-7ff6-41ed-9b25-53013cba226e","ios":"levelo://app?vid=b2691039-7ff6-41ed-9b25-53013cba226e"},"vehicle_type_id":"4","last_reported":1752700250,"current_range_meters":8000,"station_id":"ce4bhqh2rcd13ifvqhlg","pricing_plan_id":"cebpf4jnsgd1na2vs0mg"},{"bike_id":"f2f1e358-671c-43dc-83ac-76eb27113194","system_id":"levelo_inurba_marseille","lat":43.30424,"lon":5.41277,"is_reserved":false,"is_disabled":false,"rental_uris":{"android":"levelo://app?vid=f2f1e358-671c-43dc-83ac-76eb27113194","ios":"levelo://app?vid=f2f1e358-671c-43dc-83ac-76eb27113194"},"vehicle_type_id":"4","last_reported":1752700250,"current_range_meters":8000,"station_id":"ce4bhop2rcd13ifvqh8g","pricing_plan_id":"cebpf4jnsgd1na2vs0mg"},{"bike_id":"0895dc70-7c1a-43e5-b7c1-f859e1b4306e","system_id":"levelo_inurba_marseille","lat":43.2843,"lon":5.39186,"is_reserved":false,"is_disabled":false,"rental_uris":{"android":"levelo://app?vid=0895dc70-7c1a-43e5-b7c1-f859e1b4306e","ios":"levelo://app?vid=0895dc70-7c1a-43e5-b7c1-f859e1b4306e"},"vehicle_type_id":"4","last_reported":1752700250,"current_range_meters":7200,"station_id":"ce4bhoh2rcd13ifvqh5g","pricing_plan_id":"cebpf4jnsgd1na2vs0mg"},{"bike_id":"0c80b094-4e3d-4ece-92d9-174821a1cbf1","system_id":"levelo_inurba_marseille","lat":43.30414,"lon":5.4128,"is_reserved":false,"is_disabled":false,"rental_uris":{"android":"levelo://app?vid=0c80b094-4e3d-4ece-92d9-174821a1cbf1","ios":"levelo://app?vid=0c80b094-4e3d-4ece-92d9-174821a1cbf1"},"vehicle_type_id":"4","last_reported":1752700250,"current_range_meters":12000,"station_id":"ce4bhop2rcd13ifvqh8g","pricing_plan_id":"cebpf4jnsgd1na2vs0mg"},{"bike_id":"080b0f22-14dd-4044-a18f-ee7f74366cea","system_id":"levelo_inurba_marseille","lat":43.31986,"lon":5.38161,"is_reserved":false,"is_disabled":true,"rental_uris":{"android":"levelo://app?vid=080b0f22-14dd-4044-a18f-ee7f74366cea","ios":"levelo://app?vid=080b0f22-14dd-4044-a18f-ee7f74366cea"},"vehicle_type_id":"4","last_reported":1752700250,"current_range_meters":8000,"station_id":"ce4bhr12rcd13ifvqhpg","pricing_plan_id":"cebpf4jnsgd1na2vs0mg"},{"bike_id":"2c6e34ec-e4ad-4b55-908f-732bdcecdb2f","system_id":"levelo_inurba_marseille","lat":43.21178,"lon":5.35097,"is_reserved":false,"is_disabled":false,"rental_uris":{"android":"levelo://app?vid=2c6e34ec-e4ad-4b55-908f-732bdcecdb2f","ios":"levelo://app?vid=2c6e34ec-e4ad-4b55-908f-732bdcecdb2f"},"vehicle_type_id":"4","last_reported":1752700250,"current_range_meters":8400,"station_id":"st_cvj6sg6p6f1abm77japg","pricing_plan_id":"cebpf4jnsgd1na2vs0mg"},{"bike_id":"cd3a65c0-c276-47a1-a3a1-29b1fbcab9ab","system_id":"levelo_inurba_marseille","lat":43.2957,"lon":5.36731,"is_reserved":false,"is_disabled":false,"rental_uris":{"android":"levelo://app?vid=cd3a65c0-c276-47a1-a3a1-29b1fbcab9ab","ios":"levelo://app?vid=cd3a65c0-c276-47a1-a3a1-29b1fbcab9ab"},"vehicle_type_id":"4","last_reported":1752700250,"current_range_meters":8400,"station_id":"ce4bgph2rcd13ifvqc2g","pricing_plan_id":"cebpf4jnsgd1na2vs0mg"},{"bike_id":"31f220b6-f392-477c-9aaa-dd9f087bd889","system_id":"levelo_inurba_marseille","lat":43.28659,"lon":5.38669,"is_reserved":false,"is_disabled":false,"rental_uris":{"android":"levelo://app?vid=31f220b6-f392-477c-9aaa-dd9f087bd889","ios":"levelo://app?vid=31f220b6-f392-477c-9aaa-dd9f087bd889"},"vehicle_type_id":"4","last_reported":1752700250,"current_range_meters":8000,"station_id":"ce4bh492rcd13ifvqdug","pricing_plan_id":"cebpf4jnsgd1na2vs0mg"},{"bike_id":"bd7128f7-57a2-4921-92e4-2a8cf0d2ff02","system_id":"levelo_inurba_marseille","lat":43.31488,"lon":5.37311,"is_reserved":false,"is_disabled":false,"rental_uris":{"android":"levelo://app?vid=bd7128f7-57a2-4921-92e4-2a8cf0d2ff02","ios":"levelo://app?vid=bd7128f7-57a2-4921-92e4-2a8cf0d2ff02"},"vehicle_type_id":"4","last_reported":1752700250,"current_range_meters":8000,"station_id":"ce4bgt12rcd13ifvqcd0","pricing_plan_id":"cebpf4jnsgd1na2vs0mg"},{"bike_id":"fae67f80-bafa-466a-b25b-aefffa146945","system_id":"levelo_inurba_marseille","lat":43.27681,"lon":5.38879,"is_reserved":false,"is_disabled":false,"rental_uris":{"android":"levelo://app?vid=fae67f80-bafa-466a-b25b-aefffa146945","ios":"levelo://app?vid=fae67f80-bafa-466a-b25b-aefffa146945"},"vehicle_type_id":"4","last_reported":1752700250,"current_range_meters":8800,"station_id":"ce4bhi12rcd13ifvqfo0","pricing_plan_id":"cebpf4jnsgd1na2vs0mg"},{"bike_id":"d98ef30e-38a0-41ef-a00a-304afa979a1e","system_id":"levelo_inurba_marseille","lat":43.298983,"lon":5.436651,"is_reserved":false,"is_disabled":true,"rental_uris":{"android":"levelo://app?vid=d98ef30e-38a0-41ef-a00a-304afa979a1e","ios":"levelo://app?vid=d98ef30e-38a0-41ef-a00a-304afa979a1e"},"vehicle_type_id":"4","last_reported":1752700250,"current_range_meters":8800,"station_id":"ce4bhpp2rcd13ifvqhfg","pricing_plan_id":"cebpf4jnsgd1na2vs0mg"},{"bike_id":"0ec11c34-a812-4325-9959-fd344f4ac067","system_id":"levelo_inurba_marseille","lat":43.29526,"lon":5.38537,"is_reserved":false,"is_disabled":false,"rental_uris":{"android":"levelo://app?vid=0ec11c34-a812-4325-9959-fd344f4ac067","ios":"levelo://app?vid=0ec11c34-a812-4325-9959-fd344f4ac067"},"vehicle_type_id":"4","last_reported":1752700250,"current_range_meters":8800,"station_id":"ce4bgih2rcd13ifvqba0","pricing_plan_id":"cebpf4jnsgd1na2vs0mg"},{"bike_id":"ddc9937a-6dcb-45bd-b273-2824bfbaedf8","system_id":"levelo_inurba_marseille","lat":43.31705,"lon":5.37746,"is_reserved":false,"is_disabled":false,"rental_uris":{"android":"levelo://app?vid=ddc9937a-6dcb-45bd-b273-2824bfbaedf8","ios":"levelo://app?vid=ddc9937a-6dcb-45bd-b273-2824bfbaedf8"},"vehicle_type_id":"4","last_reported":1752700250,"current_range_meters":8800,"station_id":"ce4bgth2rcd13ifvqch0","pricing_plan_id":"cebpf4jnsgd1na2vs0mg"},{"bike_id":"1f1c3803-308d-41ef-9e56-ac74d319cbff","system_id":"levelo_inurba_marseille","lat":43.29765,"lon":5.37076,"is_reserved":false,"is_disabled":false,"rental_uris":{"android":"levelo://app?vid=1f1c3803-308d-41ef-9e56-ac74d319cbff","ios":"levelo://app?vid=1f1c3803-308d-41ef-9e56-ac74d319cbff"},"vehicle_type_id":"4","last_reported":1752700250,"current_range_meters":8800,"station_id":"ce4bgop2rcd13ifvqc1g","pricing_plan_id":"cebpf4jnsgd1na2vs0mg"},{"bike_id":"5ac51129-3997-4afc-ae6e-f09b95df995b","system_id":"levelo_inurba_marseille","lat":43.29868,"lon":5.3974,"is_reserved":false,"is_disabled":false,"rental_uris":{"android":"levelo://app?vid=5ac51129-3997-4afc-ae6e-f09b95df995b","ios":"levelo://app?vid=5ac51129-3997-4afc-ae6e-f09b95df995b"},"vehicle_type_id":"4","last_reported":1752700250,"current_range_meters":8800,"station_id":"ce4bh0h2rcd13ifvqd50","pricing_plan_id":"cebpf4jnsgd1na2vs0mg"},{"bike_id":"2f7735f9-7867-4ab9-9108-eb7e293bdfe9","system_id":"levelo_inurba_marseille","lat":43.283966,"lon":5.37524,"is_reserved":false,"is_disabled":false,"rental_uris":{"android":"levelo://app?vid=2f7735f9-7867-4ab9-9108-eb7e293bdfe9","ios":"levelo://app?vid=2f7735f9-7867-4ab9-9108-eb7e293bdfe9"},"vehicle_type_id":"4","last_reported":1752700250,"current_range_meters":9200,"station_id":"ce4bh412rcd13ifvqds0","pricing_plan_id":"cebpf4jnsgd1na2vs0mg"},{"bike_id":"21277f10-5153-4980-90c8-114919d3afab","system_id":"levelo_inurba_marseille","lat":43.31083,"lon":5.38344,"is_reserved":false,"is_disabled":true,"rental_uris":{"android":"levelo://app?vid=21277f10-5153-4980-90c8-114919d3afab","ios":"levelo://app?vid=21277f10-5153-4980-90c8-114919d3afab"},"vehicle_type_id":"4","last_reported":1752700250,"current_range_meters":9200,"station_id":"ce4bgv92rcd13ifvqcr0","pricing_plan_id":"cebpf4jnsgd1na2vs0mg"},{"bike_id":"5e4747c6-e56f-470c-8fbe-783bebd99b5a","system_id":"levelo_inurba_marseille","lat":43.28657,"lon":5.38671,"is_reserved":false,"is_disabled":false,"rental_uris":{"android":"levelo://app?vid=5e4747c6-e56f-470c-8fbe-783bebd99b5a","ios":"levelo://app?vid=5e4747c6-e56f-470c-8fbe-783bebd99b5a"},"vehicle_type_id":"4","last_reported":1752700250,"current_range_meters":9200,"station_id":"ce4bh492rcd13ifvqdug","pricing_plan_id":"cebpf4jnsgd1na2vs0mg"},{"bike_id":"269af709-bf9d-4888-ae34-340ca8e30c71","system_id":"levelo_inurba_marseille","lat":43.24178,"lon":5.39731,"is_reserved":false,"is_disabled":false,"rental_uris":{"android":"levelo://app?vid=269af709-bf9d-4888-ae34-340ca8e30c71","ios":"levelo://app?vid=269af709-bf9d-4888-ae34-340ca8e30c71"},"vehicle_type_id":"4","last_reported":1752700250,"current_range_meters":9200,"station_id":"ce4bhn12rcd13ifvqgpg","pricing_plan_id":"cebpf4jnsgd1na2vs0mg"},{"bike_id":"9cf033a1-484e-48ee-b234-d0c877b8a9b0","system_id":"levelo_inurba_marseille","lat":43.298467,"lon":5.362834,"is_reserved":false,"is_disabled":false,"rental_uris":{"android":"levelo://app?vid=9cf033a1-484e-48ee-b234-d0c877b8a9b0","ios":"levelo://app?vid=9cf033a1-484e-48ee-b234-d0c877b8a9b0"},"vehicle_type_id":"4","last_reported":1752700250,"current_range_meters":9200,"station_id":"ce4bgpp2rcd13ifvqc3g","pricing_plan_id":"cebpf4jnsgd1na2vs0mg"},{"bike_id":"57f25a85-cd70-456d-820d-3fa374571d3a","system_id":"levelo_inurba_marseille","lat":43.33733,"lon":5.39206,"is_reserved":false,"is_disabled":false,"rental_uris":{"android":"levelo://app?vid=57f25a85-cd70-456d-820d-3fa374571d3a","ios":"levelo://app?vid=57f25a85-cd70-456d-820d-3fa374571d3a"},"vehicle_type_id":"4","last_reported":1752700250,"current_range_meters":8800,"station_id":"ce4bhr92rcd13ifvqhsg","pricing_plan_id":"cebpf4jnsgd1na2vs0mg"},{"bike_id":"32591d41-bab6-43ab-a6e9-acd923af800d","system_id":"levelo_inurba_marseille","lat":43.265007,"lon":5.395393,"is_reserved":false,"is_disabled":false,"rental_uris":{"android":"levelo://app?vid=32591d41-bab6-43ab-a6e9-acd923af800d","ios":"levelo://app?vid=32591d41-bab6-43ab-a6e9-acd923af800d"},"vehicle_type_id":"4","last_reported":1752700250,"current_range_meters":9200,"station_id":"ce4bhi12rcd13ifvqfq0","pricing_plan_id":"cebpf4jnsgd1na2vs0mg"},{"bike_id":"c878e535-e9c8-4a0a-a6ac-7aa928c96017","system_id":"levelo_inurba_marseille","lat":43.25864,"lon":5.39895,"is_reserved":false,"is_disabled":false,"rental_uris":{"android":"levelo://app?vid=c878e535-e9c8-4a0a-a6ac-7aa928c96017","ios":"levelo://app?vid=c878e535-e9c8-4a0a-a6ac-7aa928c96017"},"vehicle_type_id":"4","last_reported":1752700250,"current_range_meters":9600,"station_id":"ce4bhl92rcd13ifvqghg","pricing_plan_id":"cebpf4jnsgd1na2vs0mg"},{"bike_id":"08c216ab-e05b-4762-9e60-dce12d7ebeaa","system_id":"levelo_inurba_marseille","lat":43.28938,"lon":5.39635,"is_reserved":false,"is_disabled":false,"rental_uris":{"android":"levelo://app?vid=08c216ab-e05b-4762-9e60-dce12d7ebeaa","ios":"levelo://app?vid=08c216ab-e05b-4762-9e60-dce12d7ebeaa"},"vehicle_type_id":"4","last_reported":1752700250,"current_range_meters":9200,"station_id":"ce4bh3h2rcd13ifvqdn0","pricing_plan_id":"cebpf4jnsgd1na2vs0mg"},{"bike_id":"201a4005-21f9-407a-88e2-a6a5c619b696","system_id":"levelo_inurba_marseille","lat":43.302551,"lon":5.400716,"is_reserved":false,"is_disabled":false,"rental_uris":{"android":"levelo://app?vid=201a4005-21f9-407a-88e2-a6a5c619b696","ios":"levelo://app?vid=201a4005-21f9-407a-88e2-a6a5c619b696"},"vehicle_type_id":"4","last_reported":1752700250,"current_range_meters":9600,"station_id":"ce4bgvh2rcd13ifvqcs0","pricing_plan_id":"cebpf4jnsgd1na2vs0mg"},{"bike_id":"a8ccc3bb-8602-413c-a199-c1dfd88b0147","system_id":"levelo_inurba_marseille","lat":43.26212,"lon":5.40463,"is_reserved":false,"is_disabled":false,"rental_uris":{"android":"levelo://app?vid=a8ccc3bb-8602-413c-a199-c1dfd88b0147","ios":"levelo://app?vid=a8ccc3bb-8602-413c-a199-c1dfd88b0147"},"vehicle_type_id":"4","last_reported":1752700250,"current_range_meters":9600,"station_id":"ce4bhmh2rcd13ifvqgmg","pricing_plan_id":"cebpf4jnsgd1na2vs0mg"},{"bike_id":"90e4ca31-82a1-4463-bccb-7f009bf421ad","system_id":"levelo_inurba_marseille","lat":43.29264,"lon":5.38438,"is_reserved":false,"is_disabled":false,"rental_uris":{"android":"levelo://app?vid=90e4ca31-82a1-4463-bccb-7f009bf421ad","ios":"levelo://app?vid=90e4ca31-82a1-4463-bccb-7f009bf421ad"},"vehicle_type_id":"4","last_reported":1752700250,"current_range_meters":9600,"station_id":"ce4bh692rcd13ifvqea0","pricing_plan_id":"cebpf4jnsgd1na2vs0mg"},{"bike_id":"2fa0d03b-8f78-4b90-b56f-ea7f59699986","system_id":"levelo_inurba_marseille","lat":43.25866,"lon":5.39895,"is_reserved":false,"is_disabled":false,"rental_uris":{"android":"levelo://app?vid=2fa0d03b-8f78-4b90-b56f-ea7f59699986","ios":"levelo://app?vid=2fa0d03b-8f78-4b90-b56f-ea7f59699986"},"vehicle_type_id":"4","last_reported":1752700250,"current_range_meters":9600,"station_id":"ce4bhl92rcd13ifvqghg","pricing_plan_id":"cebpf4jnsgd1na2vs0mg"},{"bike_id":"2bacaccd-1bb2-41bf-ab2e-30b8a5fb7d5d","system_id":"levelo_inurba_marseille","lat":43.27364,"lon":5.36225,"is_reserved":false,"is_disabled":true,"rental_uris":{"android":"levelo://app?vid=2bacaccd-1bb2-41bf-ab2e-30b8a5fb7d5d","ios":"levelo://app?vid=2bacaccd-1bb2-41bf-ab2e-30b8a5fb7d5d"},"vehicle_type_id":"4","last_reported":1752700250,"current_range_meters":9600,"station_id":"ce4bhbh2rcd13ifvqeo0","pricing_plan_id":"cebpf4jnsgd1na2vs0mg"},{"bike_id":"dd5871ae-6538-4aeb-98aa-aee429d89359","system_id":"levelo_inurba_marseille","lat":43.29578,"lon":5.36749,"is_reserved":false,"is_disabled":false,"rental_uris":{"android":"levelo://app?vid=dd5871ae-6538-4aeb-98aa-aee429d89359","ios":"levelo://app?vid=dd5871ae-6538-4aeb-98aa-aee429d89359"},"vehicle_type_id":"4","last_reported":1752700250,"current_range_meters":9600,"station_id":"ce4bgph2rcd13ifvqc2g","pricing_plan_id":"cebpf4jnsgd1na2vs0mg"},{"bike_id":"27691713-7c80-4bda-86cd-3dab20404f27","system_id":"levelo_inurba_marseille","lat":43.30271,"lon":5.37712,"is_reserved":false,"is_disabled":false,"rental_uris":{"android":"levelo://app?vid=27691713-7c80-4bda-86cd-3dab20404f27","ios":"levelo://app?vid=27691713-7c80-4bda-86cd-3dab20404f27"},"vehicle_type_id":"4","last_reported":1752700250,"current_range_meters":9600,"station_id":"ce4bguh2rcd13ifvqcj0","pricing_plan_id":"cebpf4jnsgd1na2vs0mg"},{"bike_id":"19e5250d-9832-40cf-93f2-4742c25a1a7d","system_id":"levelo_inurba_marseille","lat":43.31223,"lon":5.36865,"is_reserved":false,"is_disabled":false,"rental_uris":{"android":"levelo://app?vid=19e5250d-9832-40cf-93f2-4742c25a1a7d","ios":"levelo://app?vid=19e5250d-9832-40cf-93f2-4742c25a1a7d"},"vehicle_type_id":"4","last_reported":1752700250,"current_range_meters":9600,"station_id":"ce4bgl92rcd13ifvqbq0","pricing_plan_id":"cebpf4jnsgd1na2vs0mg"},{"bike_id":"c75b8a0d-6118-48c0-8f4b-2b4d5a7dd737","system_id":"levelo_inurba_marseille","lat":43.30731,"lon":5.42436,"is_reserved":false,"is_disabled":false,"rental_uris":{"android":"levelo://app?vid=c75b8a0d-6118-48c0-8f4b-2b4d5a7dd737","ios":"levelo://app?vid=c75b8a0d-6118-48c0-8f4b-2b4d5a7dd737"},"vehicle_type_id":"4","last_reported":1752700250,"current_range_meters":10000,"station_id":"st_cvj6ca6bvosntc0bfgr0","pricing_plan_id":"cebpf4jnsgd1na2vs0mg"},{"bike_id":"1145602c-3b12-4604-b8ff-291284dfc532","system_id":"levelo_inurba_marseille","lat":43.22508,"lon":5.34775,"is_reserved":false,"is_disabled":false,"rental_uris":{"android":"levelo://app?vid=1145602c-3b12-4604-b8ff-291284dfc532","ios":"levelo://app?vid=1145602c-3b12-4604-b8ff-291284dfc532"},"vehicle_type_id":"4","last_reported":1752700250,"current_range_meters":10000,"station_id":"st_cvj5dfep6f1abm77gieg","pricing_plan_id":"cebpf4jnsgd1na2vs0mg"},{"bike_id":"3352e641-cb04-4571-8972-f2bb573d3ff0","system_id":"levelo_inurba_marseille","lat":43.29028,"lon":5.38658,"is_reserved":false,"is_disabled":false,"rental_uris":{"android":"levelo://app?vid=3352e641-cb04-4571-8972-f2bb573d3ff0","ios":"levelo://app?vid=3352e641-cb04-4571-8972-f2bb573d3ff0"},"vehicle_type_id":"4","last_reported":1752700250,"current_range_meters":10000,"station_id":"ce4bh4p2rcd13ifvqe0g","pricing_plan_id":"cebpf4jnsgd1na2vs0mg"},{"bike_id":"ead6dbed-8986-4253-bc11-5ab05fac418a","system_id":"levelo_inurba_marseille","lat":43.25861,"lon":5.39898,"is_reserved":false,"is_disabled":false,"rental_uris":{"android":"levelo://app?vid=ead6dbed-8986-4253-bc11-5ab05fac418a","ios":"levelo://app?vid=ead6dbed-8986-4253-bc11-5ab05fac418a"},"vehicle_type_id":"4","last_reported":1752700250,"current_range_meters":10000,"station_id":"ce4bhl92rcd13ifvqghg","pricing_plan_id":"cebpf4jnsgd1na2vs0mg"},{"bike_id":"306fedc9-f8d7-4b6f-bd8f-7a30c483079a","system_id":"levelo_inurba_marseille","lat":43.292699,"lon":5.384412,"is_reserved":false,"is_disabled":false,"rental_uris":{"android":"levelo://app?vid=306fedc9-f8d7-4b6f-bd8f-7a30c483079a","ios":"levelo://app?vid=306fedc9-f8d7-4b6f-bd8f-7a30c483079a"},"vehicle_type_id":"4","last_reported":1752700250,"current_range_meters":10000,"station_id":"ce4bh692rcd13ifvqea0","pricing_plan_id":"cebpf4jnsgd1na2vs0mg"},{"bike_id":"bc020f21-0a4b-4aa4-a189-9a82f838c7a6","system_id":"levelo_inurba_marseille","lat":43.29584,"lon":5.38116,"is_reserved":false,"is_disabled":false,"rental_uris":{"android":"levelo://app?vid=bc020f21-0a4b-4aa4-a189-9a82f838c7a6","ios":"levelo://app?vid=bc020f21-0a4b-4aa4-a189-9a82f838c7a6"},"vehicle_type_id":"4","last_reported":1752700250,"current_range_meters":10000,"station_id":"ce4bgl12rcd13ifvqbo0","pricing_plan_id":"cebpf4jnsgd1na2vs0mg"},{"bike_id":"52a9857e-58ba-43a0-bb0c-6c4aa7ffe806","system_id":"levelo_inurba_marseille","lat":43.31752,"lon":5.39016,"is_reserved":false,"is_disabled":false,"rental_uris":{"android":"levelo://app?vid=52a9857e-58ba-43a0-bb0c-6c4aa7ffe806","ios":"levelo://app?vid=52a9857e-58ba-43a0-bb0c-6c4aa7ffe806"},"vehicle_type_id":"4","last_reported":1752700250,"current_range_meters":10000,"station_id":"ce4bhqp2rcd13ifvqhng","pricing_plan_id":"cebpf4jnsgd1na2vs0mg"},{"bike_id":"b3315968-bc84-45dd-aaeb-21dd5ae09bd7","system_id":"levelo_inurba_marseille","lat":43.31083,"lon":5.42435,"is_reserved":false,"is_disabled":false,"rental_uris":{"android":"levelo://app?vid=b3315968-bc84-45dd-aaeb-21dd5ae09bd7","ios":"levelo://app?vid=b3315968-bc84-45dd-aaeb-21dd5ae09bd7"},"vehicle_type_id":"4","last_reported":1752700250,"current_range_meters":10000,"station_id":"ce4bhp92rcd13ifvqhag","pricing_plan_id":"cebpf4jnsgd1na2vs0mg"},{"bike_id":"2d173bc5-3761-4c68-b8ab-8fb87c54b460","system_id":"levelo_inurba_marseille","lat":43.2985,"lon":5.36281,"is_reserved":false,"is_disabled":false,"rental_uris":{"android":"levelo://app?vid=2d173bc5-3761-4c68-b8ab-8fb87c54b460","ios":"levelo://app?vid=2d173bc5-3761-4c68-b8ab-8fb87c54b460"},"vehicle_type_id":"4","last_reported":1752700250,"current_range_meters":10000,"station_id":"ce4bgpp2rcd13ifvqc3g","pricing_plan_id":"cebpf4jnsgd1na2vs0mg"},{"bike_id":"71525951-763f-4130-b5b7-4d4a53c2ab15","system_id":"levelo_inurba_marseille","lat":43.29256,"lon":5.38462,"is_reserved":false,"is_disabled":false,"rental_uris":{"android":"levelo://app?vid=71525951-763f-4130-b5b7-4d4a53c2ab15","ios":"levelo://app?vid=71525951-763f-4130-b5b7-4d4a53c2ab15"},"vehicle_type_id":"4","last_reported":1752700250,"current_range_meters":10800,"station_id":"ce4bh692rcd13ifvqea0","pricing_plan_id":"cebpf4jnsgd1na2vs0mg"},{"bike_id":"d73afb15-81f9-4367-88db-ec6b7d209561","system_id":"levelo_inurba_marseille","lat":43.29532,"lon":5.39963,"is_reserved":false,"is_disabled":false,"rental_uris":{"android":"levelo://app?vid=d73afb15-81f9-4367-88db-ec6b7d209561","ios":"levelo://app?vid=d73afb15-81f9-4367-88db-ec6b7d209561"},"vehicle_type_id":"4","last_reported":1752700250,"current_range_meters":10800,"station_id":"ce4bh312rcd13ifvqdj0","pricing_plan_id":"cebpf4jnsgd1na2vs0mg"},{"bike_id":"e5bec6b1-43e6-46f2-9810-affd93766dd8","system_id":"levelo_inurba_marseille","lat":43.33774,"lon":5.37475,"is_reserved":false,"is_disabled":true,"rental_uris":{"android":"levelo://app?vid=e5bec6b1-43e6-46f2-9810-affd93766dd8","ios":"levelo://app?vid=e5bec6b1-43e6-46f2-9810-affd93766dd8"},"vehicle_type_id":"4","last_reported":1752700250,"current_range_meters":10800,"station_id":"","pricing_plan_id":"cebpf4jnsgd1na2vs0mg"},{"bike_id":"2ed2bfbe-f294-4f5b-bf5f-8df8acee532c","system_id":"levelo_inurba_marseille","lat":43.24818,"lon":5.37387,"is_reserved":false,"is_disabled":false,"rental_uris":{"android":"levelo://app?vid=2ed2bfbe-f294-4f5b-bf5f-8df8acee532c","ios":"levelo://app?vid=2ed2bfbe-f294-4f5b-bf5f-8df8acee532c"},"vehicle_type_id":"4","last_reported":1752700250,"current_range_meters":10800,"station_id":"","pricing_plan_id":"cebpf4jnsgd1na2vs0mg"},{"bike_id":"498f96f8-c4d3-4424-b717-177ee31da36d","system_id":"levelo_inurba_marseille","lat":43.29857,"lon":5.36281,"is_reserved":false,"is_disabled":false,"rental_uris":{"android":"levelo://app?vid=498f96f8-c4d3-4424-b717-177ee31da36d","ios":"levelo://app?vid=498f96f8-c4d3-4424-b717-177ee31da36d"},"vehicle_type_id":"4","last_reported":1752700250,"current_range_meters":10800,"station_id":"ce4bgpp2rcd13ifvqc3g","pricing_plan_id":"cebpf4jnsgd1na2vs0mg"},{"bike_id":"42391341-db74-46b2-a7f5-eae276c4e149","system_id":"levelo_inurba_marseille","lat":43.30327,"lon":5.36909,"is_reserved":false,"is_disabled":false,"rental_uris":{"android":"levelo://app?vid=42391341-db74-46b2-a7f5-eae276c4e149","ios":"levelo://app?vid=42391341-db74-46b2-a7f5-eae276c4e149"},"vehicle_type_id":"4","last_reported":1752700250,"current_range_meters":10800,"station_id":"ce4bgqh2rcd13ifvqc5g","pricing_plan_id":"cebpf4jnsgd1na2vs0mg"},{"bike_id":"54b283c6-c314-444c-b492-3e78ed7f2d30","system_id":"levelo_inurba_marseille","lat":43.32944,"lon":5.39053,"is_reserved":false,"is_disabled":false,"rental_uris":{"android":"levelo://app?vid=54b283c6-c314-444c-b492-3e78ed7f2d30","ios":"levelo://app?vid=54b283c6-c314-444c-b492-3e78ed7f2d30"},"vehicle_type_id":"4","last_reported":1752700250,"current_range_meters":10800,"station_id":"","pricing_plan_id":"cebpf4jnsgd1na2vs0mg"},{"bike_id":"fe0a4787-9819-4c21-9916-a9d5d573cf6e","system_id":"levelo_inurba_marseille","lat":43.29882,"lon":5.38893,"is_reserved":false,"is_disabled":false,"rental_uris":{"android":"levelo://app?vid=fe0a4787-9819-4c21-9916-a9d5d573cf6e","ios":"levelo://app?vid=fe0a4787-9819-4c21-9916-a9d5d573cf6e"},"vehicle_type_id":"4","last_reported":1752700250,"current_range_meters":10000,"station_id":"ce4bh392rcd13ifvqdl0","pricing_plan_id":"cebpf4jnsgd1na2vs0mg"},{"bike_id":"43074713-6dcd-44dd-acd8-a271d541039f","system_id":"levelo_inurba_marseille","lat":43.31361,"lon":5.38494,"is_reserved":false,"is_disabled":false,"rental_uris":{"android":"levelo://app?vid=43074713-6dcd-44dd-acd8-a271d541039f","ios":"levelo://app?vid=43074713-6dcd-44dd-acd8-a271d541039f"},"vehicle_type_id":"4","last_reported":1752700250,"current_range_meters":10800,"station_id":"ce4bgt92rcd13ifvqcf0","pricing_plan_id":"cebpf4jnsgd1na2vs0mg"},{"bike_id":"5931833f-f29e-43c3-bf9e-fc4b71e432f0","system_id":"levelo_inurba_marseille","lat":43.29837,"lon":5.36271,"is_reserved":false,"is_disabled":false,"rental_uris":{"android":"levelo://app?vid=5931833f-f29e-43c3-bf9e-fc4b71e432f0","ios":"levelo://app?vid=5931833f-f29e-43c3-bf9e-fc4b71e432f0"},"vehicle_type_id":"4","last_reported":1752700250,"current_range_meters":10800,"station_id":"ce4bgpp2rcd13ifvqc3g","pricing_plan_id":"cebpf4jnsgd1na2vs0mg"},{"bike_id":"412391dd-5e7c-4966-adfa-e700dd369b8b","system_id":"levelo_inurba_marseille","lat":43.29844,"lon":5.36274,"is_reserved":false,"is_disabled":false,"rental_uris":{"android":"levelo://app?vid=412391dd-5e7c-4966-adfa-e700dd369b8b","ios":"levelo://app?vid=412391dd-5e7c-4966-adfa-e700dd369b8b"},"vehicle_type_id":"4","last_reported":1752700250,"current_range_meters":10800,"station_id":"ce4bgpp2rcd13ifvqc3g","pricing_plan_id":"cebpf4jnsgd1na2vs0mg"},{"bike_id":"e63f05de-effa-4c72-90d4-75f3968d4a40","system_id":"levelo_inurba_marseille","lat":43.28403,"lon":5.37508,"is_reserved":false,"is_disabled":false,"rental_uris":{"android":"levelo://app?vid=e63f05de-effa-4c72-90d4-75f3968d4a40","ios":"levelo://app?vid=e63f05de-effa-4c72-90d4-75f3968d4a40"},"vehicle_type_id":"4","last_reported":1752700250,"current_range_meters":10800,"station_id":"ce4bh412rcd13ifvqds0","pricing_plan_id":"cebpf4jnsgd1na2vs0mg"},{"bike_id":"9918a8a3-b2e3-4957-b9f0-6f7351a2f0b5","system_id":"levelo_inurba_marseille","lat":43.24801,"lon":5.37454,"is_reserved":false,"is_disabled":false,"rental_uris":{"android":"levelo://app?vid=9918a8a3-b2e3-4957-b9f0-6f7351a2f0b5","ios":"levelo://app?vid=9918a8a3-b2e3-4957-b9f0-6f7351a2f0b5"},"vehicle_type_id":"4","last_reported":1752700250,"current_range_meters":10800,"station_id":"ce4bhgh2rcd13ifvqfb0","pricing_plan_id":"cebpf4jnsgd1na2vs0mg"},{"bike_id":"d97bb949-0737-4e74-84dd-59b6dc55c128","system_id":"levelo_inurba_marseille","lat":43.28305,"lon":5.43299,"is_reserved":false,"is_disabled":false,"rental_uris":{"android":"levelo://app?vid=d97bb949-0737-4e74-84dd-59b6dc55c128","ios":"levelo://app?vid=d97bb949-0737-4e74-84dd-59b6dc55c128"},"vehicle_type_id":"4","last_reported":1752700250,"current_range_meters":11200,"station_id":"","pricing_plan_id":"cebpf4jnsgd1na2vs0mg"},{"bike_id":"e9a59d4e-48f5-4e19-9a0e-fe32d08c0dda","system_id":"levelo_inurba_marseille","lat":43.28136,"lon":5.42639,"is_reserved":false,"is_disabled":false,"rental_uris":{"android":"levelo://app?vid=e9a59d4e-48f5-4e19-9a0e-fe32d08c0dda","ios":"levelo://app?vid=e9a59d4e-48f5-4e19-9a0e-fe32d08c0dda"},"vehicle_type_id":"4","last_reported":1752700250,"current_range_meters":11200,"station_id":"ce4bhnh2rcd13ifvqgug","pricing_plan_id":"cebpf4jnsgd1na2vs0mg"},{"bike_id":"0ac495ae-107c-4a4c-882d-a9f7995b38a8","system_id":"levelo_inurba_marseille","lat":43.29037,"lon":5.39964,"is_reserved":false,"is_disabled":false,"rental_uris":{"android":"levelo://app?vid=0ac495ae-107c-4a4c-882d-a9f7995b38a8","ios":"levelo://app?vid=0ac495ae-107c-4a4c-882d-a9f7995b38a8"},"vehicle_type_id":"4","last_reported":1752700250,"current_range_meters":11200,"station_id":"ce4bh392rcd13ifvqdm0","pricing_plan_id":"cebpf4jnsgd1na2vs0mg"},{"bike_id":"1326219f-1bd1-4c68-a9b9-83e235017fde","system_id":"levelo_inurba_marseille","lat":43.30307,"lon":5.36907,"is_reserved":false,"is_disabled":false,"rental_uris":{"android":"levelo://app?vid=1326219f-1bd1-4c68-a9b9-83e235017fde","ios":"levelo://app?vid=1326219f-1bd1-4c68-a9b9-83e235017fde"},"vehicle_type_id":"4","last_reported":1752700250,"current_range_meters":11200,"station_id":"ce4bgqh2rcd13ifvqc5g","pricing_plan_id":"cebpf4jnsgd1na2vs0mg"},{"bike_id":"becb21de-0d07-42ed-a63b-15185cdce48a","system_id":"levelo_inurba_marseille","lat":43.26563,"lon":5.39015,"is_reserved":false,"is_disabled":false,"rental_uris":{"android":"levelo://app?vid=becb21de-0d07-42ed-a63b-15185cdce48a","ios":"levelo://app?vid=becb21de-0d07-42ed-a63b-15185cdce48a"},"vehicle_type_id":"4","last_reported":1752700250,"current_range_meters":11200,"station_id":"ce4bhe12rcd13ifvqf30","pricing_plan_id":"cebpf4jnsgd1na2vs0mg"},{"bike_id":"3497b8c1-eec3-4bcf-a2a8-074629d1c01b","system_id":"levelo_inurba_marseille","lat":43.305316,"lon":5.367038,"is_reserved":false,"is_disabled":false,"rental_uris":{"android":"levelo://app?vid=3497b8c1-eec3-4bcf-a2a8-074629d1c01b","ios":"levelo://app?vid=3497b8c1-eec3-4bcf-a2a8-074629d1c01b"},"vehicle_type_id":"4","last_reported":1752700250,"current_range_meters":11200,"station_id":"","pricing_plan_id":"cebpf4jnsgd1na2vs0mg"},{"bike_id":"7065e259-17bc-4627-b569-44dd73b3ed79","system_id":"levelo_inurba_marseille","lat":43.30933,"lon":5.40144,"is_reserved":false,"is_disabled":false,"rental_uris":{"android":"levelo://app?vid=7065e259-17bc-4627-b569-44dd73b3ed79","ios":"levelo://app?vid=7065e259-17bc-4627-b569-44dd73b3ed79"},"vehicle_type_id":"4","last_reported":1752700250,"current_range_meters":11200,"station_id":"ce4bgvp2rcd13ifvqct0","pricing_plan_id":"cebpf4jnsgd1na2vs0mg"},{"bike_id":"794b998d-7e45-4d53-b270-ae51136a9420","system_id":"levelo_inurba_marseille","lat":43.31622,"lon":5.38211,"is_reserved":false,"is_disabled":false,"rental_uris":{"android":"levelo://app?vid=794b998d-7e45-4d53-b270-ae51136a9420","ios":"levelo://app?vid=794b998d-7e45-4d53-b270-ae51136a9420"},"vehicle_type_id":"4","last_reported":1752700250,"current_range_meters":11200,"station_id":"","pricing_plan_id":"cebpf4jnsgd1na2vs0mg"},{"bike_id":"289c8bc6-5441-4fff-8dec-812994104bbe","system_id":"levelo_inurba_marseille","lat":43.31554,"lon":5.38065,"is_reserved":false,"is_disabled":false,"rental_uris":{"android":"levelo://app?vid=289c8bc6-5441-4fff-8dec-812994104bbe","ios":"levelo://app?vid=289c8bc6-5441-4fff-8dec-812994104bbe"},"vehicle_type_id":"4","last_reported":1752700250,"current_range_meters":11200,"station_id":"ce4bhsp2rcd13ifvqi50","pricing_plan_id":"cebpf4jnsgd1na2vs0mg"},{"bike_id":"108031e6-24a6-4092-ad48-7e0349dfe9bc","system_id":"levelo_inurba_marseille","lat":43.29509,"lon":5.39398,"is_reserved":false,"is_disabled":false,"rental_uris":{"android":"levelo://app?vid=108031e6-24a6-4092-ad48-7e0349dfe9bc","ios":"levelo://app?vid=108031e6-24a6-4092-ad48-7e0349dfe9bc"},"vehicle_type_id":"4","last_reported":1752700250,"current_range_meters":10800,"station_id":"ce4bh292rcd13ifvqdf0","pricing_plan_id":"cebpf4jnsgd1na2vs0mg"},{"bike_id":"8ab23f69-c644-43af-8522-a8322f5550dd","system_id":"levelo_inurba_marseille","lat":43.30324,"lon":5.40438,"is_reserved":false,"is_disabled":false,"rental_uris":{"android":"levelo://app?vid=8ab23f69-c644-43af-8522-a8322f5550dd","ios":"levelo://app?vid=8ab23f69-c644-43af-8522-a8322f5550dd"},"vehicle_type_id":"4","last_reported":1752700250,"current_range_meters":11200,"station_id":"ce4bh012rcd13ifvqd10","pricing_plan_id":"cebpf4jnsgd1na2vs0mg"},{"bike_id":"c3ac6a04-4d50-47af-9d65-58035311bbcd","system_id":"levelo_inurba_marseille","lat":43.29094,"lon":5.38143,"is_reserved":false,"is_disabled":false,"rental_uris":{"android":"levelo://app?vid=c3ac6a04-4d50-47af-9d65-58035311bbcd","ios":"levelo://app?vid=c3ac6a04-4d50-47af-9d65-58035311bbcd"},"vehicle_type_id":"4","last_reported":1752700250,"current_range_meters":11600,"station_id":"ce4bh512rcd13ifvqe2g","pricing_plan_id":"cebpf4jnsgd1na2vs0mg"},{"bike_id":"c60915bb-3f73-4823-bcd7-1c68f5ef67ed","system_id":"levelo_inurba_marseille","lat":43.21195,"lon":5.3508,"is_reserved":false,"is_disabled":false,"rental_uris":{"android":"levelo://app?vid=c60915bb-3f73-4823-bcd7-1c68f5ef67ed","ios":"levelo://app?vid=c60915bb-3f73-4823-bcd7-1c68f5ef67ed"},"vehicle_type_id":"4","last_reported":1752700250,"current_range_meters":11600,"station_id":"st_cvj6sg6p6f1abm77japg","pricing_plan_id":"cebpf4jnsgd1na2vs0mg"},{"bike_id":"83c5c52b-1c79-41a5-b278-7d48845ed8dd","system_id":"levelo_inurba_marseille","lat":43.24993,"lon":5.38933,"is_reserved":false,"is_disabled":false,"rental_uris":{"android":"levelo://app?vid=83c5c52b-1c79-41a5-b278-7d48845ed8dd","ios":"levelo://app?vid=83c5c52b-1c79-41a5-b278-7d48845ed8dd"},"vehicle_type_id":"4","last_reported":1752700250,"current_range_meters":11600,"station_id":"ce4bhgp2rcd13ifvqfd0","pricing_plan_id":"cebpf4jnsgd1na2vs0mg"},{"bike_id":"4fc8c20a-1109-4f82-a11e-14e920ed77c7","system_id":"levelo_inurba_marseille","lat":43.29804,"lon":5.40407,"is_reserved":false,"is_disabled":false,"rental_uris":{"android":"levelo://app?vid=4fc8c20a-1109-4f82-a11e-14e920ed77c7","ios":"levelo://app?vid=4fc8c20a-1109-4f82-a11e-14e920ed77c7"},"vehicle_type_id":"4","last_reported":1752700250,"current_range_meters":11600,"station_id":"ce4bh112rcd13ifvqd90","pricing_plan_id":"cebpf4jnsgd1na2vs0mg"},{"bike_id":"e81c2abe-57eb-4c64-994b-651953976946","system_id":"levelo_inurba_marseille","lat":43.24075,"lon":5.37756,"is_reserved":false,"is_disabled":false,"rental_uris":{"android":"levelo://app?vid=e81c2abe-57eb-4c64-994b-651953976946","ios":"levelo://app?vid=e81c2abe-57eb-4c64-994b-651953976946"},"vehicle_type_id":"4","last_reported":1752700250,"current_range_meters":11200,"station_id":"ce4bhnp2rcd13ifvqgvg","pricing_plan_id":"cebpf4jnsgd1na2vs0mg"},{"bike_id":"7c05aa20-76d0-4325-97cd-fd11c58ba71b","system_id":"levelo_inurba_marseille","lat":43.28827,"lon":5.39308,"is_reserved":false,"is_disabled":false,"rental_uris":{"android":"levelo://app?vid=7c05aa20-76d0-4325-97cd-fd11c58ba71b","ios":"levelo://app?vid=7c05aa20-76d0-4325-97cd-fd11c58ba71b"},"vehicle_type_id":"4","last_reported":1752700250,"current_range_meters":11600,"station_id":"ce4bh2p2rcd13ifvqdi0","pricing_plan_id":"cebpf4jnsgd1na2vs0mg"},{"bike_id":"fda8d44b-d0ef-4701-922a-175e94d2dc39","system_id":"levelo_inurba_marseille","lat":43.29943,"lon":5.36546,"is_reserved":false,"is_disabled":false,"rental_uris":{"android":"levelo://app?vid=fda8d44b-d0ef-4701-922a-175e94d2dc39","ios":"levelo://app?vid=fda8d44b-d0ef-4701-922a-175e94d2dc39"},"vehicle_type_id":"4","last_reported":1752700250,"current_range_meters":11600,"station_id":"ce4bgm92rcd13ifvqbr0","pricing_plan_id":"cebpf4jnsgd1na2vs0mg"},{"bike_id":"fd2fff76-fffe-429f-b576-2c09de1840f6","system_id":"levelo_inurba_marseille","lat":43.29264,"lon":5.38446,"is_reserved":false,"is_disabled":false,"rental_uris":{"android":"levelo://app?vid=fd2fff76-fffe-429f-b576-2c09de1840f6","ios":"levelo://app?vid=fd2fff76-fffe-429f-b576-2c09de1840f6"},"vehicle_type_id":"4","last_reported":1752700250,"current_range_meters":11600,"station_id":"ce4bh692rcd13ifvqea0","pricing_plan_id":"cebpf4jnsgd1na2vs0mg"},{"bike_id":"b0f534da-8e66-4152-b967-e328e4be2d91","system_id":"levelo_inurba_marseille","lat":43.28981,"lon":5.38356,"is_reserved":false,"is_disabled":false,"rental_uris":{"android":"levelo://app?vid=b0f534da-8e66-4152-b967-e328e4be2d91","ios":"levelo://app?vid=b0f534da-8e66-4152-b967-e328e4be2d91"},"vehicle_type_id":"4","last_reported":1752700250,"current_range_meters":12000,"station_id":"","pricing_plan_id":"cebpf4jnsgd1na2vs0mg"},{"bike_id":"f4d50b9f-67c5-4a4e-82cd-5fb34bc9ddef","system_id":"levelo_inurba_marseille","lat":43.25453,"lon":5.38229,"is_reserved":false,"is_disabled":false,"rental_uris":{"android":"levelo://app?vid=f4d50b9f-67c5-4a4e-82cd-5fb34bc9ddef","ios":"levelo://app?vid=f4d50b9f-67c5-4a4e-82cd-5fb34bc9ddef"},"vehicle_type_id":"4","last_reported":1752700250,"current_range_meters":12000,"station_id":"","pricing_plan_id":"cebpf4jnsgd1na2vs0mg"},{"bike_id":"2c09878f-795c-47f5-9d73-108846ae1aa1","system_id":"levelo_inurba_marseille","lat":43.25712,"lon":5.41189,"is_reserved":false,"is_disabled":false,"rental_uris":{"android":"levelo://app?vid=2c09878f-795c-47f5-9d73-108846ae1aa1","ios":"levelo://app?vid=2c09878f-795c-47f5-9d73-108846ae1aa1"},"vehicle_type_id":"4","last_reported":1752700250,"current_range_meters":12400,"station_id":"","pricing_plan_id":"cebpf4jnsgd1na2vs0mg"},{"bike_id":"69dde312-5596-4f87-ab52-e092bd780e1b","system_id":"levelo_inurba_marseille","lat":43.31482,"lon":5.37308,"is_reserved":false,"is_disabled":false,"rental_uris":{"android":"levelo://app?vid=69dde312-5596-4f87-ab52-e092bd780e1b","ios":"levelo://app?vid=69dde312-5596-4f87-ab52-e092bd780e1b"},"vehicle_type_id":"4","last_reported":1752700250,"current_range_meters":12400,"station_id":"ce4bgt12rcd13ifvqcd0","pricing_plan_id":"cebpf4jnsgd1na2vs0mg"},{"bike_id":"61a9e916-b95f-4f2c-8dca-c5b11be80287","system_id":"levelo_inurba_marseille","lat":43.29207,"lon":5.36066,"is_reserved":false,"is_disabled":true,"rental_uris":{"android":"levelo://app?vid=61a9e916-b95f-4f2c-8dca-c5b11be80287","ios":"levelo://app?vid=61a9e916-b95f-4f2c-8dca-c5b11be80287"},"vehicle_type_id":"4","last_reported":1752700250,"current_range_meters":12400,"station_id":"ce4bhbh2rcd13ifvqeqg","pricing_plan_id":"cebpf4jnsgd1na2vs0mg"},{"bike_id":"ac763d28-e3a1-48f3-b4e7-490068622aa2","system_id":"levelo_inurba_marseille","lat":43.31266,"lon":5.4017,"is_reserved":false,"is_disabled":false,"rental_uris":{"android":"levelo://app?vid=ac763d28-e3a1-48f3-b4e7-490068622aa2","ios":"levelo://app?vid=ac763d28-e3a1-48f3-b4e7-490068622aa2"},"vehicle_type_id":"4","last_reported":1752700250,"current_range_meters":12400,"station_id":"ce4bh092rcd13ifvqd30","pricing_plan_id":"cebpf4jnsgd1na2vs0mg"},{"bike_id":"396183f0-39c1-43b2-8228-64839817bbcb","system_id":"levelo_inurba_marseille","lat":43.303285,"lon":5.40442,"is_reserved":false,"is_disabled":false,"rental_uris":{"android":"levelo://app?vid=396183f0-39c1-43b2-8228-64839817bbcb","ios":"levelo://app?vid=396183f0-39c1-43b2-8228-64839817bbcb"},"vehicle_type_id":"4","last_reported":1752700250,"current_range_meters":12800,"station_id":"ce4bh012rcd13ifvqd10","pricing_plan_id":"cebpf4jnsgd1na2vs0mg"},{"bike_id":"941f5e0c-adb3-4b4e-bcb7-3588acd87787","system_id":"levelo_inurba_marseille","lat":43.30121,"lon":5.38794,"is_reserved":false,"is_disabled":true,"rental_uris":{"android":"levelo://app?vid=941f5e0c-adb3-4b4e-bcb7-3588acd87787","ios":"levelo://app?vid=941f5e0c-adb3-4b4e-bcb7-3588acd87787"},"vehicle_type_id":"4","last_reported":1752700250,"current_range_meters":12800,"station_id":"ce4bghh2rcd13ifvqb60","pricing_plan_id":"cebpf4jnsgd1na2vs0mg"},{"bike_id":"e9f1c65b-4b7b-49cf-a376-684e041b5c42","system_id":"levelo_inurba_marseille","lat":43.284522,"lon":5.391876,"is_reserved":false,"is_disabled":false,"rental_uris":{"android":"levelo://app?vid=e9f1c65b-4b7b-49cf-a376-684e041b5c42","ios":"levelo://app?vid=e9f1c65b-4b7b-49cf-a376-684e041b5c42"},"vehicle_type_id":"4","last_reported":1752700250,"current_range_meters":12400,"station_id":"ce4bhoh2rcd13ifvqh5g","pricing_plan_id":"cebpf4jnsgd1na2vs0mg"},{"bike_id":"c1f80bd2-d50e-449c-bd26-79e20ea78897","system_id":"levelo_inurba_marseille","lat":43.302793,"lon":5.400842,"is_reserved":false,"is_disabled":false,"rental_uris":{"android":"levelo://app?vid=c1f80bd2-d50e-449c-bd26-79e20ea78897","ios":"levelo://app?vid=c1f80bd2-d50e-449c-bd26-79e20ea78897"},"vehicle_type_id":"4","last_reported":1752700250,"current_range_meters":12800,"station_id":"ce4bgvh2rcd13ifvqcs0","pricing_plan_id":"cebpf4jnsgd1na2vs0mg"},{"bike_id":"2979d731-9333-4af5-a963-386268404255","system_id":"levelo_inurba_marseille","lat":43.22933,"lon":5.353657,"is_reserved":false,"is_disabled":false,"rental_uris":{"android":"levelo://app?vid=2979d731-9333-4af5-a963-386268404255","ios":"levelo://app?vid=2979d731-9333-4af5-a963-386268404255"},"vehicle_type_id":"4","last_reported":1752700250,"current_range_meters":12800,"station_id":"cpo3532slgdg3j2ikp40","pricing_plan_id":"cebpf4jnsgd1na2vs0mg"},{"bike_id":"80c45421-67b0-454e-b2c5-c13ad5f7d678","system_id":"levelo_inurba_marseille","lat":43.28693,"lon":5.37403,"is_reserved":false,"is_disabled":false,"rental_uris":{"android":"levelo://app?vid=80c45421-67b0-454e-b2c5-c13ad5f7d678","ios":"levelo://app?vid=80c45421-67b0-454e-b2c5-c13ad5f7d678"},"vehicle_type_id":"4","last_reported":1752700250,"current_range_meters":12800,"station_id":"ce4bh3p2rcd13ifvqdq0","pricing_plan_id":"cebpf4jnsgd1na2vs0mg"},{"bike_id":"63b68163-23ff-4509-a7ff-da745c70a782","system_id":"levelo_inurba_marseille","lat":43.295232,"lon":5.394075,"is_reserved":false,"is_disabled":false,"rental_uris":{"android":"levelo://app?vid=63b68163-23ff-4509-a7ff-da745c70a782","ios":"levelo://app?vid=63b68163-23ff-4509-a7ff-da745c70a782"},"vehicle_type_id":"4","last_reported":1752700250,"current_range_meters":12800,"station_id":"","pricing_plan_id":"cebpf4jnsgd1na2vs0mg"},{"bike_id":"b54d706a-0aa5-4b88-947c-9a50a2857c27","system_id":"levelo_inurba_marseille","lat":43.30884,"lon":5.3719,"is_reserved":false,"is_disabled":false,"rental_uris":{"android":"levelo://app?vid=b54d706a-0aa5-4b88-947c-9a50a2857c27","ios":"levelo://app?vid=b54d706a-0aa5-4b88-947c-9a50a2857c27"},"vehicle_type_id":"4","last_reported":1752700250,"current_range_meters":12800,"station_id":"ce4bguh2rcd13ifvqckg","pricing_plan_id":"cebpf4jnsgd1na2vs0mg"},{"bike_id":"9cc9d874-91b9-452d-a93e-b79cf1730931","system_id":"levelo_inurba_marseille","lat":43.29872,"lon":5.36301,"is_reserved":false,"is_disabled":false,"rental_uris":{"android":"levelo://app?vid=9cc9d874-91b9-452d-a93e-b79cf1730931","ios":"levelo://app?vid=9cc9d874-91b9-452d-a93e-b79cf1730931"},"vehicle_type_id":"4","last_reported":1752700250,"current_range_meters":12800,"station_id":"ce4bgpp2rcd13ifvqc3g","pricing_plan_id":"cebpf4jnsgd1na2vs0mg"},{"bike_id":"9eaf072e-fd31-4296-8388-8574f90d4c98","system_id":"levelo_inurba_marseille","lat":43.28602,"lon":5.37063,"is_reserved":false,"is_disabled":false,"rental_uris":{"android":"levelo://app?vid=9eaf072e-fd31-4296-8388-8574f90d4c98","ios":"levelo://app?vid=9eaf072e-fd31-4296-8388-8574f90d4c98"},"vehicle_type_id":"4","last_reported":1752700250,"current_range_meters":12800,"station_id":"ce4bht12rcd13ifvqi60","pricing_plan_id":"cebpf4jnsgd1na2vs0mg"},{"bike_id":"8053bec4-5cac-4b92-aa53-91664ade9529","system_id":"levelo_inurba_marseille","lat":43.28703,"lon":5.37391,"is_reserved":false,"is_disabled":false,"rental_uris":{"android":"levelo://app?vid=8053bec4-5cac-4b92-aa53-91664ade9529","ios":"levelo://app?vid=8053bec4-5cac-4b92-aa53-91664ade9529"},"vehicle_type_id":"4","last_reported":1752700250,"current_range_meters":13600,"station_id":"ce4bh3p2rcd13ifvqdq0","pricing_plan_id":"cebpf4jnsgd1na2vs0mg"},{"bike_id":"aed6dafa-148f-4363-ab01-6ef6b44cf872","system_id":"levelo_inurba_marseille","lat":43.2844,"lon":5.39191,"is_reserved":false,"is_disabled":false,"rental_uris":{"android":"levelo://app?vid=aed6dafa-148f-4363-ab01-6ef6b44cf872","ios":"levelo://app?vid=aed6dafa-148f-4363-ab01-6ef6b44cf872"},"vehicle_type_id":"4","last_reported":1752700250,"current_range_meters":13600,"station_id":"ce4bhoh2rcd13ifvqh5g","pricing_plan_id":"cebpf4jnsgd1na2vs0mg"},{"bike_id":"d57994d0-7251-41fb-a896-56b364219059","system_id":"levelo_inurba_marseille","lat":43.29379,"lon":5.37559,"is_reserved":false,"is_disabled":false,"rental_uris":{"android":"levelo://app?vid=d57994d0-7251-41fb-a896-56b364219059","ios":"levelo://app?vid=d57994d0-7251-41fb-a896-56b364219059"},"vehicle_type_id":"4","last_reported":1752700250,"current_range_meters":13600,"station_id":"","pricing_plan_id":"cebpf4jnsgd1na2vs0mg"},{"bike_id":"bb91fdfd-e2e6-4861-a682-9985a5c5d97b","system_id":"levelo_inurba_marseille","lat":43.231896,"lon":5.399853,"is_reserved":false,"is_disabled":false,"rental_uris":{"android":"levelo://app?vid=bb91fdfd-e2e6-4861-a682-9985a5c5d97b","ios":"levelo://app?vid=bb91fdfd-e2e6-4861-a682-9985a5c5d97b"},"vehicle_type_id":"4","last_reported":1752700250,"current_range_meters":13600,"station_id":"ce4bhn12rcd13ifvqgqg","pricing_plan_id":"cebpf4jnsgd1na2vs0mg"},{"bike_id":"8eeeb77c-8234-4556-b507-da0594d01e95","system_id":"levelo_inurba_marseille","lat":43.22501,"lon":5.3479,"is_reserved":false,"is_disabled":false,"rental_uris":{"android":"levelo://app?vid=8eeeb77c-8234-4556-b507-da0594d01e95","ios":"levelo://app?vid=8eeeb77c-8234-4556-b507-da0594d01e95"},"vehicle_type_id":"4","last_reported":1752700250,"current_range_meters":13600,"station_id":"st_cvj5dfep6f1abm77gieg","pricing_plan_id":"cebpf4jnsgd1na2vs0mg"},{"bike_id":"7dee92bf-5b07-4927-aa41-9e9493644eeb","system_id":"levelo_inurba_marseille","lat":43.21196,"lon":5.35074,"is_reserved":false,"is_disabled":false,"rental_uris":{"android":"levelo://app?vid=7dee92bf-5b07-4927-aa41-9e9493644eeb","ios":"levelo://app?vid=7dee92bf-5b07-4927-aa41-9e9493644eeb"},"vehicle_type_id":"4","last_reported":1752700250,"current_range_meters":13600,"station_id":"st_cvj6sg6p6f1abm77japg","pricing_plan_id":"cebpf4jnsgd1na2vs0mg"},{"bike_id":"5142c420-e67c-406c-bc97-de69bdd803d3","system_id":"levelo_inurba_marseille","lat":43.30096,"lon":5.39091,"is_reserved":false,"is_disabled":false,"rental_uris":{"android":"levelo://app?vid=5142c420-e67c-406c-bc97-de69bdd803d3","ios":"levelo://app?vid=5142c420-e67c-406c-bc97-de69bdd803d3"},"vehicle_type_id":"4","last_reported":1752700250,"current_range_meters":14000,"station_id":"ce4bh192rcd13ifvqdb0","pricing_plan_id":"cebpf4jnsgd1na2vs0mg"},{"bike_id":"fec9ee64-026c-46c6-a4c8-c66ae693a529","system_id":"levelo_inurba_marseille","lat":43.29305,"lon":5.37182,"is_reserved":false,"is_disabled":true,"rental_uris":{"android":"levelo://app?vid=fec9ee64-026c-46c6-a4c8-c66ae693a529","ios":"levelo://app?vid=fec9ee64-026c-46c6-a4c8-c66ae693a529"},"vehicle_type_id":"4","last_reported":1752700250,"current_range_meters":14000,"station_id":"ce4bgh92rcd13ifvqb40","pricing_plan_id":"cebpf4jnsgd1na2vs0mg"},{"bike_id":"9c804676-f4f0-4816-a2b2-9793ae73cdc8","system_id":"levelo_inurba_marseille","lat":43.28615,"lon":5.35105,"is_reserved":false,"is_disabled":false,"rental_uris":{"android":"levelo://app?vid=9c804676-f4f0-4816-a2b2-9793ae73cdc8","ios":"levelo://app?vid=9c804676-f4f0-4816-a2b2-9793ae73cdc8"},"vehicle_type_id":"4","last_reported":1752700250,"current_range_meters":14000,"station_id":"ce4bhch2rcd13ifvqeug","pricing_plan_id":"cebpf4jnsgd1na2vs0mg"},{"bike_id":"56ec4937-459e-4719-93b0-d1a72134ef0f","system_id":"levelo_inurba_marseille","lat":43.29259,"lon":5.38438,"is_reserved":false,"is_disabled":false,"rental_uris":{"android":"levelo://app?vid=56ec4937-459e-4719-93b0-d1a72134ef0f","ios":"levelo://app?vid=56ec4937-459e-4719-93b0-d1a72134ef0f"},"vehicle_type_id":"4","last_reported":1752700250,"current_range_meters":14000,"station_id":"ce4bh692rcd13ifvqea0","pricing_plan_id":"cebpf4jnsgd1na2vs0mg"},{"bike_id":"47e84c87-4631-48fa-8064-ac43c2313bba","system_id":"levelo_inurba_marseille","lat":43.29321,"lon":5.37204,"is_reserved":false,"is_disabled":true,"rental_uris":{"android":"levelo://app?vid=47e84c87-4631-48fa-8064-ac43c2313bba","ios":"levelo://app?vid=47e84c87-4631-48fa-8064-ac43c2313bba"},"vehicle_type_id":"4","last_reported":1752700250,"current_range_meters":14400,"station_id":"ce4bgh92rcd13ifvqb40","pricing_plan_id":"cebpf4jnsgd1na2vs0mg"},{"bike_id":"e7574c06-c628-4333-a40c-7b005585c3f8","system_id":"levelo_inurba_marseille","lat":43.29614,"lon":5.37723,"is_reserved":false,"is_disabled":true,"rental_uris":{"android":"levelo://app?vid=e7574c06-c628-4333-a40c-7b005585c3f8","ios":"levelo://app?vid=e7574c06-c628-4333-a40c-7b005585c3f8"},"vehicle_type_id":"4","last_reported":1752700250,"current_range_meters":14400,"station_id":"ce4bgi92rcd13ifvqb90","pricing_plan_id":"cebpf4jnsgd1na2vs0mg"},{"bike_id":"a00069ef-725a-4e6d-abbe-e9b6e9456239","system_id":"levelo_inurba_marseille","lat":43.31325,"lon":5.39692,"is_reserved":false,"is_disabled":false,"rental_uris":{"android":"levelo://app?vid=a00069ef-725a-4e6d-abbe-e9b6e9456239","ios":"levelo://app?vid=a00069ef-725a-4e6d-abbe-e9b6e9456239"},"vehicle_type_id":"4","last_reported":1752700250,"current_range_meters":14400,"station_id":"ce4bgvp2rcd13ifvqcu0","pricing_plan_id":"cebpf4jnsgd1na2vs0mg"},{"bike_id":"557a352a-658c-4b7e-afa9-2e6600a2d9f9","system_id":"levelo_inurba_marseille","lat":43.2869,"lon":5.37419,"is_reserved":false,"is_disabled":false,"rental_uris":{"android":"levelo://app?vid=557a352a-658c-4b7e-afa9-2e6600a2d9f9","ios":"levelo://app?vid=557a352a-658c-4b7e-afa9-2e6600a2d9f9"},"vehicle_type_id":"4","last_reported":1752700250,"current_range_meters":14400,"station_id":"ce4bh3p2rcd13ifvqdq0","pricing_plan_id":"cebpf4jnsgd1na2vs0mg"},{"bike_id":"2aad0216-72a2-45b0-a34e-6ea9c45b1dfa","system_id":"levelo_inurba_marseille","lat":43.29433,"lon":5.39754,"is_reserved":false,"is_disabled":false,"rental_uris":{"android":"levelo://app?vid=2aad0216-72a2-45b0-a34e-6ea9c45b1dfa","ios":"levelo://app?vid=2aad0216-72a2-45b0-a34e-6ea9c45b1dfa"},"vehicle_type_id":"4","last_reported":1752700250,"current_range_meters":14400,"station_id":"ce4bh3h2rcd13ifvqdo0","pricing_plan_id":"cebpf4jnsgd1na2vs0mg"},{"bike_id":"faee7903-0873-4cae-9460-c271b034a61c","system_id":"levelo_inurba_marseille","lat":43.24685,"lon":5.38145,"is_reserved":false,"is_disabled":false,"rental_uris":{"android":"levelo://app?vid=faee7903-0873-4cae-9460-c271b034a61c","ios":"levelo://app?vid=faee7903-0873-4cae-9460-c271b034a61c"},"vehicle_type_id":"4","last_reported":1752700250,"current_range_meters":14400,"station_id":"ce4bhih2rcd13ifvqfr0","pricing_plan_id":"cebpf4jnsgd1na2vs0mg"},{"bike_id":"84c133eb-a2c7-4beb-83c4-2a7041dbf7bd","system_id":"levelo_inurba_marseille","lat":43.30797,"lon":5.3816,"is_reserved":false,"is_disabled":false,"rental_uris":{"android":"levelo://app?vid=84c133eb-a2c7-4beb-83c4-2a7041dbf7bd","ios":"levelo://app?vid=84c133eb-a2c7-4beb-83c4-2a7041dbf7bd"},"vehicle_type_id":"4","last_reported":1752700250,"current_range_meters":14800,"station_id":"","pricing_plan_id":"cebpf4jnsgd1na2vs0mg"},{"bike_id":"eeb78723-c981-4b03-a8b6-75346862f8a9","system_id":"levelo_inurba_marseille","lat":43.25103,"lon":5.40326,"is_reserved":false,"is_disabled":false,"rental_uris":{"android":"levelo://app?vid=eeb78723-c981-4b03-a8b6-75346862f8a9","ios":"levelo://app?vid=eeb78723-c981-4b03-a8b6-75346862f8a9"},"vehicle_type_id":"4","last_reported":1752700250,"current_range_meters":14800,"station_id":"ce4bhlh2rcd13ifvqgig","pricing_plan_id":"cebpf4jnsgd1na2vs0mg"},{"bike_id":"7425af41-f939-4fb5-81a7-e1169ccaa6d8","system_id":"levelo_inurba_marseille","lat":43.24711,"lon":5.38207,"is_reserved":false,"is_disabled":true,"rental_uris":{"android":"levelo://app?vid=7425af41-f939-4fb5-81a7-e1169ccaa6d8","ios":"levelo://app?vid=7425af41-f939-4fb5-81a7-e1169ccaa6d8"},"vehicle_type_id":"4","last_reported":1752700250,"current_range_meters":14800,"station_id":"ce4bhih2rcd13ifvqfr0","pricing_plan_id":"cebpf4jnsgd1na2vs0mg"},{"bike_id":"28c3b4d2-c977-4aac-93c8-d13d2fa837bc","system_id":"levelo_inurba_marseille","lat":43.29791,"lon":5.40398,"is_reserved":false,"is_disabled":false,"rental_uris":{"android":"levelo://app?vid=28c3b4d2-c977-4aac-93c8-d13d2fa837bc","ios":"levelo://app?vid=28c3b4d2-c977-4aac-93c8-d13d2fa837bc"},"vehicle_type_id":"4","last_reported":1752700250,"current_range_meters":14400,"station_id":"ce4bh112rcd13ifvqd90","pricing_plan_id":"cebpf4jnsgd1na2vs0mg"},{"bike_id":"0f469724-d119-44bc-9285-a4ce7be567ee","system_id":"levelo_inurba_marseille","lat":43.29598,"lon":5.367365,"is_reserved":false,"is_disabled":false,"rental_uris":{"android":"levelo://app?vid=0f469724-d119-44bc-9285-a4ce7be567ee","ios":"levelo://app?vid=0f469724-d119-44bc-9285-a4ce7be567ee"},"vehicle_type_id":"4","last_reported":1752700250,"current_range_meters":14800,"station_id":"ce4bgph2rcd13ifvqc2g","pricing_plan_id":"cebpf4jnsgd1na2vs0mg"},{"bike_id":"8def5ecd-b0ac-45e2-af3f-9cc2f380cb0d","system_id":"levelo_inurba_marseille","lat":43.322782,"lon":5.382738,"is_reserved":false,"is_disabled":false,"rental_uris":{"android":"levelo://app?vid=8def5ecd-b0ac-45e2-af3f-9cc2f380cb0d","ios":"levelo://app?vid=8def5ecd-b0ac-45e2-af3f-9cc2f380cb0d"},"vehicle_type_id":"4","last_reported":1752700250,"current_range_meters":14800,"station_id":"ce4bhr12rcd13ifvqhqg","pricing_plan_id":"cebpf4jnsgd1na2vs0mg"},{"bike_id":"6e07a895-a3f6-496f-a8b9-b694cdeb0b48","system_id":"levelo_inurba_marseille","lat":43.29626,"lon":5.37712,"is_reserved":false,"is_disabled":false,"rental_uris":{"android":"levelo://app?vid=6e07a895-a3f6-496f-a8b9-b694cdeb0b48","ios":"levelo://app?vid=6e07a895-a3f6-496f-a8b9-b694cdeb0b48"},"vehicle_type_id":"4","last_reported":1752700250,"current_range_meters":14800,"station_id":"ce4bgi92rcd13ifvqb90","pricing_plan_id":"cebpf4jnsgd1na2vs0mg"},{"bike_id":"011b79d6-fd4e-4a43-b39a-554909c6320d","system_id":"levelo_inurba_marseille","lat":43.29258,"lon":5.38455,"is_reserved":false,"is_disabled":false,"rental_uris":{"android":"levelo://app?vid=011b79d6-fd4e-4a43-b39a-554909c6320d","ios":"levelo://app?vid=011b79d6-fd4e-4a43-b39a-554909c6320d"},"vehicle_type_id":"4","last_reported":1752700250,"current_range_meters":14800,"station_id":"ce4bh692rcd13ifvqea0","pricing_plan_id":"cebpf4jnsgd1na2vs0mg"},{"bike_id":"6fe460e7-d585-4ded-9df4-8fb5354e13b2","system_id":"levelo_inurba_marseille","lat":43.27056,"lon":5.4027,"is_reserved":false,"is_disabled":false,"rental_uris":{"android":"levelo://app?vid=6fe460e7-d585-4ded-9df4-8fb5354e13b2","ios":"levelo://app?vid=6fe460e7-d585-4ded-9df4-8fb5354e13b2"},"vehicle_type_id":"4","last_reported":1752700250,"current_range_meters":14800,"station_id":"ce4bhk92rcd13ifvqgc0","pricing_plan_id":"cebpf4jnsgd1na2vs0mg"},{"bike_id":"2390696d-7188-4b65-a2ec-c9ee75939806","system_id":"levelo_inurba_marseille","lat":43.287,"lon":5.39993,"is_reserved":false,"is_disabled":false,"rental_uris":{"android":"levelo://app?vid=2390696d-7188-4b65-a2ec-c9ee75939806","ios":"levelo://app?vid=2390696d-7188-4b65-a2ec-c9ee75939806"},"vehicle_type_id":"4","last_reported":1752700250,"current_range_meters":14800,"station_id":"ce4bho92rcd13ifvqh3g","pricing_plan_id":"cebpf4jnsgd1na2vs0mg"},{"bike_id":"0251491b-c678-423b-bd29-5a5e2bd56df5","system_id":"levelo_inurba_marseille","lat":43.245475,"lon":5.395225,"is_reserved":false,"is_disabled":false,"rental_uris":{"android":"levelo://app?vid=0251491b-c678-423b-bd29-5a5e2bd56df5","ios":"levelo://app?vid=0251491b-c678-423b-bd29-5a5e2bd56df5"},"vehicle_type_id":"4","last_reported":1752700250,"current_range_meters":15200,"station_id":"ce4bhlp2rcd13ifvqgjg","pricing_plan_id":"cebpf4jnsgd1na2vs0mg"},{"bike_id":"fcba4594-f598-4dbb-8a78-60c5aecf76ce","system_id":"levelo_inurba_marseille","lat":43.2962,"lon":5.37153,"is_reserved":false,"is_disabled":false,"rental_uris":{"android":"levelo://app?vid=fcba4594-f598-4dbb-8a78-60c5aecf76ce","ios":"levelo://app?vid=fcba4594-f598-4dbb-8a78-60c5aecf76ce"},"vehicle_type_id":"4","last_reported":1752700250,"current_range_meters":15200,"station_id":"ce4bgnh2rcd13ifvqc0g","pricing_plan_id":"cebpf4jnsgd1na2vs0mg"},{"bike_id":"229a51b8-d35a-46ef-90d9-099d3d4f556b","system_id":"levelo_inurba_marseille","lat":43.294281,"lon":5.385727,"is_reserved":false,"is_disabled":true,"rental_uris":{"android":"levelo://app?vid=229a51b8-d35a-46ef-90d9-099d3d4f556b","ios":"levelo://app?vid=229a51b8-d35a-46ef-90d9-099d3d4f556b"},"vehicle_type_id":"4","last_reported":1752700250,"current_range_meters":15200,"station_id":"ce4bh2h2rcd13ifvqdh0","pricing_plan_id":"cebpf4jnsgd1na2vs0mg"},{"bike_id":"2b751b92-c0f8-4447-a98b-dce05636b436","system_id":"levelo_inurba_marseille","lat":43.29529,"lon":5.38543,"is_reserved":false,"is_disabled":false,"rental_uris":{"android":"levelo://app?vid=2b751b92-c0f8-4447-a98b-dce05636b436","ios":"levelo://app?vid=2b751b92-c0f8-4447-a98b-dce05636b436"},"vehicle_type_id":"4","last_reported":1752700250,"current_range_meters":15200,"station_id":"ce4bgih2rcd13ifvqba0","pricing_plan_id":"cebpf4jnsgd1na2vs0mg"},{"bike_id":"5567fc2d-d749-4ed4-9048-a6c46f1de869","system_id":"levelo_inurba_marseille","lat":43.31532,"lon":5.38041,"is_reserved":false,"is_disabled":false,"rental_uris":{"android":"levelo://app?vid=5567fc2d-d749-4ed4-9048-a6c46f1de869","ios":"levelo://app?vid=5567fc2d-d749-4ed4-9048-a6c46f1de869"},"vehicle_type_id":"4","last_reported":1752700250,"current_range_meters":14800,"station_id":"ce4bhsp2rcd13ifvqi50","pricing_plan_id":"cebpf4jnsgd1na2vs0mg"},{"bike_id":"656262a4-43f2-45a8-9848-8ed0eaefa8c1","system_id":"levelo_inurba_marseille","lat":43.298468,"lon":5.362738,"is_reserved":false,"is_disabled":false,"rental_uris":{"android":"levelo://app?vid=656262a4-43f2-45a8-9848-8ed0eaefa8c1","ios":"levelo://app?vid=656262a4-43f2-45a8-9848-8ed0eaefa8c1"},"vehicle_type_id":"4","last_reported":1752700250,"current_range_meters":15200,"station_id":"ce4bgpp2rcd13ifvqc3g","pricing_plan_id":"cebpf4jnsgd1na2vs0mg"},{"bike_id":"0398468c-6c0f-49fd-b525-08c45b6a4cd9","system_id":"levelo_inurba_marseille","lat":43.22502,"lon":5.34818,"is_reserved":false,"is_disabled":false,"rental_uris":{"android":"levelo://app?vid=0398468c-6c0f-49fd-b525-08c45b6a4cd9","ios":"levelo://app?vid=0398468c-6c0f-49fd-b525-08c45b6a4cd9"},"vehicle_type_id":"4","last_reported":1752700250,"current_range_meters":16000,"station_id":"st_cvj5dfep6f1abm77gieg","pricing_plan_id":"cebpf4jnsgd1na2vs0mg"},{"bike_id":"8f8eb057-b644-47d5-8f5a-192677f1c83b","system_id":"levelo_inurba_marseille","lat":43.296223,"lon":5.377025,"is_reserved":false,"is_disabled":false,"rental_uris":{"android":"levelo://app?vid=8f8eb057-b644-47d5-8f5a-192677f1c83b","ios":"levelo://app?vid=8f8eb057-b644-47d5-8f5a-192677f1c83b"},"vehicle_type_id":"4","last_reported":1752700250,"current_range_meters":16000,"station_id":"","pricing_plan_id":"cebpf4jnsgd1na2vs0mg"},{"bike_id":"21b948e7-b696-4860-bf03-3e616f524c72","system_id":"levelo_inurba_marseille","lat":43.29581,"lon":5.36782,"is_reserved":false,"is_disabled":false,"rental_uris":{"android":"levelo://app?vid=21b948e7-b696-4860-bf03-3e616f524c72","ios":"levelo://app?vid=21b948e7-b696-4860-bf03-3e616f524c72"},"vehicle_type_id":"4","last_reported":1752700250,"current_range_meters":16000,"station_id":"ce4bgph2rcd13ifvqc2g","pricing_plan_id":"cebpf4jnsgd1na2vs0mg"},{"bike_id":"7aa4f608-4b77-4e32-88b0-fc5ccdecdfa7","system_id":"levelo_inurba_marseille","lat":43.29587,"lon":5.36749,"is_reserved":false,"is_disabled":false,"rental_uris":{"android":"levelo://app?vid=7aa4f608-4b77-4e32-88b0-fc5ccdecdfa7","ios":"levelo://app?vid=7aa4f608-4b77-4e32-88b0-fc5ccdecdfa7"},"vehicle_type_id":"4","last_reported":1752700250,"current_range_meters":16000,"station_id":"ce4bgph2rcd13ifvqc2g","pricing_plan_id":"cebpf4jnsgd1na2vs0mg"},{"bike_id":"9090e647-a713-44ba-b392-5ac73cd154dd","system_id":"levelo_inurba_marseille","lat":43.23064,"lon":5.35503,"is_reserved":false,"is_disabled":false,"rental_uris":{"android":"levelo://app?vid=9090e647-a713-44ba-b392-5ac73cd154dd","ios":"levelo://app?vid=9090e647-a713-44ba-b392-5ac73cd154dd"},"vehicle_type_id":"4","last_reported":1752700250,"current_range_meters":16000,"station_id":"cpo3342slgdg3j2ifvpg","pricing_plan_id":"cebpf4jnsgd1na2vs0mg"},{"bike_id":"555bc53e-5286-4fb6-9154-af42b3fd9792","system_id":"levelo_inurba_marseille","lat":43.30064,"lon":5.37286,"is_reserved":false,"is_disabled":false,"rental_uris":{"android":"levelo://app?vid=555bc53e-5286-4fb6-9154-af42b3fd9792","ios":"levelo://app?vid=555bc53e-5286-4fb6-9154-af42b3fd9792"},"vehicle_type_id":"4","last_reported":1752700250,"current_range_meters":16000,"station_id":"","pricing_plan_id":"cebpf4jnsgd1na2vs0mg"},{"bike_id":"41e52042-9aec-491e-a8ad-48847e940eea","system_id":"levelo_inurba_marseille","lat":43.22933,"lon":5.35378,"is_reserved":false,"is_disabled":false,"rental_uris":{"android":"levelo://app?vid=41e52042-9aec-491e-a8ad-48847e940eea","ios":"levelo://app?vid=41e52042-9aec-491e-a8ad-48847e940eea"},"vehicle_type_id":"4","last_reported":1752700250,"current_range_meters":16000,"station_id":"cpo3532slgdg3j2ikp40","pricing_plan_id":"cebpf4jnsgd1na2vs0mg"},{"bike_id":"285aaa26-07be-4c4a-9be9-3c0873597bc5","system_id":"levelo_inurba_marseille","lat":43.296,"lon":5.36757,"is_reserved":false,"is_disabled":false,"rental_uris":{"android":"levelo://app?vid=285aaa26-07be-4c4a-9be9-3c0873597bc5","ios":"levelo://app?vid=285aaa26-07be-4c4a-9be9-3c0873597bc5"},"vehicle_type_id":"4","last_reported":1752700250,"current_range_meters":16000,"station_id":"ce4bgph2rcd13ifvqc2g","pricing_plan_id":"cebpf4jnsgd1na2vs0mg"},{"bike_id":"39c6203f-25ee-487c-9399-b36ef495fc6b","system_id":"levelo_inurba_marseille","lat":43.24089,"lon":5.37713,"is_reserved":false,"is_disabled":false,"rental_uris":{"android":"levelo://app?vid=39c6203f-25ee-487c-9399-b36ef495fc6b","ios":"levelo://app?vid=39c6203f-25ee-487c-9399-b36ef495fc6b"},"vehicle_type_id":"4","last_reported":1752700250,"current_range_meters":16000,"station_id":"ce4bhnp2rcd13ifvqgvg","pricing_plan_id":"cebpf4jnsgd1na2vs0mg"},{"bike_id":"1e713b2a-3a66-4e3c-969e-4d5d94cad742","system_id":"levelo_inurba_marseille","lat":43.29863,"lon":5.39724,"is_reserved":false,"is_disabled":false,"rental_uris":{"android":"levelo://app?vid=1e713b2a-3a66-4e3c-969e-4d5d94cad742","ios":"levelo://app?vid=1e713b2a-3a66-4e3c-969e-4d5d94cad742"},"vehicle_type_id":"4","last_reported":1752700250,"current_range_meters":16000,"station_id":"ce4bh0h2rcd13ifvqd50","pricing_plan_id":"cebpf4jnsgd1na2vs0mg"},{"bike_id":"3db90f43-2f36-4a4a-b113-754b8a5e5d30","system_id":"levelo_inurba_marseille","lat":43.29264,"lon":5.38438,"is_reserved":false,"is_disabled":false,"rental_uris":{"android":"levelo://app?vid=3db90f43-2f36-4a4a-b113-754b8a5e5d30","ios":"levelo://app?vid=3db90f43-2f36-4a4a-b113-754b8a5e5d30"},"vehicle_type_id":"4","last_reported":1752700250,"current_range_meters":16000,"station_id":"ce4bh692rcd13ifvqea0","pricing_plan_id":"cebpf4jnsgd1na2vs0mg"},{"bike_id":"243ff24d-c224-4f6c-8766-a9a443123038","system_id":"levelo_inurba_marseille","lat":43.23958,"lon":5.36628,"is_reserved":false,"is_disabled":false,"rental_uris":{"android":"levelo://app?vid=243ff24d-c224-4f6c-8766-a9a443123038","ios":"levelo://app?vid=243ff24d-c224-4f6c-8766-a9a443123038"},"vehicle_type_id":"4","last_reported":1752700250,"current_range_meters":16000,"station_id":"ce4bhi12rcd13ifvqfp0","pricing_plan_id":"cebpf4jnsgd1na2vs0mg"},{"bike_id":"b0913f93-a684-4140-9689-82edfbc4235d","system_id":"levelo_inurba_marseille","lat":43.21191,"lon":5.35066,"is_reserved":false,"is_disabled":false,"rental_uris":{"android":"levelo://app?vid=b0913f93-a684-4140-9689-82edfbc4235d","ios":"levelo://app?vid=b0913f93-a684-4140-9689-82edfbc4235d"},"vehicle_type_id":"4","last_reported":1752700250,"current_range_meters":16400,"station_id":"st_cvj6sg6p6f1abm77japg","pricing_plan_id":"cebpf4jnsgd1na2vs0mg"},{"bike_id":"04ce867f-3d44-4436-878f-793f7decd520","system_id":"levelo_inurba_marseille","lat":43.22931,"lon":5.3538,"is_reserved":false,"is_disabled":false,"rental_uris":{"android":"levelo://app?vid=04ce867f-3d44-4436-878f-793f7decd520","ios":"levelo://app?vid=04ce867f-3d44-4436-878f-793f7decd520"},"vehicle_type_id":"4","last_reported":1752700250,"current_range_meters":16400,"station_id":"cpo3532slgdg3j2ikp40","pricing_plan_id":"cebpf4jnsgd1na2vs0mg"},{"bike_id":"a68612b3-8ed6-4d3b-af65-4d1c84c2c21c","system_id":"levelo_inurba_marseille","lat":43.25117,"lon":5.4034,"is_reserved":false,"is_disabled":false,"rental_uris":{"android":"levelo://app?vid=a68612b3-8ed6-4d3b-af65-4d1c84c2c21c","ios":"levelo://app?vid=a68612b3-8ed6-4d3b-af65-4d1c84c2c21c"},"vehicle_type_id":"4","last_reported":1752700250,"current_range_meters":16400,"station_id":"ce4bhlh2rcd13ifvqgig","pricing_plan_id":"cebpf4jnsgd1na2vs0mg"},{"bike_id":"5ae36b8f-c822-4b6f-97a6-3b9af4e6a0af","system_id":"levelo_inurba_marseille","lat":43.2582,"lon":5.39456,"is_reserved":false,"is_disabled":false,"rental_uris":{"android":"levelo://app?vid=5ae36b8f-c822-4b6f-97a6-3b9af4e6a0af","ios":"levelo://app?vid=5ae36b8f-c822-4b6f-97a6-3b9af4e6a0af"},"vehicle_type_id":"4","last_reported":1752700250,"current_range_meters":16400,"station_id":"ce4bhip2rcd13ifvqft0","pricing_plan_id":"cebpf4jnsgd1na2vs0mg"},{"bike_id":"3444bdc6-514a-4ba6-9650-f9073305e33d","system_id":"levelo_inurba_marseille","lat":43.29682,"lon":5.3698,"is_reserved":false,"is_disabled":false,"rental_uris":{"android":"levelo://app?vid=3444bdc6-514a-4ba6-9650-f9073305e33d","ios":"levelo://app?vid=3444bdc6-514a-4ba6-9650-f9073305e33d"},"vehicle_type_id":"4","last_reported":1752700250,"current_range_meters":16400,"station_id":"","pricing_plan_id":"cebpf4jnsgd1na2vs0mg"},{"bike_id":"34e62ee5-3131-428c-842a-9ad03de94ba5","system_id":"levelo_inurba_marseille","lat":43.22562,"lon":5.34852,"is_reserved":false,"is_disabled":false,"rental_uris":{"android":"levelo://app?vid=34e62ee5-3131-428c-842a-9ad03de94ba5","ios":"levelo://app?vid=34e62ee5-3131-428c-842a-9ad03de94ba5"},"vehicle_type_id":"4","last_reported":1752700250,"current_range_meters":16400,"station_id":"","pricing_plan_id":"cebpf4jnsgd1na2vs0mg"},{"bike_id":"a2acfc19-64ba-419d-9ae0-691ab7650121","system_id":"levelo_inurba_marseille","lat":43.28721,"lon":5.36091,"is_reserved":false,"is_disabled":false,"rental_uris":{"android":"levelo://app?vid=a2acfc19-64ba-419d-9ae0-691ab7650121","ios":"levelo://app?vid=a2acfc19-64ba-419d-9ae0-691ab7650121"},"vehicle_type_id":"4","last_reported":1752700250,"current_range_meters":16400,"station_id":"cki0cbj6b192h4jlfktg","pricing_plan_id":"cebpf4jnsgd1na2vs0mg"},{"bike_id":"6a4bc36d-c4e0-413e-ad86-a1a39c80c16f","system_id":"levelo_inurba_marseille","lat":43.30416,"lon":5.39747,"is_reserved":false,"is_disabled":false,"rental_uris":{"android":"levelo://app?vid=6a4bc36d-c4e0-413e-ad86-a1a39c80c16f","ios":"levelo://app?vid=6a4bc36d-c4e0-413e-ad86-a1a39c80c16f"},"vehicle_type_id":"4","last_reported":1752700250,"current_range_meters":16400,"station_id":"ce4bh092rcd13ifvqd20","pricing_plan_id":"cebpf4jnsgd1na2vs0mg"},{"bike_id":"045a641b-5c1f-49de-960c-1fbe47651d2b","system_id":"levelo_inurba_marseille","lat":43.29286,"lon":5.40127,"is_reserved":false,"is_disabled":false,"rental_uris":{"android":"levelo://app?vid=045a641b-5c1f-49de-960c-1fbe47651d2b","ios":"levelo://app?vid=045a641b-5c1f-49de-960c-1fbe47651d2b"},"vehicle_type_id":"4","last_reported":1752700250,"current_range_meters":16400,"station_id":"ce4bh312rcd13ifvqdk0","pricing_plan_id":"cebpf4jnsgd1na2vs0mg"},{"bike_id":"cde34f09-c0fd-42cd-818c-167e586dec6a","system_id":"levelo_inurba_marseille","lat":43.25483,"lon":5.37645,"is_reserved":false,"is_disabled":false,"rental_uris":{"android":"levelo://app?vid=cde34f09-c0fd-42cd-818c-167e586dec6a","ios":"levelo://app?vid=cde34f09-c0fd-42cd-818c-167e586dec6a"},"vehicle_type_id":"4","last_reported":1752700250,"current_range_meters":16400,"station_id":"ce4bhh12rcd13ifvqff0","pricing_plan_id":"cebpf4jnsgd1na2vs0mg"},{"bike_id":"5ee72fdb-7a3a-4f38-9f44-3345045a40f2","system_id":"levelo_inurba_marseille","lat":43.30767,"lon":5.37651,"is_reserved":false,"is_disabled":false,"rental_uris":{"android":"levelo://app?vid=5ee72fdb-7a3a-4f38-9f44-3345045a40f2","ios":"levelo://app?vid=5ee72fdb-7a3a-4f38-9f44-3345045a40f2"},"vehicle_type_id":"4","last_reported":1752700250,"current_range_meters":16400,"station_id":"ce4bgv92rcd13ifvqcq0","pricing_plan_id":"cebpf4jnsgd1na2vs0mg"},{"bike_id":"07f5ae19-0925-43ef-aab4-48ec58bc62b9","system_id":"levelo_inurba_marseille","lat":43.31429,"lon":5.37444,"is_reserved":false,"is_disabled":false,"rental_uris":{"android":"levelo://app?vid=07f5ae19-0925-43ef-aab4-48ec58bc62b9","ios":"levelo://app?vid=07f5ae19-0925-43ef-aab4-48ec58bc62b9"},"vehicle_type_id":"4","last_reported":1752700250,"current_range_meters":16400,"station_id":"","pricing_plan_id":"cebpf4jnsgd1na2vs0mg"},{"bike_id":"9857da0b-29a0-4865-a07e-f300266c858f","system_id":"levelo_inurba_marseille","lat":43.29051,"lon":5.3714,"is_reserved":false,"is_disabled":false,"rental_uris":{"android":"levelo://app?vid=9857da0b-29a0-4865-a07e-f300266c858f","ios":"levelo://app?vid=9857da0b-29a0-4865-a07e-f300266c858f"},"vehicle_type_id":"4","last_reported":1752700250,"current_range_meters":16400,"station_id":"ce4bh5p2rcd13ifvqe4g","pricing_plan_id":"cebpf4jnsgd1na2vs0mg"},{"bike_id":"6e5a7ddd-9fa2-45b4-a372-ef1b150d2be0","system_id":"levelo_inurba_marseille","lat":43.28477,"lon":5.38425,"is_reserved":false,"is_disabled":false,"rental_uris":{"android":"levelo://app?vid=6e5a7ddd-9fa2-45b4-a372-ef1b150d2be0","ios":"levelo://app?vid=6e5a7ddd-9fa2-45b4-a372-ef1b150d2be0"},"vehicle_type_id":"4","last_reported":1752700250,"current_range_meters":16400,"station_id":"ce4bh512rcd13ifvqe3g","pricing_plan_id":"cebpf4jnsgd1na2vs0mg"},{"bike_id":"8417ad62-2136-4647-b89c-f46e0aabae59","system_id":"levelo_inurba_marseille","lat":43.22941,"lon":5.35386,"is_reserved":false,"is_disabled":false,"rental_uris":{"android":"levelo://app?vid=8417ad62-2136-4647-b89c-f46e0aabae59","ios":"levelo://app?vid=8417ad62-2136-4647-b89c-f46e0aabae59"},"vehicle_type_id":"4","last_reported":1752700250,"current_range_meters":16400,"station_id":"cpo3532slgdg3j2ikp40","pricing_plan_id":"cebpf4jnsgd1na2vs0mg"},{"bike_id":"d2ad34a3-0ebf-4314-bcc1-efec3cac7a18","system_id":"levelo_inurba_marseille","lat":43.27972,"lon":5.38739,"is_reserved":false,"is_disabled":false,"rental_uris":{"android":"levelo://app?vid=d2ad34a3-0ebf-4314-bcc1-efec3cac7a18","ios":"levelo://app?vid=d2ad34a3-0ebf-4314-bcc1-efec3cac7a18"},"vehicle_type_id":"4","last_reported":1752700250,"current_range_meters":16800,"station_id":"ce4bhg12rcd13ifvqf80","pricing_plan_id":"cebpf4jnsgd1na2vs0mg"},{"bike_id":"faa58e29-017e-45e5-bdb2-7d6985a47feb","system_id":"levelo_inurba_marseille","lat":43.29844,"lon":5.3627,"is_reserved":false,"is_disabled":false,"rental_uris":{"android":"levelo://app?vid=faa58e29-017e-45e5-bdb2-7d6985a47feb","ios":"levelo://app?vid=faa58e29-017e-45e5-bdb2-7d6985a47feb"},"vehicle_type_id":"4","last_reported":1752700250,"current_range_meters":16800,"station_id":"ce4bgpp2rcd13ifvqc3g","pricing_plan_id":"cebpf4jnsgd1na2vs0mg"},{"bike_id":"8acdf02c-787e-4a1e-956a-5c94a3dff06a","system_id":"levelo_inurba_marseille","lat":43.28513,"lon":5.40609,"is_reserved":false,"is_disabled":false,"rental_uris":{"android":"levelo://app?vid=8acdf02c-787e-4a1e-956a-5c94a3dff06a","ios":"levelo://app?vid=8acdf02c-787e-4a1e-956a-5c94a3dff06a"},"vehicle_type_id":"4","last_reported":1752700250,"current_range_meters":16800,"station_id":"","pricing_plan_id":"cebpf4jnsgd1na2vs0mg"},{"bike_id":"21838aa6-9232-456f-a878-8a8dee18a486","system_id":"levelo_inurba_marseille","lat":43.29627,"lon":5.40597,"is_reserved":false,"is_disabled":false,"rental_uris":{"android":"levelo://app?vid=21838aa6-9232-456f-a878-8a8dee18a486","ios":"levelo://app?vid=21838aa6-9232-456f-a878-8a8dee18a486"},"vehicle_type_id":"4","last_reported":1752700250,"current_range_meters":16800,"station_id":"ce4bh0h2rcd13ifvqd60","pricing_plan_id":"cebpf4jnsgd1na2vs0mg"},{"bike_id":"9db6e9f2-94c5-4f59-8807-8d2fbaf3e6d4","system_id":"levelo_inurba_marseille","lat":43.31226,"lon":5.36863,"is_reserved":false,"is_disabled":false,"rental_uris":{"android":"levelo://app?vid=9db6e9f2-94c5-4f59-8807-8d2fbaf3e6d4","ios":"levelo://app?vid=9db6e9f2-94c5-4f59-8807-8d2fbaf3e6d4"},"vehicle_type_id":"4","last_reported":1752700250,"current_range_meters":16800,"station_id":"ce4bgl92rcd13ifvqbq0","pricing_plan_id":"cebpf4jnsgd1na2vs0mg"},{"bike_id":"e88bbc7e-3afc-4c27-b087-41da5f9022d5","system_id":"levelo_inurba_marseille","lat":43.28097,"lon":5.37836,"is_reserved":false,"is_disabled":false,"rental_uris":{"android":"levelo://app?vid=e88bbc7e-3afc-4c27-b087-41da5f9022d5","ios":"levelo://app?vid=e88bbc7e-3afc-4c27-b087-41da5f9022d5"},"vehicle_type_id":"4","last_reported":1752700250,"current_range_meters":16800,"station_id":"ce4bha12rcd13ifvqee0","pricing_plan_id":"cebpf4jnsgd1na2vs0mg"},{"bike_id":"23aea49e-3be5-46af-b900-481df4dbf21f","system_id":"levelo_inurba_marseille","lat":43.29212,"lon":5.39354,"is_reserved":false,"is_disabled":false,"rental_uris":{"android":"levelo://app?vid=23aea49e-3be5-46af-b900-481df4dbf21f","ios":"levelo://app?vid=23aea49e-3be5-46af-b900-481df4dbf21f"},"vehicle_type_id":"4","last_reported":1752700250,"current_range_meters":16800,"station_id":"ce4bh192rcd13ifvqdd0","pricing_plan_id":"cebpf4jnsgd1na2vs0mg"},{"bike_id":"e26ce618-8510-4248-9349-1c31d05fc60d","system_id":"levelo_inurba_marseille","lat":43.30413,"lon":5.39768,"is_reserved":false,"is_disabled":false,"rental_uris":{"android":"levelo://app?vid=e26ce618-8510-4248-9349-1c31d05fc60d","ios":"levelo://app?vid=e26ce618-8510-4248-9349-1c31d05fc60d"},"vehicle_type_id":"4","last_reported":1752700250,"current_range_meters":16800,"station_id":"ce4bh092rcd13ifvqd20","pricing_plan_id":"cebpf4jnsgd1na2vs0mg"},{"bike_id":"15e281ac-ac0d-4b6f-b426-fa5c002bd7ee","system_id":"levelo_inurba_marseille","lat":43.27686,"lon":5.38927,"is_reserved":false,"is_disabled":true,"rental_uris":{"android":"levelo://app?vid=15e281ac-ac0d-4b6f-b426-fa5c002bd7ee","ios":"levelo://app?vid=15e281ac-ac0d-4b6f-b426-fa5c002bd7ee"},"vehicle_type_id":"4","last_reported":1752700250,"current_range_meters":17200,"station_id":"ce4bhi12rcd13ifvqfo0","pricing_plan_id":"cebpf4jnsgd1na2vs0mg"},{"bike_id":"f6e67167-3686-4cae-82da-4610049996dc","system_id":"levelo_inurba_marseille","lat":43.26928,"lon":5.38508,"is_reserved":false,"is_disabled":false,"rental_uris":{"android":"levelo://app?vid=f6e67167-3686-4cae-82da-4610049996dc","ios":"levelo://app?vid=f6e67167-3686-4cae-82da-4610049996dc"},"vehicle_type_id":"4","last_reported":1752700250,"current_range_meters":17200,"station_id":"","pricing_plan_id":"cebpf4jnsgd1na2vs0mg"},{"bike_id":"2a16421a-cc29-42bf-95df-9ffb4bdfc5d2","system_id":"levelo_inurba_marseille","lat":43.27992,"lon":5.4166,"is_reserved":false,"is_disabled":false,"rental_uris":{"android":"levelo://app?vid=2a16421a-cc29-42bf-95df-9ffb4bdfc5d2","ios":"levelo://app?vid=2a16421a-cc29-42bf-95df-9ffb4bdfc5d2"},"vehicle_type_id":"4","last_reported":1752700250,"current_range_meters":17200,"station_id":"ce4bho12rcd13ifvqh1g","pricing_plan_id":"cebpf4jnsgd1na2vs0mg"},{"bike_id":"1fe22b9d-79e7-4e3f-b0f1-768c011ef87e","system_id":"levelo_inurba_marseille","lat":43.298659,"lon":5.363316,"is_reserved":false,"is_disabled":false,"rental_uris":{"android":"levelo://app?vid=1fe22b9d-79e7-4e3f-b0f1-768c011ef87e","ios":"levelo://app?vid=1fe22b9d-79e7-4e3f-b0f1-768c011ef87e"},"vehicle_type_id":"4","last_reported":1752700250,"current_range_meters":17200,"station_id":"","pricing_plan_id":"cebpf4jnsgd1na2vs0mg"},{"bike_id":"0616dcf6-6e33-4f99-9f7d-f6ec5b4fa074","system_id":"levelo_inurba_marseille","lat":43.29841,"lon":5.36274,"is_reserved":false,"is_disabled":false,"rental_uris":{"android":"levelo://app?vid=0616dcf6-6e33-4f99-9f7d-f6ec5b4fa074","ios":"levelo://app?vid=0616dcf6-6e33-4f99-9f7d-f6ec5b4fa074"},"vehicle_type_id":"4","last_reported":1752700250,"current_range_meters":17200,"station_id":"ce4bgpp2rcd13ifvqc3g","pricing_plan_id":"cebpf4jnsgd1na2vs0mg"},{"bike_id":"eb0576d5-3ad0-4892-ab26-08f5b0edf9da","system_id":"levelo_inurba_marseille","lat":43.29836,"lon":5.36268,"is_reserved":false,"is_disabled":false,"rental_uris":{"android":"levelo://app?vid=eb0576d5-3ad0-4892-ab26-08f5b0edf9da","ios":"levelo://app?vid=eb0576d5-3ad0-4892-ab26-08f5b0edf9da"},"vehicle_type_id":"4","last_reported":1752700250,"current_range_meters":17200,"station_id":"ce4bgpp2rcd13ifvqc3g","pricing_plan_id":"cebpf4jnsgd1na2vs0mg"},{"bike_id":"c34f30c9-f4cd-494a-a273-5c0d5a14b0c2","system_id":"levelo_inurba_marseille","lat":43.27283,"lon":5.39131,"is_reserved":false,"is_disabled":false,"rental_uris":{"android":"levelo://app?vid=c34f30c9-f4cd-494a-a273-5c0d5a14b0c2","ios":"levelo://app?vid=c34f30c9-f4cd-494a-a273-5c0d5a14b0c2"},"vehicle_type_id":"4","last_reported":1752700250,"current_range_meters":17600,"station_id":"ce4bhdp2rcd13ifvqf20","pricing_plan_id":"cebpf4jnsgd1na2vs0mg"},{"bike_id":"1a1de22c-864f-4087-990e-227151d55abc","system_id":"levelo_inurba_marseille","lat":43.21207,"lon":5.35095,"is_reserved":false,"is_disabled":false,"rental_uris":{"android":"levelo://app?vid=1a1de22c-864f-4087-990e-227151d55abc","ios":"levelo://app?vid=1a1de22c-864f-4087-990e-227151d55abc"},"vehicle_type_id":"4","last_reported":1752700250,"current_range_meters":17600,"station_id":"st_cvj6sg6p6f1abm77japg","pricing_plan_id":"cebpf4jnsgd1na2vs0mg"},{"bike_id":"ee92164b-038e-4936-a198-386268037e73","system_id":"levelo_inurba_marseille","lat":43.25497,"lon":5.37672,"is_reserved":false,"is_disabled":false,"rental_uris":{"android":"levelo://app?vid=ee92164b-038e-4936-a198-386268037e73","ios":"levelo://app?vid=ee92164b-038e-4936-a198-386268037e73"},"vehicle_type_id":"4","last_reported":1752700250,"current_range_meters":17600,"station_id":"ce4bhh12rcd13ifvqff0","pricing_plan_id":"cebpf4jnsgd1na2vs0mg"},{"bike_id":"af75829d-38d2-4adc-ab55-bff9631c9648","system_id":"levelo_inurba_marseille","lat":43.27795,"lon":5.40705,"is_reserved":false,"is_disabled":false,"rental_uris":{"android":"levelo://app?vid=af75829d-38d2-4adc-ab55-bff9631c9648","ios":"levelo://app?vid=af75829d-38d2-4adc-ab55-bff9631c9648"},"vehicle_type_id":"4","last_reported":1752700250,"current_range_meters":17200,"station_id":"ce4bhnh2rcd13ifvqgtg","pricing_plan_id":"cebpf4jnsgd1na2vs0mg"},{"bike_id":"8716a6dc-edc9-4ce8-b2db-da4e68c247be","system_id":"levelo_inurba_marseille","lat":43.29542,"lon":5.38553,"is_reserved":false,"is_disabled":true,"rental_uris":{"android":"levelo://app?vid=8716a6dc-edc9-4ce8-b2db-da4e68c247be","ios":"levelo://app?vid=8716a6dc-edc9-4ce8-b2db-da4e68c247be"},"vehicle_type_id":"4","last_reported":1752700250,"current_range_meters":18000,"station_id":"ce4bgih2rcd13ifvqba0","pricing_plan_id":"cebpf4jnsgd1na2vs0mg"},{"bike_id":"2e52c340-5a15-427d-9501-98b544c14876","system_id":"levelo_inurba_marseille","lat":43.29569,"lon":5.40015,"is_reserved":false,"is_disabled":true,"rental_uris":{"android":"levelo://app?vid=2e52c340-5a15-427d-9501-98b544c14876","ios":"levelo://app?vid=2e52c340-5a15-427d-9501-98b544c14876"},"vehicle_type_id":"4","last_reported":1752700250,"current_range_meters":18000,"station_id":"ce4bh312rcd13ifvqdj0","pricing_plan_id":"cebpf4jnsgd1na2vs0mg"},{"bike_id":"855ff8f9-641c-41af-8e00-5d71e1a04e0f","system_id":"levelo_inurba_marseille","lat":43.22498,"lon":5.3477,"is_reserved":false,"is_disabled":false,"rental_uris":{"android":"levelo://app?vid=855ff8f9-641c-41af-8e00-5d71e1a04e0f","ios":"levelo://app?vid=855ff8f9-641c-41af-8e00-5d71e1a04e0f"},"vehicle_type_id":"4","last_reported":1752700250,"current_range_meters":18000,"station_id":"st_cvj5dfep6f1abm77gieg","pricing_plan_id":"cebpf4jnsgd1na2vs0mg"},{"bike_id":"1dee3045-62aa-4e3c-8e0e-cd35af9324b2","system_id":"levelo_inurba_marseille","lat":43.2308,"lon":5.35524,"is_reserved":false,"is_disabled":false,"rental_uris":{"android":"levelo://app?vid=1dee3045-62aa-4e3c-8e0e-cd35af9324b2","ios":"levelo://app?vid=1dee3045-62aa-4e3c-8e0e-cd35af9324b2"},"vehicle_type_id":"4","last_reported":1752700250,"current_range_meters":18000,"station_id":"cpo3342slgdg3j2ifvpg","pricing_plan_id":"cebpf4jnsgd1na2vs0mg"},{"bike_id":"5b815275-6907-4922-b53c-b74d16d5484c","system_id":"levelo_inurba_marseille","lat":43.29846,"lon":5.36278,"is_reserved":false,"is_disabled":false,"rental_uris":{"android":"levelo://app?vid=5b815275-6907-4922-b53c-b74d16d5484c","ios":"levelo://app?vid=5b815275-6907-4922-b53c-b74d16d5484c"},"vehicle_type_id":"4","last_reported":1752700250,"current_range_meters":18000,"station_id":"ce4bgpp2rcd13ifvqc3g","pricing_plan_id":"cebpf4jnsgd1na2vs0mg"},{"bike_id":"a6c07508-97e3-4f3c-8dd3-42872318f0ce","system_id":"levelo_inurba_marseille","lat":43.29587,"lon":5.36755,"is_reserved":false,"is_disabled":false,"rental_uris":{"android":"levelo://app?vid=a6c07508-97e3-4f3c-8dd3-42872318f0ce","ios":"levelo://app?vid=a6c07508-97e3-4f3c-8dd3-42872318f0ce"},"vehicle_type_id":"4","last_reported":1752700250,"current_range_meters":18000,"station_id":"ce4bgph2rcd13ifvqc2g","pricing_plan_id":"cebpf4jnsgd1na2vs0mg"},{"bike_id":"012332f9-a776-43c4-9db3-01b19351c5f0","system_id":"levelo_inurba_marseille","lat":43.27817,"lon":5.40694,"is_reserved":false,"is_disabled":false,"rental_uris":{"android":"levelo://app?vid=012332f9-a776-43c4-9db3-01b19351c5f0","ios":"levelo://app?vid=012332f9-a776-43c4-9db3-01b19351c5f0"},"vehicle_type_id":"4","last_reported":1752700250,"current_range_meters":18000,"station_id":"ce4bhnh2rcd13ifvqgtg","pricing_plan_id":"cebpf4jnsgd1na2vs0mg"},{"bike_id":"bd3b285b-53f7-4f4d-94f9-3faf82d12ab5","system_id":"levelo_inurba_marseille","lat":43.23181,"lon":5.399896,"is_reserved":false,"is_disabled":false,"rental_uris":{"android":"levelo://app?vid=bd3b285b-53f7-4f4d-94f9-3faf82d12ab5","ios":"levelo://app?vid=bd3b285b-53f7-4f4d-94f9-3faf82d12ab5"},"vehicle_type_id":"4","last_reported":1752700250,"current_range_meters":18000,"station_id":"ce4bhn12rcd13ifvqgqg","pricing_plan_id":"cebpf4jnsgd1na2vs0mg"},{"bike_id":"2ac93549-5c94-4228-8eea-782a21384d10","system_id":"levelo_inurba_marseille","lat":43.29634,"lon":5.37793,"is_reserved":false,"is_disabled":false,"rental_uris":{"android":"levelo://app?vid=2ac93549-5c94-4228-8eea-782a21384d10","ios":"levelo://app?vid=2ac93549-5c94-4228-8eea-782a21384d10"},"vehicle_type_id":"4","last_reported":1752700250,"current_range_meters":18000,"station_id":"","pricing_plan_id":"cebpf4jnsgd1na2vs0mg"},{"bike_id":"1af876d9-6e0a-45cc-bed9-deae0b87ca9c","system_id":"levelo_inurba_marseille","lat":43.21192,"lon":5.35072,"is_reserved":false,"is_disabled":false,"rental_uris":{"android":"levelo://app?vid=1af876d9-6e0a-45cc-bed9-deae0b87ca9c","ios":"levelo://app?vid=1af876d9-6e0a-45cc-bed9-deae0b87ca9c"},"vehicle_type_id":"4","last_reported":1752700250,"current_range_meters":18000,"station_id":"st_cvj6sg6p6f1abm77japg","pricing_plan_id":"cebpf4jnsgd1na2vs0mg"},{"bike_id":"582d5e63-4946-44ff-8da5-cdf3e52be7b6","system_id":"levelo_inurba_marseille","lat":43.27033,"lon":5.4025,"is_reserved":false,"is_disabled":false,"rental_uris":{"android":"levelo://app?vid=582d5e63-4946-44ff-8da5-cdf3e52be7b6","ios":"levelo://app?vid=582d5e63-4946-44ff-8da5-cdf3e52be7b6"},"vehicle_type_id":"4","last_reported":1752700250,"current_range_meters":18000,"station_id":"ce4bhk92rcd13ifvqgc0","pricing_plan_id":"cebpf4jnsgd1na2vs0mg"},{"bike_id":"256374d2-a2ac-474f-9102-2ba00255989e","system_id":"levelo_inurba_marseille","lat":43.31066,"lon":5.38357,"is_reserved":false,"is_disabled":false,"rental_uris":{"android":"levelo://app?vid=256374d2-a2ac-474f-9102-2ba00255989e","ios":"levelo://app?vid=256374d2-a2ac-474f-9102-2ba00255989e"},"vehicle_type_id":"4","last_reported":1752700250,"current_range_meters":18000,"station_id":"ce4bgv92rcd13ifvqcr0","pricing_plan_id":"cebpf4jnsgd1na2vs0mg"},{"bike_id":"09770756-02de-40bd-9c9b-3dfb32e83b9e","system_id":"levelo_inurba_marseille","lat":43.29531,"lon":5.38544,"is_reserved":false,"is_disabled":false,"rental_uris":{"android":"levelo://app?vid=09770756-02de-40bd-9c9b-3dfb32e83b9e","ios":"levelo://app?vid=09770756-02de-40bd-9c9b-3dfb32e83b9e"},"vehicle_type_id":"4","last_reported":1752700250,"current_range_meters":18000,"station_id":"ce4bgih2rcd13ifvqba0","pricing_plan_id":"cebpf4jnsgd1na2vs0mg"},{"bike_id":"a848aa31-4193-4700-a826-d88a3d8aecce","system_id":"levelo_inurba_marseille","lat":43.26495,"lon":5.39536,"is_reserved":false,"is_disabled":false,"rental_uris":{"android":"levelo://app?vid=a848aa31-4193-4700-a826-d88a3d8aecce","ios":"levelo://app?vid=a848aa31-4193-4700-a826-d88a3d8aecce"},"vehicle_type_id":"4","last_reported":1752700250,"current_range_meters":18000,"station_id":"ce4bhi12rcd13ifvqfq0","pricing_plan_id":"cebpf4jnsgd1na2vs0mg"},{"bike_id":"f33f1541-2d24-4584-97b0-96452bdb80eb","system_id":"levelo_inurba_marseille","lat":43.31113,"lon":5.37766,"is_reserved":false,"is_disabled":false,"rental_uris":{"android":"levelo://app?vid=f33f1541-2d24-4584-97b0-96452bdb80eb","ios":"levelo://app?vid=f33f1541-2d24-4584-97b0-96452bdb80eb"},