{"last_updated":1735124844,"ttl":60,"version":"2.2","data":{"bikes":[{"bike_id":"568823d0-e621-4860-a774-241caecbd8a7","system_id":"levelo_inurba_marseille","lat":43.30484,"lon":5.37898,"is_reserved":false,"is_disabled":false,"rental_uris":{"android":"levelo://app?vid=568823d0-e621-4860-a774-241caecbd8a7","ios":"levelo://app?vid=568823d0-e621-4860-a774-241caecbd8a7"},"vehicle_type_id":"4","last_reported":1735124844,"current_range_meters":36000,"station_id":"ce4bgup2rcd13ifvqcn0","pricing_plan_id":"cebpf4jnsgd1na2vs0mg"},{"bike_id":"75c516d3-a5cc-4035-8666-739d671df90f","system_id":"levelo_inurba_marseille","lat":43.299621,"lon":5.385121,"is_reserved":false,"is_disabled":false,"rental_uris":{"android":"levelo://app?vid=75c516d3-a5cc-4035-8666-739d671df90f","ios":"levelo://app?vid=75c516d3-a5cc-4035-8666-739d671df90f"},"vehicle_type_id":"4","last_reported":1735124844,"current_range_meters":30800,"station_id":"ce4bgj92rcd13ifvqbd0","pricing_plan_id":"cebpf4jnsgd1na2vs0mg"},{"bike_id":"7c110a8b-097f-43aa-9eb5-b36685ee5243","system_id":"levelo_inurba_marseille","lat":43.28273,"lon":5.35082,"is_reserved":false,"is_disabled":false,"rental_uris":{"android":"levelo://app?vid=7c110a8b-097f-43aa-9eb5-b36685ee5243","ios":"levelo://app?vid=7c110a8b-097f-43aa-9eb5-b36685ee5243"},"vehicle_type_id":"4","last_reported":1735124844,"current_range_meters":36400,"station_id":"ce4bhbp2rcd13ifvqerg","pricing_plan_id":"cebpf4jnsgd1na2vs0mg"},{"bike_id":"9df334fd-b9ec-4307-847f-9a4d5a7c1f29","system_id":"levelo_inurba_marseille","lat":43.30149,"lon":5.38076,"is_reserved":false,"is_disabled":false,"rental_uris":{"android":"levelo://app?vid=9df334fd-b9ec-4307-847f-9a4d5a7c1f29","ios":"levelo://app?vid=9df334fd-b9ec-4307-847f-9a4d5a7c1f29"},"vehicle_type_id":"4","last_reported":1735124844,"current_range_meters":38800,"station_id":"ce4bgjp2rcd13ifvqbh0","pricing_plan_id":"cebpf4jnsgd1na2vs0mg"},{"bike_id":"92456108-6076-4f12-a5bc-a9305f31b26b","system_id":"levelo_inurba_marseille","lat":43.29622,"lon":5.37176,"is_reserved":false,"is_disabled":false,"rental_uris":{"android":"levelo://app?vid=92456108-6076-4f12-a5bc-a9305f31b26b","ios":"levelo://app?vid=92456108-6076-4f12-a5bc-a9305f31b26b"},"vehicle_type_id":"4","last_reported":1735124844,"current_range_meters":32400,"station_id":"ce4bgnh2rcd13ifvqc0g","pricing_plan_id":"cebpf4jnsgd1na2vs0mg"},{"bike_id":"8a3d3281-5743-4ba6-8f05-c4f417bead3e","system_id":"levelo_inurba_marseille","lat":43.32655,"lon":5.40994,"is_reserved":false,"is_disabled":false,"rental_uris":{"android":"levelo://app?vid=8a3d3281-5743-4ba6-8f05-c4f417bead3e","ios":"levelo://app?vid=8a3d3281-5743-4ba6-8f05-c4f417bead3e"},"vehicle_type_id":"4","last_reported":1735124844,"current_range_meters":23200,"station_id":"ce4bhpp2rcd13ifvqhgg","pricing_plan_id":"cebpf4jnsgd1na2vs0mg"},{"bike_id":"840343f9-11b8-4c08-8374-97b9b2f2e08b","system_id":"levelo_inurba_marseille","lat":43.31711,"lon":5.37769,"is_reserved":false,"is_disabled":false,"rental_uris":{"android":"levelo://app?vid=840343f9-11b8-4c08-8374-97b9b2f2e08b","ios":"levelo://app?vid=840343f9-11b8-4c08-8374-97b9b2f2e08b"},"vehicle_type_id":"4","last_reported":1735124844,"current_range_meters":25200,"station_id":"ce4bgth2rcd13ifvqch0","pricing_plan_id":"cebpf4jnsgd1na2vs0mg"},{"bike_id":"c4104ae7-6d71-4ed6-97ba-cf7a171100c7","system_id":"levelo_inurba_marseille","lat":43.30924,"lon":5.4016,"is_reserved":false,"is_disabled":false,"rental_uris":{"android":"levelo://app?vid=c4104ae7-6d71-4ed6-97ba-cf7a171100c7","ios":"levelo://app?vid=c4104ae7-6d71-4ed6-97ba-cf7a171100c7"},"vehicle_type_id":"4","last_reported":1735124844,"current_range_meters":28400,"station_id":"ce4bgvp2rcd13ifvqct0","pricing_plan_id":"cebpf4jnsgd1na2vs0mg"},{"bike_id":"04774649-32bb-4f60-abb1-91c9d8c1e70a","system_id":"levelo_inurba_marseille","lat":43.33599,"lon":5.41008,"is_reserved":false,"is_disabled":false,"rental_uris":{"android":"levelo://app?vid=04774649-32bb-4f60-abb1-91c9d8c1e70a","ios":"levelo://app?vid=04774649-32bb-4f60-abb1-91c9d8c1e70a"},"vehicle_type_id":"4","last_reported":1735124844,"current_range_meters":27200,"station_id":"ce4bhqh2rcd13ifvqhmg","pricing_plan_id":"cebpf4jnsgd1na2vs0mg"},{"bike_id":"6ed1e23e-ce6d-4ac8-b81b-7ed3304a2f5d","system_id":"levelo_inurba_marseille","lat":43.31891,"lon":5.40734,"is_reserved":false,"is_disabled":false,"rental_uris":{"android":"levelo://app?vid=6ed1e23e-ce6d-4ac8-b81b-7ed3304a2f5d","ios":"levelo://app?vid=6ed1e23e-ce6d-4ac8-b81b-7ed3304a2f5d"},"vehicle_type_id":"4","last_reported":1735124844,"current_range_meters":6400,"station_id":"ce4bhq12rcd13ifvqhig","pricing_plan_id":"cebpf4jnsgd1na2vs0mg"},{"bike_id":"7afe9cb5-46ca-4d01-bbe4-1dcac7e4ecd2","system_id":"levelo_inurba_marseille","lat":43.24646,"lon":5.38891,"is_reserved":false,"is_disabled":false,"rental_uris":{"android":"levelo://app?vid=7afe9cb5-46ca-4d01-bbe4-1dcac7e4ecd2","ios":"levelo://app?vid=7afe9cb5-46ca-4d01-bbe4-1dcac7e4ecd2"},"vehicle_type_id":"4","last_reported":1735124844,"current_range_meters":17600,"station_id":"ce4bhg12rcd13ifvqf60","pricing_plan_id":"cebpf4jnsgd1na2vs0mg"},{"bike_id":"43953c62-e70f-4be7-baaa-ecb3f5071cf4","system_id":"levelo_inurba_marseille","lat":43.2919,"lon":5.35806,"is_reserved":false,"is_disabled":false,"rental_uris":{"android":"levelo://app?vid=43953c62-e70f-4be7-baaa-ecb3f5071cf4","ios":"levelo://app?vid=43953c62-e70f-4be7-baaa-ecb3f5071cf4"},"vehicle_type_id":"4","last_reported":1735124844,"current_range_meters":34800,"station_id":"ce4bhb12rcd13ifvqel0","pricing_plan_id":"cebpf4jnsgd1na2vs0mg"},{"bike_id":"023b113e-c96c-402d-a5d7-1e4c2d629832","system_id":"levelo_inurba_marseille","lat":43.29586,"lon":5.36745,"is_reserved":false,"is_disabled":false,"rental_uris":{"android":"levelo://app?vid=023b113e-c96c-402d-a5d7-1e4c2d629832","ios":"levelo://app?vid=023b113e-c96c-402d-a5d7-1e4c2d629832"},"vehicle_type_id":"4","last_reported":1735124844,"current_range_meters":38800,"station_id":"ce4bgph2rcd13ifvqc2g","pricing_plan_id":"cebpf4jnsgd1na2vs0mg"},{"bike_id":"b9c83c83-cf96-4e57-b709-6459d0acaf9f","system_id":"levelo_inurba_marseille","lat":43.26809,"lon":5.40266,"is_reserved":false,"is_disabled":false,"rental_uris":{"android":"levelo://app?vid=b9c83c83-cf96-4e57-b709-6459d0acaf9f","ios":"levelo://app?vid=b9c83c83-cf96-4e57-b709-6459d0acaf9f"},"vehicle_type_id":"4","last_reported":1735124844,"current_range_meters":39200,"station_id":"ce501612rcd8frsf0b60","pricing_plan_id":"cebpf4jnsgd1na2vs0mg"},{"bike_id":"44d7098f-a337-4233-9ad9-c00197fd10c6","system_id":"levelo_inurba_marseille","lat":43.29047,"lon":5.37575,"is_reserved":false,"is_disabled":false,"rental_uris":{"android":"levelo://app?vid=44d7098f-a337-4233-9ad9-c00197fd10c6","ios":"levelo://app?vid=44d7098f-a337-4233-9ad9-c00197fd10c6"},"vehicle_type_id":"4","last_reported":1735124844,"current_range_meters":37600,"station_id":"ce4bh692rcd13ifvqe90","pricing_plan_id":"cebpf4jnsgd1na2vs0mg"},{"bike_id":"b6ee9d6c-d1bd-4127-85e6-8d4ce3209754","system_id":"levelo_inurba_marseille","lat":43.31351,"lon":5.36715,"is_reserved":false,"is_disabled":false,"rental_uris":{"android":"levelo://app?vid=b6ee9d6c-d1bd-4127-85e6-8d4ce3209754","ios":"levelo://app?vid=b6ee9d6c-d1bd-4127-85e6-8d4ce3209754"},"vehicle_type_id":"4","last_reported":1735124844,"current_range_meters":38800,"station_id":"ce4bgr92rcd13ifvqc6g","pricing_plan_id":"cebpf4jnsgd1na2vs0mg"},{"bike_id":"3ec0b540-0acc-4134-af74-acfda0351630","system_id":"levelo_inurba_marseille","lat":43.25482,"lon":5.37657,"is_reserved":false,"is_disabled":false,"rental_uris":{"android":"levelo://app?vid=3ec0b540-0acc-4134-af74-acfda0351630","ios":"levelo://app?vid=3ec0b540-0acc-4134-af74-acfda0351630"},"vehicle_type_id":"4","last_reported":1735124844,"current_range_meters":16400,"station_id":"ce4bhh12rcd13ifvqff0","pricing_plan_id":"cebpf4jnsgd1na2vs0mg"},{"bike_id":"fa3ed25e-9f65-4960-b3cb-77f0d1c71ed6","system_id":"levelo_inurba_marseille","lat":43.28107,"lon":5.37855,"is_reserved":false,"is_disabled":false,"rental_uris":{"android":"levelo://app?vid=fa3ed25e-9f65-4960-b3cb-77f0d1c71ed6","ios":"levelo://app?vid=fa3ed25e-9f65-4960-b3cb-77f0d1c71ed6"},"vehicle_type_id":"4","last_reported":1735124844,"current_range_meters":28000,"station_id":"ce4bha12rcd13ifvqee0","pricing_plan_id":"cebpf4jnsgd1na2vs0mg"},{"bike_id":"86c790d9-7551-4ac7-a8b7-adf3b37d61d8","system_id":"levelo_inurba_marseille","lat":43.29778,"lon":5.39348,"is_reserved":false,"is_disabled":false,"rental_uris":{"android":"levelo://app?vid=86c790d9-7551-4ac7-a8b7-adf3b37d61d8","ios":"levelo://app?vid=86c790d9-7551-4ac7-a8b7-adf3b37d61d8"},"vehicle_type_id":"4","last_reported":1735124844,"current_range_meters":22800,"station_id":"chh1huq6cuj3fo74tm60","pricing_plan_id":"cebpf4jnsgd1na2vs0mg"},{"bike_id":"31b7b622-200a-46e6-98d7-914e1339c044","system_id":"levelo_inurba_marseille","lat":43.29905,"lon":5.38144,"is_reserved":false,"is_disabled":false,"rental_uris":{"android":"levelo://app?vid=31b7b622-200a-46e6-98d7-914e1339c044","ios":"levelo://app?vid=31b7b622-200a-46e6-98d7-914e1339c044"},"vehicle_type_id":"4","last_reported":1735124844,"current_range_meters":24400,"station_id":"ce4bgj12rcd13ifvqbc0","pricing_plan_id":"cebpf4jnsgd1na2vs0mg"},{"bike_id":"c545c064-810c-4b88-8ce1-2f5a358c01ce","system_id":"levelo_inurba_marseille","lat":43.29545,"lon":5.42284,"is_reserved":false,"is_disabled":false,"rental_uris":{"android":"levelo://app?vid=c545c064-810c-4b88-8ce1-2f5a358c01ce","ios":"levelo://app?vid=c545c064-810c-4b88-8ce1-2f5a358c01ce"},"vehicle_type_id":"4","last_reported":1735124844,"current_range_meters":13600,"station_id":"ce4bhph2rcd13ifvqhdg","pricing_plan_id":"cebpf4jnsgd1na2vs0mg"},{"bike_id":"b6174f09-affc-48de-b964-987935efedda","system_id":"levelo_inurba_marseille","lat":43.310654,"lon":5.383498,"is_reserved":false,"is_disabled":false,"rental_uris":{"android":"levelo://app?vid=b6174f09-affc-48de-b964-987935efedda","ios":"levelo://app?vid=b6174f09-affc-48de-b964-987935efedda"},"vehicle_type_id":"4","last_reported":1735124844,"current_range_meters":27600,"station_id":"ce4bgv92rcd13ifvqcr0","pricing_plan_id":"cebpf4jnsgd1na2vs0mg"},{"bike_id":"6b2ec9ce-9a36-4fe4-acec-698114d5adaf","system_id":"levelo_inurba_marseille","lat":43.2953,"lon":5.39046,"is_reserved":false,"is_disabled":false,"rental_uris":{"android":"levelo://app?vid=6b2ec9ce-9a36-4fe4-acec-698114d5adaf","ios":"levelo://app?vid=6b2ec9ce-9a36-4fe4-acec-698114d5adaf"},"vehicle_type_id":"4","last_reported":1735124844,"current_range_meters":39200,"station_id":"ce4bh3p2rcd13ifvqdp0","pricing_plan_id":"cebpf4jnsgd1na2vs0mg"},{"bike_id":"6e2ce516-9a65-4382-930b-c9c67ce2ce1a","system_id":"levelo_inurba_marseille","lat":43.3127,"lon":5.40179,"is_reserved":false,"is_disabled":false,"rental_uris":{"android":"levelo://app?vid=6e2ce516-9a65-4382-930b-c9c67ce2ce1a","ios":"levelo://app?vid=6e2ce516-9a65-4382-930b-c9c67ce2ce1a"},"vehicle_type_id":"4","last_reported":1735124844,"current_range_meters":28800,"station_id":"ce4bh092rcd13ifvqd30","pricing_plan_id":"cebpf4jnsgd1na2vs0mg"},{"bike_id":"1996bbb1-ee17-4ee7-a253-689c93c4fa86","system_id":"levelo_inurba_marseille","lat":43.30593,"lon":5.3936,"is_reserved":false,"is_disabled":false,"rental_uris":{"android":"levelo://app?vid=1996bbb1-ee17-4ee7-a253-689c93c4fa86","ios":"levelo://app?vid=1996bbb1-ee17-4ee7-a253-689c93c4fa86"},"vehicle_type_id":"4","last_reported":1735124844,"current_range_meters":33600,"station_id":"ce4bh0p2rcd13ifvqd80","pricing_plan_id":"cebpf4jnsgd1na2vs0mg"},{"bike_id":"d5d3d2c2-5b18-4b1e-a14e-2a877450ed25","system_id":"levelo_inurba_marseille","lat":43.3234,"lon":5.40623,"is_reserved":false,"is_disabled":false,"rental_uris":{"android":"levelo://app?vid=d5d3d2c2-5b18-4b1e-a14e-2a877450ed25","ios":"levelo://app?vid=d5d3d2c2-5b18-4b1e-a14e-2a877450ed25"},"vehicle_type_id":"4","last_reported":1735124844,"current_range_meters":36400,"station_id":"ce4bhq92rcd13ifvqhjg","pricing_plan_id":"cebpf4jnsgd1na2vs0mg"},{"bike_id":"903f257e-fcef-45f9-913f-d5beaa30d8b1","system_id":"levelo_inurba_marseille","lat":43.24166,"lon":5.364,"is_reserved":false,"is_disabled":false,"rental_uris":{"android":"levelo://app?vid=903f257e-fcef-45f9-913f-d5beaa30d8b1","ios":"levelo://app?vid=903f257e-fcef-45f9-913f-d5beaa30d8b1"},"vehicle_type_id":"4","last_reported":1735124844,"current_range_meters":13600,"station_id":"cpo36qri1sfpv3e86is0","pricing_plan_id":"cebpf4jnsgd1na2vs0mg"},{"bike_id":"2931d115-33fe-4e81-950e-6dc9d823d3b2","system_id":"levelo_inurba_marseille","lat":43.28488,"lon":5.38571,"is_reserved":false,"is_disabled":false,"rental_uris":{"android":"levelo://app?vid=2931d115-33fe-4e81-950e-6dc9d823d3b2","ios":"levelo://app?vid=2931d115-33fe-4e81-950e-6dc9d823d3b2"},"vehicle_type_id":"4","last_reported":1735124844,"current_range_meters":34800,"station_id":"ce4bh8p2rcd13ifvqeb0","pricing_plan_id":"cebpf4jnsgd1na2vs0mg"},{"bike_id":"ad66ce9d-e2b2-4064-ae7f-fe87403c632b","system_id":"levelo_inurba_marseille","lat":43.23062,"lon":5.35495,"is_reserved":false,"is_disabled":false,"rental_uris":{"android":"levelo://app?vid=ad66ce9d-e2b2-4064-ae7f-fe87403c632b","ios":"levelo://app?vid=ad66ce9d-e2b2-4064-ae7f-fe87403c632b"},"vehicle_type_id":"4","last_reported":1735124844,"current_range_meters":33600,"station_id":"cpo3342slgdg3j2ifvpg","pricing_plan_id":"cebpf4jnsgd1na2vs0mg"},{"bike_id":"b76cea7e-5025-4e14-a8c7-eebf31292c4c","system_id":"levelo_inurba_marseille","lat":43.2607,"lon":5.39392,"is_reserved":false,"is_disabled":false,"rental_uris":{"android":"levelo://app?vid=b76cea7e-5025-4e14-a8c7-eebf31292c4c","ios":"levelo://app?vid=b76cea7e-5025-4e14-a8c7-eebf31292c4c"},"vehicle_type_id":"4","last_reported":1735124844,"current_range_meters":20000,"station_id":"ce4bhh92rcd13ifvqfj0","pricing_plan_id":"cebpf4jnsgd1na2vs0mg"},{"bike_id":"24346bc7-f1dc-4975-9a51-bb54ce38a842","system_id":"levelo_inurba_marseille","lat":43.298478,"lon":5.362853,"is_reserved":false,"is_disabled":false,"rental_uris":{"android":"levelo://app?vid=24346bc7-f1dc-4975-9a51-bb54ce38a842","ios":"levelo://app?vid=24346bc7-f1dc-4975-9a51-bb54ce38a842"},"vehicle_type_id":"4","last_reported":1735124844,"current_range_meters":38800,"station_id":"ce4bgpp2rcd13ifvqc3g","pricing_plan_id":"cebpf4jnsgd1na2vs0mg"},{"bike_id":"d0533ccb-11ce-46dc-9cca-daa9f7a4985a","system_id":"levelo_inurba_marseille","lat":43.2954,"lon":5.42294,"is_reserved":false,"is_disabled":false,"rental_uris":{"android":"levelo://app?vid=d0533ccb-11ce-46dc-9cca-daa9f7a4985a","ios":"levelo://app?vid=d0533ccb-11ce-46dc-9cca-daa9f7a4985a"},"vehicle_type_id":"4","last_reported":1735124844,"current_range_meters":38800,"station_id":"ce4bhph2rcd13ifvqhdg","pricing_plan_id":"cebpf4jnsgd1na2vs0mg"},{"bike_id":"115f16ed-bf5e-45c2-9305-97ec70147b0a","system_id":"levelo_inurba_marseille","lat":43.30478,"lon":5.37914,"is_reserved":false,"is_disabled":false,"rental_uris":{"android":"levelo://app?vid=115f16ed-bf5e-45c2-9305-97ec70147b0a","ios":"levelo://app?vid=115f16ed-bf5e-45c2-9305-97ec70147b0a"},"vehicle_type_id":"4","last_reported":1735124844,"current_range_meters":13600,"station_id":"ce4bgup2rcd13ifvqcn0","pricing_plan_id":"cebpf4jnsgd1na2vs0mg"},{"bike_id":"386a4548-b94c-4bc3-b422-4718c378a9be","system_id":"levelo_inurba_marseille","lat":43.29913,"lon":5.37493,"is_reserved":false,"is_disabled":false,"rental_uris":{"android":"levelo://app?vid=386a4548-b94c-4bc3-b422-4718c378a9be","ios":"levelo://app?vid=386a4548-b94c-4bc3-b422-4718c378a9be"},"vehicle_type_id":"4","last_reported":1735124844,"current_range_meters":36400,"station_id":"ce4bgjh2rcd13ifvqbg0","pricing_plan_id":"cebpf4jnsgd1na2vs0mg"},{"bike_id":"5d29fc56-dbb2-4006-96bc-27e181f8d4f5","system_id":"levelo_inurba_marseille","lat":43.298499,"lon":5.362825,"is_reserved":false,"is_disabled":false,"rental_uris":{"android":"levelo://app?vid=5d29fc56-dbb2-4006-96bc-27e181f8d4f5","ios":"levelo://app?vid=5d29fc56-dbb2-4006-96bc-27e181f8d4f5"},"vehicle_type_id":"4","last_reported":1735124844,"current_range_meters":32400,"station_id":"ce4bgpp2rcd13ifvqc3g","pricing_plan_id":"cebpf4jnsgd1na2vs0mg"},{"bike_id":"1f312549-3130-4c13-bdf1-dd4686562902","system_id":"levelo_inurba_marseille","lat":43.3361,"lon":5.41038,"is_reserved":false,"is_disabled":false,"rental_uris":{"android":"levelo://app?vid=1f312549-3130-4c13-bdf1-dd4686562902","ios":"levelo://app?vid=1f312549-3130-4c13-bdf1-dd4686562902"},"vehicle_type_id":"4","last_reported":1735124844,"current_range_meters":29600,"station_id":"ce4bhqh2rcd13ifvqhmg","pricing_plan_id":"cebpf4jnsgd1na2vs0mg"},{"bike_id":"353cf4bf-62f4-49e8-b2f4-5a6260c37422","system_id":"levelo_inurba_marseille","lat":43.29998,"lon":5.38485,"is_reserved":false,"is_disabled":false,"rental_uris":{"android":"levelo://app?vid=353cf4bf-62f4-49e8-b2f4-5a6260c37422","ios":"levelo://app?vid=353cf4bf-62f4-49e8-b2f4-5a6260c37422"},"vehicle_type_id":"4","last_reported":1735124844,"current_range_meters":39200,"station_id":"ce4bgj92rcd13ifvqbd0","pricing_plan_id":"cebpf4jnsgd1na2vs0mg"},{"bike_id":"12cf721d-cf48-40fa-a6cb-e48a42b4d86d","system_id":"levelo_inurba_marseille","lat":43.27053,"lon":5.40275,"is_reserved":false,"is_disabled":false,"rental_uris":{"android":"levelo://app?vid=12cf721d-cf48-40fa-a6cb-e48a42b4d86d","ios":"levelo://app?vid=12cf721d-cf48-40fa-a6cb-e48a42b4d86d"},"vehicle_type_id":"4","last_reported":1735124844,"current_range_meters":28000,"station_id":"ce4bhk92rcd13ifvqgc0","pricing_plan_id":"cebpf4jnsgd1na2vs0mg"},{"bike_id":"339ddeb4-ebfd-4dc3-99a8-5e444160ed17","system_id":"levelo_inurba_marseille","lat":43.28696,"lon":5.37414,"is_reserved":false,"is_disabled":false,"rental_uris":{"android":"levelo://app?vid=339ddeb4-ebfd-4dc3-99a8-5e444160ed17","ios":"levelo://app?vid=339ddeb4-ebfd-4dc3-99a8-5e444160ed17"},"vehicle_type_id":"4","last_reported":1735124844,"current_range_meters":30400,"station_id":"ce4bh3p2rcd13ifvqdq0","pricing_plan_id":"cebpf4jnsgd1na2vs0mg"},{"bike_id":"61b6d437-e950-46a2-8cbf-76c4bc393d6f","system_id":"levelo_inurba_marseille","lat":43.2707,"lon":5.42284,"is_reserved":false,"is_disabled":false,"rental_uris":{"android":"levelo://app?vid=61b6d437-e950-46a2-8cbf-76c4bc393d6f","ios":"levelo://app?vid=61b6d437-e950-46a2-8cbf-76c4bc393d6f"},"vehicle_type_id":"4","last_reported":1735124844,"current_range_meters":16400,"station_id":"ce4bhk92rcd13ifvqgb0","pricing_plan_id":"cebpf4jnsgd1na2vs0mg"},{"bike_id":"ee09bb5a-418e-4e4b-aa9d-02cb6f33df58","system_id":"levelo_inurba_marseille","lat":43.3021,"lon":5.39471,"is_reserved":false,"is_disabled":false,"rental_uris":{"android":"levelo://app?vid=ee09bb5a-418e-4e4b-aa9d-02cb6f33df58","ios":"levelo://app?vid=ee09bb5a-418e-4e4b-aa9d-02cb6f33df58"},"vehicle_type_id":"4","last_reported":1735124844,"current_range_meters":15200,"station_id":"ce4bh0p2rcd13ifvqd70","pricing_plan_id":"cebpf4jnsgd1na2vs0mg"},{"bike_id":"eed9318c-320f-4c4f-b7c8-7839c1c7256f","system_id":"levelo_inurba_marseille","lat":43.28466,"lon":5.35892,"is_reserved":false,"is_disabled":true,"rental_uris":{"android":"levelo://app?vid=eed9318c-320f-4c4f-b7c8-7839c1c7256f","ios":"levelo://app?vid=eed9318c-320f-4c4f-b7c8-7839c1c7256f"},"vehicle_type_id":"4","last_reported":1735124844,"current_range_meters":33200,"station_id":"ce4bhah2rcd13ifvqei0","pricing_plan_id":"cebpf4jnsgd1na2vs0mg"},{"bike_id":"b4a3d122-a0bd-43c4-9179-34690141ce80","system_id":"levelo_inurba_marseille","lat":43.29513,"lon":5.39057,"is_reserved":false,"is_disabled":false,"rental_uris":{"android":"levelo://app?vid=b4a3d122-a0bd-43c4-9179-34690141ce80","ios":"levelo://app?vid=b4a3d122-a0bd-43c4-9179-34690141ce80"},"vehicle_type_id":"4","last_reported":1735124844,"current_range_meters":38800,"station_id":"ce4bh3p2rcd13ifvqdp0","pricing_plan_id":"cebpf4jnsgd1na2vs0mg"},{"bike_id":"802a1924-9bb6-470a-9d5a-879950de0f21","system_id":"levelo_inurba_marseille","lat":43.295907,"lon":5.375243,"is_reserved":false,"is_disabled":false,"rental_uris":{"android":"levelo://app?vid=802a1924-9bb6-470a-9d5a-879950de0f21","ios":"levelo://app?vid=802a1924-9bb6-470a-9d5a-879950de0f21"},"vehicle_type_id":"4","last_reported":1735124844,"current_range_meters":36800,"station_id":"ce4bgh92rcd13ifvqb50","pricing_plan_id":"cebpf4jnsgd1na2vs0mg"},{"bike_id":"eaa93ee8-361b-4bd6-bc3c-a3486958f70d","system_id":"levelo_inurba_marseille","lat":43.2979,"lon":5.371,"is_reserved":false,"is_disabled":false,"rental_uris":{"android":"levelo://app?vid=eaa93ee8-361b-4bd6-bc3c-a3486958f70d","ios":"levelo://app?vid=eaa93ee8-361b-4bd6-bc3c-a3486958f70d"},"vehicle_type_id":"4","last_reported":1735124844,"current_range_meters":38000,"station_id":"ce4bgop2rcd13ifvqc1g","pricing_plan_id":"cebpf4jnsgd1na2vs0mg"},{"bike_id":"40c0bad0-8626-4c9b-b59b-9fad04a61df9","system_id":"levelo_inurba_marseille","lat":43.28373,"lon":5.38632,"is_reserved":false,"is_disabled":false,"rental_uris":{"android":"levelo://app?vid=40c0bad0-8626-4c9b-b59b-9fad04a61df9","ios":"levelo://app?vid=40c0bad0-8626-4c9b-b59b-9fad04a61df9"},"vehicle_type_id":"4","last_reported":1735124844,"current_range_meters":38800,"station_id":"ce4bh492rcd13ifvqdvg","pricing_plan_id":"cebpf4jnsgd1na2vs0mg"},{"bike_id":"e724f4e5-0922-4e36-91f4-8a4c9d514ff5","system_id":"levelo_inurba_marseille","lat":43.29843,"lon":5.36254,"is_reserved":false,"is_disabled":false,"rental_uris":{"android":"levelo://app?vid=e724f4e5-0922-4e36-91f4-8a4c9d514ff5","ios":"levelo://app?vid=e724f4e5-0922-4e36-91f4-8a4c9d514ff5"},"vehicle_type_id":"4","last_reported":1735124844,"current_range_meters":35200,"station_id":"ce4bgpp2rcd13ifvqc3g","pricing_plan_id":"cebpf4jnsgd1na2vs0mg"},{"bike_id":"23f223a7-cc44-4227-b5c8-9b31a8c11b36","system_id":"levelo_inurba_marseille","lat":43.3206,"lon":5.41547,"is_reserved":false,"is_disabled":false,"rental_uris":{"android":"levelo://app?vid=23f223a7-cc44-4227-b5c8-9b31a8c11b36","ios":"levelo://app?vid=23f223a7-cc44-4227-b5c8-9b31a8c11b36"},"vehicle_type_id":"4","last_reported":1735124844,"current_range_meters":31200,"station_id":"ce4bhq92rcd13ifvqhkg","pricing_plan_id":"cebpf4jnsgd1na2vs0mg"},{"bike_id":"b392a593-72dd-421f-8809-b96d8a7b6a48","system_id":"levelo_inurba_marseille","lat":43.30134,"lon":5.38774,"is_reserved":false,"is_disabled":false,"rental_uris":{"android":"levelo://app?vid=b392a593-72dd-421f-8809-b96d8a7b6a48","ios":"levelo://app?vid=b392a593-72dd-421f-8809-b96d8a7b6a48"},"vehicle_type_id":"4","last_reported":1735124844,"current_range_meters":36000,"station_id":"ce4bhoh2rcd13ifvqh6g","pricing_plan_id":"cebpf4jnsgd1na2vs0mg"},{"bike_id":"af9371bd-0ed3-43f0-a658-6f3e170e916b","system_id":"levelo_inurba_marseille","lat":43.2903,"lon":5.39965,"is_reserved":false,"is_disabled":false,"rental_uris":{"android":"levelo://app?vid=af9371bd-0ed3-43f0-a658-6f3e170e916b","ios":"levelo://app?vid=af9371bd-0ed3-43f0-a658-6f3e170e916b"},"vehicle_type_id":"4","last_reported":1735124844,"current_range_meters":39200,"station_id":"ce4bh392rcd13ifvqdm0","pricing_plan_id":"cebpf4jnsgd1na2vs0mg"},{"bike_id":"19c0a0c0-9857-43fa-bca0-8d8e9d966de8","system_id":"levelo_inurba_marseille","lat":43.31889,"lon":5.40738,"is_reserved":false,"is_disabled":false,"rental_uris":{"android":"levelo://app?vid=19c0a0c0-9857-43fa-bca0-8d8e9d966de8","ios":"levelo://app?vid=19c0a0c0-9857-43fa-bca0-8d8e9d966de8"},"vehicle_type_id":"4","last_reported":1735124844,"current_range_meters":38800,"station_id":"ce4bhq12rcd13ifvqhig","pricing_plan_id":"cebpf4jnsgd1na2vs0mg"},{"bike_id":"fa7b6f51-07ff-4e1f-ba75-2880fb9ee1b2","system_id":"levelo_inurba_marseille","lat":43.24161,"lon":5.36401,"is_reserved":false,"is_disabled":false,"rental_uris":{"android":"levelo://app?vid=fa7b6f51-07ff-4e1f-ba75-2880fb9ee1b2","ios":"levelo://app?vid=fa7b6f51-07ff-4e1f-ba75-2880fb9ee1b2"},"vehicle_type_id":"4","last_reported":1735124844,"current_range_meters":32800,"station_id":"cpo36qri1sfpv3e86is0","pricing_plan_id":"cebpf4jnsgd1na2vs0mg"},{"bike_id":"9ff763ff-e414-4d0e-8bb9-b34d48217a3e","system_id":"levelo_inurba_marseille","lat":43.23191,"lon":5.39984,"is_reserved":false,"is_disabled":false,"rental_uris":{"android":"levelo://app?vid=9ff763ff-e414-4d0e-8bb9-b34d48217a3e","ios":"levelo://app?vid=9ff763ff-e414-4d0e-8bb9-b34d48217a3e"},"vehicle_type_id":"4","last_reported":1735124844,"current_range_meters":16000,"station_id":"ce4bhn12rcd13ifvqgqg","pricing_plan_id":"cebpf4jnsgd1na2vs0mg"},{"bike_id":"b2f86a97-af08-41b2-8296-7e91d5858232","system_id":"levelo_inurba_marseille","lat":43.28987,"lon":5.35614,"is_reserved":false,"is_disabled":false,"rental_uris":{"android":"levelo://app?vid=b2f86a97-af08-41b2-8296-7e91d5858232","ios":"levelo://app?vid=b2f86a97-af08-41b2-8296-7e91d5858232"},"vehicle_type_id":"4","last_reported":1735124844,"current_range_meters":38800,"station_id":"ce4bhb92rcd13ifvqen0","pricing_plan_id":"cebpf4jnsgd1na2vs0mg"},{"bike_id":"50f50bdd-bdce-4362-a157-c43af826c5ff","system_id":"levelo_inurba_marseille","lat":43.28082,"lon":5.39665,"is_reserved":false,"is_disabled":false,"rental_uris":{"android":"levelo://app?vid=50f50bdd-bdce-4362-a157-c43af826c5ff","ios":"levelo://app?vid=50f50bdd-bdce-4362-a157-c43af826c5ff"},"vehicle_type_id":"4","last_reported":1735124844,"current_range_meters":32000,"station_id":"ce4bho12rcd13ifvqh2g","pricing_plan_id":"cebpf4jnsgd1na2vs0mg"},{"bike_id":"d260eabd-d7e1-4f31-a251-3a682c05eccf","system_id":"levelo_inurba_marseille","lat":43.23191,"lon":5.4,"is_reserved":false,"is_disabled":false,"rental_uris":{"android":"levelo://app?vid=d260eabd-d7e1-4f31-a251-3a682c05eccf","ios":"levelo://app?vid=d260eabd-d7e1-4f31-a251-3a682c05eccf"},"vehicle_type_id":"4","last_reported":1735124844,"current_range_meters":30400,"station_id":"ce4bhn12rcd13ifvqgqg","pricing_plan_id":"cebpf4jnsgd1na2vs0mg"},{"bike_id":"0c0f94ac-42a2-4e67-a180-c0976218590e","system_id":"levelo_inurba_marseille","lat":43.337444,"lon":5.374475,"is_reserved":false,"is_disabled":false,"rental_uris":{"android":"levelo://app?vid=0c0f94ac-42a2-4e67-a180-c0976218590e","ios":"levelo://app?vid=0c0f94ac-42a2-4e67-a180-c0976218590e"},"vehicle_type_id":"4","last_reported":1735124844,"current_range_meters":37600,"station_id":"","pricing_plan_id":"cebpf4jnsgd1na2vs0mg"},{"bike_id":"b81e8144-3fa1-44dd-804b-b934f9862d1d","system_id":"levelo_inurba_marseille","lat":43.29891,"lon":5.38165,"is_reserved":false,"is_disabled":false,"rental_uris":{"android":"levelo://app?vid=b81e8144-3fa1-44dd-804b-b934f9862d1d","ios":"levelo://app?vid=b81e8144-3fa1-44dd-804b-b934f9862d1d"},"vehicle_type_id":"4","last_reported":1735124844,"current_range_meters":38800,"station_id":"ce4bgj12rcd13ifvqbc0","pricing_plan_id":"cebpf4jnsgd1na2vs0mg"},{"bike_id":"356d183b-f2f3-4f03-b14d-0521749fb3e6","system_id":"levelo_inurba_marseille","lat":43.279415,"lon":5.410452,"is_reserved":false,"is_disabled":false,"rental_uris":{"android":"levelo://app?vid=356d183b-f2f3-4f03-b14d-0521749fb3e6","ios":"levelo://app?vid=356d183b-f2f3-4f03-b14d-0521749fb3e6"},"vehicle_type_id":"4","last_reported":1735124844,"current_range_meters":28400,"station_id":"ce4bhnp2rcd13ifvqh0g","pricing_plan_id":"cebpf4jnsgd1na2vs0mg"},{"bike_id":"f68d00f0-3148-454c-ba66-1d06594aedb3","system_id":"levelo_inurba_marseille","lat":43.299035,"lon":5.381466,"is_reserved":false,"is_disabled":false,"rental_uris":{"android":"levelo://app?vid=f68d00f0-3148-454c-ba66-1d06594aedb3","ios":"levelo://app?vid=f68d00f0-3148-454c-ba66-1d06594aedb3"},"vehicle_type_id":"4","last_reported":1735124844,"current_range_meters":38800,"station_id":"ce4bgj12rcd13ifvqbc0","pricing_plan_id":"cebpf4jnsgd1na2vs0mg"},{"bike_id":"1ed1e966-2f96-4dbc-830d-c5e769252164","system_id":"levelo_inurba_marseille","lat":43.29777,"lon":5.39342,"is_reserved":false,"is_disabled":false,"rental_uris":{"android":"levelo://app?vid=1ed1e966-2f96-4dbc-830d-c5e769252164","ios":"levelo://app?vid=1ed1e966-2f96-4dbc-830d-c5e769252164"},"vehicle_type_id":"4","last_reported":1735124844,"current_range_meters":22000,"station_id":"chh1huq6cuj3fo74tm60","pricing_plan_id":"cebpf4jnsgd1na2vs0mg"},{"bike_id":"fcaf1022-b8ca-4e5c-a198-375c8e01b7f0","system_id":"levelo_inurba_marseille","lat":43.29178,"lon":5.37178,"is_reserved":false,"is_disabled":false,"rental_uris":{"android":"levelo://app?vid=fcaf1022-b8ca-4e5c-a198-375c8e01b7f0","ios":"levelo://app?vid=fcaf1022-b8ca-4e5c-a198-375c8e01b7f0"},"vehicle_type_id":"4","last_reported":1735124844,"current_range_meters":38800,"station_id":"ce4bha92rcd13ifvqeh0","pricing_plan_id":"cebpf4jnsgd1na2vs0mg"},{"bike_id":"9387ed38-fd18-46d0-b422-5a5d75197087","system_id":"levelo_inurba_marseille","lat":43.26682,"lon":5.38281,"is_reserved":false,"is_disabled":false,"rental_uris":{"android":"levelo://app?vid=9387ed38-fd18-46d0-b422-5a5d75197087","ios":"levelo://app?vid=9387ed38-fd18-46d0-b422-5a5d75197087"},"vehicle_type_id":"4","last_reported":1735124844,"current_range_meters":32800,"station_id":"ce4bhg92rcd13ifvqf90","pricing_plan_id":"cebpf4jnsgd1na2vs0mg"},{"bike_id":"3c079412-698a-4ad7-872c-5c56e449290c","system_id":"levelo_inurba_marseille","lat":43.23148,"lon":5.43724,"is_reserved":false,"is_disabled":false,"rental_uris":{"android":"levelo://app?vid=3c079412-698a-4ad7-872c-5c56e449290c","ios":"levelo://app?vid=3c079412-698a-4ad7-872c-5c56e449290c"},"vehicle_type_id":"4","last_reported":1735124844,"current_range_meters":32400,"station_id":"ce4bhmp2rcd13ifvqgog","pricing_plan_id":"cebpf4jnsgd1na2vs0mg"},{"bike_id":"3704ab32-de97-40c4-8fed-eb13ce5a96bf","system_id":"levelo_inurba_marseille","lat":43.28555,"lon":5.39503,"is_reserved":false,"is_disabled":false,"rental_uris":{"android":"levelo://app?vid=3704ab32-de97-40c4-8fed-eb13ce5a96bf","ios":"levelo://app?vid=3704ab32-de97-40c4-8fed-eb13ce5a96bf"},"vehicle_type_id":"4","last_reported":1735124844,"current_range_meters":38800,"station_id":"ce4bh292rcd13ifvqdg0","pricing_plan_id":"cebpf4jnsgd1na2vs0mg"},{"bike_id":"eb493c73-faad-4c01-b4aa-27ac99a1af59","system_id":"levelo_inurba_marseille","lat":43.29629,"lon":5.37166,"is_reserved":false,"is_disabled":false,"rental_uris":{"android":"levelo://app?vid=eb493c73-faad-4c01-b4aa-27ac99a1af59","ios":"levelo://app?vid=eb493c73-faad-4c01-b4aa-27ac99a1af59"},"vehicle_type_id":"4","last_reported":1735124844,"current_range_meters":38400,"station_id":"ce4bgnh2rcd13ifvqc0g","pricing_plan_id":"cebpf4jnsgd1na2vs0mg"},{"bike_id":"745b61e3-138e-43ed-a4d3-3d3125465bde","system_id":"levelo_inurba_marseille","lat":43.26555,"lon":5.39064,"is_reserved":false,"is_disabled":false,"rental_uris":{"android":"levelo://app?vid=745b61e3-138e-43ed-a4d3-3d3125465bde","ios":"levelo://app?vid=745b61e3-138e-43ed-a4d3-3d3125465bde"},"vehicle_type_id":"4","last_reported":1735124844,"current_range_meters":24400,"station_id":"ce4bhe12rcd13ifvqf30","pricing_plan_id":"cebpf4jnsgd1na2vs0mg"},{"bike_id":"4c4ae910-6a1c-4535-b027-ebf3f7594109","system_id":"levelo_inurba_marseille","lat":43.30659,"lon":5.40092,"is_reserved":false,"is_disabled":false,"rental_uris":{"android":"levelo://app?vid=4c4ae910-6a1c-4535-b027-ebf3f7594109","ios":"levelo://app?vid=4c4ae910-6a1c-4535-b027-ebf3f7594109"},"vehicle_type_id":"4","last_reported":1735124844,"current_range_meters":29600,"station_id":"ce4bh112rcd13ifvqda0","pricing_plan_id":"cebpf4jnsgd1na2vs0mg"},{"bike_id":"7608f1ad-6069-4760-9820-c5af492fd707","system_id":"levelo_inurba_marseille","lat":43.29578,"lon":5.36733,"is_reserved":false,"is_disabled":false,"rental_uris":{"android":"levelo://app?vid=7608f1ad-6069-4760-9820-c5af492fd707","ios":"levelo://app?vid=7608f1ad-6069-4760-9820-c5af492fd707"},"vehicle_type_id":"4","last_reported":1735124844,"current_range_meters":36400,"station_id":"ce4bgph2rcd13ifvqc2g","pricing_plan_id":"cebpf4jnsgd1na2vs0mg"},{"bike_id":"2531a841-d2ae-4f82-b31e-c792b7d866bd","system_id":"levelo_inurba_marseille","lat":43.306415,"lon":5.400769,"is_reserved":false,"is_disabled":false,"rental_uris":{"android":"levelo://app?vid=2531a841-d2ae-4f82-b31e-c792b7d866bd","ios":"levelo://app?vid=2531a841-d2ae-4f82-b31e-c792b7d866bd"},"vehicle_type_id":"4","last_reported":1735124844,"current_range_meters":35600,"station_id":"ce4bh112rcd13ifvqda0","pricing_plan_id":"cebpf4jnsgd1na2vs0mg"},{"bike_id":"63aac863-d7ea-4344-81fa-3153d9ba0f58","system_id":"levelo_inurba_marseille","lat":43.29907,"lon":5.38167,"is_reserved":false,"is_disabled":false,"rental_uris":{"android":"levelo://app?vid=63aac863-d7ea-4344-81fa-3153d9ba0f58","ios":"levelo://app?vid=63aac863-d7ea-4344-81fa-3153d9ba0f58"},"vehicle_type_id":"4","last_reported":1735124844,"current_range_meters":34800,"station_id":"ce4bgj12rcd13ifvqbc0","pricing_plan_id":"cebpf4jnsgd1na2vs0mg"},{"bike_id":"6fc39219-982d-4feb-9b3b-e1ba4db40afe","system_id":"levelo_inurba_marseille","lat":43.29598,"lon":5.38121,"is_reserved":false,"is_disabled":false,"rental_uris":{"android":"levelo://app?vid=6fc39219-982d-4feb-9b3b-e1ba4db40afe","ios":"levelo://app?vid=6fc39219-982d-4feb-9b3b-e1ba4db40afe"},"vehicle_type_id":"4","last_reported":1735124844,"current_range_meters":38800,"station_id":"ce4bgl12rcd13ifvqbo0","pricing_plan_id":"cebpf4jnsgd1na2vs0mg"},{"bike_id":"e73e6057-e6e9-407b-a17e-f4e119a96aba","system_id":"levelo_inurba_marseille","lat":43.32109,"lon":5.36778,"is_reserved":false,"is_disabled":false,"rental_uris":{"android":"levelo://app?vid=e73e6057-e6e9-407b-a17e-f4e119a96aba","ios":"levelo://app?vid=e73e6057-e6e9-407b-a17e-f4e119a96aba"},"vehicle_type_id":"4","last_reported":1735124844,"current_range_meters":32000,"station_id":"ce4bhrh2rcd13ifvqhug","pricing_plan_id":"cebpf4jnsgd1na2vs0mg"},{"bike_id":"d3d57b3b-13bc-4c2a-ab0b-2ef5d4c4b8d5","system_id":"levelo_inurba_marseille","lat":43.27674,"lon":5.38911,"is_reserved":false,"is_disabled":false,"rental_uris":{"android":"levelo://app?vid=d3d57b3b-13bc-4c2a-ab0b-2ef5d4c4b8d5","ios":"levelo://app?vid=d3d57b3b-13bc-4c2a-ab0b-2ef5d4c4b8d5"},"vehicle_type_id":"4","last_reported":1735124844,"current_range_meters":17200,"station_id":"ce4bhi12rcd13ifvqfo0","pricing_plan_id":"cebpf4jnsgd1na2vs0mg"},{"bike_id":"ac00a009-78a9-452c-b1a5-af24ad6a5fd2","system_id":"levelo_inurba_marseille","lat":43.30891,"lon":5.37198,"is_reserved":false,"is_disabled":false,"rental_uris":{"android":"levelo://app?vid=ac00a009-78a9-452c-b1a5-af24ad6a5fd2","ios":"levelo://app?vid=ac00a009-78a9-452c-b1a5-af24ad6a5fd2"},"vehicle_type_id":"4","last_reported":1735124844,"current_range_meters":14000,"station_id":"ce4bguh2rcd13ifvqckg","pricing_plan_id":"cebpf4jnsgd1na2vs0mg"},{"bike_id":"365d08e9-1286-4e9d-b49e-032a6e023429","system_id":"levelo_inurba_marseille","lat":43.30597,"lon":5.37214,"is_reserved":false,"is_disabled":false,"rental_uris":{"android":"levelo://app?vid=365d08e9-1286-4e9d-b49e-032a6e023429","ios":"levelo://app?vid=365d08e9-1286-4e9d-b49e-032a6e023429"},"vehicle_type_id":"4","last_reported":1735124844,"current_range_meters":38800,"station_id":"ce4bgqh2rcd13ifvqc4g","pricing_plan_id":"cebpf4jnsgd1na2vs0mg"},{"bike_id":"7229805d-820e-4381-aa07-8ea31958c18a","system_id":"levelo_inurba_marseille","lat":43.30874,"lon":5.39654,"is_reserved":false,"is_disabled":false,"rental_uris":{"android":"levelo://app?vid=7229805d-820e-4381-aa07-8ea31958c18a","ios":"levelo://app?vid=7229805d-820e-4381-aa07-8ea31958c18a"},"vehicle_type_id":"4","last_reported":1735124844,"current_range_meters":27200,"station_id":"ce4bh012rcd13ifvqcv0","pricing_plan_id":"cebpf4jnsgd1na2vs0mg"},{"bike_id":"4bcb37c0-9249-499d-890c-0bbf93d29f8b","system_id":"levelo_inurba_marseille","lat":43.23188,"lon":5.35555,"is_reserved":false,"is_disabled":true,"rental_uris":{"android":"levelo://app?vid=4bcb37c0-9249-499d-890c-0bbf93d29f8b","ios":"levelo://app?vid=4bcb37c0-9249-499d-890c-0bbf93d29f8b"},"vehicle_type_id":"4","last_reported":1735124844,"current_range_meters":10000,"station_id":"ce4bhu92rcd13ifvqi70","pricing_plan_id":"cebpf4jnsgd1na2vs0mg"},{"bike_id":"2a3b7d32-cff7-495b-b04e-14004fa824a0","system_id":"levelo_inurba_marseille","lat":43.313638,"lon":5.384968,"is_reserved":false,"is_disabled":false,"rental_uris":{"android":"levelo://app?vid=2a3b7d32-cff7-495b-b04e-14004fa824a0","ios":"levelo://app?vid=2a3b7d32-cff7-495b-b04e-14004fa824a0"},"vehicle_type_id":"4","last_reported":1735124844,"current_range_meters":39200,"station_id":"ce4bgt92rcd13ifvqcf0","pricing_plan_id":"cebpf4jnsgd1na2vs0mg"},{"bike_id":"b5934dbc-112f-44de-a3e4-f77c0dc4e119","system_id":"levelo_inurba_marseille","lat":43.29531,"lon":5.37493,"is_reserved":false,"is_disabled":false,"rental_uris":{"android":"levelo://app?vid=b5934dbc-112f-44de-a3e4-f77c0dc4e119","ios":"levelo://app?vid=b5934dbc-112f-44de-a3e4-f77c0dc4e119"},"vehicle_type_id":"4","last_reported":1735124844,"current_range_meters":27200,"station_id":"ce4bgkp2rcd13ifvqbmg","pricing_plan_id":"cebpf4jnsgd1na2vs0mg"},{"bike_id":"e3055757-4e5c-471b-bc49-10de19223f16","system_id":"levelo_inurba_marseille","lat":43.32047,"lon":5.41566,"is_reserved":false,"is_disabled":false,"rental_uris":{"android":"levelo://app?vid=e3055757-4e5c-471b-bc49-10de19223f16","ios":"levelo://app?vid=e3055757-4e5c-471b-bc49-10de19223f16"},"vehicle_type_id":"4","last_reported":1735124844,"current_range_meters":38800,"station_id":"ce4bhq92rcd13ifvqhkg","pricing_plan_id":"cebpf4jnsgd1na2vs0mg"},{"bike_id":"31909ee5-bbb3-4687-aa02-6ebce59ac2a1","system_id":"levelo_inurba_marseille","lat":43.30911,"lon":5.3685,"is_reserved":false,"is_disabled":false,"rental_uris":{"android":"levelo://app?vid=31909ee5-bbb3-4687-aa02-6ebce59ac2a1","ios":"levelo://app?vid=31909ee5-bbb3-4687-aa02-6ebce59ac2a1"},"vehicle_type_id":"4","last_reported":1735124844,"current_range_meters":36000,"station_id":"ce4bgn92rcd13ifvqbvg","pricing_plan_id":"cebpf4jnsgd1na2vs0mg"},{"bike_id":"b51333d3-14a4-48d9-8639-7ba64034e77a","system_id":"levelo_inurba_marseille","lat":43.29525,"lon":5.38549,"is_reserved":false,"is_disabled":false,"rental_uris":{"android":"levelo://app?vid=b51333d3-14a4-48d9-8639-7ba64034e77a","ios":"levelo://app?vid=b51333d3-14a4-48d9-8639-7ba64034e77a"},"vehicle_type_id":"4","last_reported":1735124844,"current_range_meters":32000,"station_id":"ce4bgih2rcd13ifvqba0","pricing_plan_id":"cebpf4jnsgd1na2vs0mg"},{"bike_id":"22027188-448b-420d-9597-b02fcf1094a1","system_id":"levelo_inurba_marseille","lat":43.30133,"lon":5.38787,"is_reserved":false,"is_disabled":true,"rental_uris":{"android":"levelo://app?vid=22027188-448b-420d-9597-b02fcf1094a1","ios":"levelo://app?vid=22027188-448b-420d-9597-b02fcf1094a1"},"vehicle_type_id":"4","last_reported":1735124844,"current_range_meters":37600,"station_id":"ce4bghh2rcd13ifvqb60","pricing_plan_id":"cebpf4jnsgd1na2vs0mg"},{"bike_id":"3a580331-9372-4bb5-b733-a8f2ad942a85","system_id":"levelo_inurba_marseille","lat":43.30212,"lon":5.39461,"is_reserved":false,"is_disabled":false,"rental_uris":{"android":"levelo://app?vid=3a580331-9372-4bb5-b733-a8f2ad942a85","ios":"levelo://app?vid=3a580331-9372-4bb5-b733-a8f2ad942a85"},"vehicle_type_id":"4","last_reported":1735124844,"current_range_meters":30400,"station_id":"ce4bh0p2rcd13ifvqd70","pricing_plan_id":"cebpf4jnsgd1na2vs0mg"},{"bike_id":"1401d782-4c42-4502-9233-ae0e4dbfcaa2","system_id":"levelo_inurba_marseille","lat":43.2742,"lon":5.39414,"is_reserved":false,"is_disabled":false,"rental_uris":{"android":"levelo://app?vid=1401d782-4c42-4502-9233-ae0e4dbfcaa2","ios":"levelo://app?vid=1401d782-4c42-4502-9233-ae0e4dbfcaa2"},"vehicle_type_id":"4","last_reported":1735124844,"current_range_meters":8400,"station_id":"ce4bhdp2rcd13ifvqf20","pricing_plan_id":"cebpf4jnsgd1na2vs0mg"},{"bike_id":"f1a05271-deb6-45df-a57b-c8df010d99a6","system_id":"levelo_inurba_marseille","lat":43.29851,"lon":5.36283,"is_reserved":false,"is_disabled":false,"rental_uris":{"android":"levelo://app?vid=f1a05271-deb6-45df-a57b-c8df010d99a6","ios":"levelo://app?vid=f1a05271-deb6-45df-a57b-c8df010d99a6"},"vehicle_type_id":"4","last_reported":1735124844,"current_range_meters":37600,"station_id":"ce4bgpp2rcd13ifvqc3g","pricing_plan_id":"cebpf4jnsgd1na2vs0mg"},{"bike_id":"ea2c332a-c7fe-4697-b615-7a1289ce9c2c","system_id":"levelo_inurba_marseille","lat":43.29026,"lon":5.37574,"is_reserved":false,"is_disabled":false,"rental_uris":{"android":"levelo://app?vid=ea2c332a-c7fe-4697-b615-7a1289ce9c2c","ios":"levelo://app?vid=ea2c332a-c7fe-4697-b615-7a1289ce9c2c"},"vehicle_type_id":"4","last_reported":1735124844,"current_range_meters":38800,"station_id":"ce4bh692rcd13ifvqe90","pricing_plan_id":"cebpf4jnsgd1na2vs0mg"},{"bike_id":"dad6db58-f5bc-4da2-b0b4-3d5d1002166b","system_id":"levelo_inurba_marseille","lat":43.32113,"lon":5.36777,"is_reserved":false,"is_disabled":false,"rental_uris":{"android":"levelo://app?vid=dad6db58-f5bc-4da2-b0b4-3d5d1002166b","ios":"levelo://app?vid=dad6db58-f5bc-4da2-b0b4-3d5d1002166b"},"vehicle_type_id":"4","last_reported":1735124844,"current_range_meters":27600,"station_id":"ce4bhrh2rcd13ifvqhug","pricing_plan_id":"cebpf4jnsgd1na2vs0mg"},{"bike_id":"d215e6a3-2dbb-4240-82c4-dbdd5ce5595f","system_id":"levelo_inurba_marseille","lat":43.29909,"lon":5.38161,"is_reserved":false,"is_disabled":false,"rental_uris":{"android":"levelo://app?vid=d215e6a3-2dbb-4240-82c4-dbdd5ce5595f","ios":"levelo://app?vid=d215e6a3-2dbb-4240-82c4-dbdd5ce5595f"},"vehicle_type_id":"4","last_reported":1735124844,"current_range_meters":38800,"station_id":"ce4bgj12rcd13ifvqbc0","pricing_plan_id":"cebpf4jnsgd1na2vs0mg"},{"bike_id":"dd7d4a3c-5899-4c44-8ca2-91d460496d28","system_id":"levelo_inurba_marseille","lat":43.24171,"lon":5.39755,"is_reserved":false,"is_disabled":false,"rental_uris":{"android":"levelo://app?vid=dd7d4a3c-5899-4c44-8ca2-91d460496d28","ios":"levelo://app?vid=dd7d4a3c-5899-4c44-8ca2-91d460496d28"},"vehicle_type_id":"4","last_reported":1735124844,"current_range_meters":38800,"station_id":"ce4bhn12rcd13ifvqgpg","pricing_plan_id":"cebpf4jnsgd1na2vs0mg"},{"bike_id":"bb9b563a-45f8-4329-8f3c-a50a095982e4","system_id":"levelo_inurba_marseille","lat":43.298982,"lon":5.381434,"is_reserved":false,"is_disabled":false,"rental_uris":{"android":"levelo://app?vid=bb9b563a-45f8-4329-8f3c-a50a095982e4","ios":"levelo://app?vid=bb9b563a-45f8-4329-8f3c-a50a095982e4"},"vehicle_type_id":"4","last_reported":1735124844,"current_range_meters":38800,"station_id":"ce4bgj12rcd13ifvqbc0","pricing_plan_id":"cebpf4jnsgd1na2vs0mg"},{"bike_id":"a3e47b30-f906-4981-9a70-bb3968457984","system_id":"levelo_inurba_marseille","lat":43.29525,"lon":5.39038,"is_reserved":false,"is_disabled":false,"rental_uris":{"android":"levelo://app?vid=a3e47b30-f906-4981-9a70-bb3968457984","ios":"levelo://app?vid=a3e47b30-f906-4981-9a70-bb3968457984"},"vehicle_type_id":"4","last_reported":1735124844,"current_range_meters":39200,"station_id":"ce4bh3p2rcd13ifvqdp0","pricing_plan_id":"cebpf4jnsgd1na2vs0mg"},{"bike_id":"1f60e3a9-5bdb-49c1-9912-d728d8f40aa3","system_id":"levelo_inurba_marseille","lat":43.23149,"lon":5.43715,"is_reserved":false,"is_disabled":false,"rental_uris":{"android":"levelo://app?vid=1f60e3a9-5bdb-49c1-9912-d728d8f40aa3","ios":"levelo://app?vid=1f60e3a9-5bdb-49c1-9912-d728d8f40aa3"},"vehicle_type_id":"4","last_reported":1735124844,"current_range_meters":38000,"station_id":"ce4bhmp2rcd13ifvqgog","pricing_plan_id":"cebpf4jnsgd1na2vs0mg"},{"bike_id":"7d791760-379e-4586-be9a-ce4ab654ac43","system_id":"levelo_inurba_marseille","lat":43.2987,"lon":5.39753,"is_reserved":false,"is_disabled":false,"rental_uris":{"android":"levelo://app?vid=7d791760-379e-4586-be9a-ce4ab654ac43","ios":"levelo://app?vid=7d791760-379e-4586-be9a-ce4ab654ac43"},"vehicle_type_id":"4","last_reported":1735124844,"current_range_meters":25200,"station_id":"ce4bh0h2rcd13ifvqd50","pricing_plan_id":"cebpf4jnsgd1na2vs0mg"},{"bike_id":"2cffa547-4640-4dbb-aacb-1928ba676b4e","system_id":"levelo_inurba_marseille","lat":43.30457,"lon":5.37898,"is_reserved":false,"is_disabled":false,"rental_uris":{"android":"levelo://app?vid=2cffa547-4640-4dbb-aacb-1928ba676b4e","ios":"levelo://app?vid=2cffa547-4640-4dbb-aacb-1928ba676b4e"},"vehicle_type_id":"4","last_reported":1735124844,"current_range_meters":38800,"station_id":"ce4bgup2rcd13ifvqcn0","pricing_plan_id":"cebpf4jnsgd1na2vs0mg"},{"bike_id":"b73c9acd-4580-4e0d-a5f9-0d3741ea8d51","system_id":"levelo_inurba_marseille","lat":43.28339,"lon":5.38103,"is_reserved":false,"is_disabled":false,"rental_uris":{"android":"levelo://app?vid=b73c9acd-4580-4e0d-a5f9-0d3741ea8d51","ios":"levelo://app?vid=b73c9acd-4580-4e0d-a5f9-0d3741ea8d51"},"vehicle_type_id":"4","last_reported":1735124844,"current_range_meters":38400,"station_id":"ce4bh412rcd13ifvqdr0","pricing_plan_id":"cebpf4jnsgd1na2vs0mg"},{"bike_id":"1866340a-45b4-4bd2-ac73-392a4ecb2e72","system_id":"levelo_inurba_marseille","lat":43.29848,"lon":5.36274,"is_reserved":false,"is_disabled":false,"rental_uris":{"android":"levelo://app?vid=1866340a-45b4-4bd2-ac73-392a4ecb2e72","ios":"levelo://app?vid=1866340a-45b4-4bd2-ac73-392a4ecb2e72"},"vehicle_type_id":"4","last_reported":1735124844,"current_range_meters":38800,"station_id":"ce4bgpp2rcd13ifvqc3g","pricing_plan_id":"cebpf4jnsgd1na2vs0mg"},{"bike_id":"4afbee3e-46a3-4209-8986-3410823c813d","system_id":"levelo_inurba_marseille","lat":43.26569,"lon":5.3904,"is_reserved":false,"is_disabled":false,"rental_uris":{"android":"levelo://app?vid=4afbee3e-46a3-4209-8986-3410823c813d","ios":"levelo://app?vid=4afbee3e-46a3-4209-8986-3410823c813d"},"vehicle_type_id":"4","last_reported":1735124844,"current_range_meters":37600,"station_id":"ce4bhe12rcd13ifvqf30","pricing_plan_id":"cebpf4jnsgd1na2vs0mg"},{"bike_id":"4ed0cabe-875c-4ebe-ad34-74644f479788","system_id":"levelo_inurba_marseille","lat":43.27686,"lon":5.38904,"is_reserved":false,"is_disabled":false,"rental_uris":{"android":"levelo://app?vid=4ed0cabe-875c-4ebe-ad34-74644f479788","ios":"levelo://app?vid=4ed0cabe-875c-4ebe-ad34-74644f479788"},"vehicle_type_id":"4","last_reported":1735124844,"current_range_meters":20400,"station_id":"ce4bhi12rcd13ifvqfo0","pricing_plan_id":"cebpf4jnsgd1na2vs0mg"},{"bike_id":"c2b13e1f-27c5-4ff9-b780-21ce47c387ee","system_id":"levelo_inurba_marseille","lat":43.23188,"lon":5.39986,"is_reserved":false,"is_disabled":false,"rental_uris":{"android":"levelo://app?vid=c2b13e1f-27c5-4ff9-b780-21ce47c387ee","ios":"levelo://app?vid=c2b13e1f-27c5-4ff9-b780-21ce47c387ee"},"vehicle_type_id":"4","last_reported":1735124844,"current_range_meters":39200,"station_id":"ce4bhn12rcd13ifvqgqg","pricing_plan_id":"cebpf4jnsgd1na2vs0mg"},{"bike_id":"836d944f-6d75-4c17-b70a-d071158594dd","system_id":"levelo_inurba_marseille","lat":43.27423,"lon":5.394,"is_reserved":false,"is_disabled":false,"rental_uris":{"android":"levelo://app?vid=836d944f-6d75-4c17-b70a-d071158594dd","ios":"levelo://app?vid=836d944f-6d75-4c17-b70a-d071158594dd"},"vehicle_type_id":"4","last_reported":1735124844,"current_range_meters":30400,"station_id":"ce4bhdp2rcd13ifvqf20","pricing_plan_id":"cebpf4jnsgd1na2vs0mg"},{"bike_id":"83266379-37de-4908-b393-db3ef6bd1008","system_id":"levelo_inurba_marseille","lat":43.2887,"lon":5.35902,"is_reserved":false,"is_disabled":false,"rental_uris":{"android":"levelo://app?vid=83266379-37de-4908-b393-db3ef6bd1008","ios":"levelo://app?vid=83266379-37de-4908-b393-db3ef6bd1008"},"vehicle_type_id":"4","last_reported":1735124844,"current_range_meters":38000,"station_id":"","pricing_plan_id":"cebpf4jnsgd1na2vs0mg"},{"bike_id":"13c39096-92de-47dd-a9ee-5b5cda0c5bbc","system_id":"levelo_inurba_marseille","lat":43.24654,"lon":5.38901,"is_reserved":false,"is_disabled":false,"rental_uris":{"android":"levelo://app?vid=13c39096-92de-47dd-a9ee-5b5cda0c5bbc","ios":"levelo://app?vid=13c39096-92de-47dd-a9ee-5b5cda0c5bbc"},"vehicle_type_id":"4","last_reported":1735124844,"current_range_meters":26800,"station_id":"ce4bhg12rcd13ifvqf60","pricing_plan_id":"cebpf4jnsgd1na2vs0mg"},{"bike_id":"1107b56a-98a5-4a01-8449-9eba086fee5a","system_id":"levelo_inurba_marseille","lat":43.29064,"lon":5.39929,"is_reserved":false,"is_disabled":false,"rental_uris":{"android":"levelo://app?vid=1107b56a-98a5-4a01-8449-9eba086fee5a","ios":"levelo://app?vid=1107b56a-98a5-4a01-8449-9eba086fee5a"},"vehicle_type_id":"4","last_reported":1735124844,"current_range_meters":22400,"station_id":"ce4bh392rcd13ifvqdm0","pricing_plan_id":"cebpf4jnsgd1na2vs0mg"},{"bike_id":"21834ec0-2f02-45b5-b3ef-1dcac3adfa8f","system_id":"levelo_inurba_marseille","lat":43.31126,"lon":5.37766,"is_reserved":false,"is_disabled":false,"rental_uris":{"android":"levelo://app?vid=21834ec0-2f02-45b5-b3ef-1dcac3adfa8f","ios":"levelo://app?vid=21834ec0-2f02-45b5-b3ef-1dcac3adfa8f"},"vehicle_type_id":"4","last_reported":1735124844,"current_range_meters":38800,"station_id":"ce4bgt92rcd13ifvqcg0","pricing_plan_id":"cebpf4jnsgd1na2vs0mg"},{"bike_id":"4e4277ec-b79e-43a1-bae0-d0f951c20956","system_id":"levelo_inurba_marseille","lat":43.29784,"lon":5.3935,"is_reserved":false,"is_disabled":false,"rental_uris":{"android":"levelo://app?vid=4e4277ec-b79e-43a1-bae0-d0f951c20956","ios":"levelo://app?vid=4e4277ec-b79e-43a1-bae0-d0f951c20956"},"vehicle_type_id":"4","last_reported":1735124844,"current_range_meters":38800,"station_id":"chh1huq6cuj3fo74tm60","pricing_plan_id":"cebpf4jnsgd1na2vs0mg"},{"bike_id":"6f68edfd-fb24-4919-b968-971a44d10505","system_id":"levelo_inurba_marseille","lat":43.33727,"lon":5.39186,"is_reserved":false,"is_disabled":false,"rental_uris":{"android":"levelo://app?vid=6f68edfd-fb24-4919-b968-971a44d10505","ios":"levelo://app?vid=6f68edfd-fb24-4919-b968-971a44d10505"},"vehicle_type_id":"4","last_reported":1735124844,"current_range_meters":38400,"station_id":"ce4bhr92rcd13ifvqhsg","pricing_plan_id":"cebpf4jnsgd1na2vs0mg"},{"bike_id":"f5e27a40-54dc-4e73-86bd-a729d07e8a4e","system_id":"levelo_inurba_marseille","lat":43.30466,"lon":5.37914,"is_reserved":false,"is_disabled":false,"rental_uris":{"android":"levelo://app?vid=f5e27a40-54dc-4e73-86bd-a729d07e8a4e","ios":"levelo://app?vid=f5e27a40-54dc-4e73-86bd-a729d07e8a4e"},"vehicle_type_id":"4","last_reported":1735124844,"current_range_meters":28400,"station_id":"ce4bgup2rcd13ifvqcn0","pricing_plan_id":"cebpf4jnsgd1na2vs0mg"},{"bike_id":"0a12f8eb-66bd-4951-8c87-6397f265a7c7","system_id":"levelo_inurba_marseille","lat":43.29707,"lon":5.36614,"is_reserved":false,"is_disabled":false,"rental_uris":{"android":"levelo://app?vid=0a12f8eb-66bd-4951-8c87-6397f265a7c7","ios":"levelo://app?vid=0a12f8eb-66bd-4951-8c87-6397f265a7c7"},"vehicle_type_id":"4","last_reported":1735124844,"current_range_meters":39200,"station_id":"ce4bgn12rcd13ifvqbt0","pricing_plan_id":"cebpf4jnsgd1na2vs0mg"},{"bike_id":"081617f2-352d-433d-abf2-e1c0c70491b7","system_id":"levelo_inurba_marseille","lat":43.27325,"lon":5.39111,"is_reserved":false,"is_disabled":false,"rental_uris":{"android":"levelo://app?vid=081617f2-352d-433d-abf2-e1c0c70491b7","ios":"levelo://app?vid=081617f2-352d-433d-abf2-e1c0c70491b7"},"vehicle_type_id":"4","last_reported":1735124844,"current_range_meters":39200,"station_id":"ce4bhgp2rcd13ifvqfe0","pricing_plan_id":"cebpf4jnsgd1na2vs0mg"},{"bike_id":"4e6d0ca2-6374-490a-b48e-6cba90785a4f","system_id":"levelo_inurba_marseille","lat":43.246459,"lon":5.388995,"is_reserved":false,"is_disabled":false,"rental_uris":{"android":"levelo://app?vid=4e6d0ca2-6374-490a-b48e-6cba90785a4f","ios":"levelo://app?vid=4e6d0ca2-6374-490a-b48e-6cba90785a4f"},"vehicle_type_id":"4","last_reported":1735124844,"current_range_meters":17200,"station_id":"ce4bhg12rcd13ifvqf60","pricing_plan_id":"cebpf4jnsgd1na2vs0mg"},{"bike_id":"7270ea80-0eed-45f3-91ed-5899cab5719a","system_id":"levelo_inurba_marseille","lat":43.30888,"lon":5.37201,"is_reserved":false,"is_disabled":false,"rental_uris":{"android":"levelo://app?vid=7270ea80-0eed-45f3-91ed-5899cab5719a","ios":"levelo://app?vid=7270ea80-0eed-45f3-91ed-5899cab5719a"},"vehicle_type_id":"4","last_reported":1735124844,"current_range_meters":37600,"station_id":"ce4bguh2rcd13ifvqckg","pricing_plan_id":"cebpf4jnsgd1na2vs0mg"},{"bike_id":"a2da62ed-c4ca-4443-a1a1-134c277a106e","system_id":"levelo_inurba_marseille","lat":43.26934,"lon":5.40261,"is_reserved":false,"is_disabled":false,"rental_uris":{"android":"levelo://app?vid=a2da62ed-c4ca-4443-a1a1-134c277a106e","ios":"levelo://app?vid=a2da62ed-c4ca-4443-a1a1-134c277a106e"},"vehicle_type_id":"4","last_reported":1735124844,"current_range_meters":33600,"station_id":"cjm6bp8fraef2m0cb0m0","pricing_plan_id":"cebpf4jnsgd1na2vs0mg"},{"bike_id":"963b50d8-757b-4c39-84ed-9fb9fa9d8d9e","system_id":"levelo_inurba_marseille","lat":43.29225,"lon":5.36067,"is_reserved":false,"is_disabled":false,"rental_uris":{"android":"levelo://app?vid=963b50d8-757b-4c39-84ed-9fb9fa9d8d9e","ios":"levelo://app?vid=963b50d8-757b-4c39-84ed-9fb9fa9d8d9e"},"vehicle_type_id":"4","last_reported":1735124844,"current_range_meters":33200,"station_id":"ce4bhbh2rcd13ifvqeqg","pricing_plan_id":"cebpf4jnsgd1na2vs0mg"},{"bike_id":"18ec847e-cd25-4aaa-bc2d-17b87117b8e6","system_id":"levelo_inurba_marseille","lat":43.298492,"lon":5.380759,"is_reserved":false,"is_disabled":false,"rental_uris":{"android":"levelo://app?vid=18ec847e-cd25-4aaa-bc2d-17b87117b8e6","ios":"levelo://app?vid=18ec847e-cd25-4aaa-bc2d-17b87117b8e6"},"vehicle_type_id":"4","last_reported":1735124844,"current_range_meters":35600,"station_id":"","pricing_plan_id":"cebpf4jnsgd1na2vs0mg"},{"bike_id":"952d7772-814e-41fb-8fd5-bc16c710c5fe","system_id":"levelo_inurba_marseille","lat":43.29184,"lon":5.39321,"is_reserved":false,"is_disabled":false,"rental_uris":{"android":"levelo://app?vid=952d7772-814e-41fb-8fd5-bc16c710c5fe","ios":"levelo://app?vid=952d7772-814e-41fb-8fd5-bc16c710c5fe"},"vehicle_type_id":"4","last_reported":1735124844,"current_range_meters":37600,"station_id":"ce4bh192rcd13ifvqdd0","pricing_plan_id":"cebpf4jnsgd1na2vs0mg"},{"bike_id":"ba65d07a-204d-4be9-96e0-b91b2ca6d251","system_id":"levelo_inurba_marseille","lat":43.26939,"lon":5.40254,"is_reserved":false,"is_disabled":false,"rental_uris":{"android":"levelo://app?vid=ba65d07a-204d-4be9-96e0-b91b2ca6d251","ios":"levelo://app?vid=ba65d07a-204d-4be9-96e0-b91b2ca6d251"},"vehicle_type_id":"4","last_reported":1735124844,"current_range_meters":38800,"station_id":"cjm6bp8fraef2m0cb0m0","pricing_plan_id":"cebpf4jnsgd1na2vs0mg"},{"bike_id":"5ca093cb-437c-4e7d-bc7e-09c7ab1b0f93","system_id":"levelo_inurba_marseille","lat":43.29924,"lon":5.37475,"is_reserved":false,"is_disabled":false,"rental_uris":{"android":"levelo://app?vid=5ca093cb-437c-4e7d-bc7e-09c7ab1b0f93","ios":"levelo://app?vid=5ca093cb-437c-4e7d-bc7e-09c7ab1b0f93"},"vehicle_type_id":"4","last_reported":1735124844,"current_range_meters":38800,"station_id":"ce4bgjh2rcd13ifvqbg0","pricing_plan_id":"cebpf4jnsgd1na2vs0mg"},{"bike_id":"43472636-57cd-411f-b3bd-d2bda7647d04","system_id":"levelo_inurba_marseille","lat":43.26937,"lon":5.40254,"is_reserved":false,"is_disabled":false,"rental_uris":{"android":"levelo://app?vid=43472636-57cd-411f-b3bd-d2bda7647d04","ios":"levelo://app?vid=43472636-57cd-411f-b3bd-d2bda7647d04"},"vehicle_type_id":"4","last_reported":1735124844,"current_range_meters":38800,"station_id":"cjm6bp8fraef2m0cb0m0","pricing_plan_id":"cebpf4jnsgd1na2vs0mg"},{"bike_id":"b8eb6b2e-3d61-4142-a31e-4e5638f9d035","system_id":"levelo_inurba_marseille","lat":43.29299,"lon":5.37457,"is_reserved":false,"is_disabled":false,"rental_uris":{"android":"levelo://app?vid=b8eb6b2e-3d61-4142-a31e-4e5638f9d035","ios":"levelo://app?vid=b8eb6b2e-3d61-4142-a31e-4e5638f9d035"},"vehicle_type_id":"4","last_reported":1735124844,"current_range_meters":35200,"station_id":"ce4bgi12rcd13ifvqb70","pricing_plan_id":"cebpf4jnsgd1na2vs0mg"},{"bike_id":"6a8570d1-eb04-4587-aa7b-7e8a4cf28911","system_id":"levelo_inurba_marseille","lat":43.31318,"lon":5.39701,"is_reserved":false,"is_disabled":false,"rental_uris":{"android":"levelo://app?vid=6a8570d1-eb04-4587-aa7b-7e8a4cf28911","ios":"levelo://app?vid=6a8570d1-eb04-4587-aa7b-7e8a4cf28911"},"vehicle_type_id":"4","last_reported":1735124844,"current_range_meters":37600,"station_id":"ce4bgvp2rcd13ifvqcu0","pricing_plan_id":"cebpf4jnsgd1na2vs0mg"},{"bike_id":"58975c95-cbcc-4de2-ac6a-2c5c03741a00","system_id":"levelo_inurba_marseille","lat":43.270623,"lon":5.422797,"is_reserved":false,"is_disabled":false,"rental_uris":{"android":"levelo://app?vid=58975c95-cbcc-4de2-ac6a-2c5c03741a00","ios":"levelo://app?vid=58975c95-cbcc-4de2-ac6a-2c5c03741a00"},"vehicle_type_id":"4","last_reported":1735124844,"current_range_meters":38400,"station_id":"ce4bhk92rcd13ifvqgb0","pricing_plan_id":"cebpf4jnsgd1na2vs0mg"},{"bike_id":"6acd59a7-8f7c-4599-aa0b-64fd7d521194","system_id":"levelo_inurba_marseille","lat":43.30416,"lon":5.3975,"is_reserved":false,"is_disabled":false,"rental_uris":{"android":"levelo://app?vid=6acd59a7-8f7c-4599-aa0b-64fd7d521194","ios":"levelo://app?vid=6acd59a7-8f7c-4599-aa0b-64fd7d521194"},"vehicle_type_id":"4","last_reported":1735124844,"current_range_meters":38000,"station_id":"ce4bh092rcd13ifvqd20","pricing_plan_id":"cebpf4jnsgd1na2vs0mg"},{"bike_id":"38ba7ba9-8653-4e7e-bbef-80cd83235a3d","system_id":"levelo_inurba_marseille","lat":43.2954,"lon":5.38548,"is_reserved":false,"is_disabled":false,"rental_uris":{"android":"levelo://app?vid=38ba7ba9-8653-4e7e-bbef-80cd83235a3d","ios":"levelo://app?vid=38ba7ba9-8653-4e7e-bbef-80cd83235a3d"},"vehicle_type_id":"4","last_reported":1735124844,"current_range_meters":39200,"station_id":"ce4bgih2rcd13ifvqba0","pricing_plan_id":"cebpf4jnsgd1na2vs0mg"},{"bike_id":"a7a8c92c-0c1f-45ca-bf69-fba7adbe1aa8","system_id":"levelo_inurba_marseille","lat":43.24686,"lon":5.38162,"is_reserved":false,"is_disabled":false,"rental_uris":{"android":"levelo://app?vid=a7a8c92c-0c1f-45ca-bf69-fba7adbe1aa8","ios":"levelo://app?vid=a7a8c92c-0c1f-45ca-bf69-fba7adbe1aa8"},"vehicle_type_id":"4","last_reported":1735124844,"current_range_meters":39200,"station_id":"ce4bhih2rcd13ifvqfr0","pricing_plan_id":"cebpf4jnsgd1na2vs0mg"},{"bike_id":"fb0e6359-3fe6-4009-9014-99d06d5c7222","system_id":"levelo_inurba_marseille","lat":43.29612,"lon":5.37158,"is_reserved":false,"is_disabled":false,"rental_uris":{"android":"levelo://app?vid=fb0e6359-3fe6-4009-9014-99d06d5c7222","ios":"levelo://app?vid=fb0e6359-3fe6-4009-9014-99d06d5c7222"},"vehicle_type_id":"4","last_reported":1735124844,"current_range_meters":37600,"station_id":"ce4bgnh2rcd13ifvqc0g","pricing_plan_id":"cebpf4jnsgd1na2vs0mg"},{"bike_id":"d7e221e7-fc01-4da3-b9ee-a8982a7498f9","system_id":"levelo_inurba_marseille","lat":43.30296,"lon":5.36894,"is_reserved":false,"is_disabled":false,"rental_uris":{"android":"levelo://app?vid=d7e221e7-fc01-4da3-b9ee-a8982a7498f9","ios":"levelo://app?vid=d7e221e7-fc01-4da3-b9ee-a8982a7498f9"},"vehicle_type_id":"4","last_reported":1735124844,"current_range_meters":36000,"station_id":"ce4bgqh2rcd13ifvqc5g","pricing_plan_id":"cebpf4jnsgd1na2vs0mg"},{"bike_id":"d93032f6-8f4e-4faf-9212-d96bb4bca970","system_id":"levelo_inurba_marseille","lat":43.287263,"lon":5.360857,"is_reserved":false,"is_disabled":false,"rental_uris":{"android":"levelo://app?vid=d93032f6-8f4e-4faf-9212-d96bb4bca970","ios":"levelo://app?vid=d93032f6-8f4e-4faf-9212-d96bb4bca970"},"vehicle_type_id":"4","last_reported":1735124844,"current_range_meters":38800,"station_id":"cki0cbj6b192h4jlfktg","pricing_plan_id":"cebpf4jnsgd1na2vs0mg"},{"bike_id":"40ae8cb8-e49e-4a0f-a442-f25bcd7620a2","system_id":"levelo_inurba_marseille","lat":43.30415,"lon":5.39752,"is_reserved":false,"is_disabled":false,"rental_uris":{"android":"levelo://app?vid=40ae8cb8-e49e-4a0f-a442-f25bcd7620a2","ios":"levelo://app?vid=40ae8cb8-e49e-4a0f-a442-f25bcd7620a2"},"vehicle_type_id":"4","last_reported":1735124844,"current_range_meters":36800,"station_id":"ce4bh092rcd13ifvqd20","pricing_plan_id":"cebpf4jnsgd1na2vs0mg"},{"bike_id":"1601cb4d-c6b7-4894-b7f8-eeab49590138","system_id":"levelo_inurba_marseille","lat":43.26558,"lon":5.37311,"is_reserved":false,"is_disabled":false,"rental_uris":{"android":"levelo://app?vid=1601cb4d-c6b7-4894-b7f8-eeab49590138","ios":"levelo://app?vid=1601cb4d-c6b7-4894-b7f8-eeab49590138"},"vehicle_type_id":"4","last_reported":1735124844,"current_range_meters":34800,"station_id":"ce4bhg12rcd13ifvqf70","pricing_plan_id":"cebpf4jnsgd1na2vs0mg"},{"bike_id":"1f51b21d-3179-4324-a3f5-a296554cea4d","system_id":"levelo_inurba_marseille","lat":43.27813,"lon":5.40709,"is_reserved":false,"is_disabled":false,"rental_uris":{"android":"levelo://app?vid=1f51b21d-3179-4324-a3f5-a296554cea4d","ios":"levelo://app?vid=1f51b21d-3179-4324-a3f5-a296554cea4d"},"vehicle_type_id":"4","last_reported":1735124844,"current_range_meters":38800,"station_id":"ce4bhnh2rcd13ifvqgtg","pricing_plan_id":"cebpf4jnsgd1na2vs0mg"},{"bike_id":"aa5d5d16-a2f6-4c81-8cd4-c9ee96949ae4","system_id":"levelo_inurba_marseille","lat":43.2319,"lon":5.39982,"is_reserved":false,"is_disabled":false,"rental_uris":{"android":"levelo://app?vid=aa5d5d16-a2f6-4c81-8cd4-c9ee96949ae4","ios":"levelo://app?vid=aa5d5d16-a2f6-4c81-8cd4-c9ee96949ae4"},"vehicle_type_id":"4","last_reported":1735124844,"current_range_meters":39200,"station_id":"ce4bhn12rcd13ifvqgqg","pricing_plan_id":"cebpf4jnsgd1na2vs0mg"},{"bike_id":"38afd6fe-b6ff-4172-983e-6bea61656424","system_id":"levelo_inurba_marseille","lat":43.29251,"lon":5.38455,"is_reserved":false,"is_disabled":false,"rental_uris":{"android":"levelo://app?vid=38afd6fe-b6ff-4172-983e-6bea61656424","ios":"levelo://app?vid=38afd6fe-b6ff-4172-983e-6bea61656424"},"vehicle_type_id":"4","last_reported":1735124844,"current_range_meters":17200,"station_id":"ce4bh692rcd13ifvqea0","pricing_plan_id":"cebpf4jnsgd1na2vs0mg"},{"bike_id":"d7083b66-8af0-4c6b-8299-5b0c4e022bd2","system_id":"levelo_inurba_marseille","lat":43.27999,"lon":5.40018,"is_reserved":false,"is_disabled":false,"rental_uris":{"android":"levelo://app?vid=d7083b66-8af0-4c6b-8299-5b0c4e022bd2","ios":"levelo://app?vid=d7083b66-8af0-4c6b-8299-5b0c4e022bd2"},"vehicle_type_id":"4","last_reported":1735124844,"current_range_meters":29600,"station_id":"ce4bho92rcd13ifvqh4g","pricing_plan_id":"cebpf4jnsgd1na2vs0mg"},{"bike_id":"673ed0fe-3027-4e1f-9efc-2804b0e32190","system_id":"levelo_inurba_marseille","lat":43.26688,"lon":5.3827,"is_reserved":false,"is_disabled":false,"rental_uris":{"android":"levelo://app?vid=673ed0fe-3027-4e1f-9efc-2804b0e32190","ios":"levelo://app?vid=673ed0fe-3027-4e1f-9efc-2804b0e32190"},"vehicle_type_id":"4","last_reported":1735124844,"current_range_meters":28800,"station_id":"ce4bhg92rcd13ifvqf90","pricing_plan_id":"cebpf4jnsgd1na2vs0mg"},{"bike_id":"148ae012-5a20-4b5d-a95c-b05dcc7e0b53","system_id":"levelo_inurba_marseille","lat":43.30639,"lon":5.40096,"is_reserved":false,"is_disabled":false,"rental_uris":{"android":"levelo://app?vid=148ae012-5a20-4b5d-a95c-b05dcc7e0b53","ios":"levelo://app?vid=148ae012-5a20-4b5d-a95c-b05dcc7e0b53"},"vehicle_type_id":"4","last_reported":1735124844,"current_range_meters":38800,"station_id":"ce4bh112rcd13ifvqda0","pricing_plan_id":"cebpf4jnsgd1na2vs0mg"},{"bike_id":"8178448d-dd5e-4080-a0ba-87d7183c67ea","system_id":"levelo_inurba_marseille","lat":43.29091,"lon":5.38162,"is_reserved":false,"is_disabled":false,"rental_uris":{"android":"levelo://app?vid=8178448d-dd5e-4080-a0ba-87d7183c67ea","ios":"levelo://app?vid=8178448d-dd5e-4080-a0ba-87d7183c67ea"},"vehicle_type_id":"4","last_reported":1735124844,"current_range_meters":38000,"station_id":"ce4bh512rcd13ifvqe2g","pricing_plan_id":"cebpf4jnsgd1na2vs0mg"},{"bike_id":"18bae43d-db69-4109-bad1-67a273db86d7","system_id":"levelo_inurba_marseille","lat":43.30125,"lon":5.3878,"is_reserved":false,"is_disabled":false,"rental_uris":{"android":"levelo://app?vid=18bae43d-db69-4109-bad1-67a273db86d7","ios":"levelo://app?vid=18bae43d-db69-4109-bad1-67a273db86d7"},"vehicle_type_id":"4","last_reported":1735124844,"current_range_meters":38800,"station_id":"ce4bhoh2rcd13ifvqh6g","pricing_plan_id":"cebpf4jnsgd1na2vs0mg"},{"bike_id":"f0fcec42-ee20-4144-b126-b5bee5c555cf","system_id":"levelo_inurba_marseille","lat":43.29706,"lon":5.36598,"is_reserved":false,"is_disabled":false,"rental_uris":{"android":"levelo://app?vid=f0fcec42-ee20-4144-b126-b5bee5c555cf","ios":"levelo://app?vid=f0fcec42-ee20-4144-b126-b5bee5c555cf"},"vehicle_type_id":"4","last_reported":1735124844,"current_range_meters":28000,"station_id":"ce4bgn12rcd13ifvqbt0","pricing_plan_id":"cebpf4jnsgd1na2vs0mg"},{"bike_id":"0e3973b0-a562-4ea0-9dfa-e2d8af2b73aa","system_id":"levelo_inurba_marseille","lat":43.27184,"lon":5.40993,"is_reserved":false,"is_disabled":false,"rental_uris":{"android":"levelo://app?vid=0e3973b0-a562-4ea0-9dfa-e2d8af2b73aa","ios":"levelo://app?vid=0e3973b0-a562-4ea0-9dfa-e2d8af2b73aa"},"vehicle_type_id":"4","last_reported":1735124844,"current_range_meters":27200,"station_id":"ce4bhl12rcd13ifvqgf0","pricing_plan_id":"cebpf4jnsgd1na2vs0mg"},{"bike_id":"50771762-6294-492b-bae5-db8bd88e73ed","system_id":"levelo_inurba_marseille","lat":43.27435,"lon":5.39412,"is_reserved":false,"is_disabled":false,"rental_uris":{"android":"levelo://app?vid=50771762-6294-492b-bae5-db8bd88e73ed","ios":"levelo://app?vid=50771762-6294-492b-bae5-db8bd88e73ed"},"vehicle_type_id":"4","last_reported":1735124844,"current_range_meters":36800,"station_id":"ce4bhdp2rcd13ifvqf20","pricing_plan_id":"cebpf4jnsgd1na2vs0mg"},{"bike_id":"ff0a833a-d938-44db-808d-2697dd8f9d04","system_id":"levelo_inurba_marseille","lat":43.28564,"lon":5.395,"is_reserved":false,"is_disabled":false,"rental_uris":{"android":"levelo://app?vid=ff0a833a-d938-44db-808d-2697dd8f9d04","ios":"levelo://app?vid=ff0a833a-d938-44db-808d-2697dd8f9d04"},"vehicle_type_id":"4","last_reported":1735124844,"current_range_meters":38000,"station_id":"ce4bh292rcd13ifvqdg0","pricing_plan_id":"cebpf4jnsgd1na2vs0mg"},{"bike_id":"dba4252a-6ac0-4a91-a8ed-2c817b386ed4","system_id":"levelo_inurba_marseille","lat":43.30144,"lon":5.37422,"is_reserved":false,"is_disabled":false,"rental_uris":{"android":"levelo://app?vid=dba4252a-6ac0-4a91-a8ed-2c817b386ed4","ios":"levelo://app?vid=dba4252a-6ac0-4a91-a8ed-2c817b386ed4"},"vehicle_type_id":"4","last_reported":1735124844,"current_range_meters":8000,"station_id":"ce4bgs92rcd13ifvqcc0","pricing_plan_id":"cebpf4jnsgd1na2vs0mg"},{"bike_id":"82719b16-0394-44a1-963a-3161d6b762b8","system_id":"levelo_inurba_marseille","lat":43.296143,"lon":5.37155,"is_reserved":false,"is_disabled":false,"rental_uris":{"android":"levelo://app?vid=82719b16-0394-44a1-963a-3161d6b762b8","ios":"levelo://app?vid=82719b16-0394-44a1-963a-3161d6b762b8"},"vehicle_type_id":"4","last_reported":1735124844,"current_range_meters":36800,"station_id":"ce4bgnh2rcd13ifvqc0g","pricing_plan_id":"cebpf4jnsgd1na2vs0mg"},{"bike_id":"e17a11e0-b3c6-47c1-be20-5643d7d7457e","system_id":"levelo_inurba_marseille","lat":43.31259,"lon":5.40205,"is_reserved":false,"is_disabled":false,"rental_uris":{"android":"levelo://app?vid=e17a11e0-b3c6-47c1-be20-5643d7d7457e","ios":"levelo://app?vid=e17a11e0-b3c6-47c1-be20-5643d7d7457e"},"vehicle_type_id":"4","last_reported":1735124844,"current_range_meters":36400,"station_id":"ce4bh092rcd13ifvqd30","pricing_plan_id":"cebpf4jnsgd1na2vs0mg"},{"bike_id":"c5315344-fd5d-41fb-a9a2-9d011cd33821","system_id":"levelo_inurba_marseille","lat":43.3151,"lon":5.37307,"is_reserved":false,"is_disabled":false,"rental_uris":{"android":"levelo://app?vid=c5315344-fd5d-41fb-a9a2-9d011cd33821","ios":"levelo://app?vid=c5315344-fd5d-41fb-a9a2-9d011cd33821"},"vehicle_type_id":"4","last_reported":1735124844,"current_range_meters":38800,"station_id":"ce4bgt12rcd13ifvqcd0","pricing_plan_id":"cebpf4jnsgd1na2vs0mg"},{"bike_id":"af0b1ef8-a807-4b05-8aca-f6c986c6d4b6","system_id":"levelo_inurba_marseille","lat":43.33605,"lon":5.41034,"is_reserved":false,"is_disabled":false,"rental_uris":{"android":"levelo://app?vid=af0b1ef8-a807-4b05-8aca-f6c986c6d4b6","ios":"levelo://app?vid=af0b1ef8-a807-4b05-8aca-f6c986c6d4b6"},"vehicle_type_id":"4","last_reported":1735124844,"current_range_meters":25200,"station_id":"ce4bhqh2rcd13ifvqhmg","pricing_plan_id":"cebpf4jnsgd1na2vs0mg"},{"bike_id":"4a35463d-6286-4212-a2c7-04e728adcd62","system_id":"levelo_inurba_marseille","lat":43.281,"lon":5.37886,"is_reserved":false,"is_disabled":false,"rental_uris":{"android":"levelo://app?vid=4a35463d-6286-4212-a2c7-04e728adcd62","ios":"levelo://app?vid=4a35463d-6286-4212-a2c7-04e728adcd62"},"vehicle_type_id":"4","last_reported":1735124844,"current_range_meters":38800,"station_id":"ce4bha12rcd13ifvqee0","pricing_plan_id":"cebpf4jnsgd1na2vs0mg"},{"bike_id":"9e57916c-72d8-4475-97bc-a8057a01ff62","system_id":"levelo_inurba_marseille","lat":43.29311,"lon":5.37182,"is_reserved":false,"is_disabled":false,"rental_uris":{"android":"levelo://app?vid=9e57916c-72d8-4475-97bc-a8057a01ff62","ios":"levelo://app?vid=9e57916c-72d8-4475-97bc-a8057a01ff62"},"vehicle_type_id":"4","last_reported":1735124844,"current_range_meters":37600,"station_id":"ce4bgh92rcd13ifvqb40","pricing_plan_id":"cebpf4jnsgd1na2vs0mg"},{"bike_id":"83a08669-f27a-4bd6-a6e0-bea6d8f798b0","system_id":"levelo_inurba_marseille","lat":43.26943,"lon":5.40258,"is_reserved":false,"is_disabled":false,"rental_uris":{"android":"levelo://app?vid=83a08669-f27a-4bd6-a6e0-bea6d8f798b0","ios":"levelo://app?vid=83a08669-f27a-4bd6-a6e0-bea6d8f798b0"},"vehicle_type_id":"4","last_reported":1735124844,"current_range_meters":32000,"station_id":"cjm6bp8fraef2m0cb0m0","pricing_plan_id":"cebpf4jnsgd1na2vs0mg"},{"bike_id":"4f5db02c-99f9-460e-a880-3ca7100df048","system_id":"levelo_inurba_marseille","lat":43.274281,"lon":5.39411,"is_reserved":false,"is_disabled":false,"rental_uris":{"android":"levelo://app?vid=4f5db02c-99f9-460e-a880-3ca7100df048","ios":"levelo://app?vid=4f5db02c-99f9-460e-a880-3ca7100df048"},"vehicle_type_id":"4","last_reported":1735124844,"current_range_meters":38800,"station_id":"ce4bhdp2rcd13ifvqf20","pricing_plan_id":"cebpf4jnsgd1na2vs0mg"},{"bike_id":"fb0e9af5-7d6b-441c-998e-0381a1fe31bb","system_id":"levelo_inurba_marseille","lat":43.25706,"lon":5.41125,"is_reserved":false,"is_disabled":false,"rental_uris":{"android":"levelo://app?vid=fb0e9af5-7d6b-441c-998e-0381a1fe31bb","ios":"levelo://app?vid=fb0e9af5-7d6b-441c-998e-0381a1fe31bb"},"vehicle_type_id":"4","last_reported":1735124844,"current_range_meters":28800,"station_id":"ce4bhkp2rcd13ifvqgd0","pricing_plan_id":"cebpf4jnsgd1na2vs0mg"},{"bike_id":"5d35556a-77eb-471a-9074-b9042a3815ab","system_id":"levelo_inurba_marseille","lat":43.29603,"lon":5.38117,"is_reserved":false,"is_disabled":false,"rental_uris":{"android":"levelo://app?vid=5d35556a-77eb-471a-9074-b9042a3815ab","ios":"levelo://app?vid=5d35556a-77eb-471a-9074-b9042a3815ab"},"vehicle_type_id":"4","last_reported":1735124844,"current_range_meters":25200,"station_id":"ce4bgl12rcd13ifvqbo0","pricing_plan_id":"cebpf4jnsgd1na2vs0mg"},{"bike_id":"537ef1bf-3a78-45af-b334-3a2c52a599a8","system_id":"levelo_inurba_marseille","lat":43.34137,"lon":5.40899,"is_reserved":false,"is_disabled":false,"rental_uris":{"android":"levelo://app?vid=537ef1bf-3a78-45af-b334-3a2c52a599a8","ios":"levelo://app?vid=537ef1bf-3a78-45af-b334-3a2c52a599a8"},"vehicle_type_id":"4","last_reported":1735124844,"current_range_meters":28000,"station_id":"ce4bhqh2rcd13ifvqhlg","pricing_plan_id":"cebpf4jnsgd1na2vs0mg"},{"bike_id":"e5ec77c8-648b-4bda-921a-2babefb619a7","system_id":"levelo_inurba_marseille","lat":43.30146,"lon":5.39875,"is_reserved":false,"is_disabled":false,"rental_uris":{"android":"levelo://app?vid=e5ec77c8-648b-4bda-921a-2babefb619a7","ios":"levelo://app?vid=e5ec77c8-648b-4bda-921a-2babefb619a7"},"vehicle_type_id":"4","last_reported":1735124844,"current_range_meters":39200,"station_id":"ce4bh0h2rcd13ifvqd40","pricing_plan_id":"cebpf4jnsgd1na2vs0mg"},{"bike_id":"d1bc7ec4-ade9-4cc0-a31b-f0fa348d319b","system_id":"levelo_inurba_marseille","lat":43.24665,"lon":5.38161,"is_reserved":false,"is_disabled":false,"rental_uris":{"android":"levelo://app?vid=d1bc7ec4-ade9-4cc0-a31b-f0fa348d319b","ios":"levelo://app?vid=d1bc7ec4-ade9-4cc0-a31b-f0fa348d319b"},"vehicle_type_id":"4","last_reported":1735124844,"current_range_meters":23200,"station_id":"ce4bhih2rcd13ifvqfr0","pricing_plan_id":"cebpf4jnsgd1na2vs0mg"},{"bike_id":"7785e49f-4377-4df0-9d86-f1e92b209f62","system_id":"levelo_inurba_marseille","lat":43.29964,"lon":5.41327,"is_reserved":false,"is_disabled":false,"rental_uris":{"android":"levelo://app?vid=7785e49f-4377-4df0-9d86-f1e92b209f62","ios":"levelo://app?vid=7785e49f-4377-4df0-9d86-f1e92b209f62"},"vehicle_type_id":"4","last_reported":1735124844,"current_range_meters":37600,"station_id":"ce4bhp12rcd13ifvqh9g","pricing_plan_id":"cebpf4jnsgd1na2vs0mg"},{"bike_id":"b07e0204-2c57-49d1-a1f7-320de8610e25","system_id":"levelo_inurba_marseille","lat":43.29402,"lon":5.37344,"is_reserved":false,"is_disabled":true,"rental_uris":{"android":"levelo://app?vid=b07e0204-2c57-49d1-a1f7-320de8610e25","ios":"levelo://app?vid=b07e0204-2c57-49d1-a1f7-320de8610e25"},"vehicle_type_id":"4","last_reported":1735124844,"current_range_meters":15200,"station_id":"","pricing_plan_id":"cebpf4jnsgd1na2vs0mg"},{"bike_id":"fdd038a4-79d5-4c95-a63d-a1c3452f83b6","system_id":"levelo_inurba_marseille","lat":43.308966,"lon":5.36858,"is_reserved":false,"is_disabled":false,"rental_uris":{"android":"levelo://app?vid=fdd038a4-79d5-4c95-a63d-a1c3452f83b6","ios":"levelo://app?vid=fdd038a4-79d5-4c95-a63d-a1c3452f83b6"},"vehicle_type_id":"4","last_reported":1735124844,"current_range_meters":33200,"station_id":"ce4bgn92rcd13ifvqbvg","pricing_plan_id":"cebpf4jnsgd1na2vs0mg"},{"bike_id":"e1d13ce1-aee0-4a7f-9d7a-0e9d627705fa","system_id":"levelo_inurba_marseille","lat":43.29913,"lon":5.37468,"is_reserved":false,"is_disabled":false,"rental_uris":{"android":"levelo://app?vid=e1d13ce1-aee0-4a7f-9d7a-0e9d627705fa","ios":"levelo://app?vid=e1d13ce1-aee0-4a7f-9d7a-0e9d627705fa"},"vehicle_type_id":"4","last_reported":1735124844,"current_range_meters":27200,"station_id":"ce4bgjh2rcd13ifvqbg0","pricing_plan_id":"cebpf4jnsgd1na2vs0mg"},{"bike_id":"41632095-6d88-40a7-b2e7-bb5f6e7b1393","system_id":"levelo_inurba_marseille","lat":43.26559,"lon":5.37288,"is_reserved":false,"is_disabled":false,"rental_uris":{"android":"levelo://app?vid=41632095-6d88-40a7-b2e7-bb5f6e7b1393","ios":"levelo://app?vid=41632095-6d88-40a7-b2e7-bb5f6e7b1393"},"vehicle_type_id":"4","last_reported":1735124844,"current_range_meters":16800,"station_id":"ce4bhg12rcd13ifvqf70","pricing_plan_id":"cebpf4jnsgd1na2vs0mg"},{"bike_id":"178d2327-1d17-48d4-92fe-75ce7ae99db3","system_id":"levelo_inurba_marseille","lat":43.295246,"lon":5.374964,"is_reserved":false,"is_disabled":false,"rental_uris":{"android":"levelo://app?vid=178d2327-1d17-48d4-92fe-75ce7ae99db3","ios":"levelo://app?vid=178d2327-1d17-48d4-92fe-75ce7ae99db3"},"vehicle_type_id":"4","last_reported":1735124844,"current_range_meters":38800,"station_id":"ce4bgkp2rcd13ifvqbmg","pricing_plan_id":"cebpf4jnsgd1na2vs0mg"},{"bike_id":"0962cac2-9980-4216-a248-1db25f0a5b80","system_id":"levelo_inurba_marseille","lat":43.2919,"lon":5.35802,"is_reserved":false,"is_disabled":false,"rental_uris":{"android":"levelo://app?vid=0962cac2-9980-4216-a248-1db25f0a5b80","ios":"levelo://app?vid=0962cac2-9980-4216-a248-1db25f0a5b80"},"vehicle_type_id":"4","last_reported":1735124844,"current_range_meters":24000,"station_id":"ce4bhb12rcd13ifvqel0","pricing_plan_id":"cebpf4jnsgd1na2vs0mg"},{"bike_id":"142407df-e449-45a9-b1d1-57a94f256792","system_id":"levelo_inurba_marseille","lat":43.31341,"lon":5.36723,"is_reserved":false,"is_disabled":false,"rental_uris":{"android":"levelo://app?vid=142407df-e449-45a9-b1d1-57a94f256792","ios":"levelo://app?vid=142407df-e449-45a9-b1d1-57a94f256792"},"vehicle_type_id":"4","last_reported":1735124844,"current_range_meters":37600,"station_id":"ce4bgr92rcd13ifvqc6g","pricing_plan_id":"cebpf4jnsgd1na2vs0mg"},{"bike_id":"d0928a2e-5cea-450a-a669-d6ca6d307f7d","system_id":"levelo_inurba_marseille","lat":43.31719,"lon":5.42392,"is_reserved":false,"is_disabled":false,"rental_uris":{"android":"levelo://app?vid=d0928a2e-5cea-450a-a669-d6ca6d307f7d","ios":"levelo://app?vid=d0928a2e-5cea-450a-a669-d6ca6d307f7d"},"vehicle_type_id":"4","last_reported":1735124844,"current_range_meters":38000,"station_id":"ce4bhp92rcd13ifvqhbg","pricing_plan_id":"cebpf4jnsgd1na2vs0mg"},{"bike_id":"2863f660-7b31-4c26-8cc5-e2eb7afc53f1","system_id":"levelo_inurba_marseille","lat":43.29913,"lon":5.38151,"is_reserved":false,"is_disabled":false,"rental_uris":{"android":"levelo://app?vid=2863f660-7b31-4c26-8cc5-e2eb7afc53f1","ios":"levelo://app?vid=2863f660-7b31-4c26-8cc5-e2eb7afc53f1"},"vehicle_type_id":"4","last_reported":1735124844,"current_range_meters":31200,"station_id":"ce4bgj12rcd13ifvqbc0","pricing_plan_id":"cebpf4jnsgd1na2vs0mg"},{"bike_id":"1ca6e35e-4519-4a08-8f12-cc97c32227ac","system_id":"levelo_inurba_marseille","lat":43.297821,"lon":5.371,"is_reserved":false,"is_disabled":false,"rental_uris":{"android":"levelo://app?vid=1ca6e35e-4519-4a08-8f12-cc97c32227ac","ios":"levelo://app?vid=1ca6e35e-4519-4a08-8f12-cc97c32227ac"},"vehicle_type_id":"4","last_reported":1735124844,"current_range_meters":30800,"station_id":"ce4bgop2rcd13ifvqc1g","pricing_plan_id":"cebpf4jnsgd1na2vs0mg"},{"bike_id":"5956c99d-10e6-4dc2-8784-a2701a9e178a","system_id":"levelo_inurba_marseille","lat":43.24664,"lon":5.38152,"is_reserved":false,"is_disabled":false,"rental_uris":{"android":"levelo://app?vid=5956c99d-10e6-4dc2-8784-a2701a9e178a","ios":"levelo://app?vid=5956c99d-10e6-4dc2-8784-a2701a9e178a"},"vehicle_type_id":"4","last_reported":1735124844,"current_range_meters":39200,"station_id":"ce4bhih2rcd13ifvqfr0","pricing_plan_id":"cebpf4jnsgd1na2vs0mg"},{"bike_id":"5a0a4d6b-2d53-4889-9dc1-5c666fc934c5","system_id":"levelo_inurba_marseille","lat":43.3151,"lon":5.37299,"is_reserved":false,"is_disabled":false,"rental_uris":{"android":"levelo://app?vid=5a0a4d6b-2d53-4889-9dc1-5c666fc934c5","ios":"levelo://app?vid=5a0a4d6b-2d53-4889-9dc1-5c666fc934c5"},"vehicle_type_id":"4","last_reported":1735124844,"current_range_meters":39200,"station_id":"ce4bgt12rcd13ifvqcd0","pricing_plan_id":"cebpf4jnsgd1na2vs0mg"},{"bike_id":"734a4735-41cf-4c65-88cc-bc4a2bc37ab3","system_id":"levelo_inurba_marseille","lat":43.29615,"lon":5.37724,"is_reserved":false,"is_disabled":false,"rental_uris":{"android":"levelo://app?vid=734a4735-41cf-4c65-88cc-bc4a2bc37ab3","ios":"levelo://app?vid=734a4735-41cf-4c65-88cc-bc4a2bc37ab3"},"vehicle_type_id":"4","last_reported":1735124844,"current_range_meters":33200,"station_id":"ce4bgi92rcd13ifvqb90","pricing_plan_id":"cebpf4jnsgd1na2vs0mg"},{"bike_id":"c9751a8a-79d3-40c3-84a6-e2e10badf950","system_id":"levelo_inurba_marseille","lat":43.29904,"lon":5.381537,"is_reserved":false,"is_disabled":false,"rental_uris":{"android":"levelo://app?vid=c9751a8a-79d3-40c3-84a6-e2e10badf950","ios":"levelo://app?vid=c9751a8a-79d3-40c3-84a6-e2e10badf950"},"vehicle_type_id":"4","last_reported":1735124844,"current_range_meters":38800,"station_id":"ce4bgj12rcd13ifvqbc0","pricing_plan_id":"cebpf4jnsgd1na2vs0mg"},{"bike_id":"88a70819-395e-4da0-9f24-b8e1c65d9a67","system_id":"levelo_inurba_marseille","lat":43.28849,"lon":5.3586,"is_reserved":false,"is_disabled":false,"rental_uris":{"android":"levelo://app?vid=88a70819-395e-4da0-9f24-b8e1c65d9a67","ios":"levelo://app?vid=88a70819-395e-4da0-9f24-b8e1c65d9a67"},"vehicle_type_id":"4","last_reported":1735124844,"current_range_meters":36400,"station_id":"ce4bhb12rcd13ifvqem0","pricing_plan_id":"cebpf4jnsgd1na2vs0mg"},{"bike_id":"00f2299e-6e78-4b67-898f-d05e3c74d6f8","system_id":"levelo_inurba_marseille","lat":43.27436,"lon":5.39425,"is_reserved":false,"is_disabled":false,"rental_uris":{"android":"levelo://app?vid=00f2299e-6e78-4b67-898f-d05e3c74d6f8","ios":"levelo://app?vid=00f2299e-6e78-4b67-898f-d05e3c74d6f8"},"vehicle_type_id":"4","last_reported":1735124844,"current_range_meters":13600,"station_id":"ce4bhdp2rcd13ifvqf20","pricing_plan_id":"cebpf4jnsgd1na2vs0mg"},{"bike_id":"1331a77f-169e-40e5-9c71-4680165a6bf4","system_id":"levelo_inurba_marseille","lat":43.29053,"lon":5.39951,"is_reserved":false,"is_disabled":false,"rental_uris":{"android":"levelo://app?vid=1331a77f-169e-40e5-9c71-4680165a6bf4","ios":"levelo://app?vid=1331a77f-169e-40e5-9c71-4680165a6bf4"},"vehicle_type_id":"4","last_reported":1735124844,"current_range_meters":39200,"station_id":"ce4bh392rcd13ifvqdm0","pricing_plan_id":"cebpf4jnsgd1na2vs0mg"},{"bike_id":"6bca16b1-3eb4-4299-91bc-9740eea99592","system_id":"levelo_inurba_marseille","lat":43.29843,"lon":5.36272,"is_reserved":false,"is_disabled":false,"rental_uris":{"android":"levelo://app?vid=6bca16b1-3eb4-4299-91bc-9740eea99592","ios":"levelo://app?vid=6bca16b1-3eb4-4299-91bc-9740eea99592"},"vehicle_type_id":"4","last_reported":1735124844,"current_range_meters":38800,"station_id":"ce4bgpp2rcd13ifvqc3g","pricing_plan_id":"cebpf4jnsgd1na2vs0mg"},{"bike_id":"3dcfbc8b-e73d-4cb6-b242-a024a7453bed","system_id":"levelo_inurba_marseille","lat":43.31094,"lon":5.37789,"is_reserved":false,"is_disabled":false,"rental_uris":{"android":"levelo://app?vid=3dcfbc8b-e73d-4cb6-b242-a024a7453bed","ios":"levelo://app?vid=3dcfbc8b-e73d-4cb6-b242-a024a7453bed"},"vehicle_type_id":"4","last_reported":1735124844,"current_range_meters":27600,"station_id":"ce4bgt92rcd13ifvqcg0","pricing_plan_id":"cebpf4jnsgd1na2vs0mg"},{"bike_id":"e05bf4ea-d74d-49ed-a7dc-94fa3a3cc350","system_id":"levelo_inurba_marseille","lat":43.32363,"lon":5.36757,"is_reserved":false,"is_disabled":false,"rental_uris":{"android":"levelo://app?vid=e05bf4ea-d74d-49ed-a7dc-94fa3a3cc350","ios":"levelo://app?vid=e05bf4ea-d74d-49ed-a7dc-94fa3a3cc350"},"vehicle_type_id":"4","last_reported":1735124844,"current_range_meters":35200,"station_id":"ce4bhsh2rcd13ifvqi2g","pricing_plan_id":"cebpf4jnsgd1na2vs0mg"},{"bike_id":"50223763-d57a-4ee0-bead-58c2af622222","system_id":"levelo_inurba_marseille","lat":43.29733,"lon":5.37692,"is_reserved":false,"is_disabled":false,"rental_uris":{"android":"levelo://app?vid=50223763-d57a-4ee0-bead-58c2af622222","ios":"levelo://app?vid=50223763-d57a-4ee0-bead-58c2af622222"},"vehicle_type_id":"4","last_reported":1735124844,"current_range_meters":38800,"station_id":"ce4bgkh2rcd13ifvqbl0","pricing_plan_id":"cebpf4jnsgd1na2vs0mg"},{"bike_id":"2217e265-1c11-4717-a1be-e1d88a9cb56d","system_id":"levelo_inurba_marseille","lat":43.31116,"lon":5.37776,"is_reserved":false,"is_disabled":false,"rental_uris":{"android":"levelo://app?vid=2217e265-1c11-4717-a1be-e1d88a9cb56d","ios":"levelo://app?vid=2217e265-1c11-4717-a1be-e1d88a9cb56d"},"vehicle_type_id":"4","last_reported":1735124844,"current_range_meters":18800,"station_id":"ce4bgt92rcd13ifvqcg0","pricing_plan_id":"cebpf4jnsgd1na2vs0mg"},{"bike_id":"7a7b8261-f987-4749-9d9d-0acb49170ae0","system_id":"levelo_inurba_marseille","lat":43.25493,"lon":5.3765,"is_reserved":false,"is_disabled":false,"rental_uris":{"android":"levelo://app?vid=7a7b8261-f987-4749-9d9d-0acb49170ae0","ios":"levelo://app?vid=7a7b8261-f987-4749-9d9d-0acb49170ae0"},"vehicle_type_id":"4","last_reported":1735124844,"current_range_meters":30400,"station_id":"ce4bhh12rcd13ifvqff0","pricing_plan_id":"cebpf4jnsgd1na2vs0mg"},{"bike_id":"9aaaeecc-df33-4ed4-9b2f-c46c45addd82","system_id":"levelo_inurba_marseille","lat":43.26554,"lon":5.37286,"is_reserved":false,"is_disabled":false,"rental_uris":{"android":"levelo://app?vid=9aaaeecc-df33-4ed4-9b2f-c46c45addd82","ios":"levelo://app?vid=9aaaeecc-df33-4ed4-9b2f-c46c45addd82"},"vehicle_type_id":"4","last_reported":1735124844,"current_range_meters":37600,"station_id":"ce4bhg12rcd13ifvqf70","pricing_plan_id":"cebpf4jnsgd1na2vs0mg"},{"bike_id":"25d2bc58-f6d3-4508-aa97-5261c6aa48a4","system_id":"levelo_inurba_marseille","lat":43.30096,"lon":5.39089,"is_reserved":false,"is_disabled":false,"rental_uris":{"android":"levelo://app?vid=25d2bc58-f6d3-4508-aa97-5261c6aa48a4","ios":"levelo://app?vid=25d2bc58-f6d3-4508-aa97-5261c6aa48a4"},"vehicle_type_id":"4","last_reported":1735124844,"current_range_meters":28800,"station_id":"ce4bh192rcd13ifvqdb0","pricing_plan_id":"cebpf4jnsgd1na2vs0mg"},{"bike_id":"842888b9-0281-4137-8179-95fdfc851120","system_id":"levelo_inurba_marseille","lat":43.26931,"lon":5.40249,"is_reserved":false,"is_disabled":false,"rental_uris":{"android":"levelo://app?vid=842888b9-0281-4137-8179-95fdfc851120","ios":"levelo://app?vid=842888b9-0281-4137-8179-95fdfc851120"},"vehicle_type_id":"4","last_reported":1735124844,"current_range_meters":32400,"station_id":"cjm6bp8fraef2m0cb0m0","pricing_plan_id":"cebpf4jnsgd1na2vs0mg"},{"bike_id":"d24bcf9e-7df9-4fc0-9736-a88fb5d67669","system_id":"levelo_inurba_marseille","lat":43.31111,"lon":5.3778,"is_reserved":false,"is_disabled":false,"rental_uris":{"android":"levelo://app?vid=d24bcf9e-7df9-4fc0-9736-a88fb5d67669","ios":"levelo://app?vid=d24bcf9e-7df9-4fc0-9736-a88fb5d67669"},"vehicle_type_id":"4","last_reported":1735124844,"current_range_meters":25200,"station_id":"ce4bgt92rcd13ifvqcg0","pricing_plan_id":"cebpf4jnsgd1na2vs0mg"},{"bike_id":"f83cfd96-0c12-4f42-bc5f-cf6123c2663b","system_id":"levelo_inurba_marseille","lat":43.28615,"lon":5.35106,"is_reserved":false,"is_disabled":false,"rental_uris":{"android":"levelo://app?vid=f83cfd96-0c12-4f42-bc5f-cf6123c2663b","ios":"levelo://app?vid=f83cfd96-0c12-4f42-bc5f-cf6123c2663b"},"vehicle_type_id":"4","last_reported":1735124844,"current_range_meters":35600,"station_id":"ce4bhch2rcd13ifvqeug","pricing_plan_id":"cebpf4jnsgd1na2vs0mg"},{"bike_id":"584301e6-2901-4c73-97f8-5c258dacc73a","system_id":"levelo_inurba_marseille","lat":43.29965,"lon":5.38549,"is_reserved":false,"is_disabled":false,"rental_uris":{"android":"levelo://app?vid=584301e6-2901-4c73-97f8-5c258dacc73a","ios":"levelo://app?vid=584301e6-2901-4c73-97f8-5c258dacc73a"},"vehicle_type_id":"4","last_reported":1735124844,"current_range_meters":38800,"station_id":"ce4bgj92rcd13ifvqbd0","pricing_plan_id":"cebpf4jnsgd1na2vs0mg"},{"bike_id":"97f6e8cc-9e8c-4973-a544-3868a1479b0e","system_id":"levelo_inurba_marseille","lat":43.279438,"lon":5.410444,"is_reserved":false,"is_disabled":false,"rental_uris":{"android":"levelo://app?vid=97f6e8cc-9e8c-4973-a544-3868a1479b0e","ios":"levelo://app?vid=97f6e8cc-9e8c-4973-a544-3868a1479b0e"},"vehicle_type_id":"4","last_reported":1735124844,"current_range_meters":34000,"station_id":"ce4bhnp2rcd13ifvqh0g","pricing_plan_id":"cebpf4jnsgd1na2vs0mg"},{"bike_id":"c05ccbbc-a658-4a8d-b90f-602ea4a0d491","system_id":"levelo_inurba_marseille","lat":43.28268,"lon":5.35065,"is_reserved":false,"is_disabled":false,"rental_uris":{"android":"levelo://app?vid=c05ccbbc-a658-4a8d-b90f-602ea4a0d491","ios":"levelo://app?vid=c05ccbbc-a658-4a8d-b90f-602ea4a0d491"},"vehicle_type_id":"4","last_reported":1735124844,"current_range_meters":38000,"station_id":"ce4bhbp2rcd13ifvqerg","pricing_plan_id":"cebpf4jnsgd1na2vs0mg"},{"bike_id":"4e80fb69-89fc-4bc8-b1e4-f13a99f2e910","system_id":"levelo_inurba_marseille","lat":43.28482,"lon":5.38554,"is_reserved":false,"is_disabled":false,"rental_uris":{"android":"levelo://app?vid=4e80fb69-89fc-4bc8-b1e4-f13a99f2e910","ios":"levelo://app?vid=4e80fb69-89fc-4bc8-b1e4-f13a99f2e910"},"vehicle_type_id":"4","last_reported":1735124844,"current_range_meters":38800,"station_id":"ce4bh8p2rcd13ifvqeb0","pricing_plan_id":"cebpf4jnsgd1na2vs0mg"},{"bike_id":"ec755b5e-7cd7-424c-a82a-ac46a18c1ee3","system_id":"levelo_inurba_marseille","lat":43.29842,"lon":5.36281,"is_reserved":false,"is_disabled":false,"rental_uris":{"android":"levelo://app?vid=ec755b5e-7cd7-424c-a82a-ac46a18c1ee3","ios":"levelo://app?vid=ec755b5e-7cd7-424c-a82a-ac46a18c1ee3"},"vehicle_type_id":"4","last_reported":1735124844,"current_range_meters":36400,"station_id":"ce4bgpp2rcd13ifvqc3g","pricing_plan_id":"cebpf4jnsgd1na2vs0mg"},{"bike_id":"77f5fffc-c744-479d-9950-42755b05996f","system_id":"levelo_inurba_marseille","lat":43.29167,"lon":5.37167,"is_reserved":false,"is_disabled":false,"rental_uris":{"android":"levelo://app?vid=77f5fffc-c744-479d-9950-42755b05996f","ios":"levelo://app?vid=77f5fffc-c744-479d-9950-42755b05996f"},"vehicle_type_id":"4","last_reported":1735124844,"current_range_meters":11200,"station_id":"ce4bha92rcd13ifvqeh0","pricing_plan_id":"cebpf4jnsgd1na2vs0mg"},{"bike_id":"bcb51fee-0272-4a71-b9bd-d89ff73c0efe","system_id":"levelo_inurba_marseille","lat":43.29712,"lon":5.36614,"is_reserved":false,"is_disabled":false,"rental_uris":{"android":"levelo://app?vid=bcb51fee-0272-4a71-b9bd-d89ff73c0efe","ios":"levelo://app?vid=bcb51fee-0272-4a71-b9bd-d89ff73c0efe"},"vehicle_type_id":"4","last_reported":1735124844,"current_range_meters":38800,"station_id":"ce4bgn12rcd13ifvqbt0","pricing_plan_id":"cebpf4jnsgd1na2vs0mg"},{"bike_id":"f8cbc69e-a439-4630-8f60-6e3171d704b7","system_id":"levelo_inurba_marseille","lat":43.28038,"lon":5.36945,"is_reserved":false,"is_disabled":false,"rental_uris":{"android":"levelo://app?vid=f8cbc69e-a439-4630-8f60-6e3171d704b7","ios":"levelo://app?vid=f8cbc69e-a439-4630-8f60-6e3171d704b7"},"vehicle_type_id":"4","last_reported":1735124844,"current_range_meters":22400,"station_id":"ce4bha12rcd13ifvqef0","pricing_plan_id":"cebpf4jnsgd1na2vs0mg"},{"bike_id":"bba99355-f08c-4669-a969-263595e9bc65","system_id":"levelo_inurba_marseille","lat":43.32483,"lon":5.36609,"is_reserved":false,"is_disabled":false,"rental_uris":{"android":"levelo://app?vid=bba99355-f08c-4669-a969-263595e9bc65","ios":"levelo://app?vid=bba99355-f08c-4669-a969-263595e9bc65"},"vehicle_type_id":"4","last_reported":1735124844,"current_range_meters":38800,"station_id":"ce4bhs12rcd13ifvqhvg","pricing_plan_id":"cebpf4jnsgd1na2vs0mg"},{"bike_id":"cab7ef8f-de6c-492d-8fd8-0a193ca8e3a7","system_id":"levelo_inurba_marseille","lat":43.307838,"lon":5.376504,"is_reserved":false,"is_disabled":false,"rental_uris":{"android":"levelo://app?vid=cab7ef8f-de6c-492d-8fd8-0a193ca8e3a7","ios":"levelo://app?vid=cab7ef8f-de6c-492d-8fd8-0a193ca8e3a7"},"vehicle_type_id":"4","last_reported":1735124844,"current_range_meters":36000,"station_id":"ce4bgv92rcd13ifvqcq0","pricing_plan_id":"cebpf4jnsgd1na2vs0mg"},{"bike_id":"6617bbcb-f7cf-4edc-a781-46ba013e5d50","system_id":"levelo_inurba_marseille","lat":43.29685,"lon":5.37302,"is_reserved":false,"is_disabled":false,"rental_uris":{"android":"levelo://app?vid=6617bbcb-f7cf-4edc-a781-46ba013e5d50","ios":"levelo://app?vid=6617bbcb-f7cf-4edc-a781-46ba013e5d50"},"vehicle_type_id":"4","last_reported":1735124844,"current_range_meters":38000,"station_id":"ce4bgk12rcd13ifvqbj0","pricing_plan_id":"cebpf4jnsgd1na2vs0mg"},{"bike_id":"dd55c862-7efa-48b0-9eaa-28fa09652d9e","system_id":"levelo_inurba_marseille","lat":43.29258,"lon":5.40915,"is_reserved":false,"is_disabled":false,"rental_uris":{"android":"levelo://app?vid=dd55c862-7efa-48b0-9eaa-28fa09652d9e","ios":"levelo://app?vid=dd55c862-7efa-48b0-9eaa-28fa09652d9e"},"vehicle_type_id":"4","last_reported":1735124844,"current_range_meters":36400,"station_id":"ce4bh192rcd13ifvqdc0","pricing_plan_id":"cebpf4jnsgd1na2vs0mg"},{"bike_id":"89c31185-79e8-41ba-aeec-7ee23fd07219","system_id":"levelo_inurba_marseille","lat":43.26955,"lon":5.38623,"is_reserved":false,"is_disabled":false,"rental_uris":{"android":"levelo://app?vid=89c31185-79e8-41ba-aeec-7ee23fd07219","ios":"levelo://app?vid=89c31185-79e8-41ba-aeec-7ee23fd07219"},"vehicle_type_id":"4","last_reported":1735124844,"current_range_meters":36800,"station_id":"ce4bhh92rcd13ifvqfh0","pricing_plan_id":"cebpf4jnsgd1na2vs0mg"},{"bike_id":"416ccd23-b5d7-41d8-8d7e-5d2e6c47904e","system_id":"levelo_inurba_marseille","lat":43.31504,"lon":5.37317,"is_reserved":false,"is_disabled":false,"rental_uris":{"android":"levelo://app?vid=416ccd23-b5d7-41d8-8d7e-5d2e6c47904e","ios":"levelo://app?vid=416ccd23-b5d7-41d8-8d7e-5d2e6c47904e"},"vehicle_type_id":"4","last_reported":1735124844,"current_range_meters":16000,"station_id":"ce4bgt12rcd13ifvqcd0","pricing_plan_id":"cebpf4jnsgd1na2vs0mg"},{"bike_id":"dad2569f-c6f1-49c8-b60e-8c397489fca6","system_id":"levelo_inurba_marseille","lat":43.30881,"lon":5.39672,"is_reserved":false,"is_disabled":false,"rental_uris":{"android":"levelo://app?vid=dad2569f-c6f1-49c8-b60e-8c397489fca6","ios":"levelo://app?vid=dad2569f-c6f1-49c8-b60e-8c397489fca6"},"vehicle_type_id":"4","last_reported":1735124844,"current_range_meters":39200,"station_id":"ce4bh012rcd13ifvqcv0","pricing_plan_id":"cebpf4jnsgd1na2vs0mg"},{"bike_id":"43791316-5bfa-4e92-9977-93ea84c06ca9","system_id":"levelo_inurba_marseille","lat":43.28726,"lon":5.37954,"is_reserved":false,"is_disabled":false,"rental_uris":{"android":"levelo://app?vid=43791316-5bfa-4e92-9977-93ea84c06ca9","ios":"levelo://app?vid=43791316-5bfa-4e92-9977-93ea84c06ca9"},"vehicle_type_id":"4","last_reported":1735124844,"current_range_meters":39200,"station_id":"ce4bh9p2rcd13ifvqec0","pricing_plan_id":"cebpf4jnsgd1na2vs0mg"},{"bike_id":"821b3406-1e98-4105-a8e8-ffa55fb5fb99","system_id":"levelo_inurba_marseille","lat":43.28103,"lon":5.37837,"is_reserved":false,"is_disabled":false,"rental_uris":{"android":"levelo://app?vid=821b3406-1e98-4105-a8e8-ffa55fb5fb99","ios":"levelo://app?vid=821b3406-1e98-4105-a8e8-ffa55fb5fb99"},"vehicle_type_id":"4","last_reported":1735124844,"current_range_meters":38000,"station_id":"ce4bha12rcd13ifvqee0","pricing_plan_id":"cebpf4jnsgd1na2vs0mg"},{"bike_id":"5d814436-4463-40fa-a5d6-db045f053cfd","system_id":"levelo_inurba_marseille","lat":43.29165,"lon":5.37159,"is_reserved":false,"is_disabled":false,"rental_uris":{"android":"levelo://app?vid=5d814436-4463-40fa-a5d6-db045f053cfd","ios":"levelo://app?vid=5d814436-4463-40fa-a5d6-db045f053cfd"},"vehicle_type_id":"4","last_reported":1735124844,"current_range_meters":38800,"station_id":"ce4bha92rcd13ifvqeh0","pricing_plan_id":"cebpf4jnsgd1na2vs0mg"},{"bike_id":"ac6c6830-0624-43f2-ba34-7921b8feb270","system_id":"levelo_inurba_marseille","lat":43.28473,"lon":5.38406,"is_reserved":false,"is_disabled":false,"rental_uris":{"android":"levelo://app?vid=ac6c6830-0624-43f2-ba34-7921b8feb270","ios":"levelo://app?vid=ac6c6830-0624-43f2-ba34-7921b8feb270"},"vehicle_type_id":"4","last_reported":1735124844,"current_range_meters":38800,"station_id":"ce4bh512rcd13ifvqe3g","pricing_plan_id":"cebpf4jnsgd1na2vs0mg"},{"bike_id":"b5e06498-9488-4453-8952-f95068bd9205","system_id":"levelo_inurba_marseille","lat":43.31524,"lon":5.38041,"is_reserved":false,"is_disabled":false,"rental_uris":{"android":"levelo://app?vid=b5e06498-9488-4453-8952-f95068bd9205","ios":"levelo://app?vid=b5e06498-9488-4453-8952-f95068bd9205"},"vehicle_type_id":"4","last_reported":1735124844,"current_range_meters":38800,"station_id":"ce4bhsp2rcd13ifvqi50","pricing_plan_id":"cebpf4jnsgd1na2vs0mg"},{"bike_id":"f61a06c9-fd82-481a-9ee7-83b9d6c27ba2","system_id":"levelo_inurba_marseille","lat":43.30287,"lon":5.37723,"is_reserved":false,"is_disabled":false,"rental_uris":{"android":"levelo://app?vid=f61a06c9-fd82-481a-9ee7-83b9d6c27ba2","ios":"levelo://app?vid=f61a06c9-fd82-481a-9ee7-83b9d6c27ba2"},"vehicle_type_id":"4","last_reported":1735124844,"current_range_meters":38400,"station_id":"ce4bguh2rcd13ifvqcj0","pricing_plan_id":"cebpf4jnsgd1na2vs0mg"},{"bike_id":"dac94ecf-3203-4c89-acc0-21c14e979588","system_id":"levelo_inurba_marseille","lat":43.266798,"lon":5.382774,"is_reserved":false,"is_disabled":false,"rental_uris":{"android":"levelo://app?vid=dac94ecf-3203-4c89-acc0-21c14e979588","ios":"levelo://app?vid=dac94ecf-3203-4c89-acc0-21c14e979588"},"vehicle_type_id":"4","last_reported":1735124844,"current_range_meters":11600,"station_id":"ce4bhg92rcd13ifvqf90","pricing_plan_id":"cebpf4jnsgd1na2vs0mg"},{"bike_id":"15a187e8-074b-4895-a1fd-e437bbd4ae61","system_id":"levelo_inurba_marseille","lat":43.30453,"lon":5.37908,"is_reserved":false,"is_disabled":false,"rental_uris":{"android":"levelo://app?vid=15a187e8-074b-4895-a1fd-e437bbd4ae61","ios":"levelo://app?vid=15a187e8-074b-4895-a1fd-e437bbd4ae61"},"vehicle_type_id":"4","last_reported":1735124844,"current_range_meters":28800,"station_id":"ce4bgup2rcd13ifvqcn0","pricing_plan_id":"cebpf4jnsgd1na2vs0mg"},{"bike_id":"1db11b61-126e-4de4-8c53-71c6f93d9db8","system_id":"levelo_inurba_marseille","lat":43.30891,"lon":5.37195,"is_reserved":false,"is_disabled":false,"rental_uris":{"android":"levelo://app?vid=1db11b61-126e-4de4-8c53-71c6f93d9db8","ios":"levelo://app?vid=1db11b61-126e-4de4-8c53-71c6f93d9db8"},"vehicle_type_id":"4","last_reported":1735124844,"current_range_meters":38800,"station_id":"ce4bguh2rcd13ifvqckg","pricing_plan_id":"cebpf4jnsgd1na2vs0mg"},{"bike_id":"aeb221a7-e62a-40a2-86dc-541ef27f513a","system_id":"levelo_inurba_marseille","lat":43.30139,"lon":5.39886,"is_reserved":false,"is_disabled":false,"rental_uris":{"android":"levelo://app?vid=aeb221a7-e62a-40a2-86dc-541ef27f513a","ios":"levelo://app?vid=aeb221a7-e62a-40a2-86dc-541ef27f513a"},"vehicle_type_id":"4","last_reported":1735124844,"current_range_meters":38800,"station_id":"ce4bh0h2rcd13ifvqd40","pricing_plan_id":"cebpf4jnsgd1na2vs0mg"},{"bike_id":"3afb79f1-a453-4cb4-acfa-23be6fb68a83","system_id":"levelo_inurba_marseille","lat":43.31271,"lon":5.40168,"is_reserved":false,"is_disabled":true,"rental_uris":{"android":"levelo://app?vid=3afb79f1-a453-4cb4-acfa-23be6fb68a83","ios":"levelo://app?vid=3afb79f1-a453-4cb4-acfa-23be6fb68a83"},"vehicle_type_id":"4","last_reported":1735124844,"current_range_meters":33600,"station_id":"ce4bh092rcd13ifvqd30","pricing_plan_id":"cebpf4jnsgd1na2vs0mg"},{"bike_id":"348acd46-babf-4ab1-9a2c-ddb88be5dfe3","system_id":"levelo_inurba_marseille","lat":43.30874,"lon":5.39645,"is_reserved":false,"is_disabled":false,"rental_uris":{"android":"levelo://app?vid=348acd46-babf-4ab1-9a2c-ddb88be5dfe3","ios":"levelo://app?vid=348acd46-babf-4ab1-9a2c-ddb88be5dfe3"},"vehicle_type_id":"4","last_reported":1735124844,"current_range_meters":22800,"station_id":"ce4bh012rcd13ifvqcv0","pricing_plan_id":"cebpf4jnsgd1na2vs0mg"},{"bike_id":"79d26f0a-f7a8-4d99-a261-a75207c7170e","system_id":"levelo_inurba_marseille","lat":43.2707,"lon":5.42277,"is_reserved":false,"is_disabled":false,"rental_uris":{"android":"levelo://app?vid=79d26f0a-f7a8-4d99-a261-a75207c7170e","ios":"levelo://app?vid=79d26f0a-f7a8-4d99-a261-a75207c7170e"},"vehicle_type_id":"4","last_reported":1735124844,"current_range_meters":20800,"station_id":"ce4bhk92rcd13ifvqgb0","pricing_plan_id":"cebpf4jnsgd1na2vs0mg"},{"bike_id":"b2323c74-f019-4afb-a7cf-3222594797dc","system_id":"levelo_inurba_marseille","lat":43.3133,"lon":5.39693,"is_reserved":false,"is_disabled":false,"rental_uris":{"android":"levelo://app?vid=b2323c74-f019-4afb-a7cf-3222594797dc","ios":"levelo://app?vid=b2323c74-f019-4afb-a7cf-3222594797dc"},"vehicle_type_id":"4","last_reported":1735124844,"current_range_meters":38800,"station_id":"ce4bgvp2rcd13ifvqcu0","pricing_plan_id":"cebpf4jnsgd1na2vs0mg"},{"bike_id":"82ed2458-4379-4d1c-bf09-5928c010c4d9","system_id":"levelo_inurba_marseille","lat":43.275761,"lon":5.423821,"is_reserved":false,"is_disabled":false,"rental_uris":{"android":"levelo://app?vid=82ed2458-4379-4d1c-bf09-5928c010c4d9","ios":"levelo://app?vid=82ed2458-4379-4d1c-bf09-5928c010c4d9"},"vehicle_type_id":"4","last_reported":1735124844,"current_range_meters":6800,"station_id":"ce4bhn92rcd13ifvqgrg","pricing_plan_id":"cebpf4jnsgd1na2vs0mg"},{"bike_id":"f5785e76-582b-4626-9d3e-1206d1517ecd","system_id":"levelo_inurba_marseille","lat":43.30207,"lon":5.39468,"is_reserved":false,"is_disabled":false,"rental_uris":{"android":"levelo://app?vid=f5785e76-582b-4626-9d3e-1206d1517ecd","ios":"levelo://app?vid=f5785e76-582b-4626-9d3e-1206d1517ecd"},"vehicle_type_id":"4","last_reported":1735124844,"current_range_meters":37600,"station_id":"ce4bh0p2rcd13ifvqd70","pricing_plan_id":"cebpf4jnsgd1na2vs0mg"},{"bike_id":"012a7886-754a-458d-baaa-135571da9a55","system_id":"levelo_inurba_marseille","lat":43.337444,"lon":5.374475,"is_reserved":false,"is_disabled":false,"rental_uris":{"android":"levelo://app?vid=012a7886-754a-458d-baaa-135571da9a55","ios":"levelo://app?vid=012a7886-754a-458d-baaa-135571da9a55"},"vehicle_type_id":"4","last_reported":1735124844,"current_range_meters":25600,"station_id":"","pricing_plan_id":"cebpf4jnsgd1na2vs0mg"},{"bike_id":"5ca7df99-195f-4dfa-a8db-1e8a3d21d7fb","system_id":"levelo_inurba_marseille","lat":43.27204,"lon":5.39194,"is_reserved":false,"is_disabled":false,"rental_uris":{"android":"levelo://app?vid=5ca7df99-195f-4dfa-a8db-1e8a3d21d7fb","ios":"levelo://app?vid=5ca7df99-195f-4dfa-a8db-1e8a3d21d7fb"},