{"last_updated":1731571996,"ttl":60,"version":"2.2","data":{"bikes":[{"bike_id":"d8eab811-b3de-4084-ac8d-adbf353e0565","system_id":"levelo_inurba_marseille","lat":43.24549,"lon":5.3952,"is_reserved":false,"is_disabled":false,"rental_uris":{"android":"levelo://app?vid=d8eab811-b3de-4084-ac8d-adbf353e0565","ios":"levelo://app?vid=d8eab811-b3de-4084-ac8d-adbf353e0565"},"vehicle_type_id":"4","last_reported":1731571996,"current_range_meters":28000,"station_id":"ce4bhlp2rcd13ifvqgjg","pricing_plan_id":"cebpf4jnsgd1na2vs0mg"},{"bike_id":"4309b2cb-823b-4911-b741-11a907a24c99","system_id":"levelo_inurba_marseille","lat":43.29433,"lon":5.39743,"is_reserved":false,"is_disabled":false,"rental_uris":{"android":"levelo://app?vid=4309b2cb-823b-4911-b741-11a907a24c99","ios":"levelo://app?vid=4309b2cb-823b-4911-b741-11a907a24c99"},"vehicle_type_id":"4","last_reported":1731571996,"current_range_meters":30400,"station_id":"ce4bh3h2rcd13ifvqdo0","pricing_plan_id":"cebpf4jnsgd1na2vs0mg"},{"bike_id":"d72e41e0-b2be-44d4-9a5d-48e19d343592","system_id":"levelo_inurba_marseille","lat":43.31348,"lon":5.3673,"is_reserved":false,"is_disabled":false,"rental_uris":{"android":"levelo://app?vid=d72e41e0-b2be-44d4-9a5d-48e19d343592","ios":"levelo://app?vid=d72e41e0-b2be-44d4-9a5d-48e19d343592"},"vehicle_type_id":"4","last_reported":1731571996,"current_range_meters":32400,"station_id":"ce4bgr92rcd13ifvqc6g","pricing_plan_id":"cebpf4jnsgd1na2vs0mg"},{"bike_id":"e190ae6a-4643-48b6-83f7-3b9af850ac2c","system_id":"levelo_inurba_marseille","lat":43.30889,"lon":5.39633,"is_reserved":false,"is_disabled":false,"rental_uris":{"android":"levelo://app?vid=e190ae6a-4643-48b6-83f7-3b9af850ac2c","ios":"levelo://app?vid=e190ae6a-4643-48b6-83f7-3b9af850ac2c"},"vehicle_type_id":"4","last_reported":1731571996,"current_range_meters":25600,"station_id":"ce4bh012rcd13ifvqcv0","pricing_plan_id":"cebpf4jnsgd1na2vs0mg"},{"bike_id":"a65636a1-9916-40c3-9c94-f5277a18a30b","system_id":"levelo_inurba_marseille","lat":43.31225,"lon":5.36867,"is_reserved":false,"is_disabled":false,"rental_uris":{"android":"levelo://app?vid=a65636a1-9916-40c3-9c94-f5277a18a30b","ios":"levelo://app?vid=a65636a1-9916-40c3-9c94-f5277a18a30b"},"vehicle_type_id":"4","last_reported":1731571996,"current_range_meters":28000,"station_id":"ce4bgl92rcd13ifvqbq0","pricing_plan_id":"cebpf4jnsgd1na2vs0mg"},{"bike_id":"031a0ee1-9b61-4ad3-8ccf-1548b59049f9","system_id":"levelo_inurba_marseille","lat":43.30946,"lon":5.39034,"is_reserved":false,"is_disabled":false,"rental_uris":{"android":"levelo://app?vid=031a0ee1-9b61-4ad3-8ccf-1548b59049f9","ios":"levelo://app?vid=031a0ee1-9b61-4ad3-8ccf-1548b59049f9"},"vehicle_type_id":"4","last_reported":1731571996,"current_range_meters":34800,"station_id":"ce4bgup2rcd13ifvqco0","pricing_plan_id":"cebpf4jnsgd1na2vs0mg"},{"bike_id":"7e2766db-455e-43cd-949c-f290a2177e18","system_id":"levelo_inurba_marseille","lat":43.30275,"lon":5.37709,"is_reserved":false,"is_disabled":false,"rental_uris":{"android":"levelo://app?vid=7e2766db-455e-43cd-949c-f290a2177e18","ios":"levelo://app?vid=7e2766db-455e-43cd-949c-f290a2177e18"},"vehicle_type_id":"4","last_reported":1731571996,"current_range_meters":29600,"station_id":"ce4bguh2rcd13ifvqcj0","pricing_plan_id":"cebpf4jnsgd1na2vs0mg"},{"bike_id":"0319b7e6-fba8-483e-89de-ff2527279bb3","system_id":"levelo_inurba_marseille","lat":43.30213,"lon":5.39471,"is_reserved":false,"is_disabled":false,"rental_uris":{"android":"levelo://app?vid=0319b7e6-fba8-483e-89de-ff2527279bb3","ios":"levelo://app?vid=0319b7e6-fba8-483e-89de-ff2527279bb3"},"vehicle_type_id":"4","last_reported":1731571996,"current_range_meters":16800,"station_id":"ce4bh0p2rcd13ifvqd70","pricing_plan_id":"cebpf4jnsgd1na2vs0mg"},{"bike_id":"eb66c83e-9c22-451e-9a96-11fcf0b6a22c","system_id":"levelo_inurba_marseille","lat":43.31848,"lon":5.38842,"is_reserved":false,"is_disabled":false,"rental_uris":{"android":"levelo://app?vid=eb66c83e-9c22-451e-9a96-11fcf0b6a22c","ios":"levelo://app?vid=eb66c83e-9c22-451e-9a96-11fcf0b6a22c"},"vehicle_type_id":"4","last_reported":1731571996,"current_range_meters":36800,"station_id":"","pricing_plan_id":"cebpf4jnsgd1na2vs0mg"},{"bike_id":"77b69f18-7c6a-412a-9655-4f3da3f95e57","system_id":"levelo_inurba_marseille","lat":43.26025,"lon":5.37551,"is_reserved":false,"is_disabled":false,"rental_uris":{"android":"levelo://app?vid=77b69f18-7c6a-412a-9655-4f3da3f95e57","ios":"levelo://app?vid=77b69f18-7c6a-412a-9655-4f3da3f95e57"},"vehicle_type_id":"4","last_reported":1731571996,"current_range_meters":38400,"station_id":"ce4bhgh2rcd13ifvqfa0","pricing_plan_id":"cebpf4jnsgd1na2vs0mg"},{"bike_id":"a789c85f-e51c-488c-b82a-114415ab3524","system_id":"levelo_inurba_marseille","lat":43.25088,"lon":5.39521,"is_reserved":false,"is_disabled":false,"rental_uris":{"android":"levelo://app?vid=a789c85f-e51c-488c-b82a-114415ab3524","ios":"levelo://app?vid=a789c85f-e51c-488c-b82a-114415ab3524"},"vehicle_type_id":"4","last_reported":1731571996,"current_range_meters":21600,"station_id":"ce4bhm12rcd13ifvqgkg","pricing_plan_id":"cebpf4jnsgd1na2vs0mg"},{"bike_id":"be9a7d5c-a83f-41ba-b953-8e7db0668e00","system_id":"levelo_inurba_marseille","lat":43.28614,"lon":5.3706,"is_reserved":false,"is_disabled":false,"rental_uris":{"android":"levelo://app?vid=be9a7d5c-a83f-41ba-b953-8e7db0668e00","ios":"levelo://app?vid=be9a7d5c-a83f-41ba-b953-8e7db0668e00"},"vehicle_type_id":"4","last_reported":1731571996,"current_range_meters":12400,"station_id":"ce4bht12rcd13ifvqi60","pricing_plan_id":"cebpf4jnsgd1na2vs0mg"},{"bike_id":"ae292185-8e91-4db6-a612-c3563674c7fa","system_id":"levelo_inurba_marseille","lat":43.31748,"lon":5.39029,"is_reserved":false,"is_disabled":false,"rental_uris":{"android":"levelo://app?vid=ae292185-8e91-4db6-a612-c3563674c7fa","ios":"levelo://app?vid=ae292185-8e91-4db6-a612-c3563674c7fa"},"vehicle_type_id":"4","last_reported":1731571996,"current_range_meters":22400,"station_id":"ce4bhqp2rcd13ifvqhng","pricing_plan_id":"cebpf4jnsgd1na2vs0mg"},{"bike_id":"91fe36a8-bc4f-4b08-8287-b0444a16f338","system_id":"levelo_inurba_marseille","lat":43.23143,"lon":5.43721,"is_reserved":false,"is_disabled":false,"rental_uris":{"android":"levelo://app?vid=91fe36a8-bc4f-4b08-8287-b0444a16f338","ios":"levelo://app?vid=91fe36a8-bc4f-4b08-8287-b0444a16f338"},"vehicle_type_id":"4","last_reported":1731571996,"current_range_meters":38800,"station_id":"ce4bhmp2rcd13ifvqgog","pricing_plan_id":"cebpf4jnsgd1na2vs0mg"},{"bike_id":"8472a442-1b27-4429-9cbb-acb2837e6d0f","system_id":"levelo_inurba_marseille","lat":43.24086,"lon":5.37747,"is_reserved":false,"is_disabled":false,"rental_uris":{"android":"levelo://app?vid=8472a442-1b27-4429-9cbb-acb2837e6d0f","ios":"levelo://app?vid=8472a442-1b27-4429-9cbb-acb2837e6d0f"},"vehicle_type_id":"4","last_reported":1731571996,"current_range_meters":24800,"station_id":"ce4bhnp2rcd13ifvqgvg","pricing_plan_id":"cebpf4jnsgd1na2vs0mg"},{"bike_id":"6db2759e-068c-4cd3-a449-023920145aa7","system_id":"levelo_inurba_marseille","lat":43.24186,"lon":5.39721,"is_reserved":false,"is_disabled":false,"rental_uris":{"android":"levelo://app?vid=6db2759e-068c-4cd3-a449-023920145aa7","ios":"levelo://app?vid=6db2759e-068c-4cd3-a449-023920145aa7"},"vehicle_type_id":"4","last_reported":1731571996,"current_range_meters":25200,"station_id":"ce4bhn12rcd13ifvqgpg","pricing_plan_id":"cebpf4jnsgd1na2vs0mg"},{"bike_id":"823a3e5e-f98f-4f2e-bd7c-049f89ba2903","system_id":"levelo_inurba_marseille","lat":43.29221,"lon":5.36062,"is_reserved":false,"is_disabled":false,"rental_uris":{"android":"levelo://app?vid=823a3e5e-f98f-4f2e-bd7c-049f89ba2903","ios":"levelo://app?vid=823a3e5e-f98f-4f2e-bd7c-049f89ba2903"},"vehicle_type_id":"4","last_reported":1731571996,"current_range_meters":38800,"station_id":"ce4bhbh2rcd13ifvqeqg","pricing_plan_id":"cebpf4jnsgd1na2vs0mg"},{"bike_id":"f7c030f1-0f64-44bf-a61c-6bf0d6aa2bb4","system_id":"levelo_inurba_marseille","lat":43.29618,"lon":5.37739,"is_reserved":false,"is_disabled":false,"rental_uris":{"android":"levelo://app?vid=f7c030f1-0f64-44bf-a61c-6bf0d6aa2bb4","ios":"levelo://app?vid=f7c030f1-0f64-44bf-a61c-6bf0d6aa2bb4"},"vehicle_type_id":"4","last_reported":1731571996,"current_range_meters":10000,"station_id":"ce4bgi92rcd13ifvqb90","pricing_plan_id":"cebpf4jnsgd1na2vs0mg"},{"bike_id":"dcd38d4b-307c-44aa-b09c-13a07e26f7c8","system_id":"levelo_inurba_marseille","lat":43.2706,"lon":5.42269,"is_reserved":false,"is_disabled":false,"rental_uris":{"android":"levelo://app?vid=dcd38d4b-307c-44aa-b09c-13a07e26f7c8","ios":"levelo://app?vid=dcd38d4b-307c-44aa-b09c-13a07e26f7c8"},"vehicle_type_id":"4","last_reported":1731571996,"current_range_meters":19200,"station_id":"ce4bhk92rcd13ifvqgb0","pricing_plan_id":"cebpf4jnsgd1na2vs0mg"},{"bike_id":"3a0419a3-13ed-4d36-8acb-56d7e9e39621","system_id":"levelo_inurba_marseille","lat":43.29848,"lon":5.36274,"is_reserved":false,"is_disabled":false,"rental_uris":{"android":"levelo://app?vid=3a0419a3-13ed-4d36-8acb-56d7e9e39621","ios":"levelo://app?vid=3a0419a3-13ed-4d36-8acb-56d7e9e39621"},"vehicle_type_id":"4","last_reported":1731571996,"current_range_meters":38800,"station_id":"ce4bgpp2rcd13ifvqc3g","pricing_plan_id":"cebpf4jnsgd1na2vs0mg"},{"bike_id":"6c4ab255-05ef-459b-96de-e341ddcfa5c0","system_id":"levelo_inurba_marseille","lat":43.23151,"lon":5.4372,"is_reserved":false,"is_disabled":false,"rental_uris":{"android":"levelo://app?vid=6c4ab255-05ef-459b-96de-e341ddcfa5c0","ios":"levelo://app?vid=6c4ab255-05ef-459b-96de-e341ddcfa5c0"},"vehicle_type_id":"4","last_reported":1731571996,"current_range_meters":12400,"station_id":"ce4bhmp2rcd13ifvqgog","pricing_plan_id":"cebpf4jnsgd1na2vs0mg"},{"bike_id":"cf888350-ebc6-439d-aaa6-d80c3d830af2","system_id":"levelo_inurba_marseille","lat":43.28157,"lon":5.42636,"is_reserved":false,"is_disabled":false,"rental_uris":{"android":"levelo://app?vid=cf888350-ebc6-439d-aaa6-d80c3d830af2","ios":"levelo://app?vid=cf888350-ebc6-439d-aaa6-d80c3d830af2"},"vehicle_type_id":"4","last_reported":1731571996,"current_range_meters":38800,"station_id":"ce4bhnh2rcd13ifvqgug","pricing_plan_id":"cebpf4jnsgd1na2vs0mg"},{"bike_id":"10f83ea1-21fc-49d5-934a-4b6f18d7a2b7","system_id":"levelo_inurba_marseille","lat":43.336058,"lon":5.410229,"is_reserved":false,"is_disabled":false,"rental_uris":{"android":"levelo://app?vid=10f83ea1-21fc-49d5-934a-4b6f18d7a2b7","ios":"levelo://app?vid=10f83ea1-21fc-49d5-934a-4b6f18d7a2b7"},"vehicle_type_id":"4","last_reported":1731571996,"current_range_meters":38800,"station_id":"ce4bhqh2rcd13ifvqhmg","pricing_plan_id":"cebpf4jnsgd1na2vs0mg"},{"bike_id":"04f9f186-d2bb-4d9d-b848-53913f51cc43","system_id":"levelo_inurba_marseille","lat":43.29599,"lon":5.37679,"is_reserved":false,"is_disabled":false,"rental_uris":{"android":"levelo://app?vid=04f9f186-d2bb-4d9d-b848-53913f51cc43","ios":"levelo://app?vid=04f9f186-d2bb-4d9d-b848-53913f51cc43"},"vehicle_type_id":"4","last_reported":1731571996,"current_range_meters":21600,"station_id":"ce4bhb12rcd13ifvqel0","pricing_plan_id":"cebpf4jnsgd1na2vs0mg"},{"bike_id":"4b66fe0e-1c21-4673-aae3-433ab3e23357","system_id":"levelo_inurba_marseille","lat":43.31347,"lon":5.36729,"is_reserved":false,"is_disabled":false,"rental_uris":{"android":"levelo://app?vid=4b66fe0e-1c21-4673-aae3-433ab3e23357","ios":"levelo://app?vid=4b66fe0e-1c21-4673-aae3-433ab3e23357"},"vehicle_type_id":"4","last_reported":1731571996,"current_range_meters":8400,"station_id":"ce4bgr92rcd13ifvqc6g","pricing_plan_id":"cebpf4jnsgd1na2vs0mg"},{"bike_id":"4a74f469-1d99-48ee-a8ca-9199898c00a4","system_id":"levelo_inurba_marseille","lat":43.23199,"lon":5.35547,"is_reserved":false,"is_disabled":false,"rental_uris":{"android":"levelo://app?vid=4a74f469-1d99-48ee-a8ca-9199898c00a4","ios":"levelo://app?vid=4a74f469-1d99-48ee-a8ca-9199898c00a4"},"vehicle_type_id":"4","last_reported":1731571996,"current_range_meters":22800,"station_id":"ce4bhu92rcd13ifvqi70","pricing_plan_id":"cebpf4jnsgd1na2vs0mg"},{"bike_id":"9c0ae0ed-55d8-4bff-bceb-fa6ceec7a7b4","system_id":"levelo_inurba_marseille","lat":43.29575,"lon":5.39988,"is_reserved":false,"is_disabled":false,"rental_uris":{"android":"levelo://app?vid=9c0ae0ed-55d8-4bff-bceb-fa6ceec7a7b4","ios":"levelo://app?vid=9c0ae0ed-55d8-4bff-bceb-fa6ceec7a7b4"},"vehicle_type_id":"4","last_reported":1731571996,"current_range_meters":29600,"station_id":"ce4bh312rcd13ifvqdj0","pricing_plan_id":"cebpf4jnsgd1na2vs0mg"},{"bike_id":"304bc20b-dec5-43dd-9211-c6d16fa3594e","system_id":"levelo_inurba_marseille","lat":43.30541,"lon":5.36717,"is_reserved":false,"is_disabled":false,"rental_uris":{"android":"levelo://app?vid=304bc20b-dec5-43dd-9211-c6d16fa3594e","ios":"levelo://app?vid=304bc20b-dec5-43dd-9211-c6d16fa3594e"},"vehicle_type_id":"4","last_reported":1731571996,"current_range_meters":20400,"station_id":"ce4bgrp2rcd13ifvqc9g","pricing_plan_id":"cebpf4jnsgd1na2vs0mg"},{"bike_id":"14ab9193-04bb-4abc-887b-1cab1a7e8170","system_id":"levelo_inurba_marseille","lat":43.24075,"lon":5.37758,"is_reserved":false,"is_disabled":false,"rental_uris":{"android":"levelo://app?vid=14ab9193-04bb-4abc-887b-1cab1a7e8170","ios":"levelo://app?vid=14ab9193-04bb-4abc-887b-1cab1a7e8170"},"vehicle_type_id":"4","last_reported":1731571996,"current_range_meters":32800,"station_id":"ce4bhnp2rcd13ifvqgvg","pricing_plan_id":"cebpf4jnsgd1na2vs0mg"},{"bike_id":"c0d36329-4d48-4aa1-bc06-ca1aa8cf1f4d","system_id":"levelo_inurba_marseille","lat":43.29233,"lon":5.36069,"is_reserved":false,"is_disabled":false,"rental_uris":{"android":"levelo://app?vid=c0d36329-4d48-4aa1-bc06-ca1aa8cf1f4d","ios":"levelo://app?vid=c0d36329-4d48-4aa1-bc06-ca1aa8cf1f4d"},"vehicle_type_id":"4","last_reported":1731571996,"current_range_meters":28800,"station_id":"ce4bhbh2rcd13ifvqeqg","pricing_plan_id":"cebpf4jnsgd1na2vs0mg"},{"bike_id":"3668eb37-2c3a-4a2e-a271-4967dc4f81e2","system_id":"levelo_inurba_marseille","lat":43.29577,"lon":5.3751,"is_reserved":false,"is_disabled":false,"rental_uris":{"android":"levelo://app?vid=3668eb37-2c3a-4a2e-a271-4967dc4f81e2","ios":"levelo://app?vid=3668eb37-2c3a-4a2e-a271-4967dc4f81e2"},"vehicle_type_id":"4","last_reported":1731571996,"current_range_meters":36800,"station_id":"ce4bgh92rcd13ifvqb50","pricing_plan_id":"cebpf4jnsgd1na2vs0mg"},{"bike_id":"4b1abe0a-9f48-4536-a8fc-6a4c289408b8","system_id":"levelo_inurba_marseille","lat":43.30542,"lon":5.3671,"is_reserved":false,"is_disabled":false,"rental_uris":{"android":"levelo://app?vid=4b1abe0a-9f48-4536-a8fc-6a4c289408b8","ios":"levelo://app?vid=4b1abe0a-9f48-4536-a8fc-6a4c289408b8"},"vehicle_type_id":"4","last_reported":1731571996,"current_range_meters":38800,"station_id":"ce4bgrp2rcd13ifvqc9g","pricing_plan_id":"cebpf4jnsgd1na2vs0mg"},{"bike_id":"47c967a5-3c8a-4d73-a522-90111361a0a0","system_id":"levelo_inurba_marseille","lat":43.3248,"lon":5.36574,"is_reserved":false,"is_disabled":false,"rental_uris":{"android":"levelo://app?vid=47c967a5-3c8a-4d73-a522-90111361a0a0","ios":"levelo://app?vid=47c967a5-3c8a-4d73-a522-90111361a0a0"},"vehicle_type_id":"4","last_reported":1731571996,"current_range_meters":39200,"station_id":"ce4bhs12rcd13ifvqhvg","pricing_plan_id":"cebpf4jnsgd1na2vs0mg"},{"bike_id":"b401526e-9797-412b-a024-2aeff2654ce6","system_id":"levelo_inurba_marseille","lat":43.27939,"lon":5.35506,"is_reserved":false,"is_disabled":false,"rental_uris":{"android":"levelo://app?vid=b401526e-9797-412b-a024-2aeff2654ce6","ios":"levelo://app?vid=b401526e-9797-412b-a024-2aeff2654ce6"},"vehicle_type_id":"4","last_reported":1731571996,"current_range_meters":6400,"station_id":"","pricing_plan_id":"cebpf4jnsgd1na2vs0mg"},{"bike_id":"47c8a08b-f35d-4f0c-871e-4809f3d10cfd","system_id":"levelo_inurba_marseille","lat":43.26947,"lon":5.38627,"is_reserved":false,"is_disabled":false,"rental_uris":{"android":"levelo://app?vid=47c8a08b-f35d-4f0c-871e-4809f3d10cfd","ios":"levelo://app?vid=47c8a08b-f35d-4f0c-871e-4809f3d10cfd"},"vehicle_type_id":"4","last_reported":1731571996,"current_range_meters":36000,"station_id":"ce4bhh92rcd13ifvqfh0","pricing_plan_id":"cebpf4jnsgd1na2vs0mg"},{"bike_id":"884c3eea-4219-4f9c-954c-8a12e6e92d39","system_id":"levelo_inurba_marseille","lat":43.26959,"lon":5.38633,"is_reserved":false,"is_disabled":false,"rental_uris":{"android":"levelo://app?vid=884c3eea-4219-4f9c-954c-8a12e6e92d39","ios":"levelo://app?vid=884c3eea-4219-4f9c-954c-8a12e6e92d39"},"vehicle_type_id":"4","last_reported":1731571996,"current_range_meters":26800,"station_id":"ce4bhh92rcd13ifvqfh0","pricing_plan_id":"cebpf4jnsgd1na2vs0mg"},{"bike_id":"67f9d1dc-e675-43d5-9104-13f71a1dde06","system_id":"levelo_inurba_marseille","lat":43.29978,"lon":5.37184,"is_reserved":false,"is_disabled":false,"rental_uris":{"android":"levelo://app?vid=67f9d1dc-e675-43d5-9104-13f71a1dde06","ios":"levelo://app?vid=67f9d1dc-e675-43d5-9104-13f71a1dde06"},"vehicle_type_id":"4","last_reported":1731571996,"current_range_meters":8000,"station_id":"ce4bgr92rcd13ifvqc7g","pricing_plan_id":"cebpf4jnsgd1na2vs0mg"},{"bike_id":"996e052a-14b0-431f-8064-ab4fec56dc82","system_id":"levelo_inurba_marseille","lat":43.29716,"lon":5.37692,"is_reserved":false,"is_disabled":false,"rental_uris":{"android":"levelo://app?vid=996e052a-14b0-431f-8064-ab4fec56dc82","ios":"levelo://app?vid=996e052a-14b0-431f-8064-ab4fec56dc82"},"vehicle_type_id":"4","last_reported":1731571996,"current_range_meters":22000,"station_id":"ce4bgkh2rcd13ifvqbl0","pricing_plan_id":"cebpf4jnsgd1na2vs0mg"},{"bike_id":"d2e51693-906f-4e59-a304-0537c6274510","system_id":"levelo_inurba_marseille","lat":43.23151,"lon":5.4372,"is_reserved":false,"is_disabled":false,"rental_uris":{"android":"levelo://app?vid=d2e51693-906f-4e59-a304-0537c6274510","ios":"levelo://app?vid=d2e51693-906f-4e59-a304-0537c6274510"},"vehicle_type_id":"4","last_reported":1731571996,"current_range_meters":19600,"station_id":"ce4bhmp2rcd13ifvqgog","pricing_plan_id":"cebpf4jnsgd1na2vs0mg"},{"bike_id":"94db2fb9-cf4a-480e-ba5d-fd4c37a2218a","system_id":"levelo_inurba_marseille","lat":43.31759,"lon":5.39019,"is_reserved":false,"is_disabled":false,"rental_uris":{"android":"levelo://app?vid=94db2fb9-cf4a-480e-ba5d-fd4c37a2218a","ios":"levelo://app?vid=94db2fb9-cf4a-480e-ba5d-fd4c37a2218a"},"vehicle_type_id":"4","last_reported":1731571996,"current_range_meters":36400,"station_id":"ce4bhqp2rcd13ifvqhng","pricing_plan_id":"cebpf4jnsgd1na2vs0mg"},{"bike_id":"d27770cd-6ecf-4dd3-9188-7bdfaca7efe4","system_id":"levelo_inurba_marseille","lat":43.24184,"lon":5.39719,"is_reserved":false,"is_disabled":false,"rental_uris":{"android":"levelo://app?vid=d27770cd-6ecf-4dd3-9188-7bdfaca7efe4","ios":"levelo://app?vid=d27770cd-6ecf-4dd3-9188-7bdfaca7efe4"},"vehicle_type_id":"4","last_reported":1731571996,"current_range_meters":20000,"station_id":"ce4bhn12rcd13ifvqgpg","pricing_plan_id":"cebpf4jnsgd1na2vs0mg"},{"bike_id":"38b3fd18-cd95-456d-9dca-222b20d3ce21","system_id":"levelo_inurba_marseille","lat":43.29198,"lon":5.39319,"is_reserved":false,"is_disabled":false,"rental_uris":{"android":"levelo://app?vid=38b3fd18-cd95-456d-9dca-222b20d3ce21","ios":"levelo://app?vid=38b3fd18-cd95-456d-9dca-222b20d3ce21"},"vehicle_type_id":"4","last_reported":1731571996,"current_range_meters":38000,"station_id":"ce4bh192rcd13ifvqdd0","pricing_plan_id":"cebpf4jnsgd1na2vs0mg"},{"bike_id":"75801e28-b69b-4a5e-945c-714926c1ddf7","system_id":"levelo_inurba_marseille","lat":43.337444,"lon":5.374475,"is_reserved":false,"is_disabled":false,"rental_uris":{"android":"levelo://app?vid=75801e28-b69b-4a5e-945c-714926c1ddf7","ios":"levelo://app?vid=75801e28-b69b-4a5e-945c-714926c1ddf7"},"vehicle_type_id":"4","last_reported":1731571996,"current_range_meters":36400,"station_id":"","pricing_plan_id":"cebpf4jnsgd1na2vs0mg"},{"bike_id":"460294fb-fd20-42e7-85c5-d0e52643477f","system_id":"levelo_inurba_marseille","lat":43.27491,"lon":5.42453,"is_reserved":false,"is_disabled":false,"rental_uris":{"android":"levelo://app?vid=460294fb-fd20-42e7-85c5-d0e52643477f","ios":"levelo://app?vid=460294fb-fd20-42e7-85c5-d0e52643477f"},"vehicle_type_id":"4","last_reported":1731571996,"current_range_meters":8800,"station_id":"ce4bhn92rcd13ifvqgrg","pricing_plan_id":"cebpf4jnsgd1na2vs0mg"},{"bike_id":"de62fcbe-30b2-4014-b6a5-88e11ece1777","system_id":"levelo_inurba_marseille","lat":43.293063,"lon":5.374577,"is_reserved":false,"is_disabled":false,"rental_uris":{"android":"levelo://app?vid=de62fcbe-30b2-4014-b6a5-88e11ece1777","ios":"levelo://app?vid=de62fcbe-30b2-4014-b6a5-88e11ece1777"},"vehicle_type_id":"4","last_reported":1731571996,"current_range_meters":36800,"station_id":"ce4bgi12rcd13ifvqb70","pricing_plan_id":"cebpf4jnsgd1na2vs0mg"},{"bike_id":"9a6b3fa5-17ed-462b-822c-1e04067883f8","system_id":"levelo_inurba_marseille","lat":43.24179,"lon":5.39728,"is_reserved":false,"is_disabled":false,"rental_uris":{"android":"levelo://app?vid=9a6b3fa5-17ed-462b-822c-1e04067883f8","ios":"levelo://app?vid=9a6b3fa5-17ed-462b-822c-1e04067883f8"},"vehicle_type_id":"4","last_reported":1731571996,"current_range_meters":28400,"station_id":"ce4bhn12rcd13ifvqgpg","pricing_plan_id":"cebpf4jnsgd1na2vs0mg"},{"bike_id":"e1a6970f-d408-49cf-a4fe-ef82d2512acf","system_id":"levelo_inurba_marseille","lat":43.32485,"lon":5.36555,"is_reserved":false,"is_disabled":false,"rental_uris":{"android":"levelo://app?vid=e1a6970f-d408-49cf-a4fe-ef82d2512acf","ios":"levelo://app?vid=e1a6970f-d408-49cf-a4fe-ef82d2512acf"},"vehicle_type_id":"4","last_reported":1731571996,"current_range_meters":14400,"station_id":"ce4bhs12rcd13ifvqhvg","pricing_plan_id":"cebpf4jnsgd1na2vs0mg"},{"bike_id":"7f8e1bb6-461f-481b-82e9-4db72c39ce7c","system_id":"levelo_inurba_marseille","lat":43.30313,"lon":5.36893,"is_reserved":false,"is_disabled":false,"rental_uris":{"android":"levelo://app?vid=7f8e1bb6-461f-481b-82e9-4db72c39ce7c","ios":"levelo://app?vid=7f8e1bb6-461f-481b-82e9-4db72c39ce7c"},"vehicle_type_id":"4","last_reported":1731571996,"current_range_meters":17600,"station_id":"ce4bgqh2rcd13ifvqc5g","pricing_plan_id":"cebpf4jnsgd1na2vs0mg"},{"bike_id":"d5248d2b-5b98-4ab1-bb99-9a959d0082a8","system_id":"levelo_inurba_marseille","lat":43.30537,"lon":5.36537,"is_reserved":false,"is_disabled":false,"rental_uris":{"android":"levelo://app?vid=d5248d2b-5b98-4ab1-bb99-9a959d0082a8","ios":"levelo://app?vid=d5248d2b-5b98-4ab1-bb99-9a959d0082a8"},"vehicle_type_id":"4","last_reported":1731571996,"current_range_meters":6400,"station_id":"ce4bgs12rcd13ifvqcag","pricing_plan_id":"cebpf4jnsgd1na2vs0mg"},{"bike_id":"21e63553-f5bf-4780-a4f7-e2f0215e2bfd","system_id":"levelo_inurba_marseille","lat":43.3135,"lon":5.36712,"is_reserved":false,"is_disabled":false,"rental_uris":{"android":"levelo://app?vid=21e63553-f5bf-4780-a4f7-e2f0215e2bfd","ios":"levelo://app?vid=21e63553-f5bf-4780-a4f7-e2f0215e2bfd"},"vehicle_type_id":"4","last_reported":1731571996,"current_range_meters":24400,"station_id":"ce4bgr92rcd13ifvqc6g","pricing_plan_id":"cebpf4jnsgd1na2vs0mg"},{"bike_id":"a583d3ea-648d-4ca4-ab6d-7c3a4f13bd72","system_id":"levelo_inurba_marseille","lat":43.23967,"lon":5.36632,"is_reserved":false,"is_disabled":false,"rental_uris":{"android":"levelo://app?vid=a583d3ea-648d-4ca4-ab6d-7c3a4f13bd72","ios":"levelo://app?vid=a583d3ea-648d-4ca4-ab6d-7c3a4f13bd72"},"vehicle_type_id":"4","last_reported":1731571996,"current_range_meters":24400,"station_id":"ce4bhi12rcd13ifvqfp0","pricing_plan_id":"cebpf4jnsgd1na2vs0mg"},{"bike_id":"203e76b4-b6a7-4141-81bb-1c6c13698fa7","system_id":"levelo_inurba_marseille","lat":43.28153,"lon":5.42648,"is_reserved":false,"is_disabled":false,"rental_uris":{"android":"levelo://app?vid=203e76b4-b6a7-4141-81bb-1c6c13698fa7","ios":"levelo://app?vid=203e76b4-b6a7-4141-81bb-1c6c13698fa7"},"vehicle_type_id":"4","last_reported":1731571996,"current_range_meters":39200,"station_id":"ce4bhnh2rcd13ifvqgug","pricing_plan_id":"cebpf4jnsgd1na2vs0mg"},{"bike_id":"817849d8-25eb-48a4-b155-e11b87f519ff","system_id":"levelo_inurba_marseille","lat":43.30541,"lon":5.36539,"is_reserved":false,"is_disabled":false,"rental_uris":{"android":"levelo://app?vid=817849d8-25eb-48a4-b155-e11b87f519ff","ios":"levelo://app?vid=817849d8-25eb-48a4-b155-e11b87f519ff"},"vehicle_type_id":"4","last_reported":1731571996,"current_range_meters":40000,"station_id":"ce4bgs12rcd13ifvqcag","pricing_plan_id":"cebpf4jnsgd1na2vs0mg"},{"bike_id":"0aa50df3-327a-48eb-b5f0-a973f44a8663","system_id":"levelo_inurba_marseille","lat":43.241805,"lon":5.397273,"is_reserved":false,"is_disabled":false,"rental_uris":{"android":"levelo://app?vid=0aa50df3-327a-48eb-b5f0-a973f44a8663","ios":"levelo://app?vid=0aa50df3-327a-48eb-b5f0-a973f44a8663"},"vehicle_type_id":"4","last_reported":1731571996,"current_range_meters":27200,"station_id":"ce4bhn12rcd13ifvqgpg","pricing_plan_id":"cebpf4jnsgd1na2vs0mg"},{"bike_id":"c673c85a-59de-4b62-b9d3-423f8c623f79","system_id":"levelo_inurba_marseille","lat":43.29277,"lon":5.36841,"is_reserved":false,"is_disabled":false,"rental_uris":{"android":"levelo://app?vid=c673c85a-59de-4b62-b9d3-423f8c623f79","ios":"levelo://app?vid=c673c85a-59de-4b62-b9d3-423f8c623f79"},"vehicle_type_id":"4","last_reported":1731571996,"current_range_meters":32000,"station_id":"ce4bhbp2rcd13ifvqesg","pricing_plan_id":"cebpf4jnsgd1na2vs0mg"},{"bike_id":"9e54e4bb-63e8-4278-a2ab-1e123b277326","system_id":"levelo_inurba_marseille","lat":43.260666,"lon":5.397886,"is_reserved":false,"is_disabled":false,"rental_uris":{"android":"levelo://app?vid=9e54e4bb-63e8-4278-a2ab-1e123b277326","ios":"levelo://app?vid=9e54e4bb-63e8-4278-a2ab-1e123b277326"},"vehicle_type_id":"4","last_reported":1731571996,"current_range_meters":29600,"station_id":"ce4bhl92rcd13ifvqghg","pricing_plan_id":"cebpf4jnsgd1na2vs0mg"},{"bike_id":"be56c31e-769c-4501-bb4f-efa7f502c697","system_id":"levelo_inurba_marseille","lat":43.30944,"lon":5.39033,"is_reserved":false,"is_disabled":false,"rental_uris":{"android":"levelo://app?vid=be56c31e-769c-4501-bb4f-efa7f502c697","ios":"levelo://app?vid=be56c31e-769c-4501-bb4f-efa7f502c697"},"vehicle_type_id":"4","last_reported":1731571996,"current_range_meters":30400,"station_id":"ce4bgup2rcd13ifvqco0","pricing_plan_id":"cebpf4jnsgd1na2vs0mg"},{"bike_id":"05ef0e5c-fc94-4eeb-bfa5-5f0566aac8e5","system_id":"levelo_inurba_marseille","lat":43.24181,"lon":5.39729,"is_reserved":false,"is_disabled":false,"rental_uris":{"android":"levelo://app?vid=05ef0e5c-fc94-4eeb-bfa5-5f0566aac8e5","ios":"levelo://app?vid=05ef0e5c-fc94-4eeb-bfa5-5f0566aac8e5"},"vehicle_type_id":"4","last_reported":1731571996,"current_range_meters":38800,"station_id":"ce4bhn12rcd13ifvqgpg","pricing_plan_id":"cebpf4jnsgd1na2vs0mg"},{"bike_id":"d99bff46-e3e0-4c25-9719-3fa3dd9a1a6e","system_id":"levelo_inurba_marseille","lat":43.31577,"lon":5.37284,"is_reserved":false,"is_disabled":false,"rental_uris":{"android":"levelo://app?vid=d99bff46-e3e0-4c25-9719-3fa3dd9a1a6e","ios":"levelo://app?vid=d99bff46-e3e0-4c25-9719-3fa3dd9a1a6e"},"vehicle_type_id":"4","last_reported":1731571996,"current_range_meters":21600,"station_id":"ce4bgt12rcd13ifvqcd0","pricing_plan_id":"cebpf4jnsgd1na2vs0mg"},{"bike_id":"50f953f9-da0b-4fcf-a81f-4fc9538513d1","system_id":"levelo_inurba_marseille","lat":43.26951,"lon":5.3863,"is_reserved":false,"is_disabled":false,"rental_uris":{"android":"levelo://app?vid=50f953f9-da0b-4fcf-a81f-4fc9538513d1","ios":"levelo://app?vid=50f953f9-da0b-4fcf-a81f-4fc9538513d1"},"vehicle_type_id":"4","last_reported":1731571996,"current_range_meters":39200,"station_id":"ce4bhh92rcd13ifvqfh0","pricing_plan_id":"cebpf4jnsgd1na2vs0mg"},{"bike_id":"e2e2fbf4-0c1a-4b24-85d8-09094ab8d3e5","system_id":"levelo_inurba_marseille","lat":43.26956,"lon":5.38624,"is_reserved":false,"is_disabled":false,"rental_uris":{"android":"levelo://app?vid=e2e2fbf4-0c1a-4b24-85d8-09094ab8d3e5","ios":"levelo://app?vid=e2e2fbf4-0c1a-4b24-85d8-09094ab8d3e5"},"vehicle_type_id":"4","last_reported":1731571996,"current_range_meters":16000,"station_id":"ce4bhh92rcd13ifvqfh0","pricing_plan_id":"cebpf4jnsgd1na2vs0mg"},{"bike_id":"f0842f8d-7fd3-4053-ad1f-2a446336af63","system_id":"levelo_inurba_marseille","lat":43.29844,"lon":5.36273,"is_reserved":false,"is_disabled":false,"rental_uris":{"android":"levelo://app?vid=f0842f8d-7fd3-4053-ad1f-2a446336af63","ios":"levelo://app?vid=f0842f8d-7fd3-4053-ad1f-2a446336af63"},"vehicle_type_id":"4","last_reported":1731571996,"current_range_meters":3600,"station_id":"ce4bgpp2rcd13ifvqc3g","pricing_plan_id":"cebpf4jnsgd1na2vs0mg"},{"bike_id":"28027ead-f239-40f0-94da-00cfd8a0af48","system_id":"levelo_inurba_marseille","lat":43.30144,"lon":5.37427,"is_reserved":false,"is_disabled":false,"rental_uris":{"android":"levelo://app?vid=28027ead-f239-40f0-94da-00cfd8a0af48","ios":"levelo://app?vid=28027ead-f239-40f0-94da-00cfd8a0af48"},"vehicle_type_id":"4","last_reported":1731571996,"current_range_meters":6800,"station_id":"ce4bgs92rcd13ifvqcc0","pricing_plan_id":"cebpf4jnsgd1na2vs0mg"},{"bike_id":"98d706ec-1b06-4539-961b-1d3c74fb53f7","system_id":"levelo_inurba_marseille","lat":43.31724,"lon":5.42389,"is_reserved":false,"is_disabled":false,"rental_uris":{"android":"levelo://app?vid=98d706ec-1b06-4539-961b-1d3c74fb53f7","ios":"levelo://app?vid=98d706ec-1b06-4539-961b-1d3c74fb53f7"},"vehicle_type_id":"4","last_reported":1731571996,"current_range_meters":6000,"station_id":"ce4bhp92rcd13ifvqhbg","pricing_plan_id":"cebpf4jnsgd1na2vs0mg"},{"bike_id":"236ea0e0-2f51-46cf-b6e3-7c009229bc7a","system_id":"levelo_inurba_marseille","lat":43.29569,"lon":5.37524,"is_reserved":false,"is_disabled":false,"rental_uris":{"android":"levelo://app?vid=236ea0e0-2f51-46cf-b6e3-7c009229bc7a","ios":"levelo://app?vid=236ea0e0-2f51-46cf-b6e3-7c009229bc7a"},"vehicle_type_id":"4","last_reported":1731571996,"current_range_meters":3600,"station_id":"ce4bgh92rcd13ifvqb50","pricing_plan_id":"cebpf4jnsgd1na2vs0mg"},{"bike_id":"339fc431-5e2d-4f5e-b46b-eb448e50e1e7","system_id":"levelo_inurba_marseille","lat":43.291983,"lon":5.358012,"is_reserved":false,"is_disabled":false,"rental_uris":{"android":"levelo://app?vid=339fc431-5e2d-4f5e-b46b-eb448e50e1e7","ios":"levelo://app?vid=339fc431-5e2d-4f5e-b46b-eb448e50e1e7"},"vehicle_type_id":"4","last_reported":1731571996,"current_range_meters":29600,"station_id":"ce4bhb12rcd13ifvqel0","pricing_plan_id":"cebpf4jnsgd1na2vs0mg"},{"bike_id":"30efcd49-4a6c-4e89-a5a0-ea98b66830c6","system_id":"levelo_inurba_marseille","lat":43.30464,"lon":5.37908,"is_reserved":false,"is_disabled":false,"rental_uris":{"android":"levelo://app?vid=30efcd49-4a6c-4e89-a5a0-ea98b66830c6","ios":"levelo://app?vid=30efcd49-4a6c-4e89-a5a0-ea98b66830c6"},"vehicle_type_id":"4","last_reported":1731571996,"current_range_meters":8800,"station_id":"ce4bgup2rcd13ifvqcn0","pricing_plan_id":"cebpf4jnsgd1na2vs0mg"},{"bike_id":"f7aefc32-e409-4650-8135-34d8dd3c44a0","system_id":"levelo_inurba_marseille","lat":43.30142,"lon":5.37412,"is_reserved":false,"is_disabled":false,"rental_uris":{"android":"levelo://app?vid=f7aefc32-e409-4650-8135-34d8dd3c44a0","ios":"levelo://app?vid=f7aefc32-e409-4650-8135-34d8dd3c44a0"},"vehicle_type_id":"4","last_reported":1731571996,"current_range_meters":27600,"station_id":"ce4bgs92rcd13ifvqcc0","pricing_plan_id":"cebpf4jnsgd1na2vs0mg"},{"bike_id":"98815e11-316c-46d0-a9a4-8247fa6ca6a0","system_id":"levelo_inurba_marseille","lat":43.31702,"lon":5.40464,"is_reserved":false,"is_disabled":false,"rental_uris":{"android":"levelo://app?vid=98815e11-316c-46d0-a9a4-8247fa6ca6a0","ios":"levelo://app?vid=98815e11-316c-46d0-a9a4-8247fa6ca6a0"},"vehicle_type_id":"4","last_reported":1731571996,"current_range_meters":28000,"station_id":"ce4bh012rcd13ifvqd00","pricing_plan_id":"cebpf4jnsgd1na2vs0mg"},{"bike_id":"9beaf56f-a2f2-4ea6-b6be-0288a9a87a9d","system_id":"levelo_inurba_marseille","lat":43.25932,"lon":5.40907,"is_reserved":false,"is_disabled":false,"rental_uris":{"android":"levelo://app?vid=9beaf56f-a2f2-4ea6-b6be-0288a9a87a9d","ios":"levelo://app?vid=9beaf56f-a2f2-4ea6-b6be-0288a9a87a9d"},"vehicle_type_id":"4","last_reported":1731571996,"current_range_meters":37600,"station_id":"ce4bhm92rcd13ifvqglg","pricing_plan_id":"cebpf4jnsgd1na2vs0mg"},{"bike_id":"a64b2e87-dfc1-4098-aac6-83156bb73f66","system_id":"levelo_inurba_marseille","lat":43.25001,"lon":5.38932,"is_reserved":false,"is_disabled":false,"rental_uris":{"android":"levelo://app?vid=a64b2e87-dfc1-4098-aac6-83156bb73f66","ios":"levelo://app?vid=a64b2e87-dfc1-4098-aac6-83156bb73f66"},"vehicle_type_id":"4","last_reported":1731571996,"current_range_meters":31200,"station_id":"ce4bhgp2rcd13ifvqfd0","pricing_plan_id":"cebpf4jnsgd1na2vs0mg"},{"bike_id":"7e68d8eb-008a-41fa-8d76-b35dd2ccf3ff","system_id":"levelo_inurba_marseille","lat":43.25002,"lon":5.38924,"is_reserved":false,"is_disabled":false,"rental_uris":{"android":"levelo://app?vid=7e68d8eb-008a-41fa-8d76-b35dd2ccf3ff","ios":"levelo://app?vid=7e68d8eb-008a-41fa-8d76-b35dd2ccf3ff"},"vehicle_type_id":"4","last_reported":1731571996,"current_range_meters":25600,"station_id":"ce4bhgp2rcd13ifvqfd0","pricing_plan_id":"cebpf4jnsgd1na2vs0mg"},{"bike_id":"adf6d005-fa58-4531-8a7d-3b2a244cc8c7","system_id":"levelo_inurba_marseille","lat":43.29768,"lon":5.36796,"is_reserved":false,"is_disabled":false,"rental_uris":{"android":"levelo://app?vid=adf6d005-fa58-4531-8a7d-3b2a244cc8c7","ios":"levelo://app?vid=adf6d005-fa58-4531-8a7d-3b2a244cc8c7"},"vehicle_type_id":"4","last_reported":1731571996,"current_range_meters":24400,"station_id":"","pricing_plan_id":"cebpf4jnsgd1na2vs0mg"},{"bike_id":"e7176aa2-d3c2-43a2-b061-c0a4679ce72f","system_id":"levelo_inurba_marseille","lat":43.29844,"lon":5.36268,"is_reserved":false,"is_disabled":false,"rental_uris":{"android":"levelo://app?vid=e7176aa2-d3c2-43a2-b061-c0a4679ce72f","ios":"levelo://app?vid=e7176aa2-d3c2-43a2-b061-c0a4679ce72f"},"vehicle_type_id":"4","last_reported":1731571996,"current_range_meters":37600,"station_id":"ce4bgpp2rcd13ifvqc3g","pricing_plan_id":"cebpf4jnsgd1na2vs0mg"},{"bike_id":"f15f84e3-6119-4797-bcba-f763c86025cb","system_id":"levelo_inurba_marseille","lat":43.337444,"lon":5.374475,"is_reserved":false,"is_disabled":false,"rental_uris":{"android":"levelo://app?vid=f15f84e3-6119-4797-bcba-f763c86025cb","ios":"levelo://app?vid=f15f84e3-6119-4797-bcba-f763c86025cb"},"vehicle_type_id":"4","last_reported":1731571996,"current_range_meters":36000,"station_id":"","pricing_plan_id":"cebpf4jnsgd1na2vs0mg"},{"bike_id":"3d95c69b-f912-4aa9-8628-9bb26d0c43d0","system_id":"levelo_inurba_marseille","lat":43.30951,"lon":5.39033,"is_reserved":false,"is_disabled":false,"rental_uris":{"android":"levelo://app?vid=3d95c69b-f912-4aa9-8628-9bb26d0c43d0","ios":"levelo://app?vid=3d95c69b-f912-4aa9-8628-9bb26d0c43d0"},"vehicle_type_id":"4","last_reported":1731571996,"current_range_meters":34800,"station_id":"ce4bgup2rcd13ifvqco0","pricing_plan_id":"cebpf4jnsgd1na2vs0mg"},{"bike_id":"3892c889-2f69-4067-a0cf-44e738e93a4d","system_id":"levelo_inurba_marseille","lat":43.25934,"lon":5.4091,"is_reserved":false,"is_disabled":false,"rental_uris":{"android":"levelo://app?vid=3892c889-2f69-4067-a0cf-44e738e93a4d","ios":"levelo://app?vid=3892c889-2f69-4067-a0cf-44e738e93a4d"},"vehicle_type_id":"4","last_reported":1731571996,"current_range_meters":7200,"station_id":"ce4bhm92rcd13ifvqglg","pricing_plan_id":"cebpf4jnsgd1na2vs0mg"},{"bike_id":"db4ed54a-29b9-4a3d-ab03-ffcc1bcf3c9a","system_id":"levelo_inurba_marseille","lat":43.30551,"lon":5.36561,"is_reserved":false,"is_disabled":false,"rental_uris":{"android":"levelo://app?vid=db4ed54a-29b9-4a3d-ab03-ffcc1bcf3c9a","ios":"levelo://app?vid=db4ed54a-29b9-4a3d-ab03-ffcc1bcf3c9a"},"vehicle_type_id":"4","last_reported":1731571996,"current_range_meters":20800,"station_id":"ce4bgs12rcd13ifvqcag","pricing_plan_id":"cebpf4jnsgd1na2vs0mg"},{"bike_id":"ba295aa4-e303-4da2-9863-82d8a34fc59c","system_id":"levelo_inurba_marseille","lat":43.23964,"lon":5.36629,"is_reserved":false,"is_disabled":false,"rental_uris":{"android":"levelo://app?vid=ba295aa4-e303-4da2-9863-82d8a34fc59c","ios":"levelo://app?vid=ba295aa4-e303-4da2-9863-82d8a34fc59c"},"vehicle_type_id":"4","last_reported":1731571996,"current_range_meters":9600,"station_id":"ce4bhi12rcd13ifvqfp0","pricing_plan_id":"cebpf4jnsgd1na2vs0mg"},{"bike_id":"1b5d80b6-2cc9-487d-b3ee-4307f2d452fa","system_id":"levelo_inurba_marseille","lat":43.31225,"lon":5.36872,"is_reserved":false,"is_disabled":false,"rental_uris":{"android":"levelo://app?vid=1b5d80b6-2cc9-487d-b3ee-4307f2d452fa","ios":"levelo://app?vid=1b5d80b6-2cc9-487d-b3ee-4307f2d452fa"},"vehicle_type_id":"4","last_reported":1731571996,"current_range_meters":28000,"station_id":"ce4bgl92rcd13ifvqbq0","pricing_plan_id":"cebpf4jnsgd1na2vs0mg"},{"bike_id":"c1ff1984-bc61-4b2b-877b-202f63dd8604","system_id":"levelo_inurba_marseille","lat":43.25943,"lon":5.409,"is_reserved":false,"is_disabled":false,"rental_uris":{"android":"levelo://app?vid=c1ff1984-bc61-4b2b-877b-202f63dd8604","ios":"levelo://app?vid=c1ff1984-bc61-4b2b-877b-202f63dd8604"},"vehicle_type_id":"4","last_reported":1731571996,"current_range_meters":8000,"station_id":"ce4bhm92rcd13ifvqglg","pricing_plan_id":"cebpf4jnsgd1na2vs0mg"},{"bike_id":"30a5dc35-910c-400e-ba39-f0c43ffde61d","system_id":"levelo_inurba_marseille","lat":43.26958,"lon":5.38634,"is_reserved":false,"is_disabled":false,"rental_uris":{"android":"levelo://app?vid=30a5dc35-910c-400e-ba39-f0c43ffde61d","ios":"levelo://app?vid=30a5dc35-910c-400e-ba39-f0c43ffde61d"},"vehicle_type_id":"4","last_reported":1731571996,"current_range_meters":10000,"station_id":"ce4bhh92rcd13ifvqfh0","pricing_plan_id":"cebpf4jnsgd1na2vs0mg"},{"bike_id":"2dfe3ff7-15f1-44d8-8056-486b409d3678","system_id":"levelo_inurba_marseille","lat":43.31701,"lon":5.40464,"is_reserved":false,"is_disabled":false,"rental_uris":{"android":"levelo://app?vid=2dfe3ff7-15f1-44d8-8056-486b409d3678","ios":"levelo://app?vid=2dfe3ff7-15f1-44d8-8056-486b409d3678"},"vehicle_type_id":"4","last_reported":1731571996,"current_range_meters":35200,"station_id":"ce4bh012rcd13ifvqd00","pricing_plan_id":"cebpf4jnsgd1na2vs0mg"},{"bike_id":"8963f262-bdcb-43f5-9e37-237198779ba8","system_id":"levelo_inurba_marseille","lat":43.33773,"lon":5.37442,"is_reserved":false,"is_disabled":false,"rental_uris":{"android":"levelo://app?vid=8963f262-bdcb-43f5-9e37-237198779ba8","ios":"levelo://app?vid=8963f262-bdcb-43f5-9e37-237198779ba8"},"vehicle_type_id":"4","last_reported":1731571996,"current_range_meters":34800,"station_id":"","pricing_plan_id":"cebpf4jnsgd1na2vs0mg"},{"bike_id":"131d5275-8201-4abf-89e3-9cd3bb0ce7b5","system_id":"levelo_inurba_marseille","lat":43.306834,"lon":5.380212,"is_reserved":false,"is_disabled":false,"rental_uris":{"android":"levelo://app?vid=131d5275-8201-4abf-89e3-9cd3bb0ce7b5","ios":"levelo://app?vid=131d5275-8201-4abf-89e3-9cd3bb0ce7b5"},"vehicle_type_id":"4","last_reported":1731571996,"current_range_meters":34000,"station_id":"","pricing_plan_id":"cebpf4jnsgd1na2vs0mg"},{"bike_id":"398b47b3-a042-4cec-b1dd-254773a78263","system_id":"levelo_inurba_marseille","lat":43.27409,"lon":5.38945,"is_reserved":false,"is_disabled":false,"rental_uris":{"android":"levelo://app?vid=398b47b3-a042-4cec-b1dd-254773a78263","ios":"levelo://app?vid=398b47b3-a042-4cec-b1dd-254773a78263"},"vehicle_type_id":"4","last_reported":1731571996,"current_range_meters":6000,"station_id":"","pricing_plan_id":"cebpf4jnsgd1na2vs0mg"},{"bike_id":"2e9bfb20-c726-4dff-9f4b-93c0d95af472","system_id":"levelo_inurba_marseille","lat":43.2407,"lon":5.37765,"is_reserved":false,"is_disabled":false,"rental_uris":{"android":"levelo://app?vid=2e9bfb20-c726-4dff-9f4b-93c0d95af472","ios":"levelo://app?vid=2e9bfb20-c726-4dff-9f4b-93c0d95af472"},"vehicle_type_id":"4","last_reported":1731571996,"current_range_meters":14000,"station_id":"ce4bhnp2rcd13ifvqgvg","pricing_plan_id":"cebpf4jnsgd1na2vs0mg"},{"bike_id":"aca23579-0a19-4a4b-a12f-57b0591e79bd","system_id":"levelo_inurba_marseille","lat":43.24087,"lon":5.3776,"is_reserved":false,"is_disabled":false,"rental_uris":{"android":"levelo://app?vid=aca23579-0a19-4a4b-a12f-57b0591e79bd","ios":"levelo://app?vid=aca23579-0a19-4a4b-a12f-57b0591e79bd"},"vehicle_type_id":"4","last_reported":1731571996,"current_range_meters":28000,"station_id":"ce4bhnp2rcd13ifvqgvg","pricing_plan_id":"cebpf4jnsgd1na2vs0mg"},{"bike_id":"bfa67605-738a-4a04-8785-ac934e987ef3","system_id":"levelo_inurba_marseille","lat":43.31695,"lon":5.40463,"is_reserved":false,"is_disabled":false,"rental_uris":{"android":"levelo://app?vid=bfa67605-738a-4a04-8785-ac934e987ef3","ios":"levelo://app?vid=bfa67605-738a-4a04-8785-ac934e987ef3"},"vehicle_type_id":"4","last_reported":1731571996,"current_range_meters":39200,"station_id":"ce4bh012rcd13ifvqd00","pricing_plan_id":"cebpf4jnsgd1na2vs0mg"},{"bike_id":"92e3ad17-17c9-4714-a148-ef9436ad6113","system_id":"levelo_inurba_marseille","lat":43.22935,"lon":5.3538,"is_reserved":false,"is_disabled":false,"rental_uris":{"android":"levelo://app?vid=92e3ad17-17c9-4714-a148-ef9436ad6113","ios":"levelo://app?vid=92e3ad17-17c9-4714-a148-ef9436ad6113"},"vehicle_type_id":"4","last_reported":1731571996,"current_range_meters":39200,"station_id":"cpo3532slgdg3j2ikp40","pricing_plan_id":"cebpf4jnsgd1na2vs0mg"},{"bike_id":"187a7fa8-9afd-4d26-b5e7-6a10712e67a7","system_id":"levelo_inurba_marseille","lat":43.23147,"lon":5.43714,"is_reserved":false,"is_disabled":false,"rental_uris":{"android":"levelo://app?vid=187a7fa8-9afd-4d26-b5e7-6a10712e67a7","ios":"levelo://app?vid=187a7fa8-9afd-4d26-b5e7-6a10712e67a7"},"vehicle_type_id":"4","last_reported":1731571996,"current_range_meters":38800,"station_id":"ce4bhmp2rcd13ifvqgog","pricing_plan_id":"cebpf4jnsgd1na2vs0mg"},{"bike_id":"0f8efc19-3255-42a2-a1ec-cb067590a67d","system_id":"levelo_inurba_marseille","lat":43.31346,"lon":5.36736,"is_reserved":false,"is_disabled":false,"rental_uris":{"android":"levelo://app?vid=0f8efc19-3255-42a2-a1ec-cb067590a67d","ios":"levelo://app?vid=0f8efc19-3255-42a2-a1ec-cb067590a67d"},"vehicle_type_id":"4","last_reported":1731571996,"current_range_meters":25600,"station_id":"ce4bgr92rcd13ifvqc6g","pricing_plan_id":"cebpf4jnsgd1na2vs0mg"},{"bike_id":"615cf953-f2c2-47a0-8788-bf0ee6398315","system_id":"levelo_inurba_marseille","lat":43.26801,"lon":5.4027,"is_reserved":false,"is_disabled":false,"rental_uris":{"android":"levelo://app?vid=615cf953-f2c2-47a0-8788-bf0ee6398315","ios":"levelo://app?vid=615cf953-f2c2-47a0-8788-bf0ee6398315"},"vehicle_type_id":"4","last_reported":1731571996,"current_range_meters":19600,"station_id":"ce501612rcd8frsf0b60","pricing_plan_id":"cebpf4jnsgd1na2vs0mg"},{"bike_id":"beb7b9bd-a544-4d0c-b0ee-a6204f3f5108","system_id":"levelo_inurba_marseille","lat":43.291962,"lon":5.385193,"is_reserved":false,"is_disabled":false,"rental_uris":{"android":"levelo://app?vid=beb7b9bd-a544-4d0c-b0ee-a6204f3f5108","ios":"levelo://app?vid=beb7b9bd-a544-4d0c-b0ee-a6204f3f5108"},"vehicle_type_id":"4","last_reported":1731571996,"current_range_meters":25200,"station_id":"","pricing_plan_id":"cebpf4jnsgd1na2vs0mg"},{"bike_id":"82f309e6-c4ae-421f-89cb-1d64a8e0ef10","system_id":"levelo_inurba_marseille","lat":43.337444,"lon":5.374475,"is_reserved":false,"is_disabled":false,"rental_uris":{"android":"levelo://app?vid=82f309e6-c4ae-421f-89cb-1d64a8e0ef10","ios":"levelo://app?vid=82f309e6-c4ae-421f-89cb-1d64a8e0ef10"},"vehicle_type_id":"4","last_reported":1731571996,"current_range_meters":33600,"station_id":"","pricing_plan_id":"cebpf4jnsgd1na2vs0mg"},{"bike_id":"5419d154-3ce9-4c40-9294-d16b9d2b3431","system_id":"levelo_inurba_marseille","lat":43.337444,"lon":5.374475,"is_reserved":false,"is_disabled":false,"rental_uris":{"android":"levelo://app?vid=5419d154-3ce9-4c40-9294-d16b9d2b3431","ios":"levelo://app?vid=5419d154-3ce9-4c40-9294-d16b9d2b3431"},"vehicle_type_id":"4","last_reported":1731571996,"current_range_meters":33600,"station_id":"","pricing_plan_id":"cebpf4jnsgd1na2vs0mg"},{"bike_id":"ad31d4df-c2c9-4bd7-b4c2-28148e8bc649","system_id":"levelo_inurba_marseille","lat":43.2594,"lon":5.40897,"is_reserved":false,"is_disabled":false,"rental_uris":{"android":"levelo://app?vid=ad31d4df-c2c9-4bd7-b4c2-28148e8bc649","ios":"levelo://app?vid=ad31d4df-c2c9-4bd7-b4c2-28148e8bc649"},"vehicle_type_id":"4","last_reported":1731571996,"current_range_meters":25200,"station_id":"ce4bhm92rcd13ifvqglg","pricing_plan_id":"cebpf4jnsgd1na2vs0mg"},{"bike_id":"6e4ab7d2-c1df-4ea4-bb4b-2f5c43ed5717","system_id":"levelo_inurba_marseille","lat":43.33768,"lon":5.37439,"is_reserved":false,"is_disabled":false,"rental_uris":{"android":"levelo://app?vid=6e4ab7d2-c1df-4ea4-bb4b-2f5c43ed5717","ios":"levelo://app?vid=6e4ab7d2-c1df-4ea4-bb4b-2f5c43ed5717"},"vehicle_type_id":"4","last_reported":1731571996,"current_range_meters":33600,"station_id":"","pricing_plan_id":"cebpf4jnsgd1na2vs0mg"},{"bike_id":"bd465249-964f-4479-968e-5f6e32af60f1","system_id":"levelo_inurba_marseille","lat":43.337444,"lon":5.374475,"is_reserved":false,"is_disabled":false,"rental_uris":{"android":"levelo://app?vid=bd465249-964f-4479-968e-5f6e32af60f1","ios":"levelo://app?vid=bd465249-964f-4479-968e-5f6e32af60f1"},"vehicle_type_id":"4","last_reported":1731571996,"current_range_meters":35600,"station_id":"","pricing_plan_id":"cebpf4jnsgd1na2vs0mg"},{"bike_id":"e9884c3e-ef8b-4f5f-bbd2-a8caa762df54","system_id":"levelo_inurba_marseille","lat":43.24803,"lon":5.37456,"is_reserved":false,"is_disabled":false,"rental_uris":{"android":"levelo://app?vid=e9884c3e-ef8b-4f5f-bbd2-a8caa762df54","ios":"levelo://app?vid=e9884c3e-ef8b-4f5f-bbd2-a8caa762df54"},"vehicle_type_id":"4","last_reported":1731571996,"current_range_meters":6800,"station_id":"ce4bhgh2rcd13ifvqfb0","pricing_plan_id":"cebpf4jnsgd1na2vs0mg"},{"bike_id":"ab567196-6448-4d50-a225-babc4359ed54","system_id":"levelo_inurba_marseille","lat":43.30537,"lon":5.3672,"is_reserved":false,"is_disabled":false,"rental_uris":{"android":"levelo://app?vid=ab567196-6448-4d50-a225-babc4359ed54","ios":"levelo://app?vid=ab567196-6448-4d50-a225-babc4359ed54"},"vehicle_type_id":"4","last_reported":1731571996,"current_range_meters":24000,"station_id":"ce4bgrp2rcd13ifvqc9g","pricing_plan_id":"cebpf4jnsgd1na2vs0mg"},{"bike_id":"b13c0709-ac42-4a0e-865b-f0644298cf9b","system_id":"levelo_inurba_marseille","lat":43.30542,"lon":5.36553,"is_reserved":false,"is_disabled":false,"rental_uris":{"android":"levelo://app?vid=b13c0709-ac42-4a0e-865b-f0644298cf9b","ios":"levelo://app?vid=b13c0709-ac42-4a0e-865b-f0644298cf9b"},"vehicle_type_id":"4","last_reported":1731571996,"current_range_meters":36400,"station_id":"ce4bgs12rcd13ifvqcag","pricing_plan_id":"cebpf4jnsgd1na2vs0mg"},{"bike_id":"956b0e11-d66d-499b-a1ef-f74ac0cb077e","system_id":"levelo_inurba_marseille","lat":43.27074,"lon":5.42275,"is_reserved":false,"is_disabled":false,"rental_uris":{"android":"levelo://app?vid=956b0e11-d66d-499b-a1ef-f74ac0cb077e","ios":"levelo://app?vid=956b0e11-d66d-499b-a1ef-f74ac0cb077e"},"vehicle_type_id":"4","last_reported":1731571996,"current_range_meters":32400,"station_id":"ce4bhk92rcd13ifvqgb0","pricing_plan_id":"cebpf4jnsgd1na2vs0mg"},{"bike_id":"9e456525-0f5f-4a80-9d37-85501f13c908","system_id":"levelo_inurba_marseille","lat":43.25084,"lon":5.39518,"is_reserved":false,"is_disabled":false,"rental_uris":{"android":"levelo://app?vid=9e456525-0f5f-4a80-9d37-85501f13c908","ios":"levelo://app?vid=9e456525-0f5f-4a80-9d37-85501f13c908"},"vehicle_type_id":"4","last_reported":1731571996,"current_range_meters":39200,"station_id":"ce4bhm12rcd13ifvqgkg","pricing_plan_id":"cebpf4jnsgd1na2vs0mg"},{"bike_id":"42744b5d-4b77-4c92-808c-ebf462138a5f","system_id":"levelo_inurba_marseille","lat":43.31551,"lon":5.38625,"is_reserved":false,"is_disabled":false,"rental_uris":{"android":"levelo://app?vid=42744b5d-4b77-4c92-808c-ebf462138a5f","ios":"levelo://app?vid=42744b5d-4b77-4c92-808c-ebf462138a5f"},"vehicle_type_id":"4","last_reported":1731571996,"current_range_meters":24400,"station_id":"","pricing_plan_id":"cebpf4jnsgd1na2vs0mg"},{"bike_id":"c9d041c0-acec-4cf4-bba2-e01a92441368","system_id":"levelo_inurba_marseille","lat":43.337444,"lon":5.374475,"is_reserved":false,"is_disabled":false,"rental_uris":{"android":"levelo://app?vid=c9d041c0-acec-4cf4-bba2-e01a92441368","ios":"levelo://app?vid=c9d041c0-acec-4cf4-bba2-e01a92441368"},"vehicle_type_id":"4","last_reported":1731571996,"current_range_meters":35200,"station_id":"","pricing_plan_id":"cebpf4jnsgd1na2vs0mg"},{"bike_id":"c5632cbd-40af-4c93-9f93-5def2f16fea5","system_id":"levelo_inurba_marseille","lat":43.3095,"lon":5.39044,"is_reserved":false,"is_disabled":false,"rental_uris":{"android":"levelo://app?vid=c5632cbd-40af-4c93-9f93-5def2f16fea5","ios":"levelo://app?vid=c5632cbd-40af-4c93-9f93-5def2f16fea5"},"vehicle_type_id":"4","last_reported":1731571996,"current_range_meters":27600,"station_id":"ce4bgup2rcd13ifvqco0","pricing_plan_id":"cebpf4jnsgd1na2vs0mg"},{"bike_id":"38bbdcff-2bf0-472f-b7a7-55224c74f01e","system_id":"levelo_inurba_marseille","lat":43.28844,"lon":5.35839,"is_reserved":false,"is_disabled":false,"rental_uris":{"android":"levelo://app?vid=38bbdcff-2bf0-472f-b7a7-55224c74f01e","ios":"levelo://app?vid=38bbdcff-2bf0-472f-b7a7-55224c74f01e"},"vehicle_type_id":"4","last_reported":1731571996,"current_range_meters":36800,"station_id":"ce4bhb12rcd13ifvqem0","pricing_plan_id":"cebpf4jnsgd1na2vs0mg"},{"bike_id":"4788d8b7-1907-48c7-aac1-097c5755fb35","system_id":"levelo_inurba_marseille","lat":43.28727,"lon":5.37935,"is_reserved":false,"is_disabled":false,"rental_uris":{"android":"levelo://app?vid=4788d8b7-1907-48c7-aac1-097c5755fb35","ios":"levelo://app?vid=4788d8b7-1907-48c7-aac1-097c5755fb35"},"vehicle_type_id":"4","last_reported":1731571996,"current_range_meters":32800,"station_id":"ce4bh9p2rcd13ifvqec0","pricing_plan_id":"cebpf4jnsgd1na2vs0mg"},{"bike_id":"df66abf0-5814-42dd-b2a3-5842fb95e6fb","system_id":"levelo_inurba_marseille","lat":43.34146,"lon":5.409,"is_reserved":false,"is_disabled":false,"rental_uris":{"android":"levelo://app?vid=df66abf0-5814-42dd-b2a3-5842fb95e6fb","ios":"levelo://app?vid=df66abf0-5814-42dd-b2a3-5842fb95e6fb"},"vehicle_type_id":"4","last_reported":1731571996,"current_range_meters":30000,"station_id":"ce4bhqh2rcd13ifvqhlg","pricing_plan_id":"cebpf4jnsgd1na2vs0mg"},{"bike_id":"b2e07fea-409c-456c-8f2d-d32f3aeac2c2","system_id":"levelo_inurba_marseille","lat":43.26573,"lon":5.38998,"is_reserved":false,"is_disabled":false,"rental_uris":{"android":"levelo://app?vid=b2e07fea-409c-456c-8f2d-d32f3aeac2c2","ios":"levelo://app?vid=b2e07fea-409c-456c-8f2d-d32f3aeac2c2"},"vehicle_type_id":"4","last_reported":1731571996,"current_range_meters":3200,"station_id":"ce4bhe12rcd13ifvqf30","pricing_plan_id":"cebpf4jnsgd1na2vs0mg"},{"bike_id":"8cc2aec6-7e03-4434-97a3-0d8e9d8caaf1","system_id":"levelo_inurba_marseille","lat":43.26959,"lon":5.3864,"is_reserved":false,"is_disabled":false,"rental_uris":{"android":"levelo://app?vid=8cc2aec6-7e03-4434-97a3-0d8e9d8caaf1","ios":"levelo://app?vid=8cc2aec6-7e03-4434-97a3-0d8e9d8caaf1"},"vehicle_type_id":"4","last_reported":1731571996,"current_range_meters":38400,"station_id":"ce4bhh92rcd13ifvqfh0","pricing_plan_id":"cebpf4jnsgd1na2vs0mg"},{"bike_id":"52a2a24f-1582-4c1c-b7d8-d1b3dc644561","system_id":"levelo_inurba_marseille","lat":43.28429,"lon":5.34975,"is_reserved":false,"is_disabled":false,"rental_uris":{"android":"levelo://app?vid=52a2a24f-1582-4c1c-b7d8-d1b3dc644561","ios":"levelo://app?vid=52a2a24f-1582-4c1c-b7d8-d1b3dc644561"},"vehicle_type_id":"4","last_reported":1731571996,"current_range_meters":38400,"station_id":"ce4bhbh2rcd13ifvqepg","pricing_plan_id":"cebpf4jnsgd1na2vs0mg"},{"bike_id":"405716d9-2be8-4559-9370-b01533cfe98b","system_id":"levelo_inurba_marseille","lat":43.31348,"lon":5.36728,"is_reserved":false,"is_disabled":false,"rental_uris":{"android":"levelo://app?vid=405716d9-2be8-4559-9370-b01533cfe98b","ios":"levelo://app?vid=405716d9-2be8-4559-9370-b01533cfe98b"},"vehicle_type_id":"4","last_reported":1731571996,"current_range_meters":16800,"station_id":"ce4bgr92rcd13ifvqc6g","pricing_plan_id":"cebpf4jnsgd1na2vs0mg"},{"bike_id":"3db4dec1-23c7-494d-89b0-a3d94f4982c8","system_id":"levelo_inurba_marseille","lat":43.337444,"lon":5.374475,"is_reserved":false,"is_disabled":false,"rental_uris":{"android":"levelo://app?vid=3db4dec1-23c7-494d-89b0-a3d94f4982c8","ios":"levelo://app?vid=3db4dec1-23c7-494d-89b0-a3d94f4982c8"},"vehicle_type_id":"4","last_reported":1731571996,"current_range_meters":38800,"station_id":"","pricing_plan_id":"cebpf4jnsgd1na2vs0mg"},{"bike_id":"7cc35c5c-f760-4acf-9c94-feed88d1dd83","system_id":"levelo_inurba_marseille","lat":43.24072,"lon":5.3776,"is_reserved":false,"is_disabled":false,"rental_uris":{"android":"levelo://app?vid=7cc35c5c-f760-4acf-9c94-feed88d1dd83","ios":"levelo://app?vid=7cc35c5c-f760-4acf-9c94-feed88d1dd83"},"vehicle_type_id":"4","last_reported":1731571996,"current_range_meters":37600,"station_id":"ce4bhnp2rcd13ifvqgvg","pricing_plan_id":"cebpf4jnsgd1na2vs0mg"},{"bike_id":"41216786-c537-48ee-ba23-962247c384b3","system_id":"levelo_inurba_marseille","lat":43.30476,"lon":5.3791,"is_reserved":false,"is_disabled":false,"rental_uris":{"android":"levelo://app?vid=41216786-c537-48ee-ba23-962247c384b3","ios":"levelo://app?vid=41216786-c537-48ee-ba23-962247c384b3"},"vehicle_type_id":"4","last_reported":1731571996,"current_range_meters":38800,"station_id":"ce4bgup2rcd13ifvqcn0","pricing_plan_id":"cebpf4jnsgd1na2vs0mg"},{"bike_id":"97f76cf1-f002-4139-9163-e81a50f30670","system_id":"levelo_inurba_marseille","lat":43.27498,"lon":5.42448,"is_reserved":false,"is_disabled":false,"rental_uris":{"android":"levelo://app?vid=97f76cf1-f002-4139-9163-e81a50f30670","ios":"levelo://app?vid=97f76cf1-f002-4139-9163-e81a50f30670"},"vehicle_type_id":"4","last_reported":1731571996,"current_range_meters":36000,"station_id":"ce4bhn92rcd13ifvqgrg","pricing_plan_id":"cebpf4jnsgd1na2vs0mg"},{"bike_id":"77ca5bdc-0211-4ec2-8505-ae813951942f","system_id":"levelo_inurba_marseille","lat":43.27492,"lon":5.42452,"is_reserved":false,"is_disabled":false,"rental_uris":{"android":"levelo://app?vid=77ca5bdc-0211-4ec2-8505-ae813951942f","ios":"levelo://app?vid=77ca5bdc-0211-4ec2-8505-ae813951942f"},"vehicle_type_id":"4","last_reported":1731571996,"current_range_meters":29600,"station_id":"ce4bhn92rcd13ifvqgrg","pricing_plan_id":"cebpf4jnsgd1na2vs0mg"},{"bike_id":"7993481c-6af9-41f2-9bac-c327a53be150","system_id":"levelo_inurba_marseille","lat":43.23158,"lon":5.437,"is_reserved":false,"is_disabled":false,"rental_uris":{"android":"levelo://app?vid=7993481c-6af9-41f2-9bac-c327a53be150","ios":"levelo://app?vid=7993481c-6af9-41f2-9bac-c327a53be150"},"vehicle_type_id":"4","last_reported":1731571996,"current_range_meters":36400,"station_id":"ce4bhmp2rcd13ifvqgog","pricing_plan_id":"cebpf4jnsgd1na2vs0mg"},{"bike_id":"4b09a844-598b-47fd-b89b-9a6ffb3358d9","system_id":"levelo_inurba_marseille","lat":43.32539,"lon":5.41448,"is_reserved":false,"is_disabled":false,"rental_uris":{"android":"levelo://app?vid=4b09a844-598b-47fd-b89b-9a6ffb3358d9","ios":"levelo://app?vid=4b09a844-598b-47fd-b89b-9a6ffb3358d9"},"vehicle_type_id":"4","last_reported":1731571996,"current_range_meters":16000,"station_id":"ce4bhq12rcd13ifvqhhg","pricing_plan_id":"cebpf4jnsgd1na2vs0mg"},{"bike_id":"68b374d3-d203-4241-b9b4-4727b4a8cc21","system_id":"levelo_inurba_marseille","lat":43.28341,"lon":5.38119,"is_reserved":false,"is_disabled":false,"rental_uris":{"android":"levelo://app?vid=68b374d3-d203-4241-b9b4-4727b4a8cc21","ios":"levelo://app?vid=68b374d3-d203-4241-b9b4-4727b4a8cc21"},"vehicle_type_id":"4","last_reported":1731571996,"current_range_meters":5600,"station_id":"ce4bh412rcd13ifvqdr0","pricing_plan_id":"cebpf4jnsgd1na2vs0mg"},{"bike_id":"afe2e088-4a36-4017-9dde-ff8c960d2821","system_id":"levelo_inurba_marseille","lat":43.34145,"lon":5.40903,"is_reserved":false,"is_disabled":false,"rental_uris":{"android":"levelo://app?vid=afe2e088-4a36-4017-9dde-ff8c960d2821","ios":"levelo://app?vid=afe2e088-4a36-4017-9dde-ff8c960d2821"},"vehicle_type_id":"4","last_reported":1731571996,"current_range_meters":30400,"station_id":"ce4bhqh2rcd13ifvqhlg","pricing_plan_id":"cebpf4jnsgd1na2vs0mg"},{"bike_id":"538d573f-c786-4bfd-a9d7-bb7ea496cfe9","system_id":"levelo_inurba_marseille","lat":43.28346,"lon":5.38117,"is_reserved":false,"is_disabled":false,"rental_uris":{"android":"levelo://app?vid=538d573f-c786-4bfd-a9d7-bb7ea496cfe9","ios":"levelo://app?vid=538d573f-c786-4bfd-a9d7-bb7ea496cfe9"},"vehicle_type_id":"4","last_reported":1731571996,"current_range_meters":6000,"station_id":"ce4bh412rcd13ifvqdr0","pricing_plan_id":"cebpf4jnsgd1na2vs0mg"},{"bike_id":"337ea833-1b01-4041-a864-7a3676c066d7","system_id":"levelo_inurba_marseille","lat":43.2707,"lon":5.4227,"is_reserved":false,"is_disabled":false,"rental_uris":{"android":"levelo://app?vid=337ea833-1b01-4041-a864-7a3676c066d7","ios":"levelo://app?vid=337ea833-1b01-4041-a864-7a3676c066d7"},"vehicle_type_id":"4","last_reported":1731571996,"current_range_meters":38800,"station_id":"ce4bhk92rcd13ifvqgb0","pricing_plan_id":"cebpf4jnsgd1na2vs0mg"},{"bike_id":"8dc67529-5229-43a1-8974-b429efa1d3ba","system_id":"levelo_inurba_marseille","lat":43.30555,"lon":5.36556,"is_reserved":false,"is_disabled":false,"rental_uris":{"android":"levelo://app?vid=8dc67529-5229-43a1-8974-b429efa1d3ba","ios":"levelo://app?vid=8dc67529-5229-43a1-8974-b429efa1d3ba"},"vehicle_type_id":"4","last_reported":1731571996,"current_range_meters":3200,"station_id":"ce4bgs12rcd13ifvqcag","pricing_plan_id":"cebpf4jnsgd1na2vs0mg"},{"bike_id":"96352786-b953-4b6d-96b3-5df619023394","system_id":"levelo_inurba_marseille","lat":43.31353,"lon":5.36722,"is_reserved":false,"is_disabled":false,"rental_uris":{"android":"levelo://app?vid=96352786-b953-4b6d-96b3-5df619023394","ios":"levelo://app?vid=96352786-b953-4b6d-96b3-5df619023394"},"vehicle_type_id":"4","last_reported":1731571996,"current_range_meters":3200,"station_id":"ce4bgr92rcd13ifvqc6g","pricing_plan_id":"cebpf4jnsgd1na2vs0mg"},{"bike_id":"621d496c-c09a-4305-a748-453b79ab4ac0","system_id":"levelo_inurba_marseille","lat":43.29198,"lon":5.35802,"is_reserved":false,"is_disabled":false,"rental_uris":{"android":"levelo://app?vid=621d496c-c09a-4305-a748-453b79ab4ac0","ios":"levelo://app?vid=621d496c-c09a-4305-a748-453b79ab4ac0"},"vehicle_type_id":"4","last_reported":1731571996,"current_range_meters":39200,"station_id":"ce4bhb12rcd13ifvqel0","pricing_plan_id":"cebpf4jnsgd1na2vs0mg"},{"bike_id":"d1de8638-bffd-4be4-ae10-3dd7a5d6ff38","system_id":"levelo_inurba_marseille","lat":43.30545,"lon":5.36711,"is_reserved":false,"is_disabled":false,"rental_uris":{"android":"levelo://app?vid=d1de8638-bffd-4be4-ae10-3dd7a5d6ff38","ios":"levelo://app?vid=d1de8638-bffd-4be4-ae10-3dd7a5d6ff38"},"vehicle_type_id":"4","last_reported":1731571996,"current_range_meters":7200,"station_id":"ce4bgrp2rcd13ifvqc9g","pricing_plan_id":"cebpf4jnsgd1na2vs0mg"},{"bike_id":"0017d6cf-6c90-4bf0-9626-a3ec2112cc8e","system_id":"levelo_inurba_marseille","lat":43.27907,"lon":5.38005,"is_reserved":false,"is_disabled":false,"rental_uris":{"android":"levelo://app?vid=0017d6cf-6c90-4bf0-9626-a3ec2112cc8e","ios":"levelo://app?vid=0017d6cf-6c90-4bf0-9626-a3ec2112cc8e"},"vehicle_type_id":"4","last_reported":1731571996,"current_range_meters":8400,"station_id":"ce4bhf92rcd13ifvqf50","pricing_plan_id":"cebpf4jnsgd1na2vs0mg"},{"bike_id":"37212eb8-cfa6-47ba-9ed7-bfed51287466","system_id":"levelo_inurba_marseille","lat":43.301547,"lon":5.392744,"is_reserved":false,"is_disabled":false,"rental_uris":{"android":"levelo://app?vid=37212eb8-cfa6-47ba-9ed7-bfed51287466","ios":"levelo://app?vid=37212eb8-cfa6-47ba-9ed7-bfed51287466"},"vehicle_type_id":"4","last_reported":1731571996,"current_range_meters":38800,"station_id":"","pricing_plan_id":"cebpf4jnsgd1na2vs0mg"},{"bike_id":"84817729-7a11-4bfd-b918-6535d69c0b65","system_id":"levelo_inurba_marseille","lat":43.24073,"lon":5.37765,"is_reserved":false,"is_disabled":false,"rental_uris":{"android":"levelo://app?vid=84817729-7a11-4bfd-b918-6535d69c0b65","ios":"levelo://app?vid=84817729-7a11-4bfd-b918-6535d69c0b65"},"vehicle_type_id":"4","last_reported":1731571996,"current_range_meters":30000,"station_id":"ce4bhnp2rcd13ifvqgvg","pricing_plan_id":"cebpf4jnsgd1na2vs0mg"},{"bike_id":"2172f37c-c266-4af0-926d-4056085815fe","system_id":"levelo_inurba_marseille","lat":43.2895,"lon":5.36411,"is_reserved":false,"is_disabled":false,"rental_uris":{"android":"levelo://app?vid=2172f37c-c266-4af0-926d-4056085815fe","ios":"levelo://app?vid=2172f37c-c266-4af0-926d-4056085815fe"},"vehicle_type_id":"4","last_reported":1731571996,"current_range_meters":38000,"station_id":"ce4bhc92rcd13ifvqetg","pricing_plan_id":"cebpf4jnsgd1na2vs0mg"},{"bike_id":"012927f2-0ce0-4abc-933c-6366952c031d","system_id":"levelo_inurba_marseille","lat":43.24175,"lon":5.39728,"is_reserved":false,"is_disabled":false,"rental_uris":{"android":"levelo://app?vid=012927f2-0ce0-4abc-933c-6366952c031d","ios":"levelo://app?vid=012927f2-0ce0-4abc-933c-6366952c031d"},"vehicle_type_id":"4","last_reported":1731571996,"current_range_meters":27600,"station_id":"ce4bhn12rcd13ifvqgpg","pricing_plan_id":"cebpf4jnsgd1na2vs0mg"},{"bike_id":"3f7042d7-7ab2-4583-9643-3e96635206e7","system_id":"levelo_inurba_marseille","lat":43.24184,"lon":5.39727,"is_reserved":false,"is_disabled":false,"rental_uris":{"android":"levelo://app?vid=3f7042d7-7ab2-4583-9643-3e96635206e7","ios":"levelo://app?vid=3f7042d7-7ab2-4583-9643-3e96635206e7"},"vehicle_type_id":"4","last_reported":1731571996,"current_range_meters":13600,"station_id":"ce4bhn12rcd13ifvqgpg","pricing_plan_id":"cebpf4jnsgd1na2vs0mg"},{"bike_id":"309e0894-9e53-4ebe-a77a-b90bb977ea0e","system_id":"levelo_inurba_marseille","lat":43.24075,"lon":5.37758,"is_reserved":false,"is_disabled":false,"rental_uris":{"android":"levelo://app?vid=309e0894-9e53-4ebe-a77a-b90bb977ea0e","ios":"levelo://app?vid=309e0894-9e53-4ebe-a77a-b90bb977ea0e"},"vehicle_type_id":"4","last_reported":1731571996,"current_range_meters":11200,"station_id":"ce4bhnp2rcd13ifvqgvg","pricing_plan_id":"cebpf4jnsgd1na2vs0mg"},{"bike_id":"fe5b2d6f-fade-4e18-bd02-0ba30ef36c22","system_id":"levelo_inurba_marseille","lat":43.303025,"lon":5.368964,"is_reserved":false,"is_disabled":false,"rental_uris":{"android":"levelo://app?vid=fe5b2d6f-fade-4e18-bd02-0ba30ef36c22","ios":"levelo://app?vid=fe5b2d6f-fade-4e18-bd02-0ba30ef36c22"},"vehicle_type_id":"4","last_reported":1731571996,"current_range_meters":29600,"station_id":"ce4bgqh2rcd13ifvqc5g","pricing_plan_id":"cebpf4jnsgd1na2vs0mg"},{"bike_id":"e320d189-79ad-4b4b-8378-af120e211eb6","system_id":"levelo_inurba_marseille","lat":43.25939,"lon":5.40901,"is_reserved":false,"is_disabled":false,"rental_uris":{"android":"levelo://app?vid=e320d189-79ad-4b4b-8378-af120e211eb6","ios":"levelo://app?vid=e320d189-79ad-4b4b-8378-af120e211eb6"},"vehicle_type_id":"4","last_reported":1731571996,"current_range_meters":27600,"station_id":"ce4bhm92rcd13ifvqglg","pricing_plan_id":"cebpf4jnsgd1na2vs0mg"},{"bike_id":"bab82320-e6fc-48dd-9d66-dc00547e2081","system_id":"levelo_inurba_marseille","lat":43.26952,"lon":5.38621,"is_reserved":false,"is_disabled":false,"rental_uris":{"android":"levelo://app?vid=bab82320-e6fc-48dd-9d66-dc00547e2081","ios":"levelo://app?vid=bab82320-e6fc-48dd-9d66-dc00547e2081"},"vehicle_type_id":"4","last_reported":1731571996,"current_range_meters":32400,"station_id":"ce4bhh92rcd13ifvqfh0","pricing_plan_id":"cebpf4jnsgd1na2vs0mg"},{"bike_id":"7c9b8995-ac96-4708-b4eb-b4b17631b9d8","system_id":"levelo_inurba_marseille","lat":43.337444,"lon":5.374475,"is_reserved":false,"is_disabled":false,"rental_uris":{"android":"levelo://app?vid=7c9b8995-ac96-4708-b4eb-b4b17631b9d8","ios":"levelo://app?vid=7c9b8995-ac96-4708-b4eb-b4b17631b9d8"},"vehicle_type_id":"4","last_reported":1731571996,"current_range_meters":34000,"station_id":"","pricing_plan_id":"cebpf4jnsgd1na2vs0mg"},{"bike_id":"aa6bb8a3-6021-42ac-b0b1-22f50ff8e5e7","system_id":"levelo_inurba_marseille","lat":43.30915,"lon":5.36853,"is_reserved":false,"is_disabled":false,"rental_uris":{"android":"levelo://app?vid=aa6bb8a3-6021-42ac-b0b1-22f50ff8e5e7","ios":"levelo://app?vid=aa6bb8a3-6021-42ac-b0b1-22f50ff8e5e7"},"vehicle_type_id":"4","last_reported":1731571996,"current_range_meters":39200,"station_id":"ce4bgn92rcd13ifvqbvg","pricing_plan_id":"cebpf4jnsgd1na2vs0mg"},{"bike_id":"4c9e6bef-0199-4008-8267-3bdcdd0e36c1","system_id":"levelo_inurba_marseille","lat":43.28713,"lon":5.37946,"is_reserved":false,"is_disabled":false,"rental_uris":{"android":"levelo://app?vid=4c9e6bef-0199-4008-8267-3bdcdd0e36c1","ios":"levelo://app?vid=4c9e6bef-0199-4008-8267-3bdcdd0e36c1"},"vehicle_type_id":"4","last_reported":1731571996,"current_range_meters":38800,"station_id":"ce4bh9p2rcd13ifvqec0","pricing_plan_id":"cebpf4jnsgd1na2vs0mg"},{"bike_id":"a4df5d8f-a96e-44fd-a33c-a0551b9dcb5d","system_id":"levelo_inurba_marseille","lat":43.27068,"lon":5.4228,"is_reserved":false,"is_disabled":false,"rental_uris":{"android":"levelo://app?vid=a4df5d8f-a96e-44fd-a33c-a0551b9dcb5d","ios":"levelo://app?vid=a4df5d8f-a96e-44fd-a33c-a0551b9dcb5d"},"vehicle_type_id":"4","last_reported":1731571996,"current_range_meters":38800,"station_id":"ce4bhk92rcd13ifvqgb0","pricing_plan_id":"cebpf4jnsgd1na2vs0mg"},{"bike_id":"063047ff-3b6e-4c65-9978-03032fa2a4da","system_id":"levelo_inurba_marseille","lat":43.25114,"lon":5.40323,"is_reserved":false,"is_disabled":false,"rental_uris":{"android":"levelo://app?vid=063047ff-3b6e-4c65-9978-03032fa2a4da","ios":"levelo://app?vid=063047ff-3b6e-4c65-9978-03032fa2a4da"},"vehicle_type_id":"4","last_reported":1731571996,"current_range_meters":38400,"station_id":"ce4bhlh2rcd13ifvqgig","pricing_plan_id":"cebpf4jnsgd1na2vs0mg"},{"bike_id":"08a91fd1-ad75-45bb-8569-ae46867998ff","system_id":"levelo_inurba_marseille","lat":43.34142,"lon":5.40908,"is_reserved":false,"is_disabled":false,"rental_uris":{"android":"levelo://app?vid=08a91fd1-ad75-45bb-8569-ae46867998ff","ios":"levelo://app?vid=08a91fd1-ad75-45bb-8569-ae46867998ff"},"vehicle_type_id":"4","last_reported":1731571996,"current_range_meters":17600,"station_id":"ce4bhqh2rcd13ifvqhlg","pricing_plan_id":"cebpf4jnsgd1na2vs0mg"},{"bike_id":"a592f289-7c17-4820-9105-4cfe6872b948","system_id":"levelo_inurba_marseille","lat":43.28157,"lon":5.42645,"is_reserved":false,"is_disabled":false,"rental_uris":{"android":"levelo://app?vid=a592f289-7c17-4820-9105-4cfe6872b948","ios":"levelo://app?vid=a592f289-7c17-4820-9105-4cfe6872b948"},"vehicle_type_id":"4","last_reported":1731571996,"current_range_meters":36800,"station_id":"ce4bhnh2rcd13ifvqgug","pricing_plan_id":"cebpf4jnsgd1na2vs0mg"},{"bike_id":"73b8e509-2f12-44f8-afef-fdb92b9db926","system_id":"levelo_inurba_marseille","lat":43.2997,"lon":5.37175,"is_reserved":false,"is_disabled":false,"rental_uris":{"android":"levelo://app?vid=73b8e509-2f12-44f8-afef-fdb92b9db926","ios":"levelo://app?vid=73b8e509-2f12-44f8-afef-fdb92b9db926"},"vehicle_type_id":"4","last_reported":1731571996,"current_range_meters":20000,"station_id":"ce4bgr92rcd13ifvqc7g","pricing_plan_id":"cebpf4jnsgd1na2vs0mg"},{"bike_id":"f7f01777-6425-41f4-875e-56e20c0c76ca","system_id":"levelo_inurba_marseille","lat":43.29288,"lon":5.40116,"is_reserved":false,"is_disabled":false,"rental_uris":{"android":"levelo://app?vid=f7f01777-6425-41f4-875e-56e20c0c76ca","ios":"levelo://app?vid=f7f01777-6425-41f4-875e-56e20c0c76ca"},"vehicle_type_id":"4","last_reported":1731571996,"current_range_meters":38000,"station_id":"ce4bh312rcd13ifvqdk0","pricing_plan_id":"cebpf4jnsgd1na2vs0mg"},{"bike_id":"11dcdaa9-f959-4377-8827-31f7d056d56c","system_id":"levelo_inurba_marseille","lat":43.309519,"lon":5.390328,"is_reserved":false,"is_disabled":false,"rental_uris":{"android":"levelo://app?vid=11dcdaa9-f959-4377-8827-31f7d056d56c","ios":"levelo://app?vid=11dcdaa9-f959-4377-8827-31f7d056d56c"},"vehicle_type_id":"4","last_reported":1731571996,"current_range_meters":27600,"station_id":"ce4bgup2rcd13ifvqco0","pricing_plan_id":"cebpf4jnsgd1na2vs0mg"},{"bike_id":"6cce546f-f366-4637-a720-7c24fbac77ae","system_id":"levelo_inurba_marseille","lat":43.29552,"lon":5.4229,"is_reserved":false,"is_disabled":false,"rental_uris":{"android":"levelo://app?vid=6cce546f-f366-4637-a720-7c24fbac77ae","ios":"levelo://app?vid=6cce546f-f366-4637-a720-7c24fbac77ae"},"vehicle_type_id":"4","last_reported":1731571996,"current_range_meters":16000,"station_id":"ce4bhph2rcd13ifvqhdg","pricing_plan_id":"cebpf4jnsgd1na2vs0mg"},{"bike_id":"13dd795e-0114-47d7-bc51-1a790becb768","system_id":"levelo_inurba_marseille","lat":43.29924,"lon":5.37472,"is_reserved":false,"is_disabled":false,"rental_uris":{"android":"levelo://app?vid=13dd795e-0114-47d7-bc51-1a790becb768","ios":"levelo://app?vid=13dd795e-0114-47d7-bc51-1a790becb768"},"vehicle_type_id":"4","last_reported":1731571996,"current_range_meters":3200,"station_id":"ce4bgjh2rcd13ifvqbg0","pricing_plan_id":"cebpf4jnsgd1na2vs0mg"},{"bike_id":"fc746dc4-7003-4908-8493-3a62027ab2bc","system_id":"levelo_inurba_marseille","lat":43.27681,"lon":5.38906,"is_reserved":false,"is_disabled":false,"rental_uris":{"android":"levelo://app?vid=fc746dc4-7003-4908-8493-3a62027ab2bc","ios":"levelo://app?vid=fc746dc4-7003-4908-8493-3a62027ab2bc"},"vehicle_type_id":"4","last_reported":1731571996,"current_range_meters":38000,"station_id":"ce4bhi12rcd13ifvqfo0","pricing_plan_id":"cebpf4jnsgd1na2vs0mg"},{"bike_id":"3dc2a228-079c-4072-8fd5-6a4d42db143f","system_id":"levelo_inurba_marseille","lat":43.31348,"lon":5.36721,"is_reserved":false,"is_disabled":false,"rental_uris":{"android":"levelo://app?vid=3dc2a228-079c-4072-8fd5-6a4d42db143f","ios":"levelo://app?vid=3dc2a228-079c-4072-8fd5-6a4d42db143f"},"vehicle_type_id":"4","last_reported":1731571996,"current_range_meters":16800,"station_id":"ce4bgr92rcd13ifvqc6g","pricing_plan_id":"cebpf4jnsgd1na2vs0mg"},{"bike_id":"93ca2130-aaf5-470f-9099-d847f3932292","system_id":"levelo_inurba_marseille","lat":43.24075,"lon":5.37756,"is_reserved":false,"is_disabled":false,"rental_uris":{"android":"levelo://app?vid=93ca2130-aaf5-470f-9099-d847f3932292","ios":"levelo://app?vid=93ca2130-aaf5-470f-9099-d847f3932292"},"vehicle_type_id":"4","last_reported":1731571996,"current_range_meters":34000,"station_id":"ce4bhnp2rcd13ifvqgvg","pricing_plan_id":"cebpf4jnsgd1na2vs0mg"},{"bike_id":"302217a2-0056-477e-a525-f473de66ebad","system_id":"levelo_inurba_marseille","lat":43.27497,"lon":5.42454,"is_reserved":false,"is_disabled":false,"rental_uris":{"android":"levelo://app?vid=302217a2-0056-477e-a525-f473de66ebad","ios":"levelo://app?vid=302217a2-0056-477e-a525-f473de66ebad"},"vehicle_type_id":"4","last_reported":1731571996,"current_range_meters":22400,"station_id":"ce4bhn92rcd13ifvqgrg","pricing_plan_id":"cebpf4jnsgd1na2vs0mg"},{"bike_id":"4ab7f674-7ee6-4f9b-82ef-a47506d8af43","system_id":"levelo_inurba_marseille","lat":43.302204,"lon":5.369068,"is_reserved":false,"is_disabled":false,"rental_uris":{"android":"levelo://app?vid=4ab7f674-7ee6-4f9b-82ef-a47506d8af43","ios":"levelo://app?vid=4ab7f674-7ee6-4f9b-82ef-a47506d8af43"},"vehicle_type_id":"4","last_reported":1731571996,"current_range_meters":17200,"station_id":"ce4bh0p2rcd13ifvqd70","pricing_plan_id":"cebpf4jnsgd1na2vs0mg"},{"bike_id":"7735a892-8d6b-4a93-b64f-341778d38d92","system_id":"levelo_inurba_marseille","lat":43.33615,"lon":5.41032,"is_reserved":false,"is_disabled":false,"rental_uris":{"android":"levelo://app?vid=7735a892-8d6b-4a93-b64f-341778d38d92","ios":"levelo://app?vid=7735a892-8d6b-4a93-b64f-341778d38d92"},"vehicle_type_id":"4","last_reported":1731571996,"current_range_meters":26000,"station_id":"ce4bhqh2rcd13ifvqhmg","pricing_plan_id":"cebpf4jnsgd1na2vs0mg"},{"bike_id":"a5baad26-2b66-4d5a-a9af-3321501fc6d9","system_id":"levelo_inurba_marseille","lat":43.30949,"lon":5.39028,"is_reserved":false,"is_disabled":false,"rental_uris":{"android":"levelo://app?vid=a5baad26-2b66-4d5a-a9af-3321501fc6d9","ios":"levelo://app?vid=a5baad26-2b66-4d5a-a9af-3321501fc6d9"},"vehicle_type_id":"4","last_reported":1731571996,"current_range_meters":14000,"station_id":"ce4bgup2rcd13ifvqco0","pricing_plan_id":"cebpf4jnsgd1na2vs0mg"},{"bike_id":"a4ec425c-e618-4c93-8518-14aaf2cc1493","system_id":"levelo_inurba_marseille","lat":43.31756,"lon":5.39023,"is_reserved":false,"is_disabled":false,"rental_uris":{"android":"levelo://app?vid=a4ec425c-e618-4c93-8518-14aaf2cc1493","ios":"levelo://app?vid=a4ec425c-e618-4c93-8518-14aaf2cc1493"},"vehicle_type_id":"4","last_reported":1731571996,"current_range_meters":38000,"station_id":"ce4bhqp2rcd13ifvqhng","pricing_plan_id":"cebpf4jnsgd1na2vs0mg"},{"bike_id":"088719d3-df86-4762-930f-697dcfcb2014","system_id":"levelo_inurba_marseille","lat":43.29566,"lon":5.37527,"is_reserved":false,"is_disabled":false,"rental_uris":{"android":"levelo://app?vid=088719d3-df86-4762-930f-697dcfcb2014","ios":"levelo://app?vid=088719d3-df86-4762-930f-697dcfcb2014"},"vehicle_type_id":"4","last_reported":1731571996,"current_range_meters":4800,"station_id":"ce4bgh92rcd13ifvqb50","pricing_plan_id":"cebpf4jnsgd1na2vs0mg"},{"bike_id":"dae5cfe0-b8b5-4b7f-a29e-18f7f77aa5ed","system_id":"levelo_inurba_marseille","lat":43.29925,"lon":5.38023,"is_reserved":false,"is_disabled":false,"rental_uris":{"android":"levelo://app?vid=dae5cfe0-b8b5-4b7f-a29e-18f7f77aa5ed","ios":"levelo://app?vid=dae5cfe0-b8b5-4b7f-a29e-18f7f77aa5ed"},"vehicle_type_id":"4","last_reported":1731571996,"current_range_meters":24800,"station_id":"","pricing_plan_id":"cebpf4jnsgd1na2vs0mg"},{"bike_id":"faaf644f-5078-4e83-82d7-47b8a11ecf30","system_id":"levelo_inurba_marseille","lat":43.28936,"lon":5.36641,"is_reserved":false,"is_disabled":false,"rental_uris":{"android":"levelo://app?vid=faaf644f-5078-4e83-82d7-47b8a11ecf30","ios":"levelo://app?vid=faaf644f-5078-4e83-82d7-47b8a11ecf30"},"vehicle_type_id":"4","last_reported":1731571996,"current_range_meters":22000,"station_id":"ce4bhap2rcd13ifvqek0","pricing_plan_id":"cebpf4jnsgd1na2vs0mg"},{"bike_id":"385ec239-505b-4595-908c-fb22d2b2039f","system_id":"levelo_inurba_marseille","lat":43.31324,"lon":5.36766,"is_reserved":false,"is_disabled":false,"rental_uris":{"android":"levelo://app?vid=385ec239-505b-4595-908c-fb22d2b2039f","ios":"levelo://app?vid=385ec239-505b-4595-908c-fb22d2b2039f"},"vehicle_type_id":"4","last_reported":1731571996,"current_range_meters":25600,"station_id":"ce4bgr92rcd13ifvqc6g","pricing_plan_id":"cebpf4jnsgd1na2vs0mg"},{"bike_id":"07ee4904-f535-458a-b0b5-2f7426ce7969","system_id":"levelo_inurba_marseille","lat":43.24081,"lon":5.37752,"is_reserved":false,"is_disabled":false,"rental_uris":{"android":"levelo://app?vid=07ee4904-f535-458a-b0b5-2f7426ce7969","ios":"levelo://app?vid=07ee4904-f535-458a-b0b5-2f7426ce7969"},"vehicle_type_id":"4","last_reported":1731571996,"current_range_meters":8000,"station_id":"ce4bhnp2rcd13ifvqgvg","pricing_plan_id":"cebpf4jnsgd1na2vs0mg"},{"bike_id":"8aa67a89-0dc6-4b92-b9d3-266a6f0ca2c6","system_id":"levelo_inurba_marseille","lat":43.30535,"lon":5.36708,"is_reserved":false,"is_disabled":false,"rental_uris":{"android":"levelo://app?vid=8aa67a89-0dc6-4b92-b9d3-266a6f0ca2c6","ios":"levelo://app?vid=8aa67a89-0dc6-4b92-b9d3-266a6f0ca2c6"},"vehicle_type_id":"4","last_reported":1731571996,"current_range_meters":38800,"station_id":"ce4bgrp2rcd13ifvqc9g","pricing_plan_id":"cebpf4jnsgd1na2vs0mg"},{"bike_id":"370d61ce-db2b-40e9-b7e1-1e2586631157","system_id":"levelo_inurba_marseille","lat":43.25934,"lon":5.40907,"is_reserved":false,"is_disabled":false,"rental_uris":{"android":"levelo://app?vid=370d61ce-db2b-40e9-b7e1-1e2586631157","ios":"levelo://app?vid=370d61ce-db2b-40e9-b7e1-1e2586631157"},"vehicle_type_id":"4","last_reported":1731571996,"current_range_meters":25200,"station_id":"ce4bhm92rcd13ifvqglg","pricing_plan_id":"cebpf4jnsgd1na2vs0mg"},{"bike_id":"0378fb57-db5d-4ef0-8ba5-5ecca0b0aeae","system_id":"levelo_inurba_marseille","lat":43.31328,"lon":5.39692,"is_reserved":false,"is_disabled":false,"rental_uris":{"android":"levelo://app?vid=0378fb57-db5d-4ef0-8ba5-5ecca0b0aeae","ios":"levelo://app?vid=0378fb57-db5d-4ef0-8ba5-5ecca0b0aeae"},"vehicle_type_id":"4","last_reported":1731571996,"current_range_meters":38800,"station_id":"ce4bgvp2rcd13ifvqcu0","pricing_plan_id":"cebpf4jnsgd1na2vs0mg"},{"bike_id":"02b1bd0b-a86a-47f1-9ed3-78958123915a","system_id":"levelo_inurba_marseille","lat":43.24078,"lon":5.37757,"is_reserved":false,"is_disabled":false,"rental_uris":{"android":"levelo://app?vid=02b1bd0b-a86a-47f1-9ed3-78958123915a","ios":"levelo://app?vid=02b1bd0b-a86a-47f1-9ed3-78958123915a"},"vehicle_type_id":"4","last_reported":1731571996,"current_range_meters":8800,"station_id":"ce4bhnp2rcd13ifvqgvg","pricing_plan_id":"cebpf4jnsgd1na2vs0mg"},{"bike_id":"ecc60700-2e3d-4c58-bd52-63dc24c25dd9","system_id":"levelo_inurba_marseille","lat":43.31335,"lon":5.36737,"is_reserved":false,"is_disabled":false,"rental_uris":{"android":"levelo://app?vid=ecc60700-2e3d-4c58-bd52-63dc24c25dd9","ios":"levelo://app?vid=ecc60700-2e3d-4c58-bd52-63dc24c25dd9"},"vehicle_type_id":"4","last_reported":1731571996,"current_range_meters":8400,"station_id":"ce4bgr92rcd13ifvqc6g","pricing_plan_id":"cebpf4jnsgd1na2vs0mg"},{"bike_id":"9a739226-3e80-4c12-b578-c7558169d9ad","system_id":"levelo_inurba_marseille","lat":43.29165,"lon":5.37149,"is_reserved":false,"is_disabled":false,"rental_uris":{"android":"levelo://app?vid=9a739226-3e80-4c12-b578-c7558169d9ad","ios":"levelo://app?vid=9a739226-3e80-4c12-b578-c7558169d9ad"},"vehicle_type_id":"4","last_reported":1731571996,"current_range_meters":20000,"station_id":"ce4bha92rcd13ifvqeh0","pricing_plan_id":"cebpf4jnsgd1na2vs0mg"},{"bike_id":"47d918a1-7282-4a7a-8ccf-c2762d1798c4","system_id":"levelo_inurba_marseille","lat":43.24084,"lon":5.37751,"is_reserved":false,"is_disabled":false,"rental_uris":{"android":"levelo://app?vid=47d918a1-7282-4a7a-8ccf-c2762d1798c4","ios":"levelo://app?vid=47d918a1-7282-4a7a-8ccf-c2762d1798c4"},"vehicle_type_id":"4","last_reported":1731571996,"current_range_meters":6400,"station_id":"ce4bhnp2rcd13ifvqgvg","pricing_plan_id":"cebpf4jnsgd1na2vs0mg"},{"bike_id":"2868211a-801a-40e9-87f4-374361291305","system_id":"levelo_inurba_marseille","lat":43.28152,"lon":5.42644,"is_reserved":false,"is_disabled":false,"rental_uris":{"android":"levelo://app?vid=2868211a-801a-40e9-87f4-374361291305","ios":"levelo://app?vid=2868211a-801a-40e9-87f4-374361291305"},"vehicle_type_id":"4","last_reported":1731571996,"current_range_meters":27200,"station_id":"ce4bhnh2rcd13ifvqgug","pricing_plan_id":"cebpf4jnsgd1na2vs0mg"},{"bike_id":"1311c692-6e9d-4afb-b7b0-20686564fe7a","system_id":"levelo_inurba_marseille","lat":43.337444,"lon":5.374475,"is_reserved":false,"is_disabled":false,"rental_uris":{"android":"levelo://app?vid=1311c692-6e9d-4afb-b7b0-20686564fe7a","ios":"levelo://app?vid=1311c692-6e9d-4afb-b7b0-20686564fe7a"},"vehicle_type_id":"4","last_reported":1731571996,"current_range_meters":33600,"station_id":"","pricing_plan_id":"cebpf4jnsgd1na2vs0mg"},{"bike_id":"1f3b14a9-4795-4e7b-a682-30e775eb0a9b","system_id":"levelo_inurba_marseille","lat":43.29722,"lon":5.37686,"is_reserved":false,"is_disabled":false,"rental_uris":{"android":"levelo://app?vid=1f3b14a9-4795-4e7b-a682-30e775eb0a9b","ios":"levelo://app?vid=1f3b14a9-4795-4e7b-a682-30e775eb0a9b"},"vehicle_type_id":"4","last_reported":1731571996,"current_range_meters":38800,"station_id":"ce4bgkh2rcd13ifvqbl0","pricing_plan_id":"cebpf4jnsgd1na2vs0mg"},{"bike_id":"07a4be1c-5cf0-4f3e-8c27-4c3e24078daa","system_id":"levelo_inurba_marseille","lat":43.24808,"lon":5.37455,"is_reserved":false,"is_disabled":false,"rental_uris":{"android":"levelo://app?vid=07a4be1c-5cf0-4f3e-8c27-4c3e24078daa","ios":"levelo://app?vid=07a4be1c-5cf0-4f3e-8c27-4c3e24078daa"},"vehicle_type_id":"4","last_reported":1731571996,"current_range_meters":16000,"station_id":"ce4bhgh2rcd13ifvqfb0","pricing_plan_id":"cebpf4jnsgd1na2vs0mg"},{"bike_id":"4950fae1-ce47-439e-aa06-0be740b50f99","system_id":"levelo_inurba_marseille","lat":43.24081,"lon":5.37755,"is_reserved":false,"is_disabled":false,"rental_uris":{"android":"levelo://app?vid=4950fae1-ce47-439e-aa06-0be740b50f99","ios":"levelo://app?vid=4950fae1-ce47-439e-aa06-0be740b50f99"},"vehicle_type_id":"4","last_reported":1731571996,"current_range_meters":24400,"station_id":"ce4bhnp2rcd13ifvqgvg","pricing_plan_id":"cebpf4jnsgd1na2vs0mg"},{"bike_id":"bbb76869-5f19-4adb-b3fd-8e5dab144919","system_id":"levelo_inurba_marseille","lat":43.24075,"lon":5.37759,"is_reserved":false,"is_disabled":false,"rental_uris":{"android":"levelo://app?vid=bbb76869-5f19-4adb-b3fd-8e5dab144919","ios":"levelo://app?vid=bbb76869-5f19-4adb-b3fd-8e5dab144919"},"vehicle_type_id":"4","last_reported":1731571996,"current_range_meters":24800,"station_id":"ce4bhnp2rcd13ifvqgvg","pricing_plan_id":"cebpf4jnsgd1na2vs0mg"},{"bike_id":"b2cf7b3a-7b52-49f6-a48a-b5139156b1c1","system_id":"levelo_inurba_marseille","lat":43.30593,"lon":5.39359,"is_reserved":false,"is_disabled":false,"rental_uris":{"android":"levelo://app?vid=b2cf7b3a-7b52-49f6-a48a-b5139156b1c1","ios":"levelo://app?vid=b2cf7b3a-7b52-49f6-a48a-b5139156b1c1"},"vehicle_type_id":"4","last_reported":1731571996,"current_range_meters":38400,"station_id":"ce4bh0p2rcd13ifvqd80","pricing_plan_id":"cebpf4jnsgd1na2vs0mg"},{"bike_id":"0c18554f-4fb6-4f63-98b2-d2dec88f5c1c","system_id":"levelo_inurba_marseille","lat":43.2315,"lon":5.43727,"is_reserved":false,"is_disabled":false,"rental_uris":{"android":"levelo://app?vid=0c18554f-4fb6-4f63-98b2-d2dec88f5c1c","ios":"levelo://app?vid=0c18554f-4fb6-4f63-98b2-d2dec88f5c1c"},"vehicle_type_id":"4","last_reported":1731571996,"current_range_meters":20800,"station_id":"ce4bhmp2rcd13ifvqgog","pricing_plan_id":"cebpf4jnsgd1na2vs0mg"},{"bike_id":"6979ed77-5895-4950-acba-0fc3cf8fd6a1","system_id":"levelo_inurba_marseille","lat":43.28715,"lon":5.38296,"is_reserved":false,"is_disabled":false,"rental_uris":{"android":"levelo://app?vid=6979ed77-5895-4950-acba-0fc3cf8fd6a1","ios":"levelo://app?vid=6979ed77-5895-4950-acba-0fc3cf8fd6a1"},"vehicle_type_id":"4","last_reported":1731571996,"current_range_meters":6800,"station_id":"ce4bgkh2rcd13ifvqbl0","pricing_plan_id":"cebpf4jnsgd1na2vs0mg"},{"bike_id":"913e24fc-fcc0-4289-8c6b-d5f0b310633d","system_id":"levelo_inurba_marseille","lat":43.26685,"lon":5.38277,"is_reserved":false,"is_disabled":false,"rental_uris":{"android":"levelo://app?vid=913e24fc-fcc0-4289-8c6b-d5f0b310633d","ios":"levelo://app?vid=913e24fc-fcc0-4289-8c6b-d5f0b310633d"},"vehicle_type_id":"4","last_reported":1731571996,"current_range_meters":28400,"station_id":"ce4bhg92rcd13ifvqf90","pricing_plan_id":"cebpf4jnsgd1na2vs0mg"},{"bike_id":"f72b3f1a-cd67-4756-9aa5-453931722e55","system_id":"levelo_inurba_marseille","lat":43.251187,"lon":5.403146,"is_reserved":false,"is_disabled":false,"rental_uris":{"android":"levelo://app?vid=f72b3f1a-cd67-4756-9aa5-453931722e55","ios":"levelo://app?vid=f72b3f1a-cd67-4756-9aa5-453931722e55"},"vehicle_type_id":"4","last_reported":1731571996,"current_range_meters":36800,"station_id":"ce4bhlh2rcd13ifvqgig","pricing_plan_id":"cebpf4jnsgd1na2vs0mg"},{"bike_id":"14041b42-c763-4196-acb4-81474847f26a","system_id":"levelo_inurba_marseille","lat":43.24082,"lon":5.3775,"is_reserved":false,"is_disabled":false,"rental_uris":{"android":"levelo://app?vid=14041b42-c763-4196-acb4-81474847f26a","ios":"levelo://app?vid=14041b42-c763-4196-acb4-81474847f26a"},"vehicle_type_id":"4","last_reported":1731571996,"current_range_meters":30400,"station_id":"ce4bhnp2rcd13ifvqgvg","pricing_plan_id":"cebpf4jnsgd1na2vs0mg"},{"bike_id":"61a21692-06ce-412b-9886-67e6f8323a39","system_id":"levelo_inurba_marseille","lat":43.28698,"lon":5.39986,"is_reserved":false,"is_disabled":false,"rental_uris":{"android":"levelo://app?vid=61a21692-06ce-412b-9886-67e6f8323a39","ios":"levelo://app?vid=61a21692-06ce-412b-9886-67e6f8323a39"},"vehicle_type_id":"4","last_reported":1731571996,"current_range_meters":12400,"station_id":"ce4bho92rcd13ifvqh3g","pricing_plan_id":"cebpf4jnsgd1na2vs0mg"},{"bike_id":"bb196ce4-c942-4277-b14f-31260b7cbaf3","system_id":"levelo_inurba_marseille","lat":43.33096,"lon":5.39692,"is_reserved":false,"is_disabled":false,"rental_uris":{"android":"levelo://app?vid=bb196ce4-c942-4277-b14f-31260b7cbaf3","ios":"levelo://app?vid=bb196ce4-c942-4277-b14f-31260b7cbaf3"},"vehicle_type_id":"4","last_reported":1731571996,"current_range_meters":8400,"station_id":"","pricing_plan_id":"cebpf4jnsgd1na2vs0mg"},{"bike_id":"3bb470d3-e6d0-4504-acb0-5482edf8d3d7","system_id":"levelo_inurba_marseille","lat":43.30193,"lon":5.36604,"is_reserved":false,"is_disabled":false,"rental_uris":{"android":"levelo://app?vid=3bb470d3-e6d0-4504-acb0-5482edf8d3d7","ios":"levelo://app?vid=3bb470d3-e6d0-4504-acb0-5482edf8d3d7"},"vehicle_type_id":"4","last_reported":1731571996,"current_range_meters":38400,"station_id":"ce4bgrh2rcd13ifvqc8g","pricing_plan_id":"cebpf4jnsgd1na2vs0mg"},{"bike_id":"83aac5db-0f37-46f1-b849-304ce128e912","system_id":"levelo_inurba_marseille","lat":43.29002,"lon":5.35619,"is_reserved":false,"is_disabled":false,"rental_uris":{"android":"levelo://app?vid=83aac5db-0f37-46f1-b849-304ce128e912","ios":"levelo://app?vid=83aac5db-0f37-46f1-b849-304ce128e912"},"vehicle_type_id":"4","last_reported":1731571996,"current_range_meters":12400,"station_id":"ce4bhb92rcd13ifvqen0","pricing_plan_id":"cebpf4jnsgd1na2vs0mg"},{"bike_id":"fa46e8fd-ed3b-44bc-8cbc-783699daeec1","system_id":"levelo_inurba_marseille","lat":43.29278,"lon":5.36854,"is_reserved":false,"is_disabled":false,"rental_uris":{"android":"levelo://app?vid=fa46e8fd-ed3b-44bc-8cbc-783699daeec1","ios":"levelo://app?vid=fa46e8fd-ed3b-44bc-8cbc-783699daeec1"},"vehicle_type_id":"4","last_reported":1731571996,"current_range_meters":36800,"station_id":"ce4bhbp2rcd13ifvqesg","pricing_plan_id":"cebpf4jnsgd1na2vs0mg"},{"bike_id":"a1d9bdb9-e269-44ef-bd75-19b33effe1c2","system_id":"levelo_inurba_marseille","lat":43.32543,"lon":5.4143,"is_reserved":false,"is_disabled":false,"rental_uris":{"android":"levelo://app?vid=a1d9bdb9-e269-44ef-bd75-19b33effe1c2","ios":"levelo://app?vid=a1d9bdb9-e269-44ef-bd75-19b33effe1c2"},"vehicle_type_id":"4","last_reported":1731571996,"current_range_meters":38400,"station_id":"ce4bhq12rcd13ifvqhhg","pricing_plan_id":"cebpf4jnsgd1na2vs0mg"},{"bike_id":"beaf3b92-71ef-47af-9973-e4d7d687b4f9","system_id":"levelo_inurba_marseille","lat":43.28941,"lon":5.36644,"is_reserved":false,"is_disabled":false,"rental_uris":{"android":"levelo://app?vid=beaf3b92-71ef-47af-9973-e4d7d687b4f9","ios":"levelo://app?vid=beaf3b92-71ef-47af-9973-e4d7d687b4f9"},"vehicle_type_id":"4","last_reported":1731571996,"current_range_meters":25600,"station_id":"ce4bhap2rcd13ifvqek0","pricing_plan_id":"cebpf4jnsgd1na2vs0mg"},{"bike_id":"bba76986-27db-4a0b-aac9-b12dd5c4e056","system_id":"levelo_inurba_marseille","lat":43.30545,"lon":5.36519,"is_reserved":false,"is_disabled":false,"rental_uris":{"android":"levelo://app?vid=bba76986-27db-4a0b-aac9-b12dd5c4e056","ios":"levelo://app?vid=bba76986-27db-4a0b-aac9-b12dd5c4e056"},"vehicle_type_id":"4","last_reported":1731571996,"current_range_meters":38800,"station_id":"ce4bgs12rcd13ifvqcag","pricing_plan_id":"cebpf4jnsgd1na2vs0mg"},{"bike_id":"e172574a-62b1-4631-8fb4-dded1439cd60","system_id":"levelo_inurba_marseille","lat":43.27492,"lon":5.42455,"is_reserved":false,"is_disabled":false,"rental_uris":{"android":"levelo://app?vid=e172574a-62b1-4631-8fb4-dded1439cd60","ios":"levelo://app?vid=e172574a-62b1-4631-8fb4-dded1439cd60"},"vehicle_type_id":"4","last_reported":1731571996,"current_range_meters":16400,"station_id":"ce4bhn92rcd13ifvqgrg","pricing_plan_id":"cebpf4jnsgd1na2vs0mg"},{"bike_id":"0b5aaeec-0ad4-49c2-b103-80c0a3dcb0d5","system_id":"levelo_inurba_marseille","lat":43.2928,"lon":5.36826,"is_reserved":false,"is_disabled":false,"rental_uris":{"android":"levelo://app?vid=0b5aaeec-0ad4-49c2-b103-80c0a3dcb0d5","ios":"levelo://app?vid=0b5aaeec-0ad4-49c2-b103-80c0a3dcb0d5"},"vehicle_type_id":"4","last_reported":1731571996,"current_range_meters":11200,"station_id":"ce4bhbp2rcd13ifvqesg","pricing_plan_id":"cebpf4jnsgd1na2vs0mg"},{"bike_id":"8b9c9094-77af-4530-ba0c-e1687be735b4","system_id":"levelo_inurba_marseille","lat":43.33764,"lon":5.3745,"is_reserved":false,"is_disabled":false,"rental_uris":{"android":"levelo://app?vid=8b9c9094-77af-4530-ba0c-e1687be735b4","ios":"levelo://app?vid=8b9c9094-77af-4530-ba0c-e1687be735b4"},"vehicle_type_id":"4","last_reported":1731571996,"current_range_meters":38800,"station_id":"","pricing_plan_id":"cebpf4jnsgd1na2vs0mg"},{"bike_id":"3c0076c8-ba74-4588-862f-7e434d1ba05a","system_id":"levelo_inurba_marseille","lat":43.337444,"lon":5.374475,"is_reserved":false,"is_disabled":false,"rental_uris":{"android":"levelo://app?vid=3c0076c8-ba74-4588-862f-7e434d1ba05a","ios":"levelo://app?vid=3c0076c8-ba74-4588-862f-7e434d1ba05a"},"vehicle_type_id":"4","last_reported":1731571996,"current_range_meters":36000,"station_id":"","pricing_plan_id":"cebpf4jnsgd1na2vs0mg"},{"bike_id":"cc5a361c-ef14-4a3d-aa63-15d549a532ea","system_id":"levelo_inurba_marseille","lat":43.26203,"lon":5.37933,"is_reserved":false,"is_disabled":false,"rental_uris":{"android":"levelo://app?vid=cc5a361c-ef14-4a3d-aa63-15d549a532ea","ios":"levelo://app?vid=cc5a361c-ef14-4a3d-aa63-15d549a532ea"},"vehicle_type_id":"4","last_reported":1731571996,"current_range_meters":11200,"station_id":"ce4bhjp2rcd13ifvqg90","pricing_plan_id":"cebpf4jnsgd1na2vs0mg"},{"bike_id":"f5df91d9-4a7c-43df-9009-00af233090e5","system_id":"levelo_inurba_marseille","lat":43.33617,"lon":5.41049,"is_reserved":false,"is_disabled":false,"rental_uris":{"android":"levelo://app?vid=f5df91d9-4a7c-43df-9009-00af233090e5","ios":"levelo://app?vid=f5df91d9-4a7c-43df-9009-00af233090e5"},"vehicle_type_id":"4","last_reported":1731571996,"current_range_meters":38800,"station_id":"ce4bhqh2rcd13ifvqhmg","pricing_plan_id":"cebpf4jnsgd1na2vs0mg"},{"bike_id":"475e0d3b-5816-4ca4-8c96-31800b777b85","system_id":"levelo_inurba_marseille","lat":43.28762,"lon":5.39693,"is_reserved":false,"is_disabled":false,"rental_uris":{"android":"levelo://app?vid=475e0d3b-5816-4ca4-8c96-31800b777b85","ios":"levelo://app?vid=475e0d3b-5816-4ca4-8c96-31800b777b85"},"vehicle_type_id":"4","last_reported":1731571996,"current_range_meters":36400,"station_id":"ce4bh292rcd13ifvqdg0","pricing_plan_id":"cebpf4jnsgd1na2vs0mg"},{"bike_id":"4e568d48-a131-4828-916f-68a9a440f557","system_id":"levelo_inurba_marseille","lat":43.26957,"lon":5.38633,"is_reserved":false,"is_disabled":false,"rental_uris":{"android":"levelo://app?vid=4e568d48-a131-4828-916f-68a9a440f557","ios":"levelo://app?vid=4e568d48-a131-4828-916f-68a9a440f557"},"vehicle_type_id":"4","last_reported":1731571996,"current_range_meters":10000,"station_id":"ce4bhh92rcd13ifvqfh0","pricing_plan_id":"cebpf4jnsgd1na2vs0mg"},{"bike_id":"c5eaa274-764e-4094-8ea1-94a8521ea9e2","system_id":"levelo_inurba_marseille","lat":43.30952,"lon":5.39031,"is_reserved":false,"is_disabled":false,"rental_uris":{"android":"levelo://app?vid=c5eaa274-764e-4094-8ea1-94a8521ea9e2","ios":"levelo://app?vid=c5eaa274-764e-4094-8ea1-94a8521ea9e2"},"vehicle_type_id":"4","last_reported":1731571996,"current_range_meters":29600,"station_id":"ce4bgup2rcd13ifvqco0","pricing_plan_id":"cebpf4jnsgd1na2vs0mg"},{"bike_id":"cb5d8df7-7d10-41f4-9265-f16075074ecd","system_id":"levelo_inurba_marseille","lat":43.31225,"lon":5.36861,"is_reserved":false,"is_disabled":false,"rental_uris":{"android":"levelo://app?vid=cb5d8df7-7d10-41f4-9265-f16075074ecd","ios":"levelo://app?vid=cb5d8df7-7d10-41f4-9265-f16075074ecd"},"vehicle_type_id":"4","last_reported":1731571996,"current_range_meters":30000,"station_id":"ce4bgl92rcd13ifvqbq0","pricing_plan_id":"cebpf4jnsgd1na2vs0mg"},{"bike_id":"ab620aae-740e-4d13-a0e3-9738d73ce49d","system_id":"levelo_inurba_marseille","lat":43.30956,"lon":5.39038,"is_reserved":false,"is_disabled":false,"rental_uris":{"android":"levelo://app?vid=ab620aae-740e-4d13-a0e3-9738d73ce49d","ios":"levelo://app?vid=ab620aae-740e-4d13-a0e3-9738d73ce49d"},"vehicle_type_id":"4","last_reported":1731571996,"current_range_meters":32000,"station_id":"ce4bgup2rcd13ifvqco0","pricing_plan_id":"cebpf4jnsgd1na2vs0mg"},{"bike_id":"2bd2782f-03e7-4948-a6c5-5a949b0b1d95","system_id":"levelo_inurba_marseille","lat":43.29301,"lon":5.37168,"is_reserved":false,"is_disabled":false,"rental_uris":{"android":"levelo://app?vid=2bd2782f-03e7-4948-a6c5-5a949b0b1d95","ios":"levelo://app?vid=2bd2782f-03e7-4948-a6c5-5a949b0b1d95"},"vehicle_type_id":"4","last_reported":1731571996,"current_range_meters":26000,"station_id":"ce4bgh92rcd13ifvqb40","pricing_plan_id":"cebpf4jnsgd1na2vs0mg"},{"bike_id":"971b4a43-8c55-4041-9c79-18709a1e55f7","system_id":"levelo_inurba_marseille","lat":43.30471,"lon":5.37904,"is_reserved":false,"is_disabled":false,"rental_uris":{"android":"levelo://app?vid=971b4a43-8c55-4041-9c79-18709a1e55f7","ios":"levelo://app?vid=971b4a43-8c55-4041-9c79-18709a1e55f7"},"vehicle_type_id":"4","last_reported":1731571996,"current_range_meters":34000,"station_id":"ce4bgup2rcd13ifvqcn0","pricing_plan_id":"cebpf4jnsgd1na2vs0mg"},{"bike_id":"dbd750a9-0c24-495b-8b51-27338322d10f","system_id":"levelo_inurba_marseille","lat":43.30545,"lon":5.36558,"is_reserved":false,"is_disabled":false,"rental_uris":{"android":"levelo://app?vid=dbd750a9-0c24-495b-8b51-27338322d10f","ios":"levelo://app?vid=dbd750a9-0c24-495b-8b51-27338322d10f"},"vehicle_type_id":"4","last_reported":1731571996,"current_range_meters":6800,"station_id":"ce4bgs12rcd13ifvqcag","pricing_plan_id":"cebpf4jnsgd1na2vs0mg"},{"bike_id":"556a6ac2-654d-438b-8c3b-cce8686ad96e","system_id":"levelo_inurba_marseille","lat":43.30465,"lon":5.37914,"is_reserved":false,"is_disabled":false,"rental_uris":{"android":"levelo://app?vid=556a6ac2-654d-438b-8c3b-cce8686ad96e","ios":"levelo://app?vid=556a6ac2-654d-438b-8c3b-cce8686ad96e"},"vehicle_type_id":"4","last_reported":1731571996,"current_range_meters":28800,"station_id":"ce4bgup2rcd13ifvqcn0","pricing_plan_id":"cebpf4jnsgd1na2vs0mg"},{"bike_id":"50d2af32-d986-4578-8791-f3b9a8c6edb2","system_id":"levelo_inurba_marseille","lat":43.25581,"lon":5.38227,"is_reserved":false,"is_disabled":false,"rental_uris":{"android":"levelo://app?vid=50d2af32-d986-4578-8791-f3b9a8c6edb2","ios":"levelo://app?vid=50d2af32-d986-4578-8791-f3b9a8c6edb2"},"vehicle_type_id":"4","last_reported":1731571996,"current_range_meters":30400,"station_id":"ce4bhih2rcd13ifvqfs0","pricing_plan_id":"cebpf4jnsgd1na2vs0mg"},{"bike_id":"b448c76e-6a85-4e4e-8af8-7d9249501502","system_id":"levelo_inurba_marseille","lat":43.337444,"lon":5.374475,"is_reserved":false,"is_disabled":false,"rental_uris":{"android":"levelo://app?vid=b448c76e-6a85-4e4e-8af8-7d9249501502","ios":"levelo://app?vid=b448c76e-6a85-4e4e-8af8-7d9249501502"},"vehicle_type_id":"4","last_reported":1731571996,"current_range_meters":33600,"station_id":"","pricing_plan_id":"cebpf4jnsgd1na2vs0mg"},{"bike_id":"894ffaeb-80ee-4268-85cc-93a477fd19e9","system_id":"levelo_inurba_marseille","lat":43.31347,"lon":5.36727,"is_reserved":false,"is_disabled":false,"rental_uris":{"android":"levelo://app?vid=894ffaeb-80ee-4268-85cc-93a477fd19e9","ios":"levelo://app?vid=894ffaeb-80ee-4268-85cc-93a477fd19e9"},"vehicle_type_id":"4","last_reported":1731571996,"current_range_meters":27600,"station_id":"ce4bgr92rcd13ifvqc6g","pricing_plan_id":"cebpf4jnsgd1na2vs0mg"},{"bike_id":"a926bb83-9e3c-495f-b3f1-1dde59597525","system_id":"levelo_inurba_marseille","lat":43.29272,"lon":5.36845,"is_reserved":false,"is_disabled":false,"rental_uris":{"android":"levelo://app?vid=a926bb83-9e3c-495f-b3f1-1dde59597525","ios":"levelo://app?vid=a926bb83-9e3c-495f-b3f1-1dde59597525"},"vehicle_type_id":"4","last_reported":1731571996,"current_range_meters":24800,"station_id":"ce4bhbp2rcd13ifvqesg","pricing_plan_id":"cebpf4jnsgd1na2vs0mg"},{"bike_id":"5ea0a09d-e268-48e3-ba2a-30aca33f044f","system_id":"levelo_inurba_marseille","lat":43.25942,"lon":5.4091,"is_reserved":false,"is_disabled":false,"rental_uris":{"android":"levelo://app?vid=5ea0a09d-e268-48e3-ba2a-30aca33f044f","ios":"levelo://app?vid=5ea0a09d-e268-48e3-ba2a-30aca33f044f"},"vehicle_type_id":"4","last_reported":1731571996,"current_range_meters":22800,"station_id":"ce4bhm92rcd13ifvqglg","pricing_plan_id":"cebpf4jnsgd1na2vs0mg"},{"bike_id":"fa5ff0f2-173b-4dca-a940-a370161972e8","system_id":"levelo_inurba_marseille","lat":43.28611,"lon":5.37063,"is_reserved":false,"is_disabled":false,"rental_uris":{"android":"levelo://app?vid=fa5ff0f2-173b-4dca-a940-a370161972e8","ios":"levelo://app?vid=fa5ff0f2-173b-4dca-a940-a370161972e8"},"vehicle_type_id":"4","last_reported":1731571996,"current_range_meters":37600,"station_id":"ce4bht12rcd13ifvqi60","pricing_plan_id":"cebpf4jnsgd1na2vs0mg"},{"bike_id":"0da68a85-5a80-420b-9446-7d3b3e9341f6","system_id":"levelo_inurba_marseille","lat":43.25829,"lon":5.39434,"is_reserved":false,"is_disabled":false,"rental_uris":{"android":"levelo://app?vid=0da68a85-5a80-420b-9446-7d3b3e9341f6","ios":"levelo://app?vid=0da68a85-5a80-420b-9446-7d3b3e9341f6"},"vehicle_type_id":"4","last_reported":1731571996,"current_range_meters":16000,"station_id":"ce4bhip2rcd13ifvqft0","pricing_plan_id":"cebpf4jnsgd1na2vs0mg"},{"bike_id":"36c07397-ae9b-4606-be09-bfd64132165b","system_id":"levelo_inurba_marseille","lat":43.30544,"lon":5.36709,"is_reserved":false,"is_disabled":false,"rental_uris":{"android":"levelo://app?vid=36c07397-ae9b-4606-be09-bfd64132165b","ios":"levelo://app?vid=36c07397-ae9b-4606-be09-bfd64132165b"},"vehicle_type_id":"4","last_reported":1731571996,"current_range_meters":35600,"station_id":"ce4bgrp2rcd13ifvqc9g","pricing_plan_id":"cebpf4jnsgd1na2vs0mg"},{"bike_id":"da8f0dfa-3503-4dd7-899a-3339173105a4","system_id":"levelo_inurba_marseille","lat":43.30914,"lon":5.3685,"is_reserved":false,"is_disabled":false,"rental_uris":{"android":"levelo://app?vid=da8f0dfa-3503-4dd7-899a-3339173105a4","ios":"levelo://app?vid=da8f0dfa-3503-4dd7-899a-3339173105a4"},"vehicle_type_id":"4","last_reported":1731571996,"current_range_meters":16000,"station_id":"ce4bgn92rcd13ifvqbvg","pricing_plan_id":"cebpf4jnsgd1na2vs0mg"},{"bike_id":"1e4651d4-906d-4bc8-a992-9cefd48ac51e","system_id":"levelo_inurba_marseille","lat":43.29842,"lon":5.36267,"is_reserved":false,"is_disabled":false,"rental_uris":{"android":"levelo://app?vid=1e4651d4-906d-4bc8-a992-9cefd48ac51e","ios":"levelo://app?vid=1e4651d4-906d-4bc8-a992-9cefd48ac51e"},"vehicle_type_id":"4","last_reported":1731571996,"current_range_meters":38800,"station_id":"ce4bgpp2rcd13ifvqc3g","pricing_plan_id":"cebpf4jnsgd1na2vs0mg"},{"bike_id":"e0240b70-2500-4ac3-a65a-5742aa6c87d1","system_id":"levelo_inurba_marseille","lat":43.30892,"lon":5.39635,"is_reserved":false,"is_disabled":false,"rental_uris":{"android":"levelo://app?vid=e0240b70-2500-4ac3-a65a-5742aa6c87d1","ios":"levelo://app?vid=e0240b70-2500-4ac3-a65a-5742aa6c87d1"},"vehicle_type_id":"4","last_reported":1731571996,"current_range_meters":38800,"station_id":"ce4bh012rcd13ifvqcv0","pricing_plan_id":"cebpf4jnsgd1na2vs0mg"},{"bike_id":"4cbb71c3-7b75-4a14-a06c-952b73950be4","system_id":"levelo_inurba_marseille","lat":43.25005,"lon":5.38915,"is_reserved":false,"is_disabled":false,"rental_uris":{"android":"levelo://app?vid=4cbb71c3-7b75-4a14-a06c-952b73950be4","ios":"levelo://app?vid=4cbb71c3-7b75-4a14-a06c-952b73950be4"},"vehicle_type_id":"4","last_reported":1731571996,"current_range_meters":32000,"station_id":"ce4bhgp2rcd13ifvqfd0","pricing_plan_id":"cebpf4jnsgd1na2vs0mg"},{"bike_id":"2d566217-7731-4b7b-866d-739741f8cfcc","system_id":"levelo_inurba_marseille","lat":43.24072,"lon":5.37764,"is_reserved":false,"is_disabled":false,"rental_uris":{"android":"levelo://app?vid=2d566217-7731-4b7b-866d-739741f8cfcc","ios":"levelo://app?vid=2d566217-7731-4b7b-866d-739741f8cfcc"},"vehicle_type_id":"4","last_reported":1731571996,"current_range_meters":38400,"station_id":"ce4bhnp2rcd13ifvqgvg","pricing_plan_id":"cebpf4jnsgd1na2vs0mg"},{"bike_id":"bf8877aa-4e3b-4217-ae53-5d8001def350","system_id":"levelo_inurba_marseille","lat":43.32478,"lon":5.36561,"is_reserved":false,"is_disabled":false,"rental_uris":{"android":"levelo://app?vid=bf8877aa-4e3b-4217-ae53-5d8001def350","ios":"levelo://app?vid=bf8877aa-4e3b-4217-ae53-5d8001def350"},