{"last_updated":1779396284,"ttl":60,"version":"2.2","data":{"bikes":[{"bike_id":"7d641315-6110-49cb-a9dd-d637ff032de1","system_id":"levelo_inurba_marseille","lat":43.337444,"lon":5.374475,"is_reserved":false,"is_disabled":false,"rental_uris":{"android":"levelo://app?vid=7d641315-6110-49cb-a9dd-d637ff032de1","ios":"levelo://app?vid=7d641315-6110-49cb-a9dd-d637ff032de1"},"vehicle_type_id":"4","last_reported":1779396285,"current_range_meters":0,"station_id":"","pricing_plan_id":"cebpf4jnsgd1na2vs0mg"},{"bike_id":"c5e693a5-5aee-4f2f-b3d3-ad6fe1a5da64","system_id":"levelo_inurba_marseille","lat":43.3246,"lon":5.36574,"is_reserved":false,"is_disabled":false,"rental_uris":{"android":"levelo://app?vid=c5e693a5-5aee-4f2f-b3d3-ad6fe1a5da64","ios":"levelo://app?vid=c5e693a5-5aee-4f2f-b3d3-ad6fe1a5da64"},"vehicle_type_id":"4","last_reported":1779396285,"current_range_meters":2800,"station_id":"ce4bhs12rcd13ifvqhvg","pricing_plan_id":"cebpf4jnsgd1na2vs0mg"},{"bike_id":"e38caa21-a14a-4197-88a1-db68aad57c56","system_id":"levelo_inurba_marseille","lat":43.28704,"lon":5.46686,"is_reserved":false,"is_disabled":false,"rental_uris":{"android":"levelo://app?vid=e38caa21-a14a-4197-88a1-db68aad57c56","ios":"levelo://app?vid=e38caa21-a14a-4197-88a1-db68aad57c56"},"vehicle_type_id":"4","last_reported":1779396285,"current_range_meters":2800,"station_id":"st_d6tc3vkotcvc738tfjhg","pricing_plan_id":"cebpf4jnsgd1na2vs0mg"},{"bike_id":"4d8b5c28-e400-4dff-8d4e-ab3d7b63d11e","system_id":"levelo_inurba_marseille","lat":43.27618,"lon":5.36107,"is_reserved":false,"is_disabled":true,"rental_uris":{"android":"levelo://app?vid=4d8b5c28-e400-4dff-8d4e-ab3d7b63d11e","ios":"levelo://app?vid=4d8b5c28-e400-4dff-8d4e-ab3d7b63d11e"},"vehicle_type_id":"4","last_reported":1779396285,"current_range_meters":2800,"station_id":"ce4bgj92rcd13ifvqbe0","pricing_plan_id":"cebpf4jnsgd1na2vs0mg"},{"bike_id":"c73a9cf5-7d1a-4e0c-a908-c51bf0da8c23","system_id":"levelo_inurba_marseille","lat":43.30908,"lon":5.41641,"is_reserved":false,"is_disabled":false,"rental_uris":{"android":"levelo://app?vid=c73a9cf5-7d1a-4e0c-a908-c51bf0da8c23","ios":"levelo://app?vid=c73a9cf5-7d1a-4e0c-a908-c51bf0da8c23"},"vehicle_type_id":"4","last_reported":1779396285,"current_range_meters":2800,"station_id":"","pricing_plan_id":"cebpf4jnsgd1na2vs0mg"},{"bike_id":"9a7b5ec9-d604-4baf-8fd7-cc72b4ac288a","system_id":"levelo_inurba_marseille","lat":43.295827,"lon":5.367422,"is_reserved":false,"is_disabled":false,"rental_uris":{"android":"levelo://app?vid=9a7b5ec9-d604-4baf-8fd7-cc72b4ac288a","ios":"levelo://app?vid=9a7b5ec9-d604-4baf-8fd7-cc72b4ac288a"},"vehicle_type_id":"4","last_reported":1779396285,"current_range_meters":2800,"station_id":"ce4bgph2rcd13ifvqc2g","pricing_plan_id":"cebpf4jnsgd1na2vs0mg"},{"bike_id":"1c131e6a-f126-4316-adc7-e8965927d817","system_id":"levelo_inurba_marseille","lat":43.29966,"lon":5.38495,"is_reserved":false,"is_disabled":false,"rental_uris":{"android":"levelo://app?vid=1c131e6a-f126-4316-adc7-e8965927d817","ios":"levelo://app?vid=1c131e6a-f126-4316-adc7-e8965927d817"},"vehicle_type_id":"4","last_reported":1779396285,"current_range_meters":2800,"station_id":"ce4bgj92rcd13ifvqbd0","pricing_plan_id":"cebpf4jnsgd1na2vs0mg"},{"bike_id":"1c28825b-3689-4b22-9b5a-30635f88f2f8","system_id":"levelo_inurba_marseille","lat":43.27334,"lon":5.39072,"is_reserved":false,"is_disabled":false,"rental_uris":{"android":"levelo://app?vid=1c28825b-3689-4b22-9b5a-30635f88f2f8","ios":"levelo://app?vid=1c28825b-3689-4b22-9b5a-30635f88f2f8"},"vehicle_type_id":"4","last_reported":1779396285,"current_range_meters":2800,"station_id":"ce4bhgp2rcd13ifvqfe0","pricing_plan_id":"cebpf4jnsgd1na2vs0mg"},{"bike_id":"729c544e-38db-4f73-876b-178b32441d17","system_id":"levelo_inurba_marseille","lat":43.24963,"lon":5.40489,"is_reserved":false,"is_disabled":false,"rental_uris":{"android":"levelo://app?vid=729c544e-38db-4f73-876b-178b32441d17","ios":"levelo://app?vid=729c544e-38db-4f73-876b-178b32441d17"},"vehicle_type_id":"4","last_reported":1779396285,"current_range_meters":2800,"station_id":"st_d2ngiaodas8pm72gd1h0","pricing_plan_id":"cebpf4jnsgd1na2vs0mg"},{"bike_id":"1945c429-a6b3-4afe-8b4e-c989148ef8b4","system_id":"levelo_inurba_marseille","lat":43.28636,"lon":5.37789,"is_reserved":false,"is_disabled":false,"rental_uris":{"android":"levelo://app?vid=1945c429-a6b3-4afe-8b4e-c989148ef8b4","ios":"levelo://app?vid=1945c429-a6b3-4afe-8b4e-c989148ef8b4"},"vehicle_type_id":"4","last_reported":1779396285,"current_range_meters":2800,"station_id":"","pricing_plan_id":"cebpf4jnsgd1na2vs0mg"},{"bike_id":"3552598e-6323-4ac2-a65d-8ac592aa5a32","system_id":"levelo_inurba_marseille","lat":43.29027,"lon":5.37585,"is_reserved":false,"is_disabled":false,"rental_uris":{"android":"levelo://app?vid=3552598e-6323-4ac2-a65d-8ac592aa5a32","ios":"levelo://app?vid=3552598e-6323-4ac2-a65d-8ac592aa5a32"},"vehicle_type_id":"4","last_reported":1779396285,"current_range_meters":2800,"station_id":"ce4bh692rcd13ifvqe90","pricing_plan_id":"cebpf4jnsgd1na2vs0mg"},{"bike_id":"7975b169-5677-4dff-9b59-bed9c727a531","system_id":"levelo_inurba_marseille","lat":43.31109,"lon":5.37785,"is_reserved":false,"is_disabled":true,"rental_uris":{"android":"levelo://app?vid=7975b169-5677-4dff-9b59-bed9c727a531","ios":"levelo://app?vid=7975b169-5677-4dff-9b59-bed9c727a531"},"vehicle_type_id":"4","last_reported":1779396285,"current_range_meters":3200,"station_id":"ce4bgt92rcd13ifvqcg0","pricing_plan_id":"cebpf4jnsgd1na2vs0mg"},{"bike_id":"54cf749c-171a-41c5-93f1-1f7979f6535d","system_id":"levelo_inurba_marseille","lat":43.25511,"lon":5.37629,"is_reserved":false,"is_disabled":true,"rental_uris":{"android":"levelo://app?vid=54cf749c-171a-41c5-93f1-1f7979f6535d","ios":"levelo://app?vid=54cf749c-171a-41c5-93f1-1f7979f6535d"},"vehicle_type_id":"4","last_reported":1779396285,"current_range_meters":3200,"station_id":"ce4bhh12rcd13ifvqff0","pricing_plan_id":"cebpf4jnsgd1na2vs0mg"},{"bike_id":"a3071a58-220a-49d7-933f-639eaa20dffd","system_id":"levelo_inurba_marseille","lat":43.28778,"lon":5.42717,"is_reserved":false,"is_disabled":false,"rental_uris":{"android":"levelo://app?vid=a3071a58-220a-49d7-933f-639eaa20dffd","ios":"levelo://app?vid=a3071a58-220a-49d7-933f-639eaa20dffd"},"vehicle_type_id":"4","last_reported":1779396285,"current_range_meters":3200,"station_id":"","pricing_plan_id":"cebpf4jnsgd1na2vs0mg"},{"bike_id":"d3ea510f-36db-4acd-a171-2365fae9dcd2","system_id":"levelo_inurba_marseille","lat":43.302,"lon":5.36628,"is_reserved":false,"is_disabled":false,"rental_uris":{"android":"levelo://app?vid=d3ea510f-36db-4acd-a171-2365fae9dcd2","ios":"levelo://app?vid=d3ea510f-36db-4acd-a171-2365fae9dcd2"},"vehicle_type_id":"4","last_reported":1779396285,"current_range_meters":3200,"station_id":"ce4bgrh2rcd13ifvqc8g","pricing_plan_id":"cebpf4jnsgd1na2vs0mg"},{"bike_id":"0caa08f3-8034-41ae-b21d-19550693d3a3","system_id":"levelo_inurba_marseille","lat":43.25867,"lon":5.3988,"is_reserved":false,"is_disabled":true,"rental_uris":{"android":"levelo://app?vid=0caa08f3-8034-41ae-b21d-19550693d3a3","ios":"levelo://app?vid=0caa08f3-8034-41ae-b21d-19550693d3a3"},"vehicle_type_id":"4","last_reported":1779396285,"current_range_meters":3200,"station_id":"ce4bhl92rcd13ifvqghg","pricing_plan_id":"cebpf4jnsgd1na2vs0mg"},{"bike_id":"f4e891fe-99cb-4f41-adb5-76979e2065a3","system_id":"levelo_inurba_marseille","lat":43.28981,"lon":5.37827,"is_reserved":false,"is_disabled":false,"rental_uris":{"android":"levelo://app?vid=f4e891fe-99cb-4f41-adb5-76979e2065a3","ios":"levelo://app?vid=f4e891fe-99cb-4f41-adb5-76979e2065a3"},"vehicle_type_id":"4","last_reported":1779396285,"current_range_meters":3200,"station_id":"ce4bh9p2rcd13ifvqed0","pricing_plan_id":"cebpf4jnsgd1na2vs0mg"},{"bike_id":"4e7ba56a-6f13-40b5-9ac4-cc68d4d58148","system_id":"levelo_inurba_marseille","lat":43.29985,"lon":5.38483,"is_reserved":false,"is_disabled":false,"rental_uris":{"android":"levelo://app?vid=4e7ba56a-6f13-40b5-9ac4-cc68d4d58148","ios":"levelo://app?vid=4e7ba56a-6f13-40b5-9ac4-cc68d4d58148"},"vehicle_type_id":"4","last_reported":1779396285,"current_range_meters":3200,"station_id":"ce4bgj92rcd13ifvqbd0","pricing_plan_id":"cebpf4jnsgd1na2vs0mg"},{"bike_id":"978db867-828f-46af-a567-9c7c2efbcb39","system_id":"levelo_inurba_marseille","lat":43.27807,"lon":5.40698,"is_reserved":false,"is_disabled":false,"rental_uris":{"android":"levelo://app?vid=978db867-828f-46af-a567-9c7c2efbcb39","ios":"levelo://app?vid=978db867-828f-46af-a567-9c7c2efbcb39"},"vehicle_type_id":"4","last_reported":1779396285,"current_range_meters":3200,"station_id":"ce4bhnh2rcd13ifvqgtg","pricing_plan_id":"cebpf4jnsgd1na2vs0mg"},{"bike_id":"7fce3e47-9b6a-4a84-9267-9a08b467b77c","system_id":"levelo_inurba_marseille","lat":43.30905,"lon":5.396731,"is_reserved":false,"is_disabled":false,"rental_uris":{"android":"levelo://app?vid=7fce3e47-9b6a-4a84-9267-9a08b467b77c","ios":"levelo://app?vid=7fce3e47-9b6a-4a84-9267-9a08b467b77c"},"vehicle_type_id":"4","last_reported":1779396285,"current_range_meters":3200,"station_id":"ce4bh012rcd13ifvqcv0","pricing_plan_id":"cebpf4jnsgd1na2vs0mg"},{"bike_id":"b293a712-75e3-44ee-8362-9418df85367c","system_id":"levelo_inurba_marseille","lat":43.26241,"lon":5.38759,"is_reserved":false,"is_disabled":false,"rental_uris":{"android":"levelo://app?vid=b293a712-75e3-44ee-8362-9418df85367c","ios":"levelo://app?vid=b293a712-75e3-44ee-8362-9418df85367c"},"vehicle_type_id":"4","last_reported":1779396285,"current_range_meters":3200,"station_id":"","pricing_plan_id":"cebpf4jnsgd1na2vs0mg"},{"bike_id":"bc11f14f-c4d1-41ee-8fe1-2b0111755948","system_id":"levelo_inurba_marseille","lat":43.28698,"lon":5.39993,"is_reserved":false,"is_disabled":false,"rental_uris":{"android":"levelo://app?vid=bc11f14f-c4d1-41ee-8fe1-2b0111755948","ios":"levelo://app?vid=bc11f14f-c4d1-41ee-8fe1-2b0111755948"},"vehicle_type_id":"4","last_reported":1779396285,"current_range_meters":3200,"station_id":"ce4bho92rcd13ifvqh3g","pricing_plan_id":"cebpf4jnsgd1na2vs0mg"},{"bike_id":"ecd085d0-e2bb-4805-984d-5a6131305f12","system_id":"levelo_inurba_marseille","lat":43.2953,"lon":5.39028,"is_reserved":false,"is_disabled":false,"rental_uris":{"android":"levelo://app?vid=ecd085d0-e2bb-4805-984d-5a6131305f12","ios":"levelo://app?vid=ecd085d0-e2bb-4805-984d-5a6131305f12"},"vehicle_type_id":"4","last_reported":1779396285,"current_range_meters":3200,"station_id":"ce4bh3p2rcd13ifvqdp0","pricing_plan_id":"cebpf4jnsgd1na2vs0mg"},{"bike_id":"e3102a2f-9a67-4b00-b83b-a8448e1bb80c","system_id":"levelo_inurba_marseille","lat":43.29037,"lon":5.37563,"is_reserved":false,"is_disabled":false,"rental_uris":{"android":"levelo://app?vid=e3102a2f-9a67-4b00-b83b-a8448e1bb80c","ios":"levelo://app?vid=e3102a2f-9a67-4b00-b83b-a8448e1bb80c"},"vehicle_type_id":"4","last_reported":1779396285,"current_range_meters":3200,"station_id":"ce4bh692rcd13ifvqe90","pricing_plan_id":"cebpf4jnsgd1na2vs0mg"},{"bike_id":"aaf89674-8182-489c-bbb0-80c24f6e4ab3","system_id":"levelo_inurba_marseille","lat":43.24407,"lon":5.37033,"is_reserved":false,"is_disabled":false,"rental_uris":{"android":"levelo://app?vid=aaf89674-8182-489c-bbb0-80c24f6e4ab3","ios":"levelo://app?vid=aaf89674-8182-489c-bbb0-80c24f6e4ab3"},"vehicle_type_id":"4","last_reported":1779396285,"current_range_meters":3600,"station_id":"ce4bhhh2rcd13ifvqfk0","pricing_plan_id":"cebpf4jnsgd1na2vs0mg"},{"bike_id":"282c9669-7dad-469f-b087-8dbbc861bbc4","system_id":"levelo_inurba_marseille","lat":43.274223,"lon":5.394069,"is_reserved":false,"is_disabled":true,"rental_uris":{"android":"levelo://app?vid=282c9669-7dad-469f-b087-8dbbc861bbc4","ios":"levelo://app?vid=282c9669-7dad-469f-b087-8dbbc861bbc4"},"vehicle_type_id":"4","last_reported":1779396285,"current_range_meters":3600,"station_id":"ce4bhdp2rcd13ifvqf20","pricing_plan_id":"cebpf4jnsgd1na2vs0mg"},{"bike_id":"db783ba3-2be9-4132-a160-0e1e842f4fdc","system_id":"levelo_inurba_marseille","lat":43.29901,"lon":5.38148,"is_reserved":false,"is_disabled":false,"rental_uris":{"android":"levelo://app?vid=db783ba3-2be9-4132-a160-0e1e842f4fdc","ios":"levelo://app?vid=db783ba3-2be9-4132-a160-0e1e842f4fdc"},"vehicle_type_id":"4","last_reported":1779396285,"current_range_meters":3600,"station_id":"ce4bgj12rcd13ifvqbc0","pricing_plan_id":"cebpf4jnsgd1na2vs0mg"},{"bike_id":"29ffe8a6-df61-42e4-ad57-b748c04046bf","system_id":"levelo_inurba_marseille","lat":43.28478,"lon":5.3841,"is_reserved":false,"is_disabled":false,"rental_uris":{"android":"levelo://app?vid=29ffe8a6-df61-42e4-ad57-b748c04046bf","ios":"levelo://app?vid=29ffe8a6-df61-42e4-ad57-b748c04046bf"},"vehicle_type_id":"4","last_reported":1779396285,"current_range_meters":3600,"station_id":"ce4bh512rcd13ifvqe3g","pricing_plan_id":"cebpf4jnsgd1na2vs0mg"},{"bike_id":"018bc1b8-394d-4284-aee9-f1a543d506c1","system_id":"levelo_inurba_marseille","lat":43.26555,"lon":5.37284,"is_reserved":false,"is_disabled":true,"rental_uris":{"android":"levelo://app?vid=018bc1b8-394d-4284-aee9-f1a543d506c1","ios":"levelo://app?vid=018bc1b8-394d-4284-aee9-f1a543d506c1"},"vehicle_type_id":"4","last_reported":1779396285,"current_range_meters":3600,"station_id":"ce4bhg12rcd13ifvqf70","pricing_plan_id":"cebpf4jnsgd1na2vs0mg"},{"bike_id":"451e318c-1a97-4190-9795-78685b3bc8a5","system_id":"levelo_inurba_marseille","lat":43.29971,"lon":5.38501,"is_reserved":false,"is_disabled":false,"rental_uris":{"android":"levelo://app?vid=451e318c-1a97-4190-9795-78685b3bc8a5","ios":"levelo://app?vid=451e318c-1a97-4190-9795-78685b3bc8a5"},"vehicle_type_id":"4","last_reported":1779396285,"current_range_meters":3600,"station_id":"ce4bgj92rcd13ifvqbd0","pricing_plan_id":"cebpf4jnsgd1na2vs0mg"},{"bike_id":"553619dc-d839-4e00-bc6d-eecc5ecdba79","system_id":"levelo_inurba_marseille","lat":43.28135,"lon":5.42618,"is_reserved":false,"is_disabled":true,"rental_uris":{"android":"levelo://app?vid=553619dc-d839-4e00-bc6d-eecc5ecdba79","ios":"levelo://app?vid=553619dc-d839-4e00-bc6d-eecc5ecdba79"},"vehicle_type_id":"4","last_reported":1779396285,"current_range_meters":3600,"station_id":"ce4bhnh2rcd13ifvqgug","pricing_plan_id":"cebpf4jnsgd1na2vs0mg"},{"bike_id":"7a2f1dda-1ee5-4773-966b-1d83ab772ccf","system_id":"levelo_inurba_marseille","lat":43.24821,"lon":5.37442,"is_reserved":false,"is_disabled":false,"rental_uris":{"android":"levelo://app?vid=7a2f1dda-1ee5-4773-966b-1d83ab772ccf","ios":"levelo://app?vid=7a2f1dda-1ee5-4773-966b-1d83ab772ccf"},"vehicle_type_id":"4","last_reported":1779396285,"current_range_meters":3600,"station_id":"ce4bhgh2rcd13ifvqfb0","pricing_plan_id":"cebpf4jnsgd1na2vs0mg"},{"bike_id":"0c27729f-4a53-4fd6-8de6-e3d79677e4bb","system_id":"levelo_inurba_marseille","lat":43.286711,"lon":5.363435,"is_reserved":false,"is_disabled":false,"rental_uris":{"android":"levelo://app?vid=0c27729f-4a53-4fd6-8de6-e3d79677e4bb","ios":"levelo://app?vid=0c27729f-4a53-4fd6-8de6-e3d79677e4bb"},"vehicle_type_id":"4","last_reported":1779396285,"current_range_meters":3600,"station_id":"ce4bhah2rcd13ifvqej0","pricing_plan_id":"cebpf4jnsgd1na2vs0mg"},{"bike_id":"924fb5a7-6478-4e31-9ad7-34a2292df595","system_id":"levelo_inurba_marseille","lat":43.28478,"lon":5.43753,"is_reserved":false,"is_disabled":false,"rental_uris":{"android":"levelo://app?vid=924fb5a7-6478-4e31-9ad7-34a2292df595","ios":"levelo://app?vid=924fb5a7-6478-4e31-9ad7-34a2292df595"},"vehicle_type_id":"4","last_reported":1779396285,"current_range_meters":3600,"station_id":"","pricing_plan_id":"cebpf4jnsgd1na2vs0mg"},{"bike_id":"07afeca2-a54e-4491-992b-87cff01bbbf4","system_id":"levelo_inurba_marseille","lat":43.30785,"lon":5.38142,"is_reserved":false,"is_disabled":false,"rental_uris":{"android":"levelo://app?vid=07afeca2-a54e-4491-992b-87cff01bbbf4","ios":"levelo://app?vid=07afeca2-a54e-4491-992b-87cff01bbbf4"},"vehicle_type_id":"4","last_reported":1779396285,"current_range_meters":3600,"station_id":"ce4bgt12rcd13ifvqce0","pricing_plan_id":"cebpf4jnsgd1na2vs0mg"},{"bike_id":"4581f6a7-79e9-44cd-b96e-06f3561662b8","system_id":"levelo_inurba_marseille","lat":43.22537,"lon":5.34825,"is_reserved":false,"is_disabled":true,"rental_uris":{"android":"levelo://app?vid=4581f6a7-79e9-44cd-b96e-06f3561662b8","ios":"levelo://app?vid=4581f6a7-79e9-44cd-b96e-06f3561662b8"},"vehicle_type_id":"4","last_reported":1779396285,"current_range_meters":3600,"station_id":"st_cvj5dfep6f1abm77gieg","pricing_plan_id":"cebpf4jnsgd1na2vs0mg"},{"bike_id":"9c7b01cb-3130-4dfa-9e9d-1b3fbc0bd680","system_id":"levelo_inurba_marseille","lat":43.24949,"lon":5.40479,"is_reserved":false,"is_disabled":false,"rental_uris":{"android":"levelo://app?vid=9c7b01cb-3130-4dfa-9e9d-1b3fbc0bd680","ios":"levelo://app?vid=9c7b01cb-3130-4dfa-9e9d-1b3fbc0bd680"},"vehicle_type_id":"4","last_reported":1779396285,"current_range_meters":3600,"station_id":"st_d2ngiaodas8pm72gd1h0","pricing_plan_id":"cebpf4jnsgd1na2vs0mg"},{"bike_id":"31dd9f20-a20e-4842-a0ad-eaf0448b2e0d","system_id":"levelo_inurba_marseille","lat":43.24928,"lon":5.40456,"is_reserved":false,"is_disabled":false,"rental_uris":{"android":"levelo://app?vid=31dd9f20-a20e-4842-a0ad-eaf0448b2e0d","ios":"levelo://app?vid=31dd9f20-a20e-4842-a0ad-eaf0448b2e0d"},"vehicle_type_id":"4","last_reported":1779396285,"current_range_meters":3600,"station_id":"st_d2ngiaodas8pm72gd1h0","pricing_plan_id":"cebpf4jnsgd1na2vs0mg"},{"bike_id":"e3dcb411-365e-49a0-b763-f3e5597cff89","system_id":"levelo_inurba_marseille","lat":43.29883,"lon":5.38887,"is_reserved":false,"is_disabled":false,"rental_uris":{"android":"levelo://app?vid=e3dcb411-365e-49a0-b763-f3e5597cff89","ios":"levelo://app?vid=e3dcb411-365e-49a0-b763-f3e5597cff89"},"vehicle_type_id":"4","last_reported":1779396285,"current_range_meters":3600,"station_id":"ce4bh392rcd13ifvqdl0","pricing_plan_id":"cebpf4jnsgd1na2vs0mg"},{"bike_id":"cb07d697-a347-4c99-9a4f-5019252e5bb8","system_id":"levelo_inurba_marseille","lat":43.23175,"lon":5.39963,"is_reserved":false,"is_disabled":true,"rental_uris":{"android":"levelo://app?vid=cb07d697-a347-4c99-9a4f-5019252e5bb8","ios":"levelo://app?vid=cb07d697-a347-4c99-9a4f-5019252e5bb8"},"vehicle_type_id":"4","last_reported":1779396285,"current_range_meters":3600,"station_id":"ce4bhn12rcd13ifvqgqg","pricing_plan_id":"cebpf4jnsgd1na2vs0mg"},{"bike_id":"f7cad48c-5c1a-4d67-94c9-18752e134d03","system_id":"levelo_inurba_marseille","lat":43.23994,"lon":5.36581,"is_reserved":false,"is_disabled":true,"rental_uris":{"android":"levelo://app?vid=f7cad48c-5c1a-4d67-94c9-18752e134d03","ios":"levelo://app?vid=f7cad48c-5c1a-4d67-94c9-18752e134d03"},"vehicle_type_id":"4","last_reported":1779396285,"current_range_meters":4000,"station_id":"","pricing_plan_id":"cebpf4jnsgd1na2vs0mg"},{"bike_id":"74bb0400-bb66-433c-82b8-e3e134eb337f","system_id":"levelo_inurba_marseille","lat":43.30133,"lon":5.39851,"is_reserved":false,"is_disabled":false,"rental_uris":{"android":"levelo://app?vid=74bb0400-bb66-433c-82b8-e3e134eb337f","ios":"levelo://app?vid=74bb0400-bb66-433c-82b8-e3e134eb337f"},"vehicle_type_id":"4","last_reported":1779396285,"current_range_meters":4000,"station_id":"ce4bh0h2rcd13ifvqd40","pricing_plan_id":"cebpf4jnsgd1na2vs0mg"},{"bike_id":"7104ae40-c823-474d-b575-e25fc855b1bb","system_id":"levelo_inurba_marseille","lat":43.29487,"lon":5.43307,"is_reserved":false,"is_disabled":false,"rental_uris":{"android":"levelo://app?vid=7104ae40-c823-474d-b575-e25fc855b1bb","ios":"levelo://app?vid=7104ae40-c823-474d-b575-e25fc855b1bb"},"vehicle_type_id":"4","last_reported":1779396285,"current_range_meters":4000,"station_id":"st_d3j5ugp08ojc73fj9d10","pricing_plan_id":"cebpf4jnsgd1na2vs0mg"},{"bike_id":"6096ca9f-e19d-43dc-b67b-43fb4d7990f2","system_id":"levelo_inurba_marseille","lat":43.2999,"lon":5.41278,"is_reserved":false,"is_disabled":false,"rental_uris":{"android":"levelo://app?vid=6096ca9f-e19d-43dc-b67b-43fb4d7990f2","ios":"levelo://app?vid=6096ca9f-e19d-43dc-b67b-43fb4d7990f2"},"vehicle_type_id":"4","last_reported":1779396285,"current_range_meters":4000,"station_id":"","pricing_plan_id":"cebpf4jnsgd1na2vs0mg"},{"bike_id":"013c30a1-57f1-423c-80b4-77e657d7a03f","system_id":"levelo_inurba_marseille","lat":43.30205,"lon":5.3945,"is_reserved":false,"is_disabled":false,"rental_uris":{"android":"levelo://app?vid=013c30a1-57f1-423c-80b4-77e657d7a03f","ios":"levelo://app?vid=013c30a1-57f1-423c-80b4-77e657d7a03f"},"vehicle_type_id":"4","last_reported":1779396285,"current_range_meters":4000,"station_id":"ce4bh0p2rcd13ifvqd70","pricing_plan_id":"cebpf4jnsgd1na2vs0mg"},{"bike_id":"381a1687-3b4c-4e43-ada7-0b296f458493","system_id":"levelo_inurba_marseille","lat":43.28774,"lon":5.46622,"is_reserved":false,"is_disabled":false,"rental_uris":{"android":"levelo://app?vid=381a1687-3b4c-4e43-ada7-0b296f458493","ios":"levelo://app?vid=381a1687-3b4c-4e43-ada7-0b296f458493"},"vehicle_type_id":"4","last_reported":1779396285,"current_range_meters":4000,"station_id":"","pricing_plan_id":"cebpf4jnsgd1na2vs0mg"},{"bike_id":"051eb476-a462-40f5-811f-71276f1a8d25","system_id":"levelo_inurba_marseille","lat":43.2847,"lon":5.48411,"is_reserved":false,"is_disabled":false,"rental_uris":{"android":"levelo://app?vid=051eb476-a462-40f5-811f-71276f1a8d25","ios":"levelo://app?vid=051eb476-a462-40f5-811f-71276f1a8d25"},"vehicle_type_id":"4","last_reported":1779396285,"current_range_meters":4000,"station_id":"st_d3svhcjqgbts73a3dn0g","pricing_plan_id":"cebpf4jnsgd1na2vs0mg"},{"bike_id":"3a8bf2dd-1d04-4ee7-9d7d-732a70692881","system_id":"levelo_inurba_marseille","lat":43.30929,"lon":5.36828,"is_reserved":false,"is_disabled":false,"rental_uris":{"android":"levelo://app?vid=3a8bf2dd-1d04-4ee7-9d7d-732a70692881","ios":"levelo://app?vid=3a8bf2dd-1d04-4ee7-9d7d-732a70692881"},"vehicle_type_id":"4","last_reported":1779396285,"current_range_meters":4000,"station_id":"ce4bgn92rcd13ifvqbvg","pricing_plan_id":"cebpf4jnsgd1na2vs0mg"},{"bike_id":"abb65beb-b3bd-47ba-bc0f-101707e4c557","system_id":"levelo_inurba_marseille","lat":43.28708,"lon":5.37931,"is_reserved":false,"is_disabled":false,"rental_uris":{"android":"levelo://app?vid=abb65beb-b3bd-47ba-bc0f-101707e4c557","ios":"levelo://app?vid=abb65beb-b3bd-47ba-bc0f-101707e4c557"},"vehicle_type_id":"4","last_reported":1779396285,"current_range_meters":4000,"station_id":"ce4bh9p2rcd13ifvqec0","pricing_plan_id":"cebpf4jnsgd1na2vs0mg"},{"bike_id":"21fb01df-56f4-4bee-8faa-88ef094f3e6b","system_id":"levelo_inurba_marseille","lat":43.21764,"lon":5.34588,"is_reserved":false,"is_disabled":true,"rental_uris":{"android":"levelo://app?vid=21fb01df-56f4-4bee-8faa-88ef094f3e6b","ios":"levelo://app?vid=21fb01df-56f4-4bee-8faa-88ef094f3e6b"},"vehicle_type_id":"4","last_reported":1779396285,"current_range_meters":4000,"station_id":"st_cvj6r9ubvosntc0bgbag","pricing_plan_id":"cebpf4jnsgd1na2vs0mg"},{"bike_id":"ff63ac51-d474-4a9b-ab00-d9975774f72a","system_id":"levelo_inurba_marseille","lat":43.30164,"lon":5.38078,"is_reserved":false,"is_disabled":false,"rental_uris":{"android":"levelo://app?vid=ff63ac51-d474-4a9b-ab00-d9975774f72a","ios":"levelo://app?vid=ff63ac51-d474-4a9b-ab00-d9975774f72a"},"vehicle_type_id":"4","last_reported":1779396285,"current_range_meters":4000,"station_id":"ce4bgjp2rcd13ifvqbh0","pricing_plan_id":"cebpf4jnsgd1na2vs0mg"},{"bike_id":"6b557f1f-1b94-419a-84a4-072f291de928","system_id":"levelo_inurba_marseille","lat":43.29964,"lon":5.38488,"is_reserved":false,"is_disabled":false,"rental_uris":{"android":"levelo://app?vid=6b557f1f-1b94-419a-84a4-072f291de928","ios":"levelo://app?vid=6b557f1f-1b94-419a-84a4-072f291de928"},"vehicle_type_id":"4","last_reported":1779396285,"current_range_meters":4000,"station_id":"ce4bgj92rcd13ifvqbd0","pricing_plan_id":"cebpf4jnsgd1na2vs0mg"},{"bike_id":"3d509d7a-d75c-49ba-8dab-ad4bc962a52c","system_id":"levelo_inurba_marseille","lat":43.24397,"lon":5.37027,"is_reserved":false,"is_disabled":false,"rental_uris":{"android":"levelo://app?vid=3d509d7a-d75c-49ba-8dab-ad4bc962a52c","ios":"levelo://app?vid=3d509d7a-d75c-49ba-8dab-ad4bc962a52c"},"vehicle_type_id":"4","last_reported":1779396285,"current_range_meters":4000,"station_id":"ce4bhhh2rcd13ifvqfk0","pricing_plan_id":"cebpf4jnsgd1na2vs0mg"},{"bike_id":"280c62c4-97eb-46d5-841d-7cac0b1cbaae","system_id":"levelo_inurba_marseille","lat":43.29262,"lon":5.38444,"is_reserved":false,"is_disabled":false,"rental_uris":{"android":"levelo://app?vid=280c62c4-97eb-46d5-841d-7cac0b1cbaae","ios":"levelo://app?vid=280c62c4-97eb-46d5-841d-7cac0b1cbaae"},"vehicle_type_id":"4","last_reported":1779396285,"current_range_meters":4000,"station_id":"ce4bh692rcd13ifvqea0","pricing_plan_id":"cebpf4jnsgd1na2vs0mg"},{"bike_id":"c0c107d5-c5dc-4f72-bd53-caa77d3c0557","system_id":"levelo_inurba_marseille","lat":43.2886,"lon":5.39292,"is_reserved":false,"is_disabled":false,"rental_uris":{"android":"levelo://app?vid=c0c107d5-c5dc-4f72-bd53-caa77d3c0557","ios":"levelo://app?vid=c0c107d5-c5dc-4f72-bd53-caa77d3c0557"},"vehicle_type_id":"4","last_reported":1779396285,"current_range_meters":4000,"station_id":"ce4bh2p2rcd13ifvqdi0","pricing_plan_id":"cebpf4jnsgd1na2vs0mg"},{"bike_id":"8c39b6dd-b754-48e2-823c-6f28d51803e0","system_id":"levelo_inurba_marseille","lat":43.29286,"lon":5.39828,"is_reserved":false,"is_disabled":false,"rental_uris":{"android":"levelo://app?vid=8c39b6dd-b754-48e2-823c-6f28d51803e0","ios":"levelo://app?vid=8c39b6dd-b754-48e2-823c-6f28d51803e0"},"vehicle_type_id":"4","last_reported":1779396285,"current_range_meters":4000,"station_id":"","pricing_plan_id":"cebpf4jnsgd1na2vs0mg"},{"bike_id":"a858947a-3c69-479c-9c9a-9d3d62cdff7b","system_id":"levelo_inurba_marseille","lat":43.29954,"lon":5.41315,"is_reserved":false,"is_disabled":false,"rental_uris":{"android":"levelo://app?vid=a858947a-3c69-479c-9c9a-9d3d62cdff7b","ios":"levelo://app?vid=a858947a-3c69-479c-9c9a-9d3d62cdff7b"},"vehicle_type_id":"4","last_reported":1779396285,"current_range_meters":4000,"station_id":"ce4bhp12rcd13ifvqh9g","pricing_plan_id":"cebpf4jnsgd1na2vs0mg"},{"bike_id":"1d1371af-930b-4bb2-a69d-74bda00db512","system_id":"levelo_inurba_marseille","lat":43.24385,"lon":5.37019,"is_reserved":false,"is_disabled":true,"rental_uris":{"android":"levelo://app?vid=1d1371af-930b-4bb2-a69d-74bda00db512","ios":"levelo://app?vid=1d1371af-930b-4bb2-a69d-74bda00db512"},"vehicle_type_id":"4","last_reported":1779396285,"current_range_meters":4000,"station_id":"ce4bhhh2rcd13ifvqfk0","pricing_plan_id":"cebpf4jnsgd1na2vs0mg"},{"bike_id":"42e72b46-ea89-4b33-95be-8c38a16c88bd","system_id":"levelo_inurba_marseille","lat":43.28218,"lon":5.39071,"is_reserved":false,"is_disabled":false,"rental_uris":{"android":"levelo://app?vid=42e72b46-ea89-4b33-95be-8c38a16c88bd","ios":"levelo://app?vid=42e72b46-ea89-4b33-95be-8c38a16c88bd"},"vehicle_type_id":"4","last_reported":1779396285,"current_range_meters":4000,"station_id":"ce4bhn92rcd13ifvqgsg","pricing_plan_id":"cebpf4jnsgd1na2vs0mg"},{"bike_id":"15a8d13c-fc9e-4e13-9398-c1cbd662c288","system_id":"levelo_inurba_marseille","lat":43.29646,"lon":5.38524,"is_reserved":false,"is_disabled":false,"rental_uris":{"android":"levelo://app?vid=15a8d13c-fc9e-4e13-9398-c1cbd662c288","ios":"levelo://app?vid=15a8d13c-fc9e-4e13-9398-c1cbd662c288"},"vehicle_type_id":"4","last_reported":1779396285,"current_range_meters":4400,"station_id":"","pricing_plan_id":"cebpf4jnsgd1na2vs0mg"},{"bike_id":"a72fd930-2aec-4e5b-888c-7e7c83185074","system_id":"levelo_inurba_marseille","lat":43.28712,"lon":5.37922,"is_reserved":false,"is_disabled":false,"rental_uris":{"android":"levelo://app?vid=a72fd930-2aec-4e5b-888c-7e7c83185074","ios":"levelo://app?vid=a72fd930-2aec-4e5b-888c-7e7c83185074"},"vehicle_type_id":"4","last_reported":1779396285,"current_range_meters":4400,"station_id":"ce4bh9p2rcd13ifvqec0","pricing_plan_id":"cebpf4jnsgd1na2vs0mg"},{"bike_id":"54ebc614-4655-4582-83f2-3a009523bce0","system_id":"levelo_inurba_marseille","lat":43.25531,"lon":5.37632,"is_reserved":false,"is_disabled":false,"rental_uris":{"android":"levelo://app?vid=54ebc614-4655-4582-83f2-3a009523bce0","ios":"levelo://app?vid=54ebc614-4655-4582-83f2-3a009523bce0"},"vehicle_type_id":"4","last_reported":1779396285,"current_range_meters":4400,"station_id":"ce4bhh12rcd13ifvqff0","pricing_plan_id":"cebpf4jnsgd1na2vs0mg"},{"bike_id":"8c3ef4fc-e8b4-4200-8230-655ebc76defe","system_id":"levelo_inurba_marseille","lat":43.28266,"lon":5.35059,"is_reserved":false,"is_disabled":true,"rental_uris":{"android":"levelo://app?vid=8c3ef4fc-e8b4-4200-8230-655ebc76defe","ios":"levelo://app?vid=8c3ef4fc-e8b4-4200-8230-655ebc76defe"},"vehicle_type_id":"4","last_reported":1779396285,"current_range_meters":4400,"station_id":"ce4bhbp2rcd13ifvqerg","pricing_plan_id":"cebpf4jnsgd1na2vs0mg"},{"bike_id":"ef0d5bc4-6923-4b0f-a0dd-158dc286b379","system_id":"levelo_inurba_marseille","lat":43.30601,"lon":5.37204,"is_reserved":false,"is_disabled":false,"rental_uris":{"android":"levelo://app?vid=ef0d5bc4-6923-4b0f-a0dd-158dc286b379","ios":"levelo://app?vid=ef0d5bc4-6923-4b0f-a0dd-158dc286b379"},"vehicle_type_id":"4","last_reported":1779396285,"current_range_meters":4400,"station_id":"ce4bgqh2rcd13ifvqc4g","pricing_plan_id":"cebpf4jnsgd1na2vs0mg"},{"bike_id":"00fc2d09-0c3f-4add-b0b9-d9169b2d0638","system_id":"levelo_inurba_marseille","lat":43.2954,"lon":5.37422,"is_reserved":false,"is_disabled":false,"rental_uris":{"android":"levelo://app?vid=00fc2d09-0c3f-4add-b0b9-d9169b2d0638","ios":"levelo://app?vid=00fc2d09-0c3f-4add-b0b9-d9169b2d0638"},"vehicle_type_id":"4","last_reported":1779396285,"current_range_meters":4400,"station_id":"","pricing_plan_id":"cebpf4jnsgd1na2vs0mg"},{"bike_id":"588a391e-1b21-4a94-bf35-809a0ffea7aa","system_id":"levelo_inurba_marseille","lat":43.27613,"lon":5.36106,"is_reserved":false,"is_disabled":false,"rental_uris":{"android":"levelo://app?vid=588a391e-1b21-4a94-bf35-809a0ffea7aa","ios":"levelo://app?vid=588a391e-1b21-4a94-bf35-809a0ffea7aa"},"vehicle_type_id":"4","last_reported":1779396285,"current_range_meters":4400,"station_id":"ce4bgj92rcd13ifvqbe0","pricing_plan_id":"cebpf4jnsgd1na2vs0mg"},{"bike_id":"3a7237ae-b3a6-4a20-b1be-a8ec335b2b7a","system_id":"levelo_inurba_marseille","lat":43.28457,"lon":5.35896,"is_reserved":false,"is_disabled":true,"rental_uris":{"android":"levelo://app?vid=3a7237ae-b3a6-4a20-b1be-a8ec335b2b7a","ios":"levelo://app?vid=3a7237ae-b3a6-4a20-b1be-a8ec335b2b7a"},"vehicle_type_id":"4","last_reported":1779396285,"current_range_meters":4400,"station_id":"ce4bhah2rcd13ifvqei0","pricing_plan_id":"cebpf4jnsgd1na2vs0mg"},{"bike_id":"d5af041a-3b15-46dc-a47e-2b9c0d56575f","system_id":"levelo_inurba_marseille","lat":43.28736,"lon":5.3607,"is_reserved":false,"is_disabled":false,"rental_uris":{"android":"levelo://app?vid=d5af041a-3b15-46dc-a47e-2b9c0d56575f","ios":"levelo://app?vid=d5af041a-3b15-46dc-a47e-2b9c0d56575f"},"vehicle_type_id":"4","last_reported":1779396285,"current_range_meters":4400,"station_id":"cki0cbj6b192h4jlfktg","pricing_plan_id":"cebpf4jnsgd1na2vs0mg"},{"bike_id":"74fe1e51-c8c1-48c7-87a3-bd97254ab7ff","system_id":"levelo_inurba_marseille","lat":43.27183,"lon":5.40984,"is_reserved":false,"is_disabled":false,"rental_uris":{"android":"levelo://app?vid=74fe1e51-c8c1-48c7-87a3-bd97254ab7ff","ios":"levelo://app?vid=74fe1e51-c8c1-48c7-87a3-bd97254ab7ff"},"vehicle_type_id":"4","last_reported":1779396285,"current_range_meters":4400,"station_id":"ce4bhl12rcd13ifvqgf0","pricing_plan_id":"cebpf4jnsgd1na2vs0mg"},{"bike_id":"9d67899c-a584-4514-9cb2-6baec84826c1","system_id":"levelo_inurba_marseille","lat":43.30092,"lon":5.39079,"is_reserved":false,"is_disabled":false,"rental_uris":{"android":"levelo://app?vid=9d67899c-a584-4514-9cb2-6baec84826c1","ios":"levelo://app?vid=9d67899c-a584-4514-9cb2-6baec84826c1"},"vehicle_type_id":"4","last_reported":1779396285,"current_range_meters":4400,"station_id":"ce4bh192rcd13ifvqdb0","pricing_plan_id":"cebpf4jnsgd1na2vs0mg"},{"bike_id":"0b9fb95c-cf6b-4ed5-8bf4-759fc5a571cc","system_id":"levelo_inurba_marseille","lat":43.26857,"lon":5.40673,"is_reserved":false,"is_disabled":false,"rental_uris":{"android":"levelo://app?vid=0b9fb95c-cf6b-4ed5-8bf4-759fc5a571cc","ios":"levelo://app?vid=0b9fb95c-cf6b-4ed5-8bf4-759fc5a571cc"},"vehicle_type_id":"4","last_reported":1779396285,"current_range_meters":4400,"station_id":"","pricing_plan_id":"cebpf4jnsgd1na2vs0mg"},{"bike_id":"2e630774-cdbd-4918-b833-bb43da54ad20","system_id":"levelo_inurba_marseille","lat":43.28453,"lon":5.358795,"is_reserved":false,"is_disabled":false,"rental_uris":{"android":"levelo://app?vid=2e630774-cdbd-4918-b833-bb43da54ad20","ios":"levelo://app?vid=2e630774-cdbd-4918-b833-bb43da54ad20"},"vehicle_type_id":"4","last_reported":1779396285,"current_range_meters":4400,"station_id":"ce4bhah2rcd13ifvqei0","pricing_plan_id":"cebpf4jnsgd1na2vs0mg"},{"bike_id":"362dde3d-e55b-43d3-a257-fc879c078dae","system_id":"levelo_inurba_marseille","lat":43.26197,"lon":5.3744,"is_reserved":false,"is_disabled":true,"rental_uris":{"android":"levelo://app?vid=362dde3d-e55b-43d3-a257-fc879c078dae","ios":"levelo://app?vid=362dde3d-e55b-43d3-a257-fc879c078dae"},"vehicle_type_id":"4","last_reported":1779396285,"current_range_meters":4400,"station_id":"ce4bhgp2rcd13ifvqfc0","pricing_plan_id":"cebpf4jnsgd1na2vs0mg"},{"bike_id":"b3c58742-0569-4988-8f74-9982023b97a6","system_id":"levelo_inurba_marseille","lat":43.31905,"lon":5.36784,"is_reserved":false,"is_disabled":false,"rental_uris":{"android":"levelo://app?vid=b3c58742-0569-4988-8f74-9982023b97a6","ios":"levelo://app?vid=b3c58742-0569-4988-8f74-9982023b97a6"},"vehicle_type_id":"4","last_reported":1779396285,"current_range_meters":4800,"station_id":"st_d6o2h0d0559c73evc1b0","pricing_plan_id":"cebpf4jnsgd1na2vs0mg"},{"bike_id":"94c49980-82e9-40c1-8742-79af726fe66b","system_id":"levelo_inurba_marseille","lat":43.29885,"lon":5.42108,"is_reserved":false,"is_disabled":false,"rental_uris":{"android":"levelo://app?vid=94c49980-82e9-40c1-8742-79af726fe66b","ios":"levelo://app?vid=94c49980-82e9-40c1-8742-79af726fe66b"},"vehicle_type_id":"4","last_reported":1779396285,"current_range_meters":4800,"station_id":"st_d6tc004otcvc738tfe70","pricing_plan_id":"cebpf4jnsgd1na2vs0mg"},{"bike_id":"c6128e7e-849e-4077-9f6f-6eb5ee6dc68d","system_id":"levelo_inurba_marseille","lat":43.2663,"lon":5.39384,"is_reserved":false,"is_disabled":false,"rental_uris":{"android":"levelo://app?vid=c6128e7e-849e-4077-9f6f-6eb5ee6dc68d","ios":"levelo://app?vid=c6128e7e-849e-4077-9f6f-6eb5ee6dc68d"},"vehicle_type_id":"4","last_reported":1779396285,"current_range_meters":4800,"station_id":"ce4bhh12rcd13ifvqfg0","pricing_plan_id":"cebpf4jnsgd1na2vs0mg"},{"bike_id":"4dc97399-05df-4994-874d-17b1d595029d","system_id":"levelo_inurba_marseille","lat":43.28482,"lon":5.38421,"is_reserved":false,"is_disabled":false,"rental_uris":{"android":"levelo://app?vid=4dc97399-05df-4994-874d-17b1d595029d","ios":"levelo://app?vid=4dc97399-05df-4994-874d-17b1d595029d"},"vehicle_type_id":"4","last_reported":1779396285,"current_range_meters":4800,"station_id":"ce4bh512rcd13ifvqe3g","pricing_plan_id":"cebpf4jnsgd1na2vs0mg"},{"bike_id":"e7b2834d-0414-4c8b-95bb-dbeba87a5cba","system_id":"levelo_inurba_marseille","lat":43.32928,"lon":5.38936,"is_reserved":false,"is_disabled":false,"rental_uris":{"android":"levelo://app?vid=e7b2834d-0414-4c8b-95bb-dbeba87a5cba","ios":"levelo://app?vid=e7b2834d-0414-4c8b-95bb-dbeba87a5cba"},"vehicle_type_id":"4","last_reported":1779396285,"current_range_meters":4800,"station_id":"","pricing_plan_id":"cebpf4jnsgd1na2vs0mg"},{"bike_id":"aad75fce-f297-4a66-8546-74ab6bfcd851","system_id":"levelo_inurba_marseille","lat":43.24174,"lon":5.36403,"is_reserved":false,"is_disabled":false,"rental_uris":{"android":"levelo://app?vid=aad75fce-f297-4a66-8546-74ab6bfcd851","ios":"levelo://app?vid=aad75fce-f297-4a66-8546-74ab6bfcd851"},"vehicle_type_id":"4","last_reported":1779396285,"current_range_meters":4800,"station_id":"cpo36qri1sfpv3e86is0","pricing_plan_id":"cebpf4jnsgd1na2vs0mg"},{"bike_id":"78ee7857-01fd-4d19-9349-5bf537cbcebb","system_id":"levelo_inurba_marseille","lat":43.31523,"lon":5.38003,"is_reserved":false,"is_disabled":false,"rental_uris":{"android":"levelo://app?vid=78ee7857-01fd-4d19-9349-5bf537cbcebb","ios":"levelo://app?vid=78ee7857-01fd-4d19-9349-5bf537cbcebb"},"vehicle_type_id":"4","last_reported":1779396285,"current_range_meters":4800,"station_id":"ce4bhsp2rcd13ifvqi50","pricing_plan_id":"cebpf4jnsgd1na2vs0mg"},{"bike_id":"8fd39844-9a8b-4f71-9979-b431af143528","system_id":"levelo_inurba_marseille","lat":43.29523,"lon":5.38529,"is_reserved":false,"is_disabled":false,"rental_uris":{"android":"levelo://app?vid=8fd39844-9a8b-4f71-9979-b431af143528","ios":"levelo://app?vid=8fd39844-9a8b-4f71-9979-b431af143528"},"vehicle_type_id":"4","last_reported":1779396285,"current_range_meters":4800,"station_id":"ce4bgih2rcd13ifvqba0","pricing_plan_id":"cebpf4jnsgd1na2vs0mg"},{"bike_id":"8a0dc731-2fcb-41f9-8c7d-3c07ea626aeb","system_id":"levelo_inurba_marseille","lat":43.23962,"lon":5.3662,"is_reserved":false,"is_disabled":true,"rental_uris":{"android":"levelo://app?vid=8a0dc731-2fcb-41f9-8c7d-3c07ea626aeb","ios":"levelo://app?vid=8a0dc731-2fcb-41f9-8c7d-3c07ea626aeb"},"vehicle_type_id":"4","last_reported":1779396285,"current_range_meters":4800,"station_id":"ce4bhi12rcd13ifvqfp0","pricing_plan_id":"cebpf4jnsgd1na2vs0mg"},{"bike_id":"9149359f-8353-4a3d-bdc1-ad0afe74cd18","system_id":"levelo_inurba_marseille","lat":43.30124,"lon":5.38785,"is_reserved":false,"is_disabled":false,"rental_uris":{"android":"levelo://app?vid=9149359f-8353-4a3d-bdc1-ad0afe74cd18","ios":"levelo://app?vid=9149359f-8353-4a3d-bdc1-ad0afe74cd18"},"vehicle_type_id":"4","last_reported":1779396285,"current_range_meters":4800,"station_id":"ce4bghh2rcd13ifvqb60","pricing_plan_id":"cebpf4jnsgd1na2vs0mg"},{"bike_id":"f355d3ee-806b-4ad4-a01c-79ec2c42ef4a","system_id":"levelo_inurba_marseille","lat":43.311,"lon":5.37167,"is_reserved":false,"is_disabled":false,"rental_uris":{"android":"levelo://app?vid=f355d3ee-806b-4ad4-a01c-79ec2c42ef4a","ios":"levelo://app?vid=f355d3ee-806b-4ad4-a01c-79ec2c42ef4a"},"vehicle_type_id":"4","last_reported":1779396285,"current_range_meters":4800,"station_id":"st_d4kl2rp97mjs73e7tdfg","pricing_plan_id":"cebpf4jnsgd1na2vs0mg"},{"bike_id":"c75b88aa-83d8-441d-ace8-16a5ee10e264","system_id":"levelo_inurba_marseille","lat":43.28935,"lon":5.39616,"is_reserved":false,"is_disabled":false,"rental_uris":{"android":"levelo://app?vid=c75b88aa-83d8-441d-ace8-16a5ee10e264","ios":"levelo://app?vid=c75b88aa-83d8-441d-ace8-16a5ee10e264"},"vehicle_type_id":"4","last_reported":1779396285,"current_range_meters":4800,"station_id":"ce4bh3h2rcd13ifvqdn0","pricing_plan_id":"cebpf4jnsgd1na2vs0mg"},{"bike_id":"2417956b-f325-4b75-806c-e42e7b7f598c","system_id":"levelo_inurba_marseille","lat":43.24941,"lon":5.41736,"is_reserved":false,"is_disabled":false,"rental_uris":{"android":"levelo://app?vid=2417956b-f325-4b75-806c-e42e7b7f598c","ios":"levelo://app?vid=2417956b-f325-4b75-806c-e42e7b7f598c"},"vehicle_type_id":"4","last_reported":1779396285,"current_range_meters":4800,"station_id":"","pricing_plan_id":"cebpf4jnsgd1na2vs0mg"},{"bike_id":"2369c049-e144-4559-8c19-80e04ce58e98","system_id":"levelo_inurba_marseille","lat":43.28398,"lon":5.3751,"is_reserved":false,"is_disabled":false,"rental_uris":{"android":"levelo://app?vid=2369c049-e144-4559-8c19-80e04ce58e98","ios":"levelo://app?vid=2369c049-e144-4559-8c19-80e04ce58e98"},"vehicle_type_id":"4","last_reported":1779396285,"current_range_meters":4800,"station_id":"ce4bh412rcd13ifvqds0","pricing_plan_id":"cebpf4jnsgd1na2vs0mg"},{"bike_id":"375ee5aa-b3a4-4687-9cb5-9ce27e5d544e","system_id":"levelo_inurba_marseille","lat":43.31073,"lon":5.42446,"is_reserved":false,"is_disabled":false,"rental_uris":{"android":"levelo://app?vid=375ee5aa-b3a4-4687-9cb5-9ce27e5d544e","ios":"levelo://app?vid=375ee5aa-b3a4-4687-9cb5-9ce27e5d544e"},"vehicle_type_id":"4","last_reported":1779396285,"current_range_meters":5600,"station_id":"ce4bhp92rcd13ifvqhag","pricing_plan_id":"cebpf4jnsgd1na2vs0mg"},{"bike_id":"f80ebbf3-3086-4125-9350-f67b8038ce63","system_id":"levelo_inurba_marseille","lat":43.288467,"lon":5.393078,"is_reserved":false,"is_disabled":false,"rental_uris":{"android":"levelo://app?vid=f80ebbf3-3086-4125-9350-f67b8038ce63","ios":"levelo://app?vid=f80ebbf3-3086-4125-9350-f67b8038ce63"},"vehicle_type_id":"4","last_reported":1779396285,"current_range_meters":5600,"station_id":"ce4bh2p2rcd13ifvqdi0","pricing_plan_id":"cebpf4jnsgd1na2vs0mg"},{"bike_id":"0c92e7da-d12e-4b59-9791-1a132bd3072c","system_id":"levelo_inurba_marseille","lat":43.31724,"lon":5.42404,"is_reserved":false,"is_disabled":false,"rental_uris":{"android":"levelo://app?vid=0c92e7da-d12e-4b59-9791-1a132bd3072c","ios":"levelo://app?vid=0c92e7da-d12e-4b59-9791-1a132bd3072c"},"vehicle_type_id":"4","last_reported":1779396285,"current_range_meters":5600,"station_id":"ce4bhp92rcd13ifvqhbg","pricing_plan_id":"cebpf4jnsgd1na2vs0mg"},{"bike_id":"579b2171-b84c-487b-97da-16a59f7883f8","system_id":"levelo_inurba_marseille","lat":43.296235,"lon":5.371635,"is_reserved":false,"is_disabled":false,"rental_uris":{"android":"levelo://app?vid=579b2171-b84c-487b-97da-16a59f7883f8","ios":"levelo://app?vid=579b2171-b84c-487b-97da-16a59f7883f8"},"vehicle_type_id":"4","last_reported":1779396285,"current_range_meters":5600,"station_id":"ce4bgnh2rcd13ifvqc0g","pricing_plan_id":"cebpf4jnsgd1na2vs0mg"},{"bike_id":"4b5b8890-9e3e-472b-8aec-7e766806da2f","system_id":"levelo_inurba_marseille","lat":43.29523,"lon":5.38514,"is_reserved":false,"is_disabled":false,"rental_uris":{"android":"levelo://app?vid=4b5b8890-9e3e-472b-8aec-7e766806da2f","ios":"levelo://app?vid=4b5b8890-9e3e-472b-8aec-7e766806da2f"},"vehicle_type_id":"4","last_reported":1779396285,"current_range_meters":5600,"station_id":"ce4bgih2rcd13ifvqba0","pricing_plan_id":"cebpf4jnsgd1na2vs0mg"},{"bike_id":"588e51ac-8f84-47ba-9b6c-69670b7a8142","system_id":"levelo_inurba_marseille","lat":43.29031,"lon":5.38633,"is_reserved":false,"is_disabled":false,"rental_uris":{"android":"levelo://app?vid=588e51ac-8f84-47ba-9b6c-69670b7a8142","ios":"levelo://app?vid=588e51ac-8f84-47ba-9b6c-69670b7a8142"},"vehicle_type_id":"4","last_reported":1779396285,"current_range_meters":5600,"station_id":"ce4bh4p2rcd13ifvqe0g","pricing_plan_id":"cebpf4jnsgd1na2vs0mg"},{"bike_id":"4a54b351-04ac-4f40-b471-0f6d190e5ac2","system_id":"levelo_inurba_marseille","lat":43.28832,"lon":5.39288,"is_reserved":false,"is_disabled":false,"rental_uris":{"android":"levelo://app?vid=4a54b351-04ac-4f40-b471-0f6d190e5ac2","ios":"levelo://app?vid=4a54b351-04ac-4f40-b471-0f6d190e5ac2"},"vehicle_type_id":"4","last_reported":1779396285,"current_range_meters":5600,"station_id":"ce4bh2p2rcd13ifvqdi0","pricing_plan_id":"cebpf4jnsgd1na2vs0mg"},{"bike_id":"9f851e0d-2bc6-43e8-9dbb-3054f97344b0","system_id":"levelo_inurba_marseille","lat":43.30103,"lon":5.37222,"is_reserved":false,"is_disabled":false,"rental_uris":{"android":"levelo://app?vid=9f851e0d-2bc6-43e8-9dbb-3054f97344b0","ios":"levelo://app?vid=9f851e0d-2bc6-43e8-9dbb-3054f97344b0"},"vehicle_type_id":"4","last_reported":1779396285,"current_range_meters":5600,"station_id":"","pricing_plan_id":"cebpf4jnsgd1na2vs0mg"},{"bike_id":"2f5164af-975a-4fc4-879a-eaff4c6a2f38","system_id":"levelo_inurba_marseille","lat":43.29541,"lon":5.38538,"is_reserved":false,"is_disabled":false,"rental_uris":{"android":"levelo://app?vid=2f5164af-975a-4fc4-879a-eaff4c6a2f38","ios":"levelo://app?vid=2f5164af-975a-4fc4-879a-eaff4c6a2f38"},"vehicle_type_id":"4","last_reported":1779396285,"current_range_meters":5600,"station_id":"ce4bgih2rcd13ifvqba0","pricing_plan_id":"cebpf4jnsgd1na2vs0mg"},{"bike_id":"d7b1d80e-ee26-4f2a-8580-16b04d1e386f","system_id":"levelo_inurba_marseille","lat":43.28367,"lon":5.38623,"is_reserved":false,"is_disabled":false,"rental_uris":{"android":"levelo://app?vid=d7b1d80e-ee26-4f2a-8580-16b04d1e386f","ios":"levelo://app?vid=d7b1d80e-ee26-4f2a-8580-16b04d1e386f"},"vehicle_type_id":"4","last_reported":1779396285,"current_range_meters":5600,"station_id":"ce4bh492rcd13ifvqdvg","pricing_plan_id":"cebpf4jnsgd1na2vs0mg"},{"bike_id":"2c8791a5-3c3b-4ac8-b6f7-6dac0bd13239","system_id":"levelo_inurba_marseille","lat":43.255121,"lon":5.37652,"is_reserved":false,"is_disabled":false,"rental_uris":{"android":"levelo://app?vid=2c8791a5-3c3b-4ac8-b6f7-6dac0bd13239","ios":"levelo://app?vid=2c8791a5-3c3b-4ac8-b6f7-6dac0bd13239"},"vehicle_type_id":"4","last_reported":1779396285,"current_range_meters":5600,"station_id":"ce4bhh12rcd13ifvqff0","pricing_plan_id":"cebpf4jnsgd1na2vs0mg"},{"bike_id":"cd72d134-f828-4598-8fb8-b9579b03352c","system_id":"levelo_inurba_marseille","lat":43.28414,"lon":5.37514,"is_reserved":false,"is_disabled":false,"rental_uris":{"android":"levelo://app?vid=cd72d134-f828-4598-8fb8-b9579b03352c","ios":"levelo://app?vid=cd72d134-f828-4598-8fb8-b9579b03352c"},"vehicle_type_id":"4","last_reported":1779396285,"current_range_meters":5600,"station_id":"ce4bh412rcd13ifvqds0","pricing_plan_id":"cebpf4jnsgd1na2vs0mg"},{"bike_id":"8e7115e5-afd0-482b-bfd7-f75a7925e115","system_id":"levelo_inurba_marseille","lat":43.30256,"lon":5.41232,"is_reserved":false,"is_disabled":false,"rental_uris":{"android":"levelo://app?vid=8e7115e5-afd0-482b-bfd7-f75a7925e115","ios":"levelo://app?vid=8e7115e5-afd0-482b-bfd7-f75a7925e115"},"vehicle_type_id":"4","last_reported":1779396285,"current_range_meters":5600,"station_id":"","pricing_plan_id":"cebpf4jnsgd1na2vs0mg"},{"bike_id":"c6f928d0-9420-4705-a33a-b0e874eb06ff","system_id":"levelo_inurba_marseille","lat":43.29591,"lon":5.36741,"is_reserved":false,"is_disabled":false,"rental_uris":{"android":"levelo://app?vid=c6f928d0-9420-4705-a33a-b0e874eb06ff","ios":"levelo://app?vid=c6f928d0-9420-4705-a33a-b0e874eb06ff"},"vehicle_type_id":"4","last_reported":1779396285,"current_range_meters":5600,"station_id":"ce4bgph2rcd13ifvqc2g","pricing_plan_id":"cebpf4jnsgd1na2vs0mg"},{"bike_id":"11233bb7-275d-4756-a959-2e66680ae699","system_id":"levelo_inurba_marseille","lat":43.30782,"lon":5.376554,"is_reserved":false,"is_disabled":false,"rental_uris":{"android":"levelo://app?vid=11233bb7-275d-4756-a959-2e66680ae699","ios":"levelo://app?vid=11233bb7-275d-4756-a959-2e66680ae699"},"vehicle_type_id":"4","last_reported":1779396285,"current_range_meters":5600,"station_id":"ce4bgv92rcd13ifvqcq0","pricing_plan_id":"cebpf4jnsgd1na2vs0mg"},{"bike_id":"a27d2258-9502-45d4-b70b-3e1beabad122","system_id":"levelo_inurba_marseille","lat":43.3014,"lon":5.38773,"is_reserved":false,"is_disabled":false,"rental_uris":{"android":"levelo://app?vid=a27d2258-9502-45d4-b70b-3e1beabad122","ios":"levelo://app?vid=a27d2258-9502-45d4-b70b-3e1beabad122"},"vehicle_type_id":"4","last_reported":1779396285,"current_range_meters":5600,"station_id":"ce4bghh2rcd13ifvqb60","pricing_plan_id":"cebpf4jnsgd1na2vs0mg"},{"bike_id":"e180b846-4c11-4a4c-9d83-d0a8eb766cbe","system_id":"levelo_inurba_marseille","lat":43.30093,"lon":5.39065,"is_reserved":false,"is_disabled":false,"rental_uris":{"android":"levelo://app?vid=e180b846-4c11-4a4c-9d83-d0a8eb766cbe","ios":"levelo://app?vid=e180b846-4c11-4a4c-9d83-d0a8eb766cbe"},"vehicle_type_id":"4","last_reported":1779396285,"current_range_meters":5600,"station_id":"ce4bh192rcd13ifvqdb0","pricing_plan_id":"cebpf4jnsgd1na2vs0mg"},{"bike_id":"d60049cd-34c2-4834-98c7-cc5d32c1fbe8","system_id":"levelo_inurba_marseille","lat":43.25493,"lon":5.37646,"is_reserved":false,"is_disabled":false,"rental_uris":{"android":"levelo://app?vid=d60049cd-34c2-4834-98c7-cc5d32c1fbe8","ios":"levelo://app?vid=d60049cd-34c2-4834-98c7-cc5d32c1fbe8"},"vehicle_type_id":"4","last_reported":1779396285,"current_range_meters":5600,"station_id":"ce4bhh12rcd13ifvqff0","pricing_plan_id":"cebpf4jnsgd1na2vs0mg"},{"bike_id":"ba500815-2af2-4949-a01a-ce2c02f73453","system_id":"levelo_inurba_marseille","lat":43.26951,"lon":5.38918,"is_reserved":false,"is_disabled":false,"rental_uris":{"android":"levelo://app?vid=ba500815-2af2-4949-a01a-ce2c02f73453","ios":"levelo://app?vid=ba500815-2af2-4949-a01a-ce2c02f73453"},"vehicle_type_id":"4","last_reported":1779396285,"current_range_meters":5600,"station_id":"ce4bhhh2rcd13ifvqfl0","pricing_plan_id":"cebpf4jnsgd1na2vs0mg"},{"bike_id":"87ebd666-525c-4cba-8e06-28cf6ec8a4ea","system_id":"levelo_inurba_marseille","lat":43.26572,"lon":5.40321,"is_reserved":false,"is_disabled":false,"rental_uris":{"android":"levelo://app?vid=87ebd666-525c-4cba-8e06-28cf6ec8a4ea","ios":"levelo://app?vid=87ebd666-525c-4cba-8e06-28cf6ec8a4ea"},"vehicle_type_id":"4","last_reported":1779396285,"current_range_meters":5600,"station_id":"ce4bhmp2rcd13ifvqgng","pricing_plan_id":"cebpf4jnsgd1na2vs0mg"},{"bike_id":"1f8a91f2-6f76-418e-a5f9-c5e61367b7d5","system_id":"levelo_inurba_marseille","lat":43.28695,"lon":5.37392,"is_reserved":false,"is_disabled":false,"rental_uris":{"android":"levelo://app?vid=1f8a91f2-6f76-418e-a5f9-c5e61367b7d5","ios":"levelo://app?vid=1f8a91f2-6f76-418e-a5f9-c5e61367b7d5"},"vehicle_type_id":"4","last_reported":1779396285,"current_range_meters":5600,"station_id":"ce4bh3p2rcd13ifvqdq0","pricing_plan_id":"cebpf4jnsgd1na2vs0mg"},{"bike_id":"e32793be-64fc-49de-b726-d7c3c4a0e683","system_id":"levelo_inurba_marseille","lat":43.2953,"lon":5.38519,"is_reserved":false,"is_disabled":false,"rental_uris":{"android":"levelo://app?vid=e32793be-64fc-49de-b726-d7c3c4a0e683","ios":"levelo://app?vid=e32793be-64fc-49de-b726-d7c3c4a0e683"},"vehicle_type_id":"4","last_reported":1779396285,"current_range_meters":5600,"station_id":"ce4bgih2rcd13ifvqba0","pricing_plan_id":"cebpf4jnsgd1na2vs0mg"},{"bike_id":"54414197-7a79-46ce-891d-758db7720b8c","system_id":"levelo_inurba_marseille","lat":43.27318,"lon":5.3908,"is_reserved":false,"is_disabled":true,"rental_uris":{"android":"levelo://app?vid=54414197-7a79-46ce-891d-758db7720b8c","ios":"levelo://app?vid=54414197-7a79-46ce-891d-758db7720b8c"},"vehicle_type_id":"4","last_reported":1779396285,"current_range_meters":5600,"station_id":"ce4bhgp2rcd13ifvqfe0","pricing_plan_id":"cebpf4jnsgd1na2vs0mg"},{"bike_id":"03b1ccbc-0c67-498c-9519-dabf7ef47bb5","system_id":"levelo_inurba_marseille","lat":43.2929,"lon":5.38421,"is_reserved":false,"is_disabled":false,"rental_uris":{"android":"levelo://app?vid=03b1ccbc-0c67-498c-9519-dabf7ef47bb5","ios":"levelo://app?vid=03b1ccbc-0c67-498c-9519-dabf7ef47bb5"},"vehicle_type_id":"4","last_reported":1779396285,"current_range_meters":5600,"station_id":"ce4bh692rcd13ifvqea0","pricing_plan_id":"cebpf4jnsgd1na2vs0mg"},{"bike_id":"f63221a6-0516-4efb-9f91-f7af95eafadd","system_id":"levelo_inurba_marseille","lat":43.28629,"lon":5.35108,"is_reserved":false,"is_disabled":true,"rental_uris":{"android":"levelo://app?vid=f63221a6-0516-4efb-9f91-f7af95eafadd","ios":"levelo://app?vid=f63221a6-0516-4efb-9f91-f7af95eafadd"},"vehicle_type_id":"4","last_reported":1779396285,"current_range_meters":6000,"station_id":"","pricing_plan_id":"cebpf4jnsgd1na2vs0mg"},{"bike_id":"616259e1-99b9-477f-9be8-a931d2e539ff","system_id":"levelo_inurba_marseille","lat":43.231941,"lon":5.355529,"is_reserved":false,"is_disabled":false,"rental_uris":{"android":"levelo://app?vid=616259e1-99b9-477f-9be8-a931d2e539ff","ios":"levelo://app?vid=616259e1-99b9-477f-9be8-a931d2e539ff"},"vehicle_type_id":"4","last_reported":1779396285,"current_range_meters":6000,"station_id":"ce4bgi92rcd13ifvqb90","pricing_plan_id":"cebpf4jnsgd1na2vs0mg"},{"bike_id":"c2009c9c-a03b-42d1-8ec2-2a002c013719","system_id":"levelo_inurba_marseille","lat":43.29869,"lon":5.39729,"is_reserved":false,"is_disabled":false,"rental_uris":{"android":"levelo://app?vid=c2009c9c-a03b-42d1-8ec2-2a002c013719","ios":"levelo://app?vid=c2009c9c-a03b-42d1-8ec2-2a002c013719"},"vehicle_type_id":"4","last_reported":1779396285,"current_range_meters":6000,"station_id":"ce4bh0h2rcd13ifvqd50","pricing_plan_id":"cebpf4jnsgd1na2vs0mg"},{"bike_id":"5195998f-29c0-451a-9b35-063ca4547e00","system_id":"levelo_inurba_marseille","lat":43.24164,"lon":5.36391,"is_reserved":false,"is_disabled":false,"rental_uris":{"android":"levelo://app?vid=5195998f-29c0-451a-9b35-063ca4547e00","ios":"levelo://app?vid=5195998f-29c0-451a-9b35-063ca4547e00"},"vehicle_type_id":"4","last_reported":1779396285,"current_range_meters":6000,"station_id":"cpo36qri1sfpv3e86is0","pricing_plan_id":"cebpf4jnsgd1na2vs0mg"},{"bike_id":"730b1da5-aa6f-4cb3-a32c-8d67f7bf1d95","system_id":"levelo_inurba_marseille","lat":43.27204,"lon":5.39181,"is_reserved":false,"is_disabled":false,"rental_uris":{"android":"levelo://app?vid=730b1da5-aa6f-4cb3-a32c-8d67f7bf1d95","ios":"levelo://app?vid=730b1da5-aa6f-4cb3-a32c-8d67f7bf1d95"},"vehicle_type_id":"4","last_reported":1779396285,"current_range_meters":6000,"station_id":"ce4bhhp2rcd13ifvqfm0","pricing_plan_id":"cebpf4jnsgd1na2vs0mg"},{"bike_id":"70bd1697-29a9-464f-a79a-74a540437e6e","system_id":"levelo_inurba_marseille","lat":43.33754,"lon":5.37469,"is_reserved":false,"is_disabled":false,"rental_uris":{"android":"levelo://app?vid=70bd1697-29a9-464f-a79a-74a540437e6e","ios":"levelo://app?vid=70bd1697-29a9-464f-a79a-74a540437e6e"},"vehicle_type_id":"4","last_reported":1779396285,"current_range_meters":6000,"station_id":"","pricing_plan_id":"cebpf4jnsgd1na2vs0mg"},{"bike_id":"98fb4e34-3cea-4db9-b817-84a99719becd","system_id":"levelo_inurba_marseille","lat":43.28338,"lon":5.38109,"is_reserved":false,"is_disabled":false,"rental_uris":{"android":"levelo://app?vid=98fb4e34-3cea-4db9-b817-84a99719becd","ios":"levelo://app?vid=98fb4e34-3cea-4db9-b817-84a99719becd"},"vehicle_type_id":"4","last_reported":1779396285,"current_range_meters":6000,"station_id":"ce4bh412rcd13ifvqdr0","pricing_plan_id":"cebpf4jnsgd1na2vs0mg"},{"bike_id":"7cdc1b87-7255-42f6-b49d-9a6bbf79280f","system_id":"levelo_inurba_marseille","lat":43.29889,"lon":5.39742,"is_reserved":false,"is_disabled":false,"rental_uris":{"android":"levelo://app?vid=7cdc1b87-7255-42f6-b49d-9a6bbf79280f","ios":"levelo://app?vid=7cdc1b87-7255-42f6-b49d-9a6bbf79280f"},"vehicle_type_id":"4","last_reported":1779396285,"current_range_meters":6000,"station_id":"ce4bh0h2rcd13ifvqd50","pricing_plan_id":"cebpf4jnsgd1na2vs0mg"},{"bike_id":"e7d55ff2-76c8-4b77-819b-53f9e3aa018a","system_id":"levelo_inurba_marseille","lat":43.2321,"lon":5.3555,"is_reserved":false,"is_disabled":false,"rental_uris":{"android":"levelo://app?vid=e7d55ff2-76c8-4b77-819b-53f9e3aa018a","ios":"levelo://app?vid=e7d55ff2-76c8-4b77-819b-53f9e3aa018a"},"vehicle_type_id":"4","last_reported":1779396285,"current_range_meters":6000,"station_id":"ce4bhu92rcd13ifvqi70","pricing_plan_id":"cebpf4jnsgd1na2vs0mg"},{"bike_id":"72c448e1-1b04-4276-9c93-0bc997384711","system_id":"levelo_inurba_marseille","lat":43.25546,"lon":5.37639,"is_reserved":false,"is_disabled":false,"rental_uris":{"android":"levelo://app?vid=72c448e1-1b04-4276-9c93-0bc997384711","ios":"levelo://app?vid=72c448e1-1b04-4276-9c93-0bc997384711"},"vehicle_type_id":"4","last_reported":1779396285,"current_range_meters":6000,"station_id":"ce4bhh12rcd13ifvqff0","pricing_plan_id":"cebpf4jnsgd1na2vs0mg"},{"bike_id":"8157d7f0-4ca8-4b62-ad2b-8c365be299bf","system_id":"levelo_inurba_marseille","lat":43.29037,"lon":5.35918,"is_reserved":false,"is_disabled":true,"rental_uris":{"android":"levelo://app?vid=8157d7f0-4ca8-4b62-ad2b-8c365be299bf","ios":"levelo://app?vid=8157d7f0-4ca8-4b62-ad2b-8c365be299bf"},"vehicle_type_id":"4","last_reported":1779396285,"current_range_meters":6000,"station_id":"ce4bha92rcd13ifvqeg0","pricing_plan_id":"cebpf4jnsgd1na2vs0mg"},{"bike_id":"753aa280-747b-4a56-8204-f688799dc487","system_id":"levelo_inurba_marseille","lat":43.31081,"lon":5.42429,"is_reserved":false,"is_disabled":false,"rental_uris":{"android":"levelo://app?vid=753aa280-747b-4a56-8204-f688799dc487","ios":"levelo://app?vid=753aa280-747b-4a56-8204-f688799dc487"},"vehicle_type_id":"4","last_reported":1779396285,"current_range_meters":6000,"station_id":"ce4bhp92rcd13ifvqhag","pricing_plan_id":"cebpf4jnsgd1na2vs0mg"},{"bike_id":"9c4521f1-b414-4b4a-8769-c16b8f3c97e7","system_id":"levelo_inurba_marseille","lat":43.25344,"lon":5.42168,"is_reserved":false,"is_disabled":false,"rental_uris":{"android":"levelo://app?vid=9c4521f1-b414-4b4a-8769-c16b8f3c97e7","ios":"levelo://app?vid=9c4521f1-b414-4b4a-8769-c16b8f3c97e7"},"vehicle_type_id":"4","last_reported":1779396285,"current_range_meters":6000,"station_id":"st_d2m65c5bi1j21697t3ng","pricing_plan_id":"cebpf4jnsgd1na2vs0mg"},{"bike_id":"faab6192-d11e-421f-97c7-c19528d8cbf8","system_id":"levelo_inurba_marseille","lat":43.29021,"lon":5.38626,"is_reserved":false,"is_disabled":false,"rental_uris":{"android":"levelo://app?vid=faab6192-d11e-421f-97c7-c19528d8cbf8","ios":"levelo://app?vid=faab6192-d11e-421f-97c7-c19528d8cbf8"},"vehicle_type_id":"4","last_reported":1779396285,"current_range_meters":6000,"station_id":"ce4bh4p2rcd13ifvqe0g","pricing_plan_id":"cebpf4jnsgd1na2vs0mg"},{"bike_id":"883418ce-d76e-41a9-9917-d0c7df1d2039","system_id":"levelo_inurba_marseille","lat":43.29536,"lon":5.3853,"is_reserved":false,"is_disabled":false,"rental_uris":{"android":"levelo://app?vid=883418ce-d76e-41a9-9917-d0c7df1d2039","ios":"levelo://app?vid=883418ce-d76e-41a9-9917-d0c7df1d2039"},"vehicle_type_id":"4","last_reported":1779396285,"current_range_meters":6000,"station_id":"ce4bgih2rcd13ifvqba0","pricing_plan_id":"cebpf4jnsgd1na2vs0mg"},{"bike_id":"998b9733-ad39-452b-9bc1-f5ac6784cff6","system_id":"levelo_inurba_marseille","lat":43.25491,"lon":5.37647,"is_reserved":false,"is_disabled":false,"rental_uris":{"android":"levelo://app?vid=998b9733-ad39-452b-9bc1-f5ac6784cff6","ios":"levelo://app?vid=998b9733-ad39-452b-9bc1-f5ac6784cff6"},"vehicle_type_id":"4","last_reported":1779396285,"current_range_meters":6000,"station_id":"ce4bhh12rcd13ifvqff0","pricing_plan_id":"cebpf4jnsgd1na2vs0mg"},{"bike_id":"9be77b45-31c0-48c0-a9d2-c3a0fe200233","system_id":"levelo_inurba_marseille","lat":43.29248,"lon":5.40157,"is_reserved":false,"is_disabled":false,"rental_uris":{"android":"levelo://app?vid=9be77b45-31c0-48c0-a9d2-c3a0fe200233","ios":"levelo://app?vid=9be77b45-31c0-48c0-a9d2-c3a0fe200233"},"vehicle_type_id":"4","last_reported":1779396285,"current_range_meters":6000,"station_id":"ce4bh312rcd13ifvqdk0","pricing_plan_id":"cebpf4jnsgd1na2vs0mg"},{"bike_id":"1ec001e2-985a-4fe7-becf-bf0c5576d192","system_id":"levelo_inurba_marseille","lat":43.30895,"lon":5.396,"is_reserved":false,"is_disabled":false,"rental_uris":{"android":"levelo://app?vid=1ec001e2-985a-4fe7-becf-bf0c5576d192","ios":"levelo://app?vid=1ec001e2-985a-4fe7-becf-bf0c5576d192"},"vehicle_type_id":"4","last_reported":1779396285,"current_range_meters":6000,"station_id":"ce4bh012rcd13ifvqcv0","pricing_plan_id":"cebpf4jnsgd1na2vs0mg"},{"bike_id":"e6eba207-3372-4c38-a13d-96e436c475ed","system_id":"levelo_inurba_marseille","lat":43.29886,"lon":5.40082,"is_reserved":false,"is_disabled":false,"rental_uris":{"android":"levelo://app?vid=e6eba207-3372-4c38-a13d-96e436c475ed","ios":"levelo://app?vid=e6eba207-3372-4c38-a13d-96e436c475ed"},"vehicle_type_id":"4","last_reported":1779396285,"current_range_meters":6000,"station_id":"ce4bh012rcd13ifvqd10","pricing_plan_id":"cebpf4jnsgd1na2vs0mg"},{"bike_id":"563a9e6e-82b8-4746-8869-adefbfd7a71e","system_id":"levelo_inurba_marseille","lat":43.3047,"lon":5.3815,"is_reserved":false,"is_disabled":false,"rental_uris":{"android":"levelo://app?vid=563a9e6e-82b8-4746-8869-adefbfd7a71e","ios":"levelo://app?vid=563a9e6e-82b8-4746-8869-adefbfd7a71e"},"vehicle_type_id":"4","last_reported":1779396285,"current_range_meters":6000,"station_id":"","pricing_plan_id":"cebpf4jnsgd1na2vs0mg"},{"bike_id":"8aca6ff6-38ea-4229-b7e3-968e9c3e7159","system_id":"levelo_inurba_marseille","lat":43.29026,"lon":5.38646,"is_reserved":false,"is_disabled":false,"rental_uris":{"android":"levelo://app?vid=8aca6ff6-38ea-4229-b7e3-968e9c3e7159","ios":"levelo://app?vid=8aca6ff6-38ea-4229-b7e3-968e9c3e7159"},"vehicle_type_id":"4","last_reported":1779396285,"current_range_meters":6000,"station_id":"ce4bh4p2rcd13ifvqe0g","pricing_plan_id":"cebpf4jnsgd1na2vs0mg"},{"bike_id":"d55447ac-707e-4c54-b02b-54c43ff3e8eb","system_id":"levelo_inurba_marseille","lat":43.24566,"lon":5.39547,"is_reserved":false,"is_disabled":false,"rental_uris":{"android":"levelo://app?vid=d55447ac-707e-4c54-b02b-54c43ff3e8eb","ios":"levelo://app?vid=d55447ac-707e-4c54-b02b-54c43ff3e8eb"},"vehicle_type_id":"4","last_reported":1779396285,"current_range_meters":6000,"station_id":"ce4bhlp2rcd13ifvqgjg","pricing_plan_id":"cebpf4jnsgd1na2vs0mg"},{"bike_id":"9d49c1bc-01ea-434b-a77a-d932b06737fe","system_id":"levelo_inurba_marseille","lat":43.29193,"lon":5.39316,"is_reserved":false,"is_disabled":false,"rental_uris":{"android":"levelo://app?vid=9d49c1bc-01ea-434b-a77a-d932b06737fe","ios":"levelo://app?vid=9d49c1bc-01ea-434b-a77a-d932b06737fe"},"vehicle_type_id":"4","last_reported":1779396285,"current_range_meters":6000,"station_id":"ce4bh192rcd13ifvqdd0","pricing_plan_id":"cebpf4jnsgd1na2vs0mg"},{"bike_id":"541139c6-3195-43ee-942a-48d2b9afe0d1","system_id":"levelo_inurba_marseille","lat":43.29264,"lon":5.38448,"is_reserved":false,"is_disabled":false,"rental_uris":{"android":"levelo://app?vid=541139c6-3195-43ee-942a-48d2b9afe0d1","ios":"levelo://app?vid=541139c6-3195-43ee-942a-48d2b9afe0d1"},"vehicle_type_id":"4","last_reported":1779396285,"current_range_meters":6000,"station_id":"ce4bh692rcd13ifvqea0","pricing_plan_id":"cebpf4jnsgd1na2vs0mg"},{"bike_id":"e27feea1-9bc4-4f71-870f-9ba99b38e6d2","system_id":"levelo_inurba_marseille","lat":43.29174,"lon":5.37208,"is_reserved":false,"is_disabled":false,"rental_uris":{"android":"levelo://app?vid=e27feea1-9bc4-4f71-870f-9ba99b38e6d2","ios":"levelo://app?vid=e27feea1-9bc4-4f71-870f-9ba99b38e6d2"},"vehicle_type_id":"4","last_reported":1779396285,"current_range_meters":6000,"station_id":"ce4bha92rcd13ifvqeh0","pricing_plan_id":"cebpf4jnsgd1na2vs0mg"},{"bike_id":"11bafefd-e82d-4ce1-b53f-0fb7c8b5cacf","system_id":"levelo_inurba_marseille","lat":43.2719,"lon":5.40989,"is_reserved":false,"is_disabled":false,"rental_uris":{"android":"levelo://app?vid=11bafefd-e82d-4ce1-b53f-0fb7c8b5cacf","ios":"levelo://app?vid=11bafefd-e82d-4ce1-b53f-0fb7c8b5cacf"},"vehicle_type_id":"4","last_reported":1779396285,"current_range_meters":6000,"station_id":"ce4bhl12rcd13ifvqgf0","pricing_plan_id":"cebpf4jnsgd1na2vs0mg"},{"bike_id":"917bc79e-18fe-4c14-a990-3d21f0aa3422","system_id":"levelo_inurba_marseille","lat":43.29197,"lon":5.39303,"is_reserved":false,"is_disabled":false,"rental_uris":{"android":"levelo://app?vid=917bc79e-18fe-4c14-a990-3d21f0aa3422","ios":"levelo://app?vid=917bc79e-18fe-4c14-a990-3d21f0aa3422"},"vehicle_type_id":"4","last_reported":1779396285,"current_range_meters":6000,"station_id":"ce4bh192rcd13ifvqdd0","pricing_plan_id":"cebpf4jnsgd1na2vs0mg"},{"bike_id":"52c764f0-be80-489d-a411-04d7ef10e2d1","system_id":"levelo_inurba_marseille","lat":43.30798,"lon":5.38158,"is_reserved":false,"is_disabled":false,"rental_uris":{"android":"levelo://app?vid=52c764f0-be80-489d-a411-04d7ef10e2d1","ios":"levelo://app?vid=52c764f0-be80-489d-a411-04d7ef10e2d1"},"vehicle_type_id":"4","last_reported":1779396285,"current_range_meters":6000,"station_id":"ce4bgt12rcd13ifvqce0","pricing_plan_id":"cebpf4jnsgd1na2vs0mg"},{"bike_id":"4f8570e4-41b5-4d6b-abeb-1c59a64ce243","system_id":"levelo_inurba_marseille","lat":43.31363,"lon":5.38492,"is_reserved":false,"is_disabled":false,"rental_uris":{"android":"levelo://app?vid=4f8570e4-41b5-4d6b-abeb-1c59a64ce243","ios":"levelo://app?vid=4f8570e4-41b5-4d6b-abeb-1c59a64ce243"},"vehicle_type_id":"4","last_reported":1779396285,"current_range_meters":6400,"station_id":"ce4bgt92rcd13ifvqcf0","pricing_plan_id":"cebpf4jnsgd1na2vs0mg"},{"bike_id":"6f23edc0-4a56-4c8c-b45d-bcafdde5d3bc","system_id":"levelo_inurba_marseille","lat":43.29892,"lon":5.38895,"is_reserved":false,"is_disabled":false,"rental_uris":{"android":"levelo://app?vid=6f23edc0-4a56-4c8c-b45d-bcafdde5d3bc","ios":"levelo://app?vid=6f23edc0-4a56-4c8c-b45d-bcafdde5d3bc"},"vehicle_type_id":"4","last_reported":1779396285,"current_range_meters":6400,"station_id":"ce4bh392rcd13ifvqdl0","pricing_plan_id":"cebpf4jnsgd1na2vs0mg"},{"bike_id":"fcfa6669-e9a2-44fe-a665-353fcc9ddd96","system_id":"levelo_inurba_marseille","lat":43.27558,"lon":5.38415,"is_reserved":false,"is_disabled":false,"rental_uris":{"android":"levelo://app?vid=fcfa6669-e9a2-44fe-a665-353fcc9ddd96","ios":"levelo://app?vid=fcfa6669-e9a2-44fe-a665-353fcc9ddd96"},"vehicle_type_id":"4","last_reported":1779396285,"current_range_meters":6400,"station_id":"ce4bhh92rcd13ifvqfi0","pricing_plan_id":"cebpf4jnsgd1na2vs0mg"},{"bike_id":"d7d48381-947d-4a72-828b-665922112042","system_id":"levelo_inurba_marseille","lat":43.29253,"lon":5.36847,"is_reserved":false,"is_disabled":true,"rental_uris":{"android":"levelo://app?vid=d7d48381-947d-4a72-828b-665922112042","ios":"levelo://app?vid=d7d48381-947d-4a72-828b-665922112042"},"vehicle_type_id":"4","last_reported":1779396285,"current_range_meters":6400,"station_id":"ce4bhbp2rcd13ifvqesg","pricing_plan_id":"cebpf4jnsgd1na2vs0mg"},{"bike_id":"12481d7b-ca53-44d2-a72d-3641cbe06950","system_id":"levelo_inurba_marseille","lat":43.29917,"lon":5.40982,"is_reserved":false,"is_disabled":false,"rental_uris":{"android":"levelo://app?vid=12481d7b-ca53-44d2-a72d-3641cbe06950","ios":"levelo://app?vid=12481d7b-ca53-44d2-a72d-3641cbe06950"},"vehicle_type_id":"4","last_reported":1779396285,"current_range_meters":6400,"station_id":"","pricing_plan_id":"cebpf4jnsgd1na2vs0mg"},{"bike_id":"cb8fb2ed-c179-4c07-b6b8-57ffb06a659b","system_id":"levelo_inurba_marseille","lat":43.22548,"lon":5.34825,"is_reserved":false,"is_disabled":true,"rental_uris":{"android":"levelo://app?vid=cb8fb2ed-c179-4c07-b6b8-57ffb06a659b","ios":"levelo://app?vid=cb8fb2ed-c179-4c07-b6b8-57ffb06a659b"},"vehicle_type_id":"4","last_reported":1779396285,"current_range_meters":6400,"station_id":"st_cvj5dfep6f1abm77gieg","pricing_plan_id":"cebpf4jnsgd1na2vs0mg"},{"bike_id":"f30cc7e9-3f3a-4c4c-ac9e-f1d4151053f1","system_id":"levelo_inurba_marseille","lat":43.23188,"lon":5.35537,"is_reserved":false,"is_disabled":false,"rental_uris":{"android":"levelo://app?vid=f30cc7e9-3f3a-4c4c-ac9e-f1d4151053f1","ios":"levelo://app?vid=f30cc7e9-3f3a-4c4c-ac9e-f1d4151053f1"},"vehicle_type_id":"4","last_reported":1779396285,"current_range_meters":6400,"station_id":"ce4bhu92rcd13ifvqi70","pricing_plan_id":"cebpf4jnsgd1na2vs0mg"},{"bike_id":"967e10c7-b168-4fce-9ac0-78031258f73e","system_id":"levelo_inurba_marseille","lat":43.26943,"lon":5.40254,"is_reserved":false,"is_disabled":false,"rental_uris":{"android":"levelo://app?vid=967e10c7-b168-4fce-9ac0-78031258f73e","ios":"levelo://app?vid=967e10c7-b168-4fce-9ac0-78031258f73e"},"vehicle_type_id":"4","last_reported":1779396285,"current_range_meters":6400,"station_id":"cjm6bp8fraef2m0cb0m0","pricing_plan_id":"cebpf4jnsgd1na2vs0mg"},{"bike_id":"d876f250-8123-419d-a895-9645003d3c01","system_id":"levelo_inurba_marseille","lat":43.2725,"lon":5.41629,"is_reserved":false,"is_disabled":false,"rental_uris":{"android":"levelo://app?vid=d876f250-8123-419d-a895-9645003d3c01","ios":"levelo://app?vid=d876f250-8123-419d-a895-9645003d3c01"},"vehicle_type_id":"4","last_reported":1779396285,"current_range_meters":6400,"station_id":"","pricing_plan_id":"cebpf4jnsgd1na2vs0mg"},{"bike_id":"b9886a38-37d7-4c62-a56d-ea966413b93c","system_id":"levelo_inurba_marseille","lat":43.32043,"lon":5.41564,"is_reserved":false,"is_disabled":false,"rental_uris":{"android":"levelo://app?vid=b9886a38-37d7-4c62-a56d-ea966413b93c","ios":"levelo://app?vid=b9886a38-37d7-4c62-a56d-ea966413b93c"},"vehicle_type_id":"4","last_reported":1779396285,"current_range_meters":6400,"station_id":"ce4bhq92rcd13ifvqhkg","pricing_plan_id":"cebpf4jnsgd1na2vs0mg"},{"bike_id":"1bb089fc-2dce-4b2b-a009-8e0e22f1c5ef","system_id":"levelo_inurba_marseille","lat":43.28361,"lon":5.38081,"is_reserved":false,"is_disabled":false,"rental_uris":{"android":"levelo://app?vid=1bb089fc-2dce-4b2b-a009-8e0e22f1c5ef","ios":"levelo://app?vid=1bb089fc-2dce-4b2b-a009-8e0e22f1c5ef"},"vehicle_type_id":"4","last_reported":1779396285,"current_range_meters":6400,"station_id":"ce4bh412rcd13ifvqdr0","pricing_plan_id":"cebpf4jnsgd1na2vs0mg"},{"bike_id":"bbe673ec-e5fc-44ca-acc8-3761b55bbafb","system_id":"levelo_inurba_marseille","lat":43.31754,"lon":5.39014,"is_reserved":false,"is_disabled":false,"rental_uris":{"android":"levelo://app?vid=bbe673ec-e5fc-44ca-acc8-3761b55bbafb","ios":"levelo://app?vid=bbe673ec-e5fc-44ca-acc8-3761b55bbafb"},"vehicle_type_id":"4","last_reported":1779396285,"current_range_meters":6400,"station_id":"ce4bhqp2rcd13ifvqhng","pricing_plan_id":"cebpf4jnsgd1na2vs0mg"},{"bike_id":"8c5974d2-5e79-461d-8181-7d4f70120306","system_id":"levelo_inurba_marseille","lat":43.30746,"lon":5.42451,"is_reserved":false,"is_disabled":false,"rental_uris":{"android":"levelo://app?vid=8c5974d2-5e79-461d-8181-7d4f70120306","ios":"levelo://app?vid=8c5974d2-5e79-461d-8181-7d4f70120306"},"vehicle_type_id":"4","last_reported":1779396285,"current_range_meters":6400,"station_id":"st_cvj6ca6bvosntc0bfgr0","pricing_plan_id":"cebpf4jnsgd1na2vs0mg"},{"bike_id":"55796d2b-337f-4cac-9970-4d2b38a23430","system_id":"levelo_inurba_marseille","lat":43.26565,"lon":5.38992,"is_reserved":false,"is_disabled":false,"rental_uris":{"android":"levelo://app?vid=55796d2b-337f-4cac-9970-4d2b38a23430","ios":"levelo://app?vid=55796d2b-337f-4cac-9970-4d2b38a23430"},"vehicle_type_id":"4","last_reported":1779396285,"current_range_meters":6400,"station_id":"ce4bhe12rcd13ifvqf30","pricing_plan_id":"cebpf4jnsgd1na2vs0mg"},{"bike_id":"4afb889b-ef47-4ea8-a7af-52dac9d57095","system_id":"levelo_inurba_marseille","lat":43.24822,"lon":5.37442,"is_reserved":false,"is_disabled":false,"rental_uris":{"android":"levelo://app?vid=4afb889b-ef47-4ea8-a7af-52dac9d57095","ios":"levelo://app?vid=4afb889b-ef47-4ea8-a7af-52dac9d57095"},"vehicle_type_id":"4","last_reported":1779396285,"current_range_meters":6400,"station_id":"ce4bhgh2rcd13ifvqfb0","pricing_plan_id":"cebpf4jnsgd1na2vs0mg"},{"bike_id":"bd6864bb-c074-4fe7-b863-12369d6725c5","system_id":"levelo_inurba_marseille","lat":43.31363,"lon":5.3851,"is_reserved":false,"is_disabled":false,"rental_uris":{"android":"levelo://app?vid=bd6864bb-c074-4fe7-b863-12369d6725c5","ios":"levelo://app?vid=bd6864bb-c074-4fe7-b863-12369d6725c5"},"vehicle_type_id":"4","last_reported":1779396285,"current_range_meters":6400,"station_id":"ce4bgt92rcd13ifvqcf0","pricing_plan_id":"cebpf4jnsgd1na2vs0mg"},{"bike_id":"ad6d8b73-6259-410d-979f-09e40ec16dc9","system_id":"levelo_inurba_marseille","lat":43.3082,"lon":5.37198,"is_reserved":false,"is_disabled":false,"rental_uris":{"android":"levelo://app?vid=ad6d8b73-6259-410d-979f-09e40ec16dc9","ios":"levelo://app?vid=ad6d8b73-6259-410d-979f-09e40ec16dc9"},"vehicle_type_id":"4","last_reported":1779396285,"current_range_meters":6800,"station_id":"","pricing_plan_id":"cebpf4jnsgd1na2vs0mg"},{"bike_id":"cde0d002-2a1c-4391-8dbc-966864dd69f7","system_id":"levelo_inurba_marseille","lat":43.28416,"lon":5.39464,"is_reserved":false,"is_disabled":false,"rental_uris":{"android":"levelo://app?vid=cde0d002-2a1c-4391-8dbc-966864dd69f7","ios":"levelo://app?vid=cde0d002-2a1c-4391-8dbc-966864dd69f7"},"vehicle_type_id":"4","last_reported":1779396285,"current_range_meters":6800,"station_id":"","pricing_plan_id":"cebpf4jnsgd1na2vs0mg"},{"bike_id":"831fadaf-468d-41fc-8135-c6b3d694d376","system_id":"levelo_inurba_marseille","lat":43.29534,"lon":5.38533,"is_reserved":false,"is_disabled":false,"rental_uris":{"android":"levelo://app?vid=831fadaf-468d-41fc-8135-c6b3d694d376","ios":"levelo://app?vid=831fadaf-468d-41fc-8135-c6b3d694d376"},"vehicle_type_id":"4","last_reported":1779396285,"current_range_meters":6800,"station_id":"ce4bgih2rcd13ifvqba0","pricing_plan_id":"cebpf4jnsgd1na2vs0mg"},{"bike_id":"1f23276f-640a-45b0-96ab-5c9b5282ccf4","system_id":"levelo_inurba_marseille","lat":43.31265,"lon":5.38932,"is_reserved":false,"is_disabled":false,"rental_uris":{"android":"levelo://app?vid=1f23276f-640a-45b0-96ab-5c9b5282ccf4","ios":"levelo://app?vid=1f23276f-640a-45b0-96ab-5c9b5282ccf4"},"vehicle_type_id":"4","last_reported":1779396285,"current_range_meters":6800,"station_id":"","pricing_plan_id":"cebpf4jnsgd1na2vs0mg"},{"bike_id":"f28d95d7-2c3e-41a0-b537-9f59ebf5c414","system_id":"levelo_inurba_marseille","lat":43.28115,"lon":5.37819,"is_reserved":false,"is_disabled":false,"rental_uris":{"android":"levelo://app?vid=f28d95d7-2c3e-41a0-b537-9f59ebf5c414","ios":"levelo://app?vid=f28d95d7-2c3e-41a0-b537-9f59ebf5c414"},"vehicle_type_id":"4","last_reported":1779396285,"current_range_meters":6800,"station_id":"ce4bha12rcd13ifvqee0","pricing_plan_id":"cebpf4jnsgd1na2vs0mg"},{"bike_id":"d755db52-3935-4f9c-90d7-cd0dea7c7d6d","system_id":"levelo_inurba_marseille","lat":43.30191,"lon":5.36628,"is_reserved":false,"is_disabled":false,"rental_uris":{"android":"levelo://app?vid=d755db52-3935-4f9c-90d7-cd0dea7c7d6d","ios":"levelo://app?vid=d755db52-3935-4f9c-90d7-cd0dea7c7d6d"},"vehicle_type_id":"4","last_reported":1779396285,"current_range_meters":6800,"station_id":"ce4bgrh2rcd13ifvqc8g","pricing_plan_id":"cebpf4jnsgd1na2vs0mg"},{"bike_id":"c9a32f0b-aa0e-447e-b89c-3fa076e1938a","system_id":"levelo_inurba_marseille","lat":43.28847,"lon":5.39287,"is_reserved":false,"is_disabled":false,"rental_uris":{"android":"levelo://app?vid=c9a32f0b-aa0e-447e-b89c-3fa076e1938a","ios":"levelo://app?vid=c9a32f0b-aa0e-447e-b89c-3fa076e1938a"},"vehicle_type_id":"4","last_reported":1779396285,"current_range_meters":6800,"station_id":"ce4bh2p2rcd13ifvqdi0","pricing_plan_id":"cebpf4jnsgd1na2vs0mg"},{"bike_id":"b94f374d-430d-454d-9be4-f585f6926860","system_id":"levelo_inurba_marseille","lat":43.3115,"lon":5.38069,"is_reserved":false,"is_disabled":false,"rental_uris":{"android":"levelo://app?vid=b94f374d-430d-454d-9be4-f585f6926860","ios":"levelo://app?vid=b94f374d-430d-454d-9be4-f585f6926860"},"vehicle_type_id":"4","last_reported":1779396285,"current_range_meters":6800,"station_id":"","pricing_plan_id":"cebpf4jnsgd1na2vs0mg"},{"bike_id":"fb09d38e-616c-4f48-893e-4e0f0b1547a5","system_id":"levelo_inurba_marseille","lat":43.29635,"lon":5.40625,"is_reserved":false,"is_disabled":false,"rental_uris":{"android":"levelo://app?vid=fb09d38e-616c-4f48-893e-4e0f0b1547a5","ios":"levelo://app?vid=fb09d38e-616c-4f48-893e-4e0f0b1547a5"},"vehicle_type_id":"4","last_reported":1779396285,"current_range_meters":6800,"station_id":"ce4bh0h2rcd13ifvqd60","pricing_plan_id":"cebpf4jnsgd1na2vs0mg"},{"bike_id":"87699e93-937b-43a3-b438-77a638ae9777","system_id":"levelo_inurba_marseille","lat":43.23882,"lon":5.37457,"is_reserved":false,"is_disabled":false,"rental_uris":{"android":"levelo://app?vid=87699e93-937b-43a3-b438-77a638ae9777","ios":"levelo://app?vid=87699e93-937b-43a3-b438-77a638ae9777"},"vehicle_type_id":"4","last_reported":1779396285,"current_range_meters":6800,"station_id":"st_d6sm7csbq4hs73f8fpjg","pricing_plan_id":"cebpf4jnsgd1na2vs0mg"},{"bike_id":"173e2940-3e89-4ec2-90e3-f3a011669cb4","system_id":"levelo_inurba_marseille","lat":43.30946,"lon":5.39047,"is_reserved":false,"is_disabled":false,"rental_uris":{"android":"levelo://app?vid=173e2940-3e89-4ec2-90e3-f3a011669cb4","ios":"levelo://app?vid=173e2940-3e89-4ec2-90e3-f3a011669cb4"},"vehicle_type_id":"4","last_reported":1779396285,"current_range_meters":6800,"station_id":"ce4bgup2rcd13ifvqco0","pricing_plan_id":"cebpf4jnsgd1na2vs0mg"},{"bike_id":"7ec93175-8d9c-4b31-b534-34e06405c4e0","system_id":"levelo_inurba_marseille","lat":43.29619,"lon":5.44682,"is_reserved":false,"is_disabled":false,"rental_uris":{"android":"levelo://app?vid=7ec93175-8d9c-4b31-b534-34e06405c4e0","ios":"levelo://app?vid=7ec93175-8d9c-4b31-b534-34e06405c4e0"},"vehicle_type_id":"4","last_reported":1779396285,"current_range_meters":6800,"station_id":"","pricing_plan_id":"cebpf4jnsgd1na2vs0mg"},{"bike_id":"f791eade-371e-469c-863d-038f719066b8","system_id":"levelo_inurba_marseille","lat":43.29044,"lon":5.3588,"is_reserved":false,"is_disabled":false,"rental_uris":{"android":"levelo://app?vid=f791eade-371e-469c-863d-038f719066b8","ios":"levelo://app?vid=f791eade-371e-469c-863d-038f719066b8"},"vehicle_type_id":"4","last_reported":1779396285,"current_range_meters":6800,"station_id":"ce4bha92rcd13ifvqeg0","pricing_plan_id":"cebpf4jnsgd1na2vs0mg"},{"bike_id":"aede103f-5b2b-4383-a11e-e15a2ea2f492","system_id":"levelo_inurba_marseille","lat":43.2868,"lon":5.38656,"is_reserved":false,"is_disabled":false,"rental_uris":{"android":"levelo://app?vid=aede103f-5b2b-4383-a11e-e15a2ea2f492","ios":"levelo://app?vid=aede103f-5b2b-4383-a11e-e15a2ea2f492"},"vehicle_type_id":"4","last_reported":1779396285,"current_range_meters":6800,"station_id":"ce4bh492rcd13ifvqdug","pricing_plan_id":"cebpf4jnsgd1na2vs0mg"},{"bike_id":"8d29bbeb-2e7c-4b1d-b9b0-7b1803685f4f","system_id":"levelo_inurba_marseille","lat":43.26454,"lon":5.3953,"is_reserved":false,"is_disabled":false,"rental_uris":{"android":"levelo://app?vid=8d29bbeb-2e7c-4b1d-b9b0-7b1803685f4f","ios":"levelo://app?vid=8d29bbeb-2e7c-4b1d-b9b0-7b1803685f4f"},"vehicle_type_id":"4","last_reported":1779396285,"current_range_meters":6800,"station_id":"ce4bhi12rcd13ifvqfq0","pricing_plan_id":"cebpf4jnsgd1na2vs0mg"},{"bike_id":"224c16e5-a93e-4aa1-b9d5-f6417d49b14c","system_id":"levelo_inurba_marseille","lat":43.27188,"lon":5.40989,"is_reserved":false,"is_disabled":false,"rental_uris":{"android":"levelo://app?vid=224c16e5-a93e-4aa1-b9d5-f6417d49b14c","ios":"levelo://app?vid=224c16e5-a93e-4aa1-b9d5-f6417d49b14c"},"vehicle_type_id":"4","last_reported":1779396285,"current_range_meters":6800,"station_id":"ce4bhl12rcd13ifvqgf0","pricing_plan_id":"cebpf4jnsgd1na2vs0mg"},{"bike_id":"d4ddfd06-aa54-4e84-8399-9a2c03d7797e","system_id":"levelo_inurba_marseille","lat":43.29928,"lon":5.36534,"is_reserved":false,"is_disabled":false,"rental_uris":{"android":"levelo://app?vid=d4ddfd06-aa54-4e84-8399-9a2c03d7797e","ios":"levelo://app?vid=d4ddfd06-aa54-4e84-8399-9a2c03d7797e"},"vehicle_type_id":"4","last_reported":1779396285,"current_range_meters":6800,"station_id":"ce4bgm92rcd13ifvqbr0","pricing_plan_id":"cebpf4jnsgd1na2vs0mg"},{"bike_id":"a032ffdf-174b-4376-87fb-12a06e035355","system_id":"levelo_inurba_marseille","lat":43.29621,"lon":5.37722,"is_reserved":false,"is_disabled":false,"rental_uris":{"android":"levelo://app?vid=a032ffdf-174b-4376-87fb-12a06e035355","ios":"levelo://app?vid=a032ffdf-174b-4376-87fb-12a06e035355"},"vehicle_type_id":"4","last_reported":1779396285,"current_range_meters":6800,"station_id":"ce4bgi92rcd13ifvqb90","pricing_plan_id":"cebpf4jnsgd1na2vs0mg"},{"bike_id":"2f07cee4-f00b-40cc-8d51-00b8a29e58c5","system_id":"levelo_inurba_marseille","lat":43.27195,"lon":5.40979,"is_reserved":false,"is_disabled":false,"rental_uris":{"android":"levelo://app?vid=2f07cee4-f00b-40cc-8d51-00b8a29e58c5","ios":"levelo://app?vid=2f07cee4-f00b-40cc-8d51-00b8a29e58c5"},"vehicle_type_id":"4","last_reported":1779396285,"current_range_meters":6800,"station_id":"ce4bhl12rcd13ifvqgf0","pricing_plan_id":"cebpf4jnsgd1na2vs0mg"},{"bike_id":"3164d9e8-c839-4029-b458-2d3d9b344e5f","system_id":"levelo_inurba_marseille","lat":43.275716,"lon":5.396434,"is_reserved":false,"is_disabled":false,"rental_uris":{"android":"levelo://app?vid=3164d9e8-c839-4029-b458-2d3d9b344e5f","ios":"levelo://app?vid=3164d9e8-c839-4029-b458-2d3d9b344e5f"},"vehicle_type_id":"4","last_reported":1779396285,"current_range_meters":6800,"station_id":"","pricing_plan_id":"cebpf4jnsgd1na2vs0mg"},{"bike_id":"6774f205-2ee3-4625-997b-63c588f833ce","system_id":"levelo_inurba_marseille","lat":43.26013,"lon":5.37559,"is_reserved":false,"is_disabled":true,"rental_uris":{"android":"levelo://app?vid=6774f205-2ee3-4625-997b-63c588f833ce","ios":"levelo://app?vid=6774f205-2ee3-4625-997b-63c588f833ce"},"vehicle_type_id":"4","last_reported":1779396285,"current_range_meters":6800,"station_id":"ce4bhgh2rcd13ifvqfa0","pricing_plan_id":"cebpf4jnsgd1na2vs0mg"},{"bike_id":"4a594992-79b1-4c2d-9511-60f46c960655","system_id":"levelo_inurba_marseille","lat":43.29299,"lon":5.3716,"is_reserved":false,"is_disabled":false,"rental_uris":{"android":"levelo://app?vid=4a594992-79b1-4c2d-9511-60f46c960655","ios":"levelo://app?vid=4a594992-79b1-4c2d-9511-60f46c960655"},"vehicle_type_id":"4","last_reported":1779396285,"current_range_meters":6800,"station_id":"ce4bgh92rcd13ifvqb40","pricing_plan_id":"cebpf4jnsgd1na2vs0mg"},{"bike_id":"7cd911f2-d93f-4aa2-877e-1d430080e518","system_id":"levelo_inurba_marseille","lat":43.3089,"lon":5.39642,"is_reserved":false,"is_disabled":false,"rental_uris":{"android":"levelo://app?vid=7cd911f2-d93f-4aa2-877e-1d430080e518","ios":"levelo://app?vid=7cd911f2-d93f-4aa2-877e-1d430080e518"},"vehicle_type_id":"4","last_reported":1779396285,"current_range_meters":7200,"station_id":"ce4bh012rcd13ifvqcv0","pricing_plan_id":"cebpf4jnsgd1na2vs0mg"},{"bike_id":"c4c24407-5956-4de7-b0ed-8329203aa353","system_id":"levelo_inurba_marseille","lat":43.32929,"lon":5.37579,"is_reserved":false,"is_disabled":false,"rental_uris":{"android":"levelo://app?vid=c4c24407-5956-4de7-b0ed-8329203aa353","ios":"levelo://app?vid=c4c24407-5956-4de7-b0ed-8329203aa353"},"vehicle_type_id":"4","last_reported":1779396285,"current_range_meters":7200,"station_id":"","pricing_plan_id":"cebpf4jnsgd1na2vs0mg"},{"bike_id":"fc90e784-043f-409e-a0a5-40df412c8d0e","system_id":"levelo_inurba_marseille","lat":43.29272,"lon":5.38426,"is_reserved":false,"is_disabled":false,"rental_uris":{"android":"levelo://app?vid=fc90e784-043f-409e-a0a5-40df412c8d0e","ios":"levelo://app?vid=fc90e784-043f-409e-a0a5-40df412c8d0e"},"vehicle_type_id":"4","last_reported":1779396285,"current_range_meters":7200,"station_id":"ce4bh692rcd13ifvqea0","pricing_plan_id":"cebpf4jnsgd1na2vs0mg"},{"bike_id":"96f5a2da-5f92-4d4c-8b8e-3f68a0c33fde","system_id":"levelo_inurba_marseille","lat":43.25521,"lon":5.37624,"is_reserved":false,"is_disabled":true,"rental_uris":{"android":"levelo://app?vid=96f5a2da-5f92-4d4c-8b8e-3f68a0c33fde","ios":"levelo://app?vid=96f5a2da-5f92-4d4c-8b8e-3f68a0c33fde"},"vehicle_type_id":"4","last_reported":1779396285,"current_range_meters":7200,"station_id":"ce4bhh12rcd13ifvqff0","pricing_plan_id":"cebpf4jnsgd1na2vs0mg"},{"bike_id":"5f70e21c-7de6-4706-9055-de0c61005f3f","system_id":"levelo_inurba_marseille","lat":43.29533,"lon":5.38541,"is_reserved":false,"is_disabled":false,"rental_uris":{"android":"levelo://app?vid=5f70e21c-7de6-4706-9055-de0c61005f3f","ios":"levelo://app?vid=5f70e21c-7de6-4706-9055-de0c61005f3f"},"vehicle_type_id":"4","last_reported":1779396285,"current_range_meters":7200,"station_id":"ce4bgih2rcd13ifvqba0","pricing_plan_id":"cebpf4jnsgd1na2vs0mg"},{"bike_id":"678c2486-f208-445a-a253-9dfac60b0dc7","system_id":"levelo_inurba_marseille","lat":43.32415,"lon":5.36866,"is_reserved":false,"is_disabled":false,"rental_uris":{"android":"levelo://app?vid=678c2486-f208-445a-a253-9dfac60b0dc7","ios":"levelo://app?vid=678c2486-f208-445a-a253-9dfac60b0dc7"},"vehicle_type_id":"4","last_reported":1779396285,"current_range_meters":7200,"station_id":"","pricing_plan_id":"cebpf4jnsgd1na2vs0mg"},{"bike_id":"b38b5171-64c4-4313-b88b-4a5231ab4949","system_id":"levelo_inurba_marseille","lat":43.30132,"lon":5.39875,"is_reserved":false,"is_disabled":false,"rental_uris":{"android":"levelo://app?vid=b38b5171-64c4-4313-b88b-4a5231ab4949","ios":"levelo://app?vid=b38b5171-64c4-4313-b88b-4a5231ab4949"},"vehicle_type_id":"4","last_reported":1779396285,"current_range_meters":7200,"station_id":"ce4bh0h2rcd13ifvqd40","pricing_plan_id":"cebpf4jnsgd1na2vs0mg"},{"bike_id":"66551c70-b5ae-4189-bddd-3b26d9d9859d","system_id":"levelo_inurba_marseille","lat":43.29792,"lon":5.40385,"is_reserved":false,"is_disabled":false,"rental_uris":{"android":"levelo://app?vid=66551c70-b5ae-4189-bddd-3b26d9d9859d","ios":"levelo://app?vid=66551c70-b5ae-4189-bddd-3b26d9d9859d"},"vehicle_type_id":"4","last_reported":1779396285,"current_range_meters":7200,"station_id":"ce4bh112rcd13ifvqd90","pricing_plan_id":"cebpf4jnsgd1na2vs0mg"},{"bike_id":"b54a0860-ff04-4417-9804-a7525879c950","system_id":"levelo_inurba_marseille","lat":43.29484,"lon":5.37492,"is_reserved":false,"is_disabled":false,"rental_uris":{"android":"levelo://app?vid=b54a0860-ff04-4417-9804-a7525879c950","ios":"levelo://app?vid=b54a0860-ff04-4417-9804-a7525879c950"},"vehicle_type_id":"4","last_reported":1779396285,"current_range_meters":7200,"station_id":"ce4bgkp2rcd13ifvqbmg","pricing_plan_id":"cebpf4jnsgd1na2vs0mg"},{"bike_id":"21446c33-4740-42f3-9e08-ca64ab9dbcaa","system_id":"levelo_inurba_marseille","lat":43.28419,"lon":5.37514,"is_reserved":false,"is_disabled":false,"rental_uris":{"android":"levelo://app?vid=21446c33-4740-42f3-9e08-ca64ab9dbcaa","ios":"levelo://app?vid=21446c33-4740-42f3-9e08-ca64ab9dbcaa"},"vehicle_type_id":"4","last_reported":1779396285,"current_range_meters":7200,"station_id":"ce4bh412rcd13ifvqds0","pricing_plan_id":"cebpf4jnsgd1na2vs0mg"},{"bike_id":"108c8dd3-386f-40ba-9641-326e562d64cc","system_id":"levelo_inurba_marseille","lat":43.29544,"lon":5.39033,"is_reserved":false,"is_disabled":false,"rental_uris":{"android":"levelo://app?vid=108c8dd3-386f-40ba-9641-326e562d64cc","ios":"levelo://app?vid=108c8dd3-386f-40ba-9641-326e562d64cc"},"vehicle_type_id":"4","last_reported":1779396285,"current_range_meters":7200,"station_id":"ce4bh3p2rcd13ifvqdp0","pricing_plan_id":"cebpf4jnsgd1na2vs0mg"},{"bike_id":"8ae01fbd-13ec-4abe-9b2c-1050445b111f","system_id":"levelo_inurba_marseille","lat":43.22535,"lon":5.34831,"is_reserved":false,"is_disabled":false,"rental_uris":{"android":"levelo://app?vid=8ae01fbd-13ec-4abe-9b2c-1050445b111f","ios":"levelo://app?vid=8ae01fbd-13ec-4abe-9b2c-1050445b111f"},"vehicle_type_id":"4","last_reported":1779396285,"current_range_meters":7200,"station_id":"st_cvj5dfep6f1abm77gieg","pricing_plan_id":"cebpf4jnsgd1na2vs0mg"},{"bike_id":"a7dcb7e6-59b7-4ada-a9a0-eb00b3467d13","system_id":"levelo_inurba_marseille","lat":43.24655,"lon":5.38881,"is_reserved":false,"is_disabled":true,"rental_uris":{"android":"levelo://app?vid=a7dcb7e6-59b7-4ada-a9a0-eb00b3467d13","ios":"levelo://app?vid=a7dcb7e6-59b7-4ada-a9a0-eb00b3467d13"},"vehicle_type_id":"4","last_reported":1779396285,"current_range_meters":7200,"station_id":"ce4bhg12rcd13ifvqf60","pricing_plan_id":"cebpf4jnsgd1na2vs0mg"},{"bike_id":"e93a01e1-b858-4ef5-89fa-d5a67d0d3ba8","system_id":"levelo_inurba_marseille","lat":43.23176,"lon":5.39951,"is_reserved":false,"is_disabled":false,"rental_uris":{"android":"levelo://app?vid=e93a01e1-b858-4ef5-89fa-d5a67d0d3ba8","ios":"levelo://app?vid=e93a01e1-b858-4ef5-89fa-d5a67d0d3ba8"},"vehicle_type_id":"4","last_reported":1779396285,"current_range_meters":7200,"station_id":"ce4bhn12rcd13ifvqgqg","pricing_plan_id":"cebpf4jnsgd1na2vs0mg"},{"bike_id":"6176dd16-a9d7-4120-bf2a-b28a1914c54d","system_id":"levelo_inurba_marseille","lat":43.29577,"lon":5.37501,"is_reserved":false,"is_disabled":true,"rental_uris":{"android":"levelo://app?vid=6176dd16-a9d7-4120-bf2a-b28a1914c54d","ios":"levelo://app?vid=6176dd16-a9d7-4120-bf2a-b28a1914c54d"},"vehicle_type_id":"4","last_reported":1779396285,"current_range_meters":7200,"station_id":"ce4bgh92rcd13ifvqb50","pricing_plan_id":"cebpf4jnsgd1na2vs0mg"},{"bike_id":"268965e0-4188-4965-8a69-f41a85b2612d","system_id":"levelo_inurba_marseille","lat":43.30809,"lon":5.38151,"is_reserved":false,"is_disabled":false,"rental_uris":{"android":"levelo://app?vid=268965e0-4188-4965-8a69-f41a85b2612d","ios":"levelo://app?vid=268965e0-4188-4965-8a69-f41a85b2612d"},"vehicle_type_id":"4","last_reported":1779396285,"current_range_meters":7200,"station_id":"ce4bgt12rcd13ifvqce0","pricing_plan_id":"cebpf4jnsgd1na2vs0mg"},{"bike_id":"69ebca06-d718-42a0-a01a-6483b0463da6","system_id":"levelo_inurba_marseille","lat":43.275,"lon":5.42457,"is_reserved":false,"is_disabled":false,"rental_uris":{"android":"levelo://app?vid=69ebca06-d718-42a0-a01a-6483b0463da6","ios":"levelo://app?vid=69ebca06-d718-42a0-a01a-6483b0463da6"},"vehicle_type_id":"4","last_reported":1779396285,"current_range_meters":7200,"station_id":"ce4bhn92rcd13ifvqgrg","pricing_plan_id":"cebpf4jnsgd1na2vs0mg"},{"bike_id":"7926970b-b546-4bd9-8ad0-0c1e21624b17","system_id":"levelo_inurba_marseille","lat":43.29609,"lon":5.3808,"is_reserved":false,"is_disabled":true,"rental_uris":{"android":"levelo://app?vid=7926970b-b546-4bd9-8ad0-0c1e21624b17","ios":"levelo://app?vid=7926970b-b546-4bd9-8ad0-0c1e21624b17"},"vehicle_type_id":"4","last_reported":1779396285,"current_range_meters":7200,"station_id":"ce4bgl12rcd13ifvqbo0","pricing_plan_id":"cebpf4jnsgd1na2vs0mg"},{"bike_id":"7633d05c-f35f-4877-9854-17f0602d5d30","system_id":"levelo_inurba_marseille","lat":43.25494,"lon":5.37645,"is_reserved":false,"is_disabled":false,"rental_uris":{"android":"levelo://app?vid=7633d05c-f35f-4877-9854-17f0602d5d30","ios":"levelo://app?vid=7633d05c-f35f-4877-9854-17f0602d5d30"},"vehicle_type_id":"4","last_reported":1779396285,"current_range_meters":7200,"station_id":"ce4bhh12rcd13ifvqff0","pricing_plan_id":"cebpf4jnsgd1na2vs0mg"},{"bike_id":"7c4b6d95-abda-43cd-9ff7-74397623ce48","system_id":"levelo_inurba_marseille","lat":43.29265,"lon":5.3845,"is_reserved":false,"is_disabled":false,"rental_uris":{"android":"levelo://app?vid=7c4b6d95-abda-43cd-9ff7-74397623ce48","ios":"levelo://app?vid=7c4b6d95-abda-43cd-9ff7-74397623ce48"},"vehicle_type_id":"4","last_reported":1779396285,"current_range_meters":7200,"station_id":"ce4bh692rcd13ifvqea0","pricing_plan_id":"cebpf4jnsgd1na2vs0mg"},{"bike_id":"3b7c6a7c-8def-4f67-896d-b1ec9dfb83ed","system_id":"levelo_inurba_marseille","lat":43.32369,"lon":5.3846,"is_reserved":false,"is_disabled":true,"rental_uris":{"android":"levelo://app?vid=3b7c6a7c-8def-4f67-896d-b1ec9dfb83ed","ios":"levelo://app?vid=3b7c6a7c-8def-4f67-896d-b1ec9dfb83ed"},"vehicle_type_id":"4","last_reported":1779396285,"current_range_meters":7200,"station_id":"st_d45171o9ee8s73djdqug","pricing_plan_id":"cebpf4jnsgd1na2vs0mg"},{"bike_id":"3b3648bc-114e-4573-b5a4-e0750016f792","system_id":"levelo_inurba_marseille","lat":43.23831,"lon":5.41354,"is_reserved":false,"is_disabled":false,"rental_uris":{"android":"levelo://app?vid=3b3648bc-114e-4573-b5a4-e0750016f792","ios":"levelo://app?vid=3b3648bc-114e-4573-b5a4-e0750016f792"},"vehicle_type_id":"4","last_reported":1779396285,"current_range_meters":7200,"station_id":"","pricing_plan_id":"cebpf4jnsgd1na2vs0mg"},{"bike_id":"e4fd2b5f-8c1e-4148-9edb-b582666b9eac","system_id":"levelo_inurba_marseille","lat":43.31372,"lon":5.38492,"is_reserved":false,"is_disabled":true,"rental_uris":{"android":"levelo://app?vid=e4fd2b5f-8c1e-4148-9edb-b582666b9eac","ios":"levelo://app?vid=e4fd2b5f-8c1e-4148-9edb-b582666b9eac"},"vehicle_type_id":"4","last_reported":1779396285,"current_range_meters":7200,"station_id":"ce4bgt92rcd13ifvqcf0","pricing_plan_id":"cebpf4jnsgd1na2vs0mg"},{"bike_id":"40513e35-6e29-4edf-9cf2-fb698f86d430","system_id":"levelo_inurba_marseille","lat":43.24549,"lon":5.39523,"is_reserved":false,"is_disabled":false,"rental_uris":{"android":"levelo://app?vid=40513e35-6e29-4edf-9cf2-fb698f86d430","ios":"levelo://app?vid=40513e35-6e29-4edf-9cf2-fb698f86d430"},"vehicle_type_id":"4","last_reported":1779396285,"current_range_meters":7200,"station_id":"ce4bhlp2rcd13ifvqgjg","pricing_plan_id":"cebpf4jnsgd1na2vs0mg"},{"bike_id":"c74ec902-abbe-4683-9ab4-6137019d0f68","system_id":"levelo_inurba_marseille","lat":43.25356,"lon":5.4219,"is_reserved":false,"is_disabled":false,"rental_uris":{"android":"levelo://app?vid=c74ec902-abbe-4683-9ab4-6137019d0f68","ios":"levelo://app?vid=c74ec902-abbe-4683-9ab4-6137019d0f68"},"vehicle_type_id":"4","last_reported":1779396285,"current_range_meters":8000,"station_id":"st_d2m65c5bi1j21697t3ng","pricing_plan_id":"cebpf4jnsgd1na2vs0mg"},{"bike_id":"ac283358-17e5-412a-93a9-827821d91c9e","system_id":"levelo_inurba_marseille","lat":43.29515,"lon":5.39032,"is_reserved":false,"is_disabled":false,"rental_uris":{"android":"levelo://app?vid=ac283358-17e5-412a-93a9-827821d91c9e","ios":"levelo://app?vid=ac283358-17e5-412a-93a9-827821d91c9e"},"vehicle_type_id":"4","last_reported":1779396285,"current_range_meters":8000,"station_id":"ce4bh3p2rcd13ifvqdp0","pricing_plan_id":"cebpf4jnsgd1na2vs0mg"},{"bike_id":"1bc017e7-22a1-43cf-b124-a6ba27ff8e8f","system_id":"levelo_inurba_marseille","lat":43.29308,"lon":5.37436,"is_reserved":false,"is_disabled":false,"rental_uris":{"android":"levelo://app?vid=1bc017e7-22a1-43cf-b124-a6ba27ff8e8f","ios":"levelo://app?vid=1bc017e7-22a1-43cf-b124-a6ba27ff8e8f"},"vehicle_type_id":"4","last_reported":1779396285,"current_range_meters":8000,"station_id":"ce4bgi12rcd13ifvqb70","pricing_plan_id":"cebpf4jnsgd1na2vs0mg"},{"bike_id":"5c530a9e-7c4a-4aa6-adac-4172a237ef4e","system_id":"levelo_inurba_marseille","lat":43.28586,"lon":5.34992,"is_reserved":false,"is_disabled":false,"rental_uris":{"android":"levelo://app?vid=5c530a9e-7c4a-4aa6-adac-4172a237ef4e","ios":"levelo://app?vid=5c530a9e-7c4a-4aa6-adac-4172a237ef4e"},"vehicle_type_id":"4","last_reported":1779396285,"current_range_meters":8000,"station_id":"","pricing_plan_id":"cebpf4jnsgd1na2vs0mg"},{"bike_id":"129d1c1e-a4ec-4956-9f3f-d6961f012ff9","system_id":"levelo_inurba_marseille","lat":43.28865,"lon":5.36615,"is_reserved":false,"is_disabled":false,"rental_uris":{"android":"levelo://app?vid=129d1c1e-a4ec-4956-9f3f-d6961f012ff9","ios":"levelo://app?vid=129d1c1e-a4ec-4956-9f3f-d6961f012ff9"},"vehicle_type_id":"4","last_reported":1779396285,"current_range_meters":8000,"station_id":"","pricing_plan_id":"cebpf4jnsgd1na2vs0mg"},{"bike_id":"47786595-b402-43f0-81d5-a02a10a5cfd1","system_id":"levelo_inurba_marseille","lat":43.25815,"lon":5.39412,"is_reserved":false,"is_disabled":false,"rental_uris":{"android":"levelo://app?vid=47786595-b402-43f0-81d5-a02a10a5cfd1","ios":"levelo://app?vid=47786595-b402-43f0-81d5-a02a10a5cfd1"},"vehicle_type_id":"4","last_reported":1779396285,"current_range_meters":8000,"station_id":"ce4bhip2rcd13ifvqft0","pricing_plan_id":"cebpf4jnsgd1na2vs0mg"},{"bike_id":"2dd53380-4ab9-419e-a044-d43bb7200eb1","system_id":"levelo_inurba_marseille","lat":43.28706,"lon":5.46675,"is_reserved":false,"is_disabled":false,"rental_uris":{"android":"levelo://app?vid=2dd53380-4ab9-419e-a044-d43bb7200eb1","ios":"levelo://app?vid=2dd53380-4ab9-419e-a044-d43bb7200eb1"},"vehicle_type_id":"4","last_reported":1779396285,"current_range_meters":8000,"station_id":"st_d6tc3vkotcvc738tfjhg","pricing_plan_id":"cebpf4jnsgd1na2vs0mg"},{"bike_id":"3c8e4601-2639-4196-a3e1-f497274faeed","system_id":"levelo_inurba_marseille","lat":43.26067,"lon":5.3937,"is_reserved":false,"is_disabled":false,"rental_uris":{"android":"levelo://app?vid=3c8e4601-2639-4196-a3e1-f497274faeed","ios":"levelo://app?vid=3c8e4601-2639-4196-a3e1-f497274faeed"},"vehicle_type_id":"4","last_reported":1779396285,"current_range_meters":8000,"station_id":"ce4bhh92rcd13ifvqfj0","pricing_plan_id":"cebpf4jnsgd1na2vs0mg"},{"bike_id":"6ecace9b-c16d-43aa-9c1a-0ebc2e7bcfc4","system_id":"levelo_inurba_marseille","lat":43.32111,"lon":5.36791,"is_reserved":false,"is_disabled":false,"rental_uris":{"android":"levelo://app?vid=6ecace9b-c16d-43aa-9c1a-0ebc2e7bcfc4","ios":"levelo://app?vid=6ecace9b-c16d-43aa-9c1a-0ebc2e7bcfc4"},"vehicle_type_id":"4","last_reported":1779396285,"current_range_meters":8000,"station_id":"ce4bhrh2rcd13ifvqhug","pricing_plan_id":"cebpf4jnsgd1na2vs0mg"},{"bike_id":"c04a6a2a-beaa-465c-9744-cf2c4e560e9f","system_id":"levelo_inurba_marseille","lat":43.29669,"lon":5.38634,"is_reserved":false,"is_disabled":false,"rental_uris":{"android":"levelo://app?vid=c04a6a2a-beaa-465c-9744-cf2c4e560e9f","ios":"levelo://app?vid=c04a6a2a-beaa-465c-9744-cf2c4e560e9f"},"vehicle_type_id":"4","last_reported":1779396285,"current_range_meters":8000,"station_id":"","pricing_plan_id":"cebpf4jnsgd1na2vs0mg"},{"bike_id":"026aac21-482f-4fd9-90cf-a6e2ad0a7881","system_id":"levelo_inurba_marseille","lat":43.29262,"lon":5.38441,"is_reserved":false,"is_disabled":false,"rental_uris":{"android":"levelo://app?vid=026aac21-482f-4fd9-90cf-a6e2ad0a7881","ios":"levelo://app?vid=026aac21-482f-4fd9-90cf-a6e2ad0a7881"},"vehicle_type_id":"4","last_reported":1779396285,"current_range_meters":8000,"station_id":"ce4bh692rcd13ifvqea0","pricing_plan_id":"cebpf4jnsgd1na2vs0mg"},{"bike_id":"b04ee6bf-b6e5-441d-82a5-749df314e482","system_id":"levelo_inurba_marseille","lat":43.31439,"lon":5.45129,"is_reserved":false,"is_disabled":false,"rental_uris":{"android":"levelo://app?vid=b04ee6bf-b6e5-441d-82a5-749df314e482","ios":"levelo://app?vid=b04ee6bf-b6e5-441d-82a5-749df314e482"},"vehicle_type_id":"4","last_reported":1779396285,"current_range_meters":8000,"station_id":"","pricing_plan_id":"cebpf4jnsgd1na2vs0mg"},{"bike_id":"ddfe529f-2316-4955-947d-3a7688fc5015","system_id":"levelo_inurba_marseille","lat":43.27912,"lon":5.39588,"is_reserved":false,"is_disabled":false,"rental_uris":{"android":"levelo://app?vid=ddfe529f-2316-4955-947d-3a7688fc5015","ios":"levelo://app?vid=ddfe529f-2316-4955-947d-3a7688fc5015"},"vehicle_type_id":"4","last_reported":1779396285,"current_range_meters":8000,"station_id":"ce4bhf92rcd13ifvqf40","pricing_plan_id":"cebpf4jnsgd1na2vs0mg"},{"bike_id":"97fdb174-2bcd-45b8-8e95-563bd1b7f684","system_id":"levelo_inurba_marseille","lat":43.2953,"lon":5.38538,"is_reserved":false,"is_disabled":false,"rental_uris":{"android":"levelo://app?vid=97fdb174-2bcd-45b8-8e95-563bd1b7f684","ios":"levelo://app?vid=97fdb174-2bcd-45b8-8e95-563bd1b7f684"},"vehicle_type_id":"4","last_reported":1779396285,"current_range_meters":8000,"station_id":"ce4bgih2rcd13ifvqba0","pricing_plan_id":"cebpf4jnsgd1na2vs0mg"},{"bike_id":"013939bc-c53d-4e6f-be2a-05c79303cd52","system_id":"levelo_inurba_marseille","lat":43.30986,"lon":5.36645,"is_reserved":false,"is_disabled":false,"rental_uris":{"android":"levelo://app?vid=013939bc-c53d-4e6f-be2a-05c79303cd52","ios":"levelo://app?vid=013939bc-c53d-4e6f-be2a-05c79303cd52"},"vehicle_type_id":"4","last_reported":1779396285,"current_range_meters":8000,"station_id":"","pricing_plan_id":"cebpf4jnsgd1na2vs0mg"},{"bike_id":"27a567fc-44be-4d18-8051-7476df3ad4e7","system_id":"levelo_inurba_marseille","lat":43.24079,"lon":5.37743,"is_reserved":false,"is_disabled":false,"rental_uris":{"android":"levelo://app?vid=27a567fc-44be-4d18-8051-7476df3ad4e7","ios":"levelo://app?vid=27a567fc-44be-4d18-8051-7476df3ad4e7"},"vehicle_type_id":"4","last_reported":1779396285,"current_range_meters":8000,"station_id":"ce4bhnp2rcd13ifvqgvg","pricing_plan_id":"cebpf4jnsgd1na2vs0mg"},{"bike_id":"ab8afdb1-6440-465f-9d72-bf186b260819","system_id":"levelo_inurba_marseille","lat":43.29881,"lon":5.38898,"is_reserved":false,"is_disabled":false,"rental_uris":{"android":"levelo://app?vid=ab8afdb1-6440-465f-9d72-bf186b260819","ios":"levelo://app?vid=ab8afdb1-6440-465f-9d72-bf186b260819"},"vehicle_type_id":"4","last_reported":1779396285,"current_range_meters":8000,"station_id":"ce4bh392rcd13ifvqdl0","pricing_plan_id":"cebpf4jnsgd1na2vs0mg"},{"bike_id":"43d9d8ea-182a-4572-8879-3fb2883009c7","system_id":"levelo_inurba_marseille","lat":43.31673,"lon":5.39544,"is_reserved":false,"is_disabled":false,"rental_uris":{"android":"levelo://app?vid=43d9d8ea-182a-4572-8879-3fb2883009c7","ios":"levelo://app?vid=43d9d8ea-182a-4572-8879-3fb2883009c7"},"vehicle_type_id":"4","last_reported":1779396285,"current_range_meters":8000,"station_id":"","pricing_plan_id":"cebpf4jnsgd1na2vs0mg"},{"bike_id":"b00a53ba-4592-4120-86c8-ae222013fcee","system_id":"levelo_inurba_marseille","lat":43.29962,"lon":5.41324,"is_reserved":false,"is_disabled":false,"rental_uris":{"android":"levelo://app?vid=b00a53ba-4592-4120-86c8-ae222013fcee","ios":"levelo://app?vid=b00a53ba-4592-4120-86c8-ae222013fcee"},"vehicle_type_id":"4","last_reported":1779396285,"current_range_meters":8000,"station_id":"ce4bhp12rcd13ifvqh9g","pricing_plan_id":"cebpf4jnsgd1na2vs0mg"},{"bike_id":"c1ed57f6-f105-460c-8703-1c2eae17785a","system_id":"levelo_inurba_marseille","lat":43.22545,"lon":5.34817,"is_reserved":false,"is_disabled":false,"rental_uris":{"android":"levelo://app?vid=c1ed57f6-f105-460c-8703-1c2eae17785a","ios":"levelo://app?vid=c1ed57f6-f105-460c-8703-1c2eae17785a"},