{"last_updated":1751055103,"ttl":60,"version":"2.2","data":{"bikes":[{"bike_id":"3da29fb8-fc97-44c6-b9ac-31dd456b2fd4","system_id":"levelo_inurba_marseille","lat":43.33771,"lon":5.37424,"is_reserved":false,"is_disabled":true,"rental_uris":{"android":"levelo://app?vid=3da29fb8-fc97-44c6-b9ac-31dd456b2fd4","ios":"levelo://app?vid=3da29fb8-fc97-44c6-b9ac-31dd456b2fd4"},"vehicle_type_id":"4","last_reported":1751055103,"current_range_meters":0,"station_id":"","pricing_plan_id":"cebpf4jnsgd1na2vs0mg"},{"bike_id":"01861ad8-a8d7-4be6-816e-651927c87584","system_id":"levelo_inurba_marseille","lat":43.33751,"lon":5.37456,"is_reserved":false,"is_disabled":true,"rental_uris":{"android":"levelo://app?vid=01861ad8-a8d7-4be6-816e-651927c87584","ios":"levelo://app?vid=01861ad8-a8d7-4be6-816e-651927c87584"},"vehicle_type_id":"4","last_reported":1751055103,"current_range_meters":0,"station_id":"","pricing_plan_id":"cebpf4jnsgd1na2vs0mg"},{"bike_id":"d527aaef-dd77-4d55-8a3e-faf748ebc665","system_id":"levelo_inurba_marseille","lat":43.2613,"lon":5.41704,"is_reserved":false,"is_disabled":true,"rental_uris":{"android":"levelo://app?vid=d527aaef-dd77-4d55-8a3e-faf748ebc665","ios":"levelo://app?vid=d527aaef-dd77-4d55-8a3e-faf748ebc665"},"vehicle_type_id":"4","last_reported":1751055103,"current_range_meters":0,"station_id":"","pricing_plan_id":"cebpf4jnsgd1na2vs0mg"},{"bike_id":"a147e67d-e0b1-425e-bbda-ae9524df353e","system_id":"levelo_inurba_marseille","lat":43.337541,"lon":5.374577,"is_reserved":false,"is_disabled":true,"rental_uris":{"android":"levelo://app?vid=a147e67d-e0b1-425e-bbda-ae9524df353e","ios":"levelo://app?vid=a147e67d-e0b1-425e-bbda-ae9524df353e"},"vehicle_type_id":"4","last_reported":1751055103,"current_range_meters":0,"station_id":"","pricing_plan_id":"cebpf4jnsgd1na2vs0mg"},{"bike_id":"2c5ab5ef-6e3c-47bf-9405-4e96ff645858","system_id":"levelo_inurba_marseille","lat":43.34037,"lon":5.429,"is_reserved":false,"is_disabled":true,"rental_uris":{"android":"levelo://app?vid=2c5ab5ef-6e3c-47bf-9405-4e96ff645858","ios":"levelo://app?vid=2c5ab5ef-6e3c-47bf-9405-4e96ff645858"},"vehicle_type_id":"4","last_reported":1751055103,"current_range_meters":0,"station_id":"","pricing_plan_id":"cebpf4jnsgd1na2vs0mg"},{"bike_id":"67a5051a-b32e-408a-8389-c22b54eb81f6","system_id":"levelo_inurba_marseille","lat":43.33051,"lon":5.45644,"is_reserved":false,"is_disabled":true,"rental_uris":{"android":"levelo://app?vid=67a5051a-b32e-408a-8389-c22b54eb81f6","ios":"levelo://app?vid=67a5051a-b32e-408a-8389-c22b54eb81f6"},"vehicle_type_id":"4","last_reported":1751055103,"current_range_meters":0,"station_id":"","pricing_plan_id":"cebpf4jnsgd1na2vs0mg"},{"bike_id":"4d064f95-6dcb-4234-9e98-7c70fbb74351","system_id":"levelo_inurba_marseille","lat":43.337444,"lon":5.374475,"is_reserved":false,"is_disabled":true,"rental_uris":{"android":"levelo://app?vid=4d064f95-6dcb-4234-9e98-7c70fbb74351","ios":"levelo://app?vid=4d064f95-6dcb-4234-9e98-7c70fbb74351"},"vehicle_type_id":"4","last_reported":1751055103,"current_range_meters":0,"station_id":"","pricing_plan_id":"cebpf4jnsgd1na2vs0mg"},{"bike_id":"446c66be-a677-44c2-9116-79a23398a824","system_id":"levelo_inurba_marseille","lat":43.276273,"lon":5.431732,"is_reserved":false,"is_disabled":true,"rental_uris":{"android":"levelo://app?vid=446c66be-a677-44c2-9116-79a23398a824","ios":"levelo://app?vid=446c66be-a677-44c2-9116-79a23398a824"},"vehicle_type_id":"4","last_reported":1751055103,"current_range_meters":0,"station_id":"","pricing_plan_id":"cebpf4jnsgd1na2vs0mg"},{"bike_id":"a86d2f9f-83d8-4f17-8422-d08e982c4a2a","system_id":"levelo_inurba_marseille","lat":43.29805,"lon":5.4483,"is_reserved":false,"is_disabled":true,"rental_uris":{"android":"levelo://app?vid=a86d2f9f-83d8-4f17-8422-d08e982c4a2a","ios":"levelo://app?vid=a86d2f9f-83d8-4f17-8422-d08e982c4a2a"},"vehicle_type_id":"4","last_reported":1751055103,"current_range_meters":0,"station_id":"","pricing_plan_id":"cebpf4jnsgd1na2vs0mg"},{"bike_id":"2315c627-494e-41a8-a12f-403d40de57ef","system_id":"levelo_inurba_marseille","lat":43.3014,"lon":5.40317,"is_reserved":false,"is_disabled":true,"rental_uris":{"android":"levelo://app?vid=2315c627-494e-41a8-a12f-403d40de57ef","ios":"levelo://app?vid=2315c627-494e-41a8-a12f-403d40de57ef"},"vehicle_type_id":"4","last_reported":1751055103,"current_range_meters":0,"station_id":"","pricing_plan_id":"cebpf4jnsgd1na2vs0mg"},{"bike_id":"a1ae4fee-cbeb-43dc-a969-5827f87e448d","system_id":"levelo_inurba_marseille","lat":43.38387,"lon":5.36543,"is_reserved":false,"is_disabled":true,"rental_uris":{"android":"levelo://app?vid=a1ae4fee-cbeb-43dc-a969-5827f87e448d","ios":"levelo://app?vid=a1ae4fee-cbeb-43dc-a969-5827f87e448d"},"vehicle_type_id":"4","last_reported":1751055103,"current_range_meters":0,"station_id":"","pricing_plan_id":"cebpf4jnsgd1na2vs0mg"},{"bike_id":"d6609b4f-333b-43c1-9ebe-8726f5e76e88","system_id":"levelo_inurba_marseille","lat":43.337444,"lon":5.374475,"is_reserved":false,"is_disabled":true,"rental_uris":{"android":"levelo://app?vid=d6609b4f-333b-43c1-9ebe-8726f5e76e88","ios":"levelo://app?vid=d6609b4f-333b-43c1-9ebe-8726f5e76e88"},"vehicle_type_id":"4","last_reported":1751055103,"current_range_meters":0,"station_id":"","pricing_plan_id":"cebpf4jnsgd1na2vs0mg"},{"bike_id":"bf027107-0fe5-47a2-8fef-6473f83bb647","system_id":"levelo_inurba_marseille","lat":43.32953,"lon":5.36378,"is_reserved":false,"is_disabled":true,"rental_uris":{"android":"levelo://app?vid=bf027107-0fe5-47a2-8fef-6473f83bb647","ios":"levelo://app?vid=bf027107-0fe5-47a2-8fef-6473f83bb647"},"vehicle_type_id":"4","last_reported":1751055103,"current_range_meters":0,"station_id":"","pricing_plan_id":"cebpf4jnsgd1na2vs0mg"},{"bike_id":"b17b6606-336a-4606-9b65-af139c49de26","system_id":"levelo_inurba_marseille","lat":43.25689,"lon":5.42708,"is_reserved":false,"is_disabled":true,"rental_uris":{"android":"levelo://app?vid=b17b6606-336a-4606-9b65-af139c49de26","ios":"levelo://app?vid=b17b6606-336a-4606-9b65-af139c49de26"},"vehicle_type_id":"4","last_reported":1751055103,"current_range_meters":0,"station_id":"","pricing_plan_id":"cebpf4jnsgd1na2vs0mg"},{"bike_id":"9d3724b1-0dc8-4689-9d6a-55005a9503cb","system_id":"levelo_inurba_marseille","lat":43.28607,"lon":5.4283,"is_reserved":false,"is_disabled":true,"rental_uris":{"android":"levelo://app?vid=9d3724b1-0dc8-4689-9d6a-55005a9503cb","ios":"levelo://app?vid=9d3724b1-0dc8-4689-9d6a-55005a9503cb"},"vehicle_type_id":"4","last_reported":1751055103,"current_range_meters":0,"station_id":"","pricing_plan_id":"cebpf4jnsgd1na2vs0mg"},{"bike_id":"ce774a04-a4be-4eca-a30f-78eb921955bd","system_id":"levelo_inurba_marseille","lat":43.32864,"lon":5.36699,"is_reserved":false,"is_disabled":true,"rental_uris":{"android":"levelo://app?vid=ce774a04-a4be-4eca-a30f-78eb921955bd","ios":"levelo://app?vid=ce774a04-a4be-4eca-a30f-78eb921955bd"},"vehicle_type_id":"4","last_reported":1751055103,"current_range_meters":0,"station_id":"","pricing_plan_id":"cebpf4jnsgd1na2vs0mg"},{"bike_id":"1ddbf4c9-66c0-4dff-93ff-70e33af0dd8e","system_id":"levelo_inurba_marseille","lat":43.308006,"lon":5.396195,"is_reserved":false,"is_disabled":true,"rental_uris":{"android":"levelo://app?vid=1ddbf4c9-66c0-4dff-93ff-70e33af0dd8e","ios":"levelo://app?vid=1ddbf4c9-66c0-4dff-93ff-70e33af0dd8e"},"vehicle_type_id":"4","last_reported":1751055103,"current_range_meters":0,"station_id":"","pricing_plan_id":"cebpf4jnsgd1na2vs0mg"},{"bike_id":"12c16672-a407-41a1-9647-fde9cda7cf1d","system_id":"levelo_inurba_marseille","lat":43.295848,"lon":5.37508,"is_reserved":false,"is_disabled":true,"rental_uris":{"android":"levelo://app?vid=12c16672-a407-41a1-9647-fde9cda7cf1d","ios":"levelo://app?vid=12c16672-a407-41a1-9647-fde9cda7cf1d"},"vehicle_type_id":"4","last_reported":1751055103,"current_range_meters":0,"station_id":"ce4bgh92rcd13ifvqb50","pricing_plan_id":"cebpf4jnsgd1na2vs0mg"},{"bike_id":"7962009c-b2e2-41ee-9e52-199883169925","system_id":"levelo_inurba_marseille","lat":43.29223,"lon":5.36073,"is_reserved":false,"is_disabled":true,"rental_uris":{"android":"levelo://app?vid=7962009c-b2e2-41ee-9e52-199883169925","ios":"levelo://app?vid=7962009c-b2e2-41ee-9e52-199883169925"},"vehicle_type_id":"4","last_reported":1751055103,"current_range_meters":0,"station_id":"ce4bhbh2rcd13ifvqeqg","pricing_plan_id":"cebpf4jnsgd1na2vs0mg"},{"bike_id":"271a5da5-4035-470a-ba7c-aa58268e9930","system_id":"levelo_inurba_marseille","lat":43.21766,"lon":5.34604,"is_reserved":false,"is_disabled":true,"rental_uris":{"android":"levelo://app?vid=271a5da5-4035-470a-ba7c-aa58268e9930","ios":"levelo://app?vid=271a5da5-4035-470a-ba7c-aa58268e9930"},"vehicle_type_id":"4","last_reported":1751055103,"current_range_meters":0,"station_id":"ce4bhgh2rcd13ifvqfb0","pricing_plan_id":"cebpf4jnsgd1na2vs0mg"},{"bike_id":"f978269f-bc06-4977-9b6f-14b48949e59f","system_id":"levelo_inurba_marseille","lat":43.25493,"lon":5.37643,"is_reserved":false,"is_disabled":true,"rental_uris":{"android":"levelo://app?vid=f978269f-bc06-4977-9b6f-14b48949e59f","ios":"levelo://app?vid=f978269f-bc06-4977-9b6f-14b48949e59f"},"vehicle_type_id":"4","last_reported":1751055103,"current_range_meters":0,"station_id":"ce4bhh12rcd13ifvqff0","pricing_plan_id":"cebpf4jnsgd1na2vs0mg"},{"bike_id":"c84d9c24-9628-4be0-8379-599086d784e7","system_id":"levelo_inurba_marseille","lat":43.31729,"lon":5.42394,"is_reserved":false,"is_disabled":true,"rental_uris":{"android":"levelo://app?vid=c84d9c24-9628-4be0-8379-599086d784e7","ios":"levelo://app?vid=c84d9c24-9628-4be0-8379-599086d784e7"},"vehicle_type_id":"4","last_reported":1751055103,"current_range_meters":0,"station_id":"ce4bhp92rcd13ifvqhbg","pricing_plan_id":"cebpf4jnsgd1na2vs0mg"},{"bike_id":"29ec4185-f87e-45a2-91e6-759a1d934b1c","system_id":"levelo_inurba_marseille","lat":43.21743,"lon":5.34598,"is_reserved":false,"is_disabled":true,"rental_uris":{"android":"levelo://app?vid=29ec4185-f87e-45a2-91e6-759a1d934b1c","ios":"levelo://app?vid=29ec4185-f87e-45a2-91e6-759a1d934b1c"},"vehicle_type_id":"4","last_reported":1751055103,"current_range_meters":0,"station_id":"st_cvj6r9ubvosntc0bgbag","pricing_plan_id":"cebpf4jnsgd1na2vs0mg"},{"bike_id":"8d03c271-1824-4466-b703-8d65409c659d","system_id":"levelo_inurba_marseille","lat":43.28618,"lon":5.35086,"is_reserved":false,"is_disabled":true,"rental_uris":{"android":"levelo://app?vid=8d03c271-1824-4466-b703-8d65409c659d","ios":"levelo://app?vid=8d03c271-1824-4466-b703-8d65409c659d"},"vehicle_type_id":"4","last_reported":1751055103,"current_range_meters":400,"station_id":"ce4bhch2rcd13ifvqeug","pricing_plan_id":"cebpf4jnsgd1na2vs0mg"},{"bike_id":"a170c650-79f7-4c59-a9be-b59982c6a391","system_id":"levelo_inurba_marseille","lat":43.26209,"lon":5.37443,"is_reserved":false,"is_disabled":true,"rental_uris":{"android":"levelo://app?vid=a170c650-79f7-4c59-a9be-b59982c6a391","ios":"levelo://app?vid=a170c650-79f7-4c59-a9be-b59982c6a391"},"vehicle_type_id":"4","last_reported":1751055103,"current_range_meters":400,"station_id":"ce4bhgp2rcd13ifvqfc0","pricing_plan_id":"cebpf4jnsgd1na2vs0mg"},{"bike_id":"116ee576-0cd1-44e0-a139-94ab887d7a93","system_id":"levelo_inurba_marseille","lat":43.29257,"lon":5.40915,"is_reserved":false,"is_disabled":true,"rental_uris":{"android":"levelo://app?vid=116ee576-0cd1-44e0-a139-94ab887d7a93","ios":"levelo://app?vid=116ee576-0cd1-44e0-a139-94ab887d7a93"},"vehicle_type_id":"4","last_reported":1751055103,"current_range_meters":800,"station_id":"ce4bh192rcd13ifvqdc0","pricing_plan_id":"cebpf4jnsgd1na2vs0mg"},{"bike_id":"f0cd10d4-ad1c-4906-ab51-98a3238f8722","system_id":"levelo_inurba_marseille","lat":43.26209,"lon":5.37446,"is_reserved":false,"is_disabled":true,"rental_uris":{"android":"levelo://app?vid=f0cd10d4-ad1c-4906-ab51-98a3238f8722","ios":"levelo://app?vid=f0cd10d4-ad1c-4906-ab51-98a3238f8722"},"vehicle_type_id":"4","last_reported":1751055103,"current_range_meters":800,"station_id":"ce4bhgp2rcd13ifvqfc0","pricing_plan_id":"cebpf4jnsgd1na2vs0mg"},{"bike_id":"5685663b-988e-4059-a030-8ca4158045a8","system_id":"levelo_inurba_marseille","lat":43.2558,"lon":5.38244,"is_reserved":false,"is_disabled":true,"rental_uris":{"android":"levelo://app?vid=5685663b-988e-4059-a030-8ca4158045a8","ios":"levelo://app?vid=5685663b-988e-4059-a030-8ca4158045a8"},"vehicle_type_id":"4","last_reported":1751055103,"current_range_meters":800,"station_id":"ce4bhih2rcd13ifvqfs0","pricing_plan_id":"cebpf4jnsgd1na2vs0mg"},{"bike_id":"1621b522-7cb1-4b03-8dfd-8b6a858e80e4","system_id":"levelo_inurba_marseille","lat":43.23146,"lon":5.43697,"is_reserved":false,"is_disabled":true,"rental_uris":{"android":"levelo://app?vid=1621b522-7cb1-4b03-8dfd-8b6a858e80e4","ios":"levelo://app?vid=1621b522-7cb1-4b03-8dfd-8b6a858e80e4"},"vehicle_type_id":"4","last_reported":1751055103,"current_range_meters":800,"station_id":"ce4bhmp2rcd13ifvqgog","pricing_plan_id":"cebpf4jnsgd1na2vs0mg"},{"bike_id":"6b044504-606b-4f8b-959e-3ac79d92c707","system_id":"levelo_inurba_marseille","lat":43.26803,"lon":5.40267,"is_reserved":false,"is_disabled":true,"rental_uris":{"android":"levelo://app?vid=6b044504-606b-4f8b-959e-3ac79d92c707","ios":"levelo://app?vid=6b044504-606b-4f8b-959e-3ac79d92c707"},"vehicle_type_id":"4","last_reported":1751055103,"current_range_meters":800,"station_id":"ce501612rcd8frsf0b60","pricing_plan_id":"cebpf4jnsgd1na2vs0mg"},{"bike_id":"f7458c08-0016-4c0a-87ab-e5383230060b","system_id":"levelo_inurba_marseille","lat":43.28016,"lon":5.35654,"is_reserved":false,"is_disabled":true,"rental_uris":{"android":"levelo://app?vid=f7458c08-0016-4c0a-87ab-e5383230060b","ios":"levelo://app?vid=f7458c08-0016-4c0a-87ab-e5383230060b"},"vehicle_type_id":"4","last_reported":1751055103,"current_range_meters":1200,"station_id":"","pricing_plan_id":"cebpf4jnsgd1na2vs0mg"},{"bike_id":"3e5d0ae7-bac3-40ea-95d2-50ef1aae7bc7","system_id":"levelo_inurba_marseille","lat":43.26843,"lon":5.41593,"is_reserved":false,"is_disabled":true,"rental_uris":{"android":"levelo://app?vid=3e5d0ae7-bac3-40ea-95d2-50ef1aae7bc7","ios":"levelo://app?vid=3e5d0ae7-bac3-40ea-95d2-50ef1aae7bc7"},"vehicle_type_id":"4","last_reported":1751055103,"current_range_meters":1200,"station_id":"","pricing_plan_id":"cebpf4jnsgd1na2vs0mg"},{"bike_id":"2b476a52-f999-48ca-ba7b-dfcb82f5c8cd","system_id":"levelo_inurba_marseille","lat":43.292999,"lon":5.374655,"is_reserved":false,"is_disabled":true,"rental_uris":{"android":"levelo://app?vid=2b476a52-f999-48ca-ba7b-dfcb82f5c8cd","ios":"levelo://app?vid=2b476a52-f999-48ca-ba7b-dfcb82f5c8cd"},"vehicle_type_id":"4","last_reported":1751055103,"current_range_meters":1200,"station_id":"ce4bgi12rcd13ifvqb70","pricing_plan_id":"cebpf4jnsgd1na2vs0mg"},{"bike_id":"d49e0d69-da3d-4627-911e-68a3ce266ae9","system_id":"levelo_inurba_marseille","lat":43.31217,"lon":5.36861,"is_reserved":false,"is_disabled":true,"rental_uris":{"android":"levelo://app?vid=d49e0d69-da3d-4627-911e-68a3ce266ae9","ios":"levelo://app?vid=d49e0d69-da3d-4627-911e-68a3ce266ae9"},"vehicle_type_id":"4","last_reported":1751055103,"current_range_meters":1200,"station_id":"ce4bgl92rcd13ifvqbq0","pricing_plan_id":"cebpf4jnsgd1na2vs0mg"},{"bike_id":"63ede0cb-6d22-428d-a340-161fae5edf82","system_id":"levelo_inurba_marseille","lat":43.31323,"lon":5.39698,"is_reserved":false,"is_disabled":true,"rental_uris":{"android":"levelo://app?vid=63ede0cb-6d22-428d-a340-161fae5edf82","ios":"levelo://app?vid=63ede0cb-6d22-428d-a340-161fae5edf82"},"vehicle_type_id":"4","last_reported":1751055103,"current_range_meters":1200,"station_id":"ce4bgvp2rcd13ifvqcu0","pricing_plan_id":"cebpf4jnsgd1na2vs0mg"},{"bike_id":"901c477a-4359-4e8c-be6b-ffc6d8bac065","system_id":"levelo_inurba_marseille","lat":43.28847,"lon":5.39359,"is_reserved":false,"is_disabled":true,"rental_uris":{"android":"levelo://app?vid=901c477a-4359-4e8c-be6b-ffc6d8bac065","ios":"levelo://app?vid=901c477a-4359-4e8c-be6b-ffc6d8bac065"},"vehicle_type_id":"4","last_reported":1751055103,"current_range_meters":1200,"station_id":"ce4bh2p2rcd13ifvqdi0","pricing_plan_id":"cebpf4jnsgd1na2vs0mg"},{"bike_id":"370b3deb-d21e-40a0-985f-b5e61d848610","system_id":"levelo_inurba_marseille","lat":43.26563,"lon":5.39012,"is_reserved":false,"is_disabled":true,"rental_uris":{"android":"levelo://app?vid=370b3deb-d21e-40a0-985f-b5e61d848610","ios":"levelo://app?vid=370b3deb-d21e-40a0-985f-b5e61d848610"},"vehicle_type_id":"4","last_reported":1751055103,"current_range_meters":1200,"station_id":"ce4bhe12rcd13ifvqf30","pricing_plan_id":"cebpf4jnsgd1na2vs0mg"},{"bike_id":"233d22ef-d303-4521-95c4-9c4f5b790a7c","system_id":"levelo_inurba_marseille","lat":43.301394,"lon":5.387762,"is_reserved":false,"is_disabled":false,"rental_uris":{"android":"levelo://app?vid=233d22ef-d303-4521-95c4-9c4f5b790a7c","ios":"levelo://app?vid=233d22ef-d303-4521-95c4-9c4f5b790a7c"},"vehicle_type_id":"4","last_reported":1751055103,"current_range_meters":1600,"station_id":"ce4bghh2rcd13ifvqb60","pricing_plan_id":"cebpf4jnsgd1na2vs0mg"},{"bike_id":"63e30b93-57b1-4143-981e-3c5f133c125c","system_id":"levelo_inurba_marseille","lat":43.29909,"lon":5.38153,"is_reserved":false,"is_disabled":true,"rental_uris":{"android":"levelo://app?vid=63e30b93-57b1-4143-981e-3c5f133c125c","ios":"levelo://app?vid=63e30b93-57b1-4143-981e-3c5f133c125c"},"vehicle_type_id":"4","last_reported":1751055103,"current_range_meters":2000,"station_id":"ce4bgj12rcd13ifvqbc0","pricing_plan_id":"cebpf4jnsgd1na2vs0mg"},{"bike_id":"768c0104-715f-4ae7-8bb0-ad9c0d98e622","system_id":"levelo_inurba_marseille","lat":43.28698,"lon":5.37411,"is_reserved":false,"is_disabled":true,"rental_uris":{"android":"levelo://app?vid=768c0104-715f-4ae7-8bb0-ad9c0d98e622","ios":"levelo://app?vid=768c0104-715f-4ae7-8bb0-ad9c0d98e622"},"vehicle_type_id":"4","last_reported":1751055103,"current_range_meters":2000,"station_id":"ce4bh3p2rcd13ifvqdq0","pricing_plan_id":"cebpf4jnsgd1na2vs0mg"},{"bike_id":"b9311e9c-479c-4aba-a033-913f72f9b3f9","system_id":"levelo_inurba_marseille","lat":43.3012,"lon":5.38778,"is_reserved":false,"is_disabled":false,"rental_uris":{"android":"levelo://app?vid=b9311e9c-479c-4aba-a033-913f72f9b3f9","ios":"levelo://app?vid=b9311e9c-479c-4aba-a033-913f72f9b3f9"},"vehicle_type_id":"4","last_reported":1751055103,"current_range_meters":2800,"station_id":"ce4bghh2rcd13ifvqb60","pricing_plan_id":"cebpf4jnsgd1na2vs0mg"},{"bike_id":"9ce852fe-9449-4c16-b29b-642a7abdbbbf","system_id":"levelo_inurba_marseille","lat":43.274001,"lon":5.362113,"is_reserved":false,"is_disabled":false,"rental_uris":{"android":"levelo://app?vid=9ce852fe-9449-4c16-b29b-642a7abdbbbf","ios":"levelo://app?vid=9ce852fe-9449-4c16-b29b-642a7abdbbbf"},"vehicle_type_id":"4","last_reported":1751055103,"current_range_meters":3200,"station_id":"","pricing_plan_id":"cebpf4jnsgd1na2vs0mg"},{"bike_id":"7c540d15-e78b-4971-8b34-16d2b069c7bc","system_id":"levelo_inurba_marseille","lat":43.26778,"lon":5.41319,"is_reserved":false,"is_disabled":false,"rental_uris":{"android":"levelo://app?vid=7c540d15-e78b-4971-8b34-16d2b069c7bc","ios":"levelo://app?vid=7c540d15-e78b-4971-8b34-16d2b069c7bc"},"vehicle_type_id":"4","last_reported":1751055103,"current_range_meters":3200,"station_id":"","pricing_plan_id":"cebpf4jnsgd1na2vs0mg"},{"bike_id":"42ae9930-270f-4244-b26f-b786df094c1d","system_id":"levelo_inurba_marseille","lat":43.29094,"lon":5.38133,"is_reserved":false,"is_disabled":false,"rental_uris":{"android":"levelo://app?vid=42ae9930-270f-4244-b26f-b786df094c1d","ios":"levelo://app?vid=42ae9930-270f-4244-b26f-b786df094c1d"},"vehicle_type_id":"4","last_reported":1751055103,"current_range_meters":3200,"station_id":"ce4bh512rcd13ifvqe2g","pricing_plan_id":"cebpf4jnsgd1na2vs0mg"},{"bike_id":"a8ef5b92-bdd4-46c4-a72d-da01f36e0a9a","system_id":"levelo_inurba_marseille","lat":43.24545,"lon":5.39519,"is_reserved":false,"is_disabled":false,"rental_uris":{"android":"levelo://app?vid=a8ef5b92-bdd4-46c4-a72d-da01f36e0a9a","ios":"levelo://app?vid=a8ef5b92-bdd4-46c4-a72d-da01f36e0a9a"},"vehicle_type_id":"4","last_reported":1751055103,"current_range_meters":3200,"station_id":"ce4bhlp2rcd13ifvqgjg","pricing_plan_id":"cebpf4jnsgd1na2vs0mg"},{"bike_id":"a5ae47f2-0cd5-4a6d-95cd-fb1f25dd992d","system_id":"levelo_inurba_marseille","lat":43.30521,"lon":5.36578,"is_reserved":false,"is_disabled":false,"rental_uris":{"android":"levelo://app?vid=a5ae47f2-0cd5-4a6d-95cd-fb1f25dd992d","ios":"levelo://app?vid=a5ae47f2-0cd5-4a6d-95cd-fb1f25dd992d"},"vehicle_type_id":"4","last_reported":1751055103,"current_range_meters":3600,"station_id":"ce4bgs12rcd13ifvqcag","pricing_plan_id":"cebpf4jnsgd1na2vs0mg"},{"bike_id":"f58acfab-3581-478d-a4ac-f89540502c74","system_id":"levelo_inurba_marseille","lat":43.31116,"lon":5.37771,"is_reserved":false,"is_disabled":false,"rental_uris":{"android":"levelo://app?vid=f58acfab-3581-478d-a4ac-f89540502c74","ios":"levelo://app?vid=f58acfab-3581-478d-a4ac-f89540502c74"},"vehicle_type_id":"4","last_reported":1751055103,"current_range_meters":4400,"station_id":"ce4bgt92rcd13ifvqcg0","pricing_plan_id":"cebpf4jnsgd1na2vs0mg"},{"bike_id":"8950ce07-1394-4237-9727-2b3421c0070b","system_id":"levelo_inurba_marseille","lat":43.29435,"lon":5.39755,"is_reserved":false,"is_disabled":false,"rental_uris":{"android":"levelo://app?vid=8950ce07-1394-4237-9727-2b3421c0070b","ios":"levelo://app?vid=8950ce07-1394-4237-9727-2b3421c0070b"},"vehicle_type_id":"4","last_reported":1751055103,"current_range_meters":4400,"station_id":"ce4bh3h2rcd13ifvqdo0","pricing_plan_id":"cebpf4jnsgd1na2vs0mg"},{"bike_id":"7b6e9364-7abf-49cc-8022-54f0f9a6244f","system_id":"levelo_inurba_marseille","lat":43.29104,"lon":5.38144,"is_reserved":false,"is_disabled":false,"rental_uris":{"android":"levelo://app?vid=7b6e9364-7abf-49cc-8022-54f0f9a6244f","ios":"levelo://app?vid=7b6e9364-7abf-49cc-8022-54f0f9a6244f"},"vehicle_type_id":"4","last_reported":1751055103,"current_range_meters":4400,"station_id":"ce4bh512rcd13ifvqe2g","pricing_plan_id":"cebpf4jnsgd1na2vs0mg"},{"bike_id":"bec49b85-5ee8-40ab-8902-38527df30f12","system_id":"levelo_inurba_marseille","lat":43.27211,"lon":5.39183,"is_reserved":false,"is_disabled":false,"rental_uris":{"android":"levelo://app?vid=bec49b85-5ee8-40ab-8902-38527df30f12","ios":"levelo://app?vid=bec49b85-5ee8-40ab-8902-38527df30f12"},"vehicle_type_id":"4","last_reported":1751055103,"current_range_meters":4400,"station_id":"ce4bhhp2rcd13ifvqfm0","pricing_plan_id":"cebpf4jnsgd1na2vs0mg"},{"bike_id":"b1d05711-5328-43bf-9fae-dcfc01d74915","system_id":"levelo_inurba_marseille","lat":43.29226,"lon":5.36078,"is_reserved":false,"is_disabled":false,"rental_uris":{"android":"levelo://app?vid=b1d05711-5328-43bf-9fae-dcfc01d74915","ios":"levelo://app?vid=b1d05711-5328-43bf-9fae-dcfc01d74915"},"vehicle_type_id":"4","last_reported":1751055103,"current_range_meters":4800,"station_id":"ce4bhbh2rcd13ifvqeqg","pricing_plan_id":"cebpf4jnsgd1na2vs0mg"},{"bike_id":"909eda6c-5dca-4cd5-902b-0e209d407ebe","system_id":"levelo_inurba_marseille","lat":43.255,"lon":5.376475,"is_reserved":false,"is_disabled":false,"rental_uris":{"android":"levelo://app?vid=909eda6c-5dca-4cd5-902b-0e209d407ebe","ios":"levelo://app?vid=909eda6c-5dca-4cd5-902b-0e209d407ebe"},"vehicle_type_id":"4","last_reported":1751055103,"current_range_meters":4800,"station_id":"ce4bhh12rcd13ifvqff0","pricing_plan_id":"cebpf4jnsgd1na2vs0mg"},{"bike_id":"0de12a98-ac0e-46ec-9d15-9265302abdd5","system_id":"levelo_inurba_marseille","lat":43.292464,"lon":5.36991,"is_reserved":false,"is_disabled":false,"rental_uris":{"android":"levelo://app?vid=0de12a98-ac0e-46ec-9d15-9265302abdd5","ios":"levelo://app?vid=0de12a98-ac0e-46ec-9d15-9265302abdd5"},"vehicle_type_id":"4","last_reported":1751055103,"current_range_meters":5600,"station_id":"ce4bgh92rcd13ifvqb40","pricing_plan_id":"cebpf4jnsgd1na2vs0mg"},{"bike_id":"b7cbef2f-b9c1-4ba9-9d73-e18f60edbdc1","system_id":"levelo_inurba_marseille","lat":43.29604,"lon":5.38107,"is_reserved":false,"is_disabled":false,"rental_uris":{"android":"levelo://app?vid=b7cbef2f-b9c1-4ba9-9d73-e18f60edbdc1","ios":"levelo://app?vid=b7cbef2f-b9c1-4ba9-9d73-e18f60edbdc1"},"vehicle_type_id":"4","last_reported":1751055103,"current_range_meters":5600,"station_id":"ce4bgl12rcd13ifvqbo0","pricing_plan_id":"cebpf4jnsgd1na2vs0mg"},{"bike_id":"3a890283-2dbf-4676-b38e-e2cd5d4b5bc2","system_id":"levelo_inurba_marseille","lat":43.31684,"lon":5.40472,"is_reserved":false,"is_disabled":false,"rental_uris":{"android":"levelo://app?vid=3a890283-2dbf-4676-b38e-e2cd5d4b5bc2","ios":"levelo://app?vid=3a890283-2dbf-4676-b38e-e2cd5d4b5bc2"},"vehicle_type_id":"4","last_reported":1751055103,"current_range_meters":5600,"station_id":"ce4bh012rcd13ifvqd00","pricing_plan_id":"cebpf4jnsgd1na2vs0mg"},{"bike_id":"74bc5500-49cb-4f6b-8f15-71efbe342046","system_id":"levelo_inurba_marseille","lat":43.26027,"lon":5.37547,"is_reserved":false,"is_disabled":false,"rental_uris":{"android":"levelo://app?vid=74bc5500-49cb-4f6b-8f15-71efbe342046","ios":"levelo://app?vid=74bc5500-49cb-4f6b-8f15-71efbe342046"},"vehicle_type_id":"4","last_reported":1751055103,"current_range_meters":5600,"station_id":"ce4bhgh2rcd13ifvqfa0","pricing_plan_id":"cebpf4jnsgd1na2vs0mg"},{"bike_id":"dc59542b-b827-41bf-8ff2-3d1e41e597dc","system_id":"levelo_inurba_marseille","lat":43.26209,"lon":5.37449,"is_reserved":false,"is_disabled":false,"rental_uris":{"android":"levelo://app?vid=dc59542b-b827-41bf-8ff2-3d1e41e597dc","ios":"levelo://app?vid=dc59542b-b827-41bf-8ff2-3d1e41e597dc"},"vehicle_type_id":"4","last_reported":1751055103,"current_range_meters":5600,"station_id":"ce4bhgp2rcd13ifvqfc0","pricing_plan_id":"cebpf4jnsgd1na2vs0mg"},{"bike_id":"d6206614-941a-4cc2-8752-c1c7d6e08bb6","system_id":"levelo_inurba_marseille","lat":43.28443,"lon":5.39204,"is_reserved":false,"is_disabled":false,"rental_uris":{"android":"levelo://app?vid=d6206614-941a-4cc2-8752-c1c7d6e08bb6","ios":"levelo://app?vid=d6206614-941a-4cc2-8752-c1c7d6e08bb6"},"vehicle_type_id":"4","last_reported":1751055103,"current_range_meters":5600,"station_id":"ce4bhoh2rcd13ifvqh5g","pricing_plan_id":"cebpf4jnsgd1na2vs0mg"},{"bike_id":"f64e035b-db0b-4657-8a15-2ae31c1ea0bf","system_id":"levelo_inurba_marseille","lat":43.28605,"lon":5.38496,"is_reserved":false,"is_disabled":false,"rental_uris":{"android":"levelo://app?vid=f64e035b-db0b-4657-8a15-2ae31c1ea0bf","ios":"levelo://app?vid=f64e035b-db0b-4657-8a15-2ae31c1ea0bf"},"vehicle_type_id":"4","last_reported":1751055103,"current_range_meters":6000,"station_id":"","pricing_plan_id":"cebpf4jnsgd1na2vs0mg"},{"bike_id":"bc6a979d-47e3-40b0-b51a-b09b0138dc69","system_id":"levelo_inurba_marseille","lat":43.29603,"lon":5.38077,"is_reserved":false,"is_disabled":false,"rental_uris":{"android":"levelo://app?vid=bc6a979d-47e3-40b0-b51a-b09b0138dc69","ios":"levelo://app?vid=bc6a979d-47e3-40b0-b51a-b09b0138dc69"},"vehicle_type_id":"4","last_reported":1751055103,"current_range_meters":6400,"station_id":"ce4bgl12rcd13ifvqbo0","pricing_plan_id":"cebpf4jnsgd1na2vs0mg"},{"bike_id":"6823ce3f-1d7e-4ce5-b6b6-a3d6afa7ec1c","system_id":"levelo_inurba_marseille","lat":43.30947,"lon":5.39038,"is_reserved":false,"is_disabled":false,"rental_uris":{"android":"levelo://app?vid=6823ce3f-1d7e-4ce5-b6b6-a3d6afa7ec1c","ios":"levelo://app?vid=6823ce3f-1d7e-4ce5-b6b6-a3d6afa7ec1c"},"vehicle_type_id":"4","last_reported":1751055103,"current_range_meters":6400,"station_id":"ce4bgup2rcd13ifvqco0","pricing_plan_id":"cebpf4jnsgd1na2vs0mg"},{"bike_id":"a562ce82-e37e-44e1-927a-27da6c1304dd","system_id":"levelo_inurba_marseille","lat":43.28477,"lon":5.38421,"is_reserved":false,"is_disabled":false,"rental_uris":{"android":"levelo://app?vid=a562ce82-e37e-44e1-927a-27da6c1304dd","ios":"levelo://app?vid=a562ce82-e37e-44e1-927a-27da6c1304dd"},"vehicle_type_id":"4","last_reported":1751055103,"current_range_meters":6400,"station_id":"ce4bh512rcd13ifvqe3g","pricing_plan_id":"cebpf4jnsgd1na2vs0mg"},{"bike_id":"f47876d7-9c85-474e-92c5-7a242e08b67c","system_id":"levelo_inurba_marseille","lat":43.30557,"lon":5.37555,"is_reserved":false,"is_disabled":false,"rental_uris":{"android":"levelo://app?vid=f47876d7-9c85-474e-92c5-7a242e08b67c","ios":"levelo://app?vid=f47876d7-9c85-474e-92c5-7a242e08b67c"},"vehicle_type_id":"4","last_reported":1751055103,"current_range_meters":6800,"station_id":"","pricing_plan_id":"cebpf4jnsgd1na2vs0mg"},{"bike_id":"eb095dfb-53c8-4bc1-83e9-e5ab8ad22249","system_id":"levelo_inurba_marseille","lat":43.31694,"lon":5.37774,"is_reserved":false,"is_disabled":false,"rental_uris":{"android":"levelo://app?vid=eb095dfb-53c8-4bc1-83e9-e5ab8ad22249","ios":"levelo://app?vid=eb095dfb-53c8-4bc1-83e9-e5ab8ad22249"},"vehicle_type_id":"4","last_reported":1751055103,"current_range_meters":6800,"station_id":"ce4bgth2rcd13ifvqch0","pricing_plan_id":"cebpf4jnsgd1na2vs0mg"},{"bike_id":"9f002d48-329f-4b34-a392-0814ac59b560","system_id":"levelo_inurba_marseille","lat":43.30934,"lon":5.4013,"is_reserved":false,"is_disabled":false,"rental_uris":{"android":"levelo://app?vid=9f002d48-329f-4b34-a392-0814ac59b560","ios":"levelo://app?vid=9f002d48-329f-4b34-a392-0814ac59b560"},"vehicle_type_id":"4","last_reported":1751055103,"current_range_meters":6800,"station_id":"ce4bgvp2rcd13ifvqct0","pricing_plan_id":"cebpf4jnsgd1na2vs0mg"},{"bike_id":"4fc5270d-075a-4e8d-9eac-f1a4cd5c2220","system_id":"levelo_inurba_marseille","lat":43.28847,"lon":5.39309,"is_reserved":false,"is_disabled":false,"rental_uris":{"android":"levelo://app?vid=4fc5270d-075a-4e8d-9eac-f1a4cd5c2220","ios":"levelo://app?vid=4fc5270d-075a-4e8d-9eac-f1a4cd5c2220"},"vehicle_type_id":"4","last_reported":1751055103,"current_range_meters":6800,"station_id":"ce4bh2p2rcd13ifvqdi0","pricing_plan_id":"cebpf4jnsgd1na2vs0mg"},{"bike_id":"558d4559-94ce-4cb7-a941-bb9c19006fbc","system_id":"levelo_inurba_marseille","lat":43.29526,"lon":5.39026,"is_reserved":false,"is_disabled":false,"rental_uris":{"android":"levelo://app?vid=558d4559-94ce-4cb7-a941-bb9c19006fbc","ios":"levelo://app?vid=558d4559-94ce-4cb7-a941-bb9c19006fbc"},"vehicle_type_id":"4","last_reported":1751055103,"current_range_meters":6800,"station_id":"ce4bh3p2rcd13ifvqdp0","pricing_plan_id":"cebpf4jnsgd1na2vs0mg"},{"bike_id":"c3d9665a-c6b1-4198-a696-63dedbcc4856","system_id":"levelo_inurba_marseille","lat":43.29959,"lon":5.41317,"is_reserved":false,"is_disabled":false,"rental_uris":{"android":"levelo://app?vid=c3d9665a-c6b1-4198-a696-63dedbcc4856","ios":"levelo://app?vid=c3d9665a-c6b1-4198-a696-63dedbcc4856"},"vehicle_type_id":"4","last_reported":1751055103,"current_range_meters":6800,"station_id":"ce4bhp12rcd13ifvqh9g","pricing_plan_id":"cebpf4jnsgd1na2vs0mg"},{"bike_id":"94e84186-d780-461a-b647-8d1cf3f036ad","system_id":"levelo_inurba_marseille","lat":43.3177,"lon":5.3776,"is_reserved":false,"is_disabled":false,"rental_uris":{"android":"levelo://app?vid=94e84186-d780-461a-b647-8d1cf3f036ad","ios":"levelo://app?vid=94e84186-d780-461a-b647-8d1cf3f036ad"},"vehicle_type_id":"4","last_reported":1751055103,"current_range_meters":7200,"station_id":"","pricing_plan_id":"cebpf4jnsgd1na2vs0mg"},{"bike_id":"3a7a1b80-a358-41c2-97a2-ea649c55b30c","system_id":"levelo_inurba_marseille","lat":43.28482,"lon":5.38564,"is_reserved":false,"is_disabled":false,"rental_uris":{"android":"levelo://app?vid=3a7a1b80-a358-41c2-97a2-ea649c55b30c","ios":"levelo://app?vid=3a7a1b80-a358-41c2-97a2-ea649c55b30c"},"vehicle_type_id":"4","last_reported":1751055103,"current_range_meters":7200,"station_id":"ce4bh8p2rcd13ifvqeb0","pricing_plan_id":"cebpf4jnsgd1na2vs0mg"},{"bike_id":"867bc738-e3ee-41e2-8187-5951ccee2d9f","system_id":"levelo_inurba_marseille","lat":43.30254,"lon":5.40061,"is_reserved":false,"is_disabled":false,"rental_uris":{"android":"levelo://app?vid=867bc738-e3ee-41e2-8187-5951ccee2d9f","ios":"levelo://app?vid=867bc738-e3ee-41e2-8187-5951ccee2d9f"},"vehicle_type_id":"4","last_reported":1751055103,"current_range_meters":8000,"station_id":"ce4bgvh2rcd13ifvqcs0","pricing_plan_id":"cebpf4jnsgd1na2vs0mg"},{"bike_id":"0af99c69-b6cf-49e9-a197-124272deb174","system_id":"levelo_inurba_marseille","lat":43.28696,"lon":5.37386,"is_reserved":false,"is_disabled":false,"rental_uris":{"android":"levelo://app?vid=0af99c69-b6cf-49e9-a197-124272deb174","ios":"levelo://app?vid=0af99c69-b6cf-49e9-a197-124272deb174"},"vehicle_type_id":"4","last_reported":1751055103,"current_range_meters":8000,"station_id":"ce4bh3p2rcd13ifvqdq0","pricing_plan_id":"cebpf4jnsgd1na2vs0mg"},{"bike_id":"221f0683-785b-47e5-9b70-109985fdf0c5","system_id":"levelo_inurba_marseille","lat":43.26784,"lon":5.39401,"is_reserved":false,"is_disabled":false,"rental_uris":{"android":"levelo://app?vid=221f0683-785b-47e5-9b70-109985fdf0c5","ios":"levelo://app?vid=221f0683-785b-47e5-9b70-109985fdf0c5"},"vehicle_type_id":"4","last_reported":1751055103,"current_range_meters":8000,"station_id":"ce4bhh12rcd13ifvqfg0","pricing_plan_id":"cebpf4jnsgd1na2vs0mg"},{"bike_id":"447a5c07-2605-49a1-ab80-decdc56f8c4f","system_id":"levelo_inurba_marseille","lat":43.27954,"lon":5.35323,"is_reserved":false,"is_disabled":false,"rental_uris":{"android":"levelo://app?vid=447a5c07-2605-49a1-ab80-decdc56f8c4f","ios":"levelo://app?vid=447a5c07-2605-49a1-ab80-decdc56f8c4f"},"vehicle_type_id":"4","last_reported":1751055103,"current_range_meters":8400,"station_id":"","pricing_plan_id":"cebpf4jnsgd1na2vs0mg"},{"bike_id":"73a03650-973e-42b0-bad4-545481e15f73","system_id":"levelo_inurba_marseille","lat":43.31214,"lon":5.39093,"is_reserved":false,"is_disabled":false,"rental_uris":{"android":"levelo://app?vid=73a03650-973e-42b0-bad4-545481e15f73","ios":"levelo://app?vid=73a03650-973e-42b0-bad4-545481e15f73"},"vehicle_type_id":"4","last_reported":1751055103,"current_range_meters":8400,"station_id":"","pricing_plan_id":"cebpf4jnsgd1na2vs0mg"},{"bike_id":"e0eb485d-2610-4729-8aea-d2c8837fc8df","system_id":"levelo_inurba_marseille","lat":43.3064,"lon":5.40092,"is_reserved":false,"is_disabled":false,"rental_uris":{"android":"levelo://app?vid=e0eb485d-2610-4729-8aea-d2c8837fc8df","ios":"levelo://app?vid=e0eb485d-2610-4729-8aea-d2c8837fc8df"},"vehicle_type_id":"4","last_reported":1751055103,"current_range_meters":8400,"station_id":"ce4bh112rcd13ifvqda0","pricing_plan_id":"cebpf4jnsgd1na2vs0mg"},{"bike_id":"24edcf05-c81e-407d-9066-fcbabae89622","system_id":"levelo_inurba_marseille","lat":43.29554,"lon":5.42299,"is_reserved":false,"is_disabled":false,"rental_uris":{"android":"levelo://app?vid=24edcf05-c81e-407d-9066-fcbabae89622","ios":"levelo://app?vid=24edcf05-c81e-407d-9066-fcbabae89622"},"vehicle_type_id":"4","last_reported":1751055103,"current_range_meters":8400,"station_id":"ce4bhph2rcd13ifvqhdg","pricing_plan_id":"cebpf4jnsgd1na2vs0mg"},{"bike_id":"4b8da722-ee9e-48a4-a5e5-3a8a10364708","system_id":"levelo_inurba_marseille","lat":43.31225,"lon":5.37812,"is_reserved":false,"is_disabled":false,"rental_uris":{"android":"levelo://app?vid=4b8da722-ee9e-48a4-a5e5-3a8a10364708","ios":"levelo://app?vid=4b8da722-ee9e-48a4-a5e5-3a8a10364708"},"vehicle_type_id":"4","last_reported":1751055103,"current_range_meters":8800,"station_id":"","pricing_plan_id":"cebpf4jnsgd1na2vs0mg"},{"bike_id":"a20d17a3-df4a-4fa5-9dbf-58476d464160","system_id":"levelo_inurba_marseille","lat":43.28687,"lon":5.38669,"is_reserved":false,"is_disabled":false,"rental_uris":{"android":"levelo://app?vid=a20d17a3-df4a-4fa5-9dbf-58476d464160","ios":"levelo://app?vid=a20d17a3-df4a-4fa5-9dbf-58476d464160"},"vehicle_type_id":"4","last_reported":1751055103,"current_range_meters":8800,"station_id":"ce4bh492rcd13ifvqdug","pricing_plan_id":"cebpf4jnsgd1na2vs0mg"},{"bike_id":"d0947148-cbc8-4129-a1f3-1be5586a8472","system_id":"levelo_inurba_marseille","lat":43.25579,"lon":5.38232,"is_reserved":false,"is_disabled":false,"rental_uris":{"android":"levelo://app?vid=d0947148-cbc8-4129-a1f3-1be5586a8472","ios":"levelo://app?vid=d0947148-cbc8-4129-a1f3-1be5586a8472"},"vehicle_type_id":"4","last_reported":1751055103,"current_range_meters":8800,"station_id":"ce4bhih2rcd13ifvqfs0","pricing_plan_id":"cebpf4jnsgd1na2vs0mg"},{"bike_id":"27fc5a87-6293-4db0-831a-e4ce580b5c87","system_id":"levelo_inurba_marseille","lat":43.23154,"lon":5.43705,"is_reserved":false,"is_disabled":false,"rental_uris":{"android":"levelo://app?vid=27fc5a87-6293-4db0-831a-e4ce580b5c87","ios":"levelo://app?vid=27fc5a87-6293-4db0-831a-e4ce580b5c87"},"vehicle_type_id":"4","last_reported":1751055103,"current_range_meters":8800,"station_id":"ce4bhmp2rcd13ifvqgog","pricing_plan_id":"cebpf4jnsgd1na2vs0mg"},{"bike_id":"90b4d2ae-47a1-4744-8917-1491a5e2aea3","system_id":"levelo_inurba_marseille","lat":43.287593,"lon":5.448537,"is_reserved":false,"is_disabled":false,"rental_uris":{"android":"levelo://app?vid=90b4d2ae-47a1-4744-8917-1491a5e2aea3","ios":"levelo://app?vid=90b4d2ae-47a1-4744-8917-1491a5e2aea3"},"vehicle_type_id":"4","last_reported":1751055103,"current_range_meters":9200,"station_id":"","pricing_plan_id":"cebpf4jnsgd1na2vs0mg"},{"bike_id":"14cc6e30-3576-4198-94d1-622983fdb0bd","system_id":"levelo_inurba_marseille","lat":43.296148,"lon":5.377248,"is_reserved":false,"is_disabled":false,"rental_uris":{"android":"levelo://app?vid=14cc6e30-3576-4198-94d1-622983fdb0bd","ios":"levelo://app?vid=14cc6e30-3576-4198-94d1-622983fdb0bd"},"vehicle_type_id":"4","last_reported":1751055103,"current_range_meters":9200,"station_id":"ce4bgi92rcd13ifvqb90","pricing_plan_id":"cebpf4jnsgd1na2vs0mg"},{"bike_id":"8fb79ce0-e407-4ae0-850a-93d751d48002","system_id":"levelo_inurba_marseille","lat":43.305969,"lon":5.393678,"is_reserved":false,"is_disabled":false,"rental_uris":{"android":"levelo://app?vid=8fb79ce0-e407-4ae0-850a-93d751d48002","ios":"levelo://app?vid=8fb79ce0-e407-4ae0-850a-93d751d48002"},"vehicle_type_id":"4","last_reported":1751055103,"current_range_meters":9200,"station_id":"ce4bh0p2rcd13ifvqd80","pricing_plan_id":"cebpf4jnsgd1na2vs0mg"},{"bike_id":"66a06998-764e-4574-9336-21d12447656f","system_id":"levelo_inurba_marseille","lat":43.289398,"lon":5.366454,"is_reserved":false,"is_disabled":false,"rental_uris":{"android":"levelo://app?vid=66a06998-764e-4574-9336-21d12447656f","ios":"levelo://app?vid=66a06998-764e-4574-9336-21d12447656f"},"vehicle_type_id":"4","last_reported":1751055103,"current_range_meters":9200,"station_id":"ce4bhap2rcd13ifvqek0","pricing_plan_id":"cebpf4jnsgd1na2vs0mg"},{"bike_id":"16b45c25-add7-455c-b7bf-172ccfadcd9d","system_id":"levelo_inurba_marseille","lat":43.283557,"lon":5.432583,"is_reserved":false,"is_disabled":false,"rental_uris":{"android":"levelo://app?vid=16b45c25-add7-455c-b7bf-172ccfadcd9d","ios":"levelo://app?vid=16b45c25-add7-455c-b7bf-172ccfadcd9d"},"vehicle_type_id":"4","last_reported":1751055103,"current_range_meters":9600,"station_id":"","pricing_plan_id":"cebpf4jnsgd1na2vs0mg"},{"bike_id":"c66db330-69f2-4623-a751-6885f46ecb5c","system_id":"levelo_inurba_marseille","lat":43.2907,"lon":5.37173,"is_reserved":false,"is_disabled":false,"rental_uris":{"android":"levelo://app?vid=c66db330-69f2-4623-a751-6885f46ecb5c","ios":"levelo://app?vid=c66db330-69f2-4623-a751-6885f46ecb5c"},"vehicle_type_id":"4","last_reported":1751055103,"current_range_meters":9600,"station_id":"ce4bh5p2rcd13ifvqe4g","pricing_plan_id":"cebpf4jnsgd1na2vs0mg"},{"bike_id":"d02aa927-f70f-461f-a3cd-6aa2cb2ef16f","system_id":"levelo_inurba_marseille","lat":43.28418,"lon":5.34979,"is_reserved":false,"is_disabled":false,"rental_uris":{"android":"levelo://app?vid=d02aa927-f70f-461f-a3cd-6aa2cb2ef16f","ios":"levelo://app?vid=d02aa927-f70f-461f-a3cd-6aa2cb2ef16f"},"vehicle_type_id":"4","last_reported":1751055103,"current_range_meters":9600,"station_id":"ce4bhbh2rcd13ifvqepg","pricing_plan_id":"cebpf4jnsgd1na2vs0mg"},{"bike_id":"ec16d252-f037-49c1-901f-7879defe9fbc","system_id":"levelo_inurba_marseille","lat":43.29226,"lon":5.36068,"is_reserved":false,"is_disabled":false,"rental_uris":{"android":"levelo://app?vid=ec16d252-f037-49c1-901f-7879defe9fbc","ios":"levelo://app?vid=ec16d252-f037-49c1-901f-7879defe9fbc"},"vehicle_type_id":"4","last_reported":1751055103,"current_range_meters":9600,"station_id":"ce4bhbh2rcd13ifvqeqg","pricing_plan_id":"cebpf4jnsgd1na2vs0mg"},{"bike_id":"db4e5fe7-713b-4c88-9136-567047bee645","system_id":"levelo_inurba_marseille","lat":43.28626,"lon":5.35105,"is_reserved":false,"is_disabled":false,"rental_uris":{"android":"levelo://app?vid=db4e5fe7-713b-4c88-9136-567047bee645","ios":"levelo://app?vid=db4e5fe7-713b-4c88-9136-567047bee645"},"vehicle_type_id":"4","last_reported":1751055103,"current_range_meters":9600,"station_id":"ce4bhch2rcd13ifvqeug","pricing_plan_id":"cebpf4jnsgd1na2vs0mg"},{"bike_id":"d66f9820-dbe1-48f4-aa9f-86201b9dfae5","system_id":"levelo_inurba_marseille","lat":43.26783,"lon":5.39417,"is_reserved":false,"is_disabled":false,"rental_uris":{"android":"levelo://app?vid=d66f9820-dbe1-48f4-aa9f-86201b9dfae5","ios":"levelo://app?vid=d66f9820-dbe1-48f4-aa9f-86201b9dfae5"},"vehicle_type_id":"4","last_reported":1751055103,"current_range_meters":9600,"station_id":"ce4bhh12rcd13ifvqfg0","pricing_plan_id":"cebpf4jnsgd1na2vs0mg"},{"bike_id":"70849bcc-1264-4522-9f60-a5f973a99804","system_id":"levelo_inurba_marseille","lat":43.281678,"lon":5.426248,"is_reserved":false,"is_disabled":false,"rental_uris":{"android":"levelo://app?vid=70849bcc-1264-4522-9f60-a5f973a99804","ios":"levelo://app?vid=70849bcc-1264-4522-9f60-a5f973a99804"},"vehicle_type_id":"4","last_reported":1751055103,"current_range_meters":9600,"station_id":"ce4bhnh2rcd13ifvqgug","pricing_plan_id":"cebpf4jnsgd1na2vs0mg"},{"bike_id":"51c2bb9c-c6b3-43e0-8bf5-38d137059d30","system_id":"levelo_inurba_marseille","lat":43.32283,"lon":5.38254,"is_reserved":false,"is_disabled":false,"rental_uris":{"android":"levelo://app?vid=51c2bb9c-c6b3-43e0-8bf5-38d137059d30","ios":"levelo://app?vid=51c2bb9c-c6b3-43e0-8bf5-38d137059d30"},"vehicle_type_id":"4","last_reported":1751055103,"current_range_meters":9600,"station_id":"ce4bhr12rcd13ifvqhqg","pricing_plan_id":"cebpf4jnsgd1na2vs0mg"},{"bike_id":"b7d0d8a1-c5dd-4278-8b3b-f5786872fe32","system_id":"levelo_inurba_marseille","lat":43.32096,"lon":5.36771,"is_reserved":false,"is_disabled":false,"rental_uris":{"android":"levelo://app?vid=b7d0d8a1-c5dd-4278-8b3b-f5786872fe32","ios":"levelo://app?vid=b7d0d8a1-c5dd-4278-8b3b-f5786872fe32"},"vehicle_type_id":"4","last_reported":1751055103,"current_range_meters":9600,"station_id":"ce4bhrh2rcd13ifvqhug","pricing_plan_id":"cebpf4jnsgd1na2vs0mg"},{"bike_id":"2c3f94cf-e1e4-4ce8-a0cc-3c20c4ce3b62","system_id":"levelo_inurba_marseille","lat":43.29263,"lon":5.3844,"is_reserved":false,"is_disabled":false,"rental_uris":{"android":"levelo://app?vid=2c3f94cf-e1e4-4ce8-a0cc-3c20c4ce3b62","ios":"levelo://app?vid=2c3f94cf-e1e4-4ce8-a0cc-3c20c4ce3b62"},"vehicle_type_id":"4","last_reported":1751055103,"current_range_meters":10000,"station_id":"ce4bh692rcd13ifvqea0","pricing_plan_id":"cebpf4jnsgd1na2vs0mg"},{"bike_id":"df9d330a-cbd4-4597-b999-ed135ac2cc4e","system_id":"levelo_inurba_marseille","lat":43.28616,"lon":5.35103,"is_reserved":false,"is_disabled":false,"rental_uris":{"android":"levelo://app?vid=df9d330a-cbd4-4597-b999-ed135ac2cc4e","ios":"levelo://app?vid=df9d330a-cbd4-4597-b999-ed135ac2cc4e"},"vehicle_type_id":"4","last_reported":1751055103,"current_range_meters":10000,"station_id":"ce4bhch2rcd13ifvqeug","pricing_plan_id":"cebpf4jnsgd1na2vs0mg"},{"bike_id":"493405fb-a5bd-40e1-bb21-b83ce074332d","system_id":"levelo_inurba_marseille","lat":43.26556,"lon":5.37288,"is_reserved":false,"is_disabled":false,"rental_uris":{"android":"levelo://app?vid=493405fb-a5bd-40e1-bb21-b83ce074332d","ios":"levelo://app?vid=493405fb-a5bd-40e1-bb21-b83ce074332d"},"vehicle_type_id":"4","last_reported":1751055103,"current_range_meters":10000,"station_id":"ce4bhg12rcd13ifvqf70","pricing_plan_id":"cebpf4jnsgd1na2vs0mg"},{"bike_id":"a440f2f6-8cf8-4348-9ba1-e21002a18a07","system_id":"levelo_inurba_marseille","lat":43.32125,"lon":5.36738,"is_reserved":false,"is_disabled":false,"rental_uris":{"android":"levelo://app?vid=a440f2f6-8cf8-4348-9ba1-e21002a18a07","ios":"levelo://app?vid=a440f2f6-8cf8-4348-9ba1-e21002a18a07"},"vehicle_type_id":"4","last_reported":1751055103,"current_range_meters":10000,"station_id":"ce4bhrh2rcd13ifvqhug","pricing_plan_id":"cebpf4jnsgd1na2vs0mg"},{"bike_id":"d93518a7-acea-49d1-8b1d-66917831e25a","system_id":"levelo_inurba_marseille","lat":43.283691,"lon":5.395855,"is_reserved":false,"is_disabled":false,"rental_uris":{"android":"levelo://app?vid=d93518a7-acea-49d1-8b1d-66917831e25a","ios":"levelo://app?vid=d93518a7-acea-49d1-8b1d-66917831e25a"},"vehicle_type_id":"4","last_reported":1751055103,"current_range_meters":10800,"station_id":"","pricing_plan_id":"cebpf4jnsgd1na2vs0mg"},{"bike_id":"90cfedc5-c63f-4ce3-bdc7-613db318936d","system_id":"levelo_inurba_marseille","lat":43.307827,"lon":5.392247,"is_reserved":false,"is_disabled":false,"rental_uris":{"android":"levelo://app?vid=90cfedc5-c63f-4ce3-bdc7-613db318936d","ios":"levelo://app?vid=90cfedc5-c63f-4ce3-bdc7-613db318936d"},"vehicle_type_id":"4","last_reported":1751055103,"current_range_meters":10800,"station_id":"ce4bh192rcd13ifvqdb0","pricing_plan_id":"cebpf4jnsgd1na2vs0mg"},{"bike_id":"2507e381-b75e-4802-838b-d609dccdefae","system_id":"levelo_inurba_marseille","lat":43.27912,"lon":5.39585,"is_reserved":false,"is_disabled":false,"rental_uris":{"android":"levelo://app?vid=2507e381-b75e-4802-838b-d609dccdefae","ios":"levelo://app?vid=2507e381-b75e-4802-838b-d609dccdefae"},"vehicle_type_id":"4","last_reported":1751055103,"current_range_meters":10800,"station_id":"ce4bhf92rcd13ifvqf40","pricing_plan_id":"cebpf4jnsgd1na2vs0mg"},{"bike_id":"1c8ab180-05fd-405f-9922-b2b2c2d5142f","system_id":"levelo_inurba_marseille","lat":43.32119,"lon":5.36755,"is_reserved":false,"is_disabled":false,"rental_uris":{"android":"levelo://app?vid=1c8ab180-05fd-405f-9922-b2b2c2d5142f","ios":"levelo://app?vid=1c8ab180-05fd-405f-9922-b2b2c2d5142f"},"vehicle_type_id":"4","last_reported":1751055103,"current_range_meters":10800,"station_id":"ce4bhrh2rcd13ifvqhug","pricing_plan_id":"cebpf4jnsgd1na2vs0mg"},{"bike_id":"3e82f598-9d1d-4257-8afa-a4dc7305de09","system_id":"levelo_inurba_marseille","lat":43.211909,"lon":5.350759,"is_reserved":false,"is_disabled":false,"rental_uris":{"android":"levelo://app?vid=3e82f598-9d1d-4257-8afa-a4dc7305de09","ios":"levelo://app?vid=3e82f598-9d1d-4257-8afa-a4dc7305de09"},"vehicle_type_id":"4","last_reported":1751055103,"current_range_meters":10800,"station_id":"st_cvj6sg6p6f1abm77japg","pricing_plan_id":"cebpf4jnsgd1na2vs0mg"},{"bike_id":"ea0ee3a6-6157-4fd2-8400-82fd93995609","system_id":"levelo_inurba_marseille","lat":43.30612,"lon":5.37229,"is_reserved":false,"is_disabled":false,"rental_uris":{"android":"levelo://app?vid=ea0ee3a6-6157-4fd2-8400-82fd93995609","ios":"levelo://app?vid=ea0ee3a6-6157-4fd2-8400-82fd93995609"},"vehicle_type_id":"4","last_reported":1751055103,"current_range_meters":11200,"station_id":"ce4bgqh2rcd13ifvqc4g","pricing_plan_id":"cebpf4jnsgd1na2vs0mg"},{"bike_id":"6b30b444-7245-4a83-9f88-02bec4b6e017","system_id":"levelo_inurba_marseille","lat":43.26952,"lon":5.38632,"is_reserved":false,"is_disabled":false,"rental_uris":{"android":"levelo://app?vid=6b30b444-7245-4a83-9f88-02bec4b6e017","ios":"levelo://app?vid=6b30b444-7245-4a83-9f88-02bec4b6e017"},"vehicle_type_id":"4","last_reported":1751055103,"current_range_meters":11200,"station_id":"ce4bhh92rcd13ifvqfh0","pricing_plan_id":"cebpf4jnsgd1na2vs0mg"},{"bike_id":"5d5e13a4-10cc-485c-a362-06d02242e666","system_id":"levelo_inurba_marseille","lat":43.21209,"lon":5.35067,"is_reserved":false,"is_disabled":false,"rental_uris":{"android":"levelo://app?vid=5d5e13a4-10cc-485c-a362-06d02242e666","ios":"levelo://app?vid=5d5e13a4-10cc-485c-a362-06d02242e666"},"vehicle_type_id":"4","last_reported":1751055103,"current_range_meters":11200,"station_id":"st_cvj6sg6p6f1abm77japg","pricing_plan_id":"cebpf4jnsgd1na2vs0mg"},{"bike_id":"1afdbdc7-9d81-4e98-85e1-ee5984fde0af","system_id":"levelo_inurba_marseille","lat":43.29546,"lon":5.3826,"is_reserved":false,"is_disabled":false,"rental_uris":{"android":"levelo://app?vid=1afdbdc7-9d81-4e98-85e1-ee5984fde0af","ios":"levelo://app?vid=1afdbdc7-9d81-4e98-85e1-ee5984fde0af"},"vehicle_type_id":"4","last_reported":1751055103,"current_range_meters":11600,"station_id":"","pricing_plan_id":"cebpf4jnsgd1na2vs0mg"},{"bike_id":"5a01ae6d-9064-484c-8d77-2d9e141e2313","system_id":"levelo_inurba_marseille","lat":43.24483,"lon":5.39013,"is_reserved":false,"is_disabled":false,"rental_uris":{"android":"levelo://app?vid=5a01ae6d-9064-484c-8d77-2d9e141e2313","ios":"levelo://app?vid=5a01ae6d-9064-484c-8d77-2d9e141e2313"},"vehicle_type_id":"4","last_reported":1751055103,"current_range_meters":11600,"station_id":"","pricing_plan_id":"cebpf4jnsgd1na2vs0mg"},{"bike_id":"f4d4a6af-7fb3-4bea-918e-3557b55d132b","system_id":"levelo_inurba_marseille","lat":43.2952,"lon":5.39041,"is_reserved":false,"is_disabled":false,"rental_uris":{"android":"levelo://app?vid=f4d4a6af-7fb3-4bea-918e-3557b55d132b","ios":"levelo://app?vid=f4d4a6af-7fb3-4bea-918e-3557b55d132b"},"vehicle_type_id":"4","last_reported":1751055103,"current_range_meters":11600,"station_id":"ce4bh3p2rcd13ifvqdp0","pricing_plan_id":"cebpf4jnsgd1na2vs0mg"},{"bike_id":"8937e58e-5703-49d9-b2d6-6f0a04b19c36","system_id":"levelo_inurba_marseille","lat":43.28616,"lon":5.35098,"is_reserved":false,"is_disabled":false,"rental_uris":{"android":"levelo://app?vid=8937e58e-5703-49d9-b2d6-6f0a04b19c36","ios":"levelo://app?vid=8937e58e-5703-49d9-b2d6-6f0a04b19c36"},"vehicle_type_id":"4","last_reported":1751055103,"current_range_meters":11600,"station_id":"ce4bhch2rcd13ifvqeug","pricing_plan_id":"cebpf4jnsgd1na2vs0mg"},{"bike_id":"1a20e0a7-ad53-446e-b075-0d7cf86547b6","system_id":"levelo_inurba_marseille","lat":43.28445,"lon":5.39205,"is_reserved":false,"is_disabled":false,"rental_uris":{"android":"levelo://app?vid=1a20e0a7-ad53-446e-b075-0d7cf86547b6","ios":"levelo://app?vid=1a20e0a7-ad53-446e-b075-0d7cf86547b6"},"vehicle_type_id":"4","last_reported":1751055103,"current_range_meters":11600,"station_id":"ce4bhoh2rcd13ifvqh5g","pricing_plan_id":"cebpf4jnsgd1na2vs0mg"},{"bike_id":"3bd225d9-6402-4160-bf65-f705231a213d","system_id":"levelo_inurba_marseille","lat":43.29422,"lon":5.38615,"is_reserved":false,"is_disabled":false,"rental_uris":{"android":"levelo://app?vid=3bd225d9-6402-4160-bf65-f705231a213d","ios":"levelo://app?vid=3bd225d9-6402-4160-bf65-f705231a213d"},"vehicle_type_id":"4","last_reported":1751055103,"current_range_meters":12000,"station_id":"ce4bh2h2rcd13ifvqdh0","pricing_plan_id":"cebpf4jnsgd1na2vs0mg"},{"bike_id":"c80df0ca-defb-4524-85b1-0cc8dcb714fa","system_id":"levelo_inurba_marseille","lat":43.33007,"lon":5.39105,"is_reserved":false,"is_disabled":false,"rental_uris":{"android":"levelo://app?vid=c80df0ca-defb-4524-85b1-0cc8dcb714fa","ios":"levelo://app?vid=c80df0ca-defb-4524-85b1-0cc8dcb714fa"},"vehicle_type_id":"4","last_reported":1751055103,"current_range_meters":12000,"station_id":"ce4bhr92rcd13ifvqhrg","pricing_plan_id":"cebpf4jnsgd1na2vs0mg"},{"bike_id":"e5ae1fdd-ad1c-4e69-ac70-f715e6402e6b","system_id":"levelo_inurba_marseille","lat":43.27732,"lon":5.398716,"is_reserved":false,"is_disabled":false,"rental_uris":{"android":"levelo://app?vid=e5ae1fdd-ad1c-4e69-ac70-f715e6402e6b","ios":"levelo://app?vid=e5ae1fdd-ad1c-4e69-ac70-f715e6402e6b"},"vehicle_type_id":"4","last_reported":1751055103,"current_range_meters":12400,"station_id":"","pricing_plan_id":"cebpf4jnsgd1na2vs0mg"},{"bike_id":"ba91ee25-c5af-4a9e-9fa4-90915a0ec93b","system_id":"levelo_inurba_marseille","lat":43.28568,"lon":5.39493,"is_reserved":false,"is_disabled":false,"rental_uris":{"android":"levelo://app?vid=ba91ee25-c5af-4a9e-9fa4-90915a0ec93b","ios":"levelo://app?vid=ba91ee25-c5af-4a9e-9fa4-90915a0ec93b"},"vehicle_type_id":"4","last_reported":1751055103,"current_range_meters":12400,"station_id":"ce4bh292rcd13ifvqdg0","pricing_plan_id":"cebpf4jnsgd1na2vs0mg"},{"bike_id":"4ef5fc6b-48df-4f63-beb0-55e725b6f9c1","system_id":"levelo_inurba_marseille","lat":43.28439,"lon":5.39196,"is_reserved":false,"is_disabled":false,"rental_uris":{"android":"levelo://app?vid=4ef5fc6b-48df-4f63-beb0-55e725b6f9c1","ios":"levelo://app?vid=4ef5fc6b-48df-4f63-beb0-55e725b6f9c1"},"vehicle_type_id":"4","last_reported":1751055103,"current_range_meters":12400,"station_id":"ce4bhoh2rcd13ifvqh5g","pricing_plan_id":"cebpf4jnsgd1na2vs0mg"},{"bike_id":"db87bbf7-9c69-44d5-bf18-e2ccd0733553","system_id":"levelo_inurba_marseille","lat":43.2417,"lon":5.36396,"is_reserved":false,"is_disabled":false,"rental_uris":{"android":"levelo://app?vid=db87bbf7-9c69-44d5-bf18-e2ccd0733553","ios":"levelo://app?vid=db87bbf7-9c69-44d5-bf18-e2ccd0733553"},"vehicle_type_id":"4","last_reported":1751055103,"current_range_meters":12400,"station_id":"cpo36qri1sfpv3e86is0","pricing_plan_id":"cebpf4jnsgd1na2vs0mg"},{"bike_id":"46fc1da8-b21e-49ec-9f51-bd3892d403d9","system_id":"levelo_inurba_marseille","lat":43.24169,"lon":5.36399,"is_reserved":false,"is_disabled":false,"rental_uris":{"android":"levelo://app?vid=46fc1da8-b21e-49ec-9f51-bd3892d403d9","ios":"levelo://app?vid=46fc1da8-b21e-49ec-9f51-bd3892d403d9"},"vehicle_type_id":"4","last_reported":1751055103,"current_range_meters":12400,"station_id":"cpo36qri1sfpv3e86is0","pricing_plan_id":"cebpf4jnsgd1na2vs0mg"},{"bike_id":"348bfdaf-a065-4923-ab7d-e94366c51f5e","system_id":"levelo_inurba_marseille","lat":43.31119,"lon":5.3778,"is_reserved":false,"is_disabled":false,"rental_uris":{"android":"levelo://app?vid=348bfdaf-a065-4923-ab7d-e94366c51f5e","ios":"levelo://app?vid=348bfdaf-a065-4923-ab7d-e94366c51f5e"},"vehicle_type_id":"4","last_reported":1751055103,"current_range_meters":12800,"station_id":"ce4bgt92rcd13ifvqcg0","pricing_plan_id":"cebpf4jnsgd1na2vs0mg"},{"bike_id":"f0057ca2-de2d-4464-8902-068dc3677e00","system_id":"levelo_inurba_marseille","lat":43.21194,"lon":5.35065,"is_reserved":false,"is_disabled":false,"rental_uris":{"android":"levelo://app?vid=f0057ca2-de2d-4464-8902-068dc3677e00","ios":"levelo://app?vid=f0057ca2-de2d-4464-8902-068dc3677e00"},"vehicle_type_id":"4","last_reported":1751055103,"current_range_meters":12800,"station_id":"st_cvj6sg6p6f1abm77japg","pricing_plan_id":"cebpf4jnsgd1na2vs0mg"},{"bike_id":"bb69c1e1-7084-4be7-966a-57a7bcdfcb6c","system_id":"levelo_inurba_marseille","lat":43.24646,"lon":5.41561,"is_reserved":false,"is_disabled":false,"rental_uris":{"android":"levelo://app?vid=bb69c1e1-7084-4be7-966a-57a7bcdfcb6c","ios":"levelo://app?vid=bb69c1e1-7084-4be7-966a-57a7bcdfcb6c"},"vehicle_type_id":"4","last_reported":1751055103,"current_range_meters":13600,"station_id":"","pricing_plan_id":"cebpf4jnsgd1na2vs0mg"},{"bike_id":"4cce5eb4-c193-4254-bc90-d091f1317860","system_id":"levelo_inurba_marseille","lat":43.2894,"lon":5.36632,"is_reserved":false,"is_disabled":false,"rental_uris":{"android":"levelo://app?vid=4cce5eb4-c193-4254-bc90-d091f1317860","ios":"levelo://app?vid=4cce5eb4-c193-4254-bc90-d091f1317860"},"vehicle_type_id":"4","last_reported":1751055103,"current_range_meters":13600,"station_id":"ce4bhap2rcd13ifvqek0","pricing_plan_id":"cebpf4jnsgd1na2vs0mg"},{"bike_id":"ee832b73-5af5-474f-a657-50bad234bc8a","system_id":"levelo_inurba_marseille","lat":43.284104,"lon":5.349835,"is_reserved":false,"is_disabled":false,"rental_uris":{"android":"levelo://app?vid=ee832b73-5af5-474f-a657-50bad234bc8a","ios":"levelo://app?vid=ee832b73-5af5-474f-a657-50bad234bc8a"},"vehicle_type_id":"4","last_reported":1751055103,"current_range_meters":13600,"station_id":"ce4bhbh2rcd13ifvqepg","pricing_plan_id":"cebpf4jnsgd1na2vs0mg"},{"bike_id":"cd158bdf-8d65-4aa4-a2a1-37b39065d25a","system_id":"levelo_inurba_marseille","lat":43.26573,"lon":5.37266,"is_reserved":false,"is_disabled":false,"rental_uris":{"android":"levelo://app?vid=cd158bdf-8d65-4aa4-a2a1-37b39065d25a","ios":"levelo://app?vid=cd158bdf-8d65-4aa4-a2a1-37b39065d25a"},"vehicle_type_id":"4","last_reported":1751055103,"current_range_meters":13600,"station_id":"ce4bhg12rcd13ifvqf70","pricing_plan_id":"cebpf4jnsgd1na2vs0mg"},{"bike_id":"20bc73ca-4e08-430e-9c88-269241f579d2","system_id":"levelo_inurba_marseille","lat":43.26557,"lon":5.37284,"is_reserved":false,"is_disabled":false,"rental_uris":{"android":"levelo://app?vid=20bc73ca-4e08-430e-9c88-269241f579d2","ios":"levelo://app?vid=20bc73ca-4e08-430e-9c88-269241f579d2"},"vehicle_type_id":"4","last_reported":1751055103,"current_range_meters":13600,"station_id":"ce4bhg12rcd13ifvqf70","pricing_plan_id":"cebpf4jnsgd1na2vs0mg"},{"bike_id":"7dfc5216-abd2-4eb0-aa98-27c7a95c769d","system_id":"levelo_inurba_marseille","lat":43.22922,"lon":5.35342,"is_reserved":false,"is_disabled":false,"rental_uris":{"android":"levelo://app?vid=7dfc5216-abd2-4eb0-aa98-27c7a95c769d","ios":"levelo://app?vid=7dfc5216-abd2-4eb0-aa98-27c7a95c769d"},"vehicle_type_id":"4","last_reported":1751055103,"current_range_meters":13600,"station_id":"cpo3532slgdg3j2ikp40","pricing_plan_id":"cebpf4jnsgd1na2vs0mg"},{"bike_id":"2a9a5366-8dad-42f1-bee6-ffb042c54776","system_id":"levelo_inurba_marseille","lat":43.211888,"lon":5.35075,"is_reserved":false,"is_disabled":false,"rental_uris":{"android":"levelo://app?vid=2a9a5366-8dad-42f1-bee6-ffb042c54776","ios":"levelo://app?vid=2a9a5366-8dad-42f1-bee6-ffb042c54776"},"vehicle_type_id":"4","last_reported":1751055103,"current_range_meters":13600,"station_id":"st_cvj6sg6p6f1abm77japg","pricing_plan_id":"cebpf4jnsgd1na2vs0mg"},{"bike_id":"4d83bcde-c879-4a93-8a86-c61ee6e9a886","system_id":"levelo_inurba_marseille","lat":43.30141,"lon":5.37409,"is_reserved":false,"is_disabled":false,"rental_uris":{"android":"levelo://app?vid=4d83bcde-c879-4a93-8a86-c61ee6e9a886","ios":"levelo://app?vid=4d83bcde-c879-4a93-8a86-c61ee6e9a886"},"vehicle_type_id":"4","last_reported":1751055103,"current_range_meters":14000,"station_id":"ce4bgs92rcd13ifvqcc0","pricing_plan_id":"cebpf4jnsgd1na2vs0mg"},{"bike_id":"f9ada511-30f4-471c-beea-0089c3329e2d","system_id":"levelo_inurba_marseille","lat":43.27664,"lon":5.38881,"is_reserved":false,"is_disabled":false,"rental_uris":{"android":"levelo://app?vid=f9ada511-30f4-471c-beea-0089c3329e2d","ios":"levelo://app?vid=f9ada511-30f4-471c-beea-0089c3329e2d"},"vehicle_type_id":"4","last_reported":1751055103,"current_range_meters":14000,"station_id":"ce4bhi12rcd13ifvqfo0","pricing_plan_id":"cebpf4jnsgd1na2vs0mg"},{"bike_id":"cd1bc6c1-6b6c-49cc-81a7-97fdf0f3a681","system_id":"levelo_inurba_marseille","lat":43.24064,"lon":5.377985,"is_reserved":false,"is_disabled":false,"rental_uris":{"android":"levelo://app?vid=cd1bc6c1-6b6c-49cc-81a7-97fdf0f3a681","ios":"levelo://app?vid=cd1bc6c1-6b6c-49cc-81a7-97fdf0f3a681"},"vehicle_type_id":"4","last_reported":1751055103,"current_range_meters":14000,"station_id":"ce4bhnp2rcd13ifvqgvg","pricing_plan_id":"cebpf4jnsgd1na2vs0mg"},{"bike_id":"6910b214-f4f8-4108-ba03-c3a5bc8e06b5","system_id":"levelo_inurba_marseille","lat":43.32283,"lon":5.38275,"is_reserved":false,"is_disabled":false,"rental_uris":{"android":"levelo://app?vid=6910b214-f4f8-4108-ba03-c3a5bc8e06b5","ios":"levelo://app?vid=6910b214-f4f8-4108-ba03-c3a5bc8e06b5"},"vehicle_type_id":"4","last_reported":1751055103,"current_range_meters":14000,"station_id":"ce4bhr12rcd13ifvqhqg","pricing_plan_id":"cebpf4jnsgd1na2vs0mg"},{"bike_id":"d5e70777-ad97-4594-91b6-43ede9611b14","system_id":"levelo_inurba_marseille","lat":43.32109,"lon":5.36734,"is_reserved":false,"is_disabled":false,"rental_uris":{"android":"levelo://app?vid=d5e70777-ad97-4594-91b6-43ede9611b14","ios":"levelo://app?vid=d5e70777-ad97-4594-91b6-43ede9611b14"},"vehicle_type_id":"4","last_reported":1751055103,"current_range_meters":14000,"station_id":"ce4bhrh2rcd13ifvqhug","pricing_plan_id":"cebpf4jnsgd1na2vs0mg"},{"bike_id":"2c72c9b1-564b-478a-b039-4fb6c52967cc","system_id":"levelo_inurba_marseille","lat":43.27467,"lon":5.41088,"is_reserved":false,"is_disabled":false,"rental_uris":{"android":"levelo://app?vid=2c72c9b1-564b-478a-b039-4fb6c52967cc","ios":"levelo://app?vid=2c72c9b1-564b-478a-b039-4fb6c52967cc"},"vehicle_type_id":"4","last_reported":1751055103,"current_range_meters":14400,"station_id":"","pricing_plan_id":"cebpf4jnsgd1na2vs0mg"},{"bike_id":"36725553-9ea8-44a3-8616-e6433d5e3f13","system_id":"levelo_inurba_marseille","lat":43.28936,"lon":5.36637,"is_reserved":false,"is_disabled":false,"rental_uris":{"android":"levelo://app?vid=36725553-9ea8-44a3-8616-e6433d5e3f13","ios":"levelo://app?vid=36725553-9ea8-44a3-8616-e6433d5e3f13"},"vehicle_type_id":"4","last_reported":1751055103,"current_range_meters":14400,"station_id":"ce4bhap2rcd13ifvqek0","pricing_plan_id":"cebpf4jnsgd1na2vs0mg"},{"bike_id":"23c0967d-28ff-4202-baea-4e7951491e94","system_id":"levelo_inurba_marseille","lat":43.25576,"lon":5.38231,"is_reserved":false,"is_disabled":false,"rental_uris":{"android":"levelo://app?vid=23c0967d-28ff-4202-baea-4e7951491e94","ios":"levelo://app?vid=23c0967d-28ff-4202-baea-4e7951491e94"},"vehicle_type_id":"4","last_reported":1751055103,"current_range_meters":14400,"station_id":"ce4bhih2rcd13ifvqfs0","pricing_plan_id":"cebpf4jnsgd1na2vs0mg"},{"bike_id":"13726ea4-91b3-4b24-87ce-db653217d50c","system_id":"levelo_inurba_marseille","lat":43.32376,"lon":5.36758,"is_reserved":false,"is_disabled":false,"rental_uris":{"android":"levelo://app?vid=13726ea4-91b3-4b24-87ce-db653217d50c","ios":"levelo://app?vid=13726ea4-91b3-4b24-87ce-db653217d50c"},"vehicle_type_id":"4","last_reported":1751055103,"current_range_meters":14400,"station_id":"ce4bhsh2rcd13ifvqi2g","pricing_plan_id":"cebpf4jnsgd1na2vs0mg"},{"bike_id":"e6ce70f7-9138-485c-a4db-2c9174614cff","system_id":"levelo_inurba_marseille","lat":43.31775,"lon":5.36851,"is_reserved":false,"is_disabled":false,"rental_uris":{"android":"levelo://app?vid=e6ce70f7-9138-485c-a4db-2c9174614cff","ios":"levelo://app?vid=e6ce70f7-9138-485c-a4db-2c9174614cff"},"vehicle_type_id":"4","last_reported":1751055103,"current_range_meters":14800,"station_id":"","pricing_plan_id":"cebpf4jnsgd1na2vs0mg"},{"bike_id":"bbc4a376-bee7-4ad5-a49a-1022d27c1489","system_id":"levelo_inurba_marseille","lat":43.32104,"lon":5.3679,"is_reserved":false,"is_disabled":false,"rental_uris":{"android":"levelo://app?vid=bbc4a376-bee7-4ad5-a49a-1022d27c1489","ios":"levelo://app?vid=bbc4a376-bee7-4ad5-a49a-1022d27c1489"},"vehicle_type_id":"4","last_reported":1751055103,"current_range_meters":14800,"station_id":"ce4bhrh2rcd13ifvqhug","pricing_plan_id":"cebpf4jnsgd1na2vs0mg"},{"bike_id":"7f1cb010-b1f9-4ff2-84a2-7918f380806d","system_id":"levelo_inurba_marseille","lat":43.2319,"lon":5.35552,"is_reserved":false,"is_disabled":false,"rental_uris":{"android":"levelo://app?vid=7f1cb010-b1f9-4ff2-84a2-7918f380806d","ios":"levelo://app?vid=7f1cb010-b1f9-4ff2-84a2-7918f380806d"},"vehicle_type_id":"4","last_reported":1751055103,"current_range_meters":14800,"station_id":"ce4bhu92rcd13ifvqi70","pricing_plan_id":"cebpf4jnsgd1na2vs0mg"},{"bike_id":"8fe67db1-be80-4fd6-b963-650a419e7a7d","system_id":"levelo_inurba_marseille","lat":43.2926,"lon":5.38442,"is_reserved":false,"is_disabled":false,"rental_uris":{"android":"levelo://app?vid=8fe67db1-be80-4fd6-b963-650a419e7a7d","ios":"levelo://app?vid=8fe67db1-be80-4fd6-b963-650a419e7a7d"},"vehicle_type_id":"4","last_reported":1751055103,"current_range_meters":15200,"station_id":"ce4bh692rcd13ifvqea0","pricing_plan_id":"cebpf4jnsgd1na2vs0mg"},{"bike_id":"387e373c-f790-4076-bdab-f91e310425bf","system_id":"levelo_inurba_marseille","lat":43.28423,"lon":5.34972,"is_reserved":false,"is_disabled":false,"rental_uris":{"android":"levelo://app?vid=387e373c-f790-4076-bdab-f91e310425bf","ios":"levelo://app?vid=387e373c-f790-4076-bdab-f91e310425bf"},"vehicle_type_id":"4","last_reported":1751055103,"current_range_meters":15200,"station_id":"ce4bhbh2rcd13ifvqepg","pricing_plan_id":"cebpf4jnsgd1na2vs0mg"},{"bike_id":"17b4ba63-9e2d-4064-b7f0-711ac34330d7","system_id":"levelo_inurba_marseille","lat":43.24802,"lon":5.3746,"is_reserved":false,"is_disabled":false,"rental_uris":{"android":"levelo://app?vid=17b4ba63-9e2d-4064-b7f0-711ac34330d7","ios":"levelo://app?vid=17b4ba63-9e2d-4064-b7f0-711ac34330d7"},"vehicle_type_id":"4","last_reported":1751055103,"current_range_meters":15200,"station_id":"ce4bhgh2rcd13ifvqfb0","pricing_plan_id":"cebpf4jnsgd1na2vs0mg"},{"bike_id":"815201a7-dbbe-4827-ab77-bd49f80ea5ee","system_id":"levelo_inurba_marseille","lat":43.297695,"lon":5.459955,"is_reserved":false,"is_disabled":false,"rental_uris":{"android":"levelo://app?vid=815201a7-dbbe-4827-ab77-bd49f80ea5ee","ios":"levelo://app?vid=815201a7-dbbe-4827-ab77-bd49f80ea5ee"},"vehicle_type_id":"4","last_reported":1751055103,"current_range_meters":16000,"station_id":"","pricing_plan_id":"cebpf4jnsgd1na2vs0mg"},{"bike_id":"75478481-148c-40d5-be7f-3f99343084f8","system_id":"levelo_inurba_marseille","lat":43.29259,"lon":5.38436,"is_reserved":false,"is_disabled":false,"rental_uris":{"android":"levelo://app?vid=75478481-148c-40d5-be7f-3f99343084f8","ios":"levelo://app?vid=75478481-148c-40d5-be7f-3f99343084f8"},"vehicle_type_id":"4","last_reported":1751055103,"current_range_meters":16000,"station_id":"ce4bh692rcd13ifvqea0","pricing_plan_id":"cebpf4jnsgd1na2vs0mg"},{"bike_id":"87dc51b1-7db4-46a7-b84f-5173edfa7491","system_id":"levelo_inurba_marseille","lat":43.27373,"lon":5.36255,"is_reserved":false,"is_disabled":false,"rental_uris":{"android":"levelo://app?vid=87dc51b1-7db4-46a7-b84f-5173edfa7491","ios":"levelo://app?vid=87dc51b1-7db4-46a7-b84f-5173edfa7491"},"vehicle_type_id":"4","last_reported":1751055103,"current_range_meters":16000,"station_id":"ce4bhbh2rcd13ifvqeo0","pricing_plan_id":"cebpf4jnsgd1na2vs0mg"},{"bike_id":"7bfebeed-a687-45ba-924f-1a4f2c2b55bd","system_id":"levelo_inurba_marseille","lat":43.28413,"lon":5.34983,"is_reserved":false,"is_disabled":false,"rental_uris":{"android":"levelo://app?vid=7bfebeed-a687-45ba-924f-1a4f2c2b55bd","ios":"levelo://app?vid=7bfebeed-a687-45ba-924f-1a4f2c2b55bd"},"vehicle_type_id":"4","last_reported":1751055103,"current_range_meters":16000,"station_id":"ce4bhbh2rcd13ifvqepg","pricing_plan_id":"cebpf4jnsgd1na2vs0mg"},{"bike_id":"71d6a1c4-f74c-4b31-aca4-3cb7a5edbeaf","system_id":"levelo_inurba_marseille","lat":43.29872,"lon":5.39712,"is_reserved":false,"is_disabled":false,"rental_uris":{"android":"levelo://app?vid=71d6a1c4-f74c-4b31-aca4-3cb7a5edbeaf","ios":"levelo://app?vid=71d6a1c4-f74c-4b31-aca4-3cb7a5edbeaf"},"vehicle_type_id":"4","last_reported":1751055103,"current_range_meters":16400,"station_id":"ce4bh0h2rcd13ifvqd50","pricing_plan_id":"cebpf4jnsgd1na2vs0mg"},{"bike_id":"b3690e8f-7413-493b-aab6-5c818563eb39","system_id":"levelo_inurba_marseille","lat":43.298706,"lon":5.389096,"is_reserved":false,"is_disabled":false,"rental_uris":{"android":"levelo://app?vid=b3690e8f-7413-493b-aab6-5c818563eb39","ios":"levelo://app?vid=b3690e8f-7413-493b-aab6-5c818563eb39"},"vehicle_type_id":"4","last_reported":1751055103,"current_range_meters":16400,"station_id":"ce4bh392rcd13ifvqdl0","pricing_plan_id":"cebpf4jnsgd1na2vs0mg"},{"bike_id":"f2e28940-60cf-434f-9d12-d8c8f10d0e58","system_id":"levelo_inurba_marseille","lat":43.29522,"lon":5.39051,"is_reserved":false,"is_disabled":false,"rental_uris":{"android":"levelo://app?vid=f2e28940-60cf-434f-9d12-d8c8f10d0e58","ios":"levelo://app?vid=f2e28940-60cf-434f-9d12-d8c8f10d0e58"},"vehicle_type_id":"4","last_reported":1751055103,"current_range_meters":16400,"station_id":"ce4bh3p2rcd13ifvqdp0","pricing_plan_id":"cebpf4jnsgd1na2vs0mg"},{"bike_id":"2dd7f7ee-37a8-4909-b598-2b16e0412795","system_id":"levelo_inurba_marseille","lat":43.29019,"lon":5.38128,"is_reserved":false,"is_disabled":false,"rental_uris":{"android":"levelo://app?vid=2dd7f7ee-37a8-4909-b598-2b16e0412795","ios":"levelo://app?vid=2dd7f7ee-37a8-4909-b598-2b16e0412795"},"vehicle_type_id":"4","last_reported":1751055103,"current_range_meters":16400,"station_id":"ce4bh4p2rcd13ifvqe1g","pricing_plan_id":"cebpf4jnsgd1na2vs0mg"},{"bike_id":"556ae7af-80de-42ea-aaee-70a19d2c053c","system_id":"levelo_inurba_marseille","lat":43.29237,"lon":5.36055,"is_reserved":false,"is_disabled":false,"rental_uris":{"android":"levelo://app?vid=556ae7af-80de-42ea-aaee-70a19d2c053c","ios":"levelo://app?vid=556ae7af-80de-42ea-aaee-70a19d2c053c"},"vehicle_type_id":"4","last_reported":1751055103,"current_range_meters":16400,"station_id":"ce4bhbh2rcd13ifvqeqg","pricing_plan_id":"cebpf4jnsgd1na2vs0mg"},{"bike_id":"d74d7be5-ba54-4d68-9cdb-a520d677c267","system_id":"levelo_inurba_marseille","lat":43.23208,"lon":5.35513,"is_reserved":false,"is_disabled":false,"rental_uris":{"android":"levelo://app?vid=d74d7be5-ba54-4d68-9cdb-a520d677c267","ios":"levelo://app?vid=d74d7be5-ba54-4d68-9cdb-a520d677c267"},"vehicle_type_id":"4","last_reported":1751055103,"current_range_meters":16400,"station_id":"ce4bhu92rcd13ifvqi70","pricing_plan_id":"cebpf4jnsgd1na2vs0mg"},{"bike_id":"735fb3ec-51d3-42a0-b0e0-35a6ef148211","system_id":"levelo_inurba_marseille","lat":43.307974,"lon":5.368604,"is_reserved":false,"is_disabled":false,"rental_uris":{"android":"levelo://app?vid=735fb3ec-51d3-42a0-b0e0-35a6ef148211","ios":"levelo://app?vid=735fb3ec-51d3-42a0-b0e0-35a6ef148211"},"vehicle_type_id":"4","last_reported":1751055103,"current_range_meters":16800,"station_id":"","pricing_plan_id":"cebpf4jnsgd1na2vs0mg"},{"bike_id":"721165c1-ef6f-40cc-8d33-af3a7999864b","system_id":"levelo_inurba_marseille","lat":43.32683,"lon":5.37827,"is_reserved":false,"is_disabled":false,"rental_uris":{"android":"levelo://app?vid=721165c1-ef6f-40cc-8d33-af3a7999864b","ios":"levelo://app?vid=721165c1-ef6f-40cc-8d33-af3a7999864b"},"vehicle_type_id":"4","last_reported":1751055103,"current_range_meters":16800,"station_id":"","pricing_plan_id":"cebpf4jnsgd1na2vs0mg"},{"bike_id":"535e1558-2d9e-4b3d-8f68-2ca4a31d6cc3","system_id":"levelo_inurba_marseille","lat":43.30542,"lon":5.36551,"is_reserved":false,"is_disabled":false,"rental_uris":{"android":"levelo://app?vid=535e1558-2d9e-4b3d-8f68-2ca4a31d6cc3","ios":"levelo://app?vid=535e1558-2d9e-4b3d-8f68-2ca4a31d6cc3"},"vehicle_type_id":"4","last_reported":1751055103,"current_range_meters":16800,"station_id":"ce4bgs12rcd13ifvqcag","pricing_plan_id":"cebpf4jnsgd1na2vs0mg"},{"bike_id":"ca1c2dc7-875a-4563-8b41-4aa30df4a6f8","system_id":"levelo_inurba_marseille","lat":43.28413,"lon":5.34983,"is_reserved":false,"is_disabled":false,"rental_uris":{"android":"levelo://app?vid=ca1c2dc7-875a-4563-8b41-4aa30df4a6f8","ios":"levelo://app?vid=ca1c2dc7-875a-4563-8b41-4aa30df4a6f8"},"vehicle_type_id":"4","last_reported":1751055103,"current_range_meters":16800,"station_id":"ce4bhbh2rcd13ifvqepg","pricing_plan_id":"cebpf4jnsgd1na2vs0mg"},{"bike_id":"81115363-d7ba-42ce-969b-a1d7ad97fa06","system_id":"levelo_inurba_marseille","lat":43.33726,"lon":5.39152,"is_reserved":false,"is_disabled":false,"rental_uris":{"android":"levelo://app?vid=81115363-d7ba-42ce-969b-a1d7ad97fa06","ios":"levelo://app?vid=81115363-d7ba-42ce-969b-a1d7ad97fa06"},"vehicle_type_id":"4","last_reported":1751055103,"current_range_meters":16800,"station_id":"ce4bhr92rcd13ifvqhsg","pricing_plan_id":"cebpf4jnsgd1na2vs0mg"},{"bike_id":"06053835-4a3b-421d-9906-d3866bfde971","system_id":"levelo_inurba_marseille","lat":43.28605,"lon":5.37067,"is_reserved":false,"is_disabled":false,"rental_uris":{"android":"levelo://app?vid=06053835-4a3b-421d-9906-d3866bfde971","ios":"levelo://app?vid=06053835-4a3b-421d-9906-d3866bfde971"},"vehicle_type_id":"4","last_reported":1751055103,"current_range_meters":16800,"station_id":"ce4bht12rcd13ifvqi60","pricing_plan_id":"cebpf4jnsgd1na2vs0mg"},{"bike_id":"f1ff92a8-5c11-4ada-9288-1fbc0651bc7b","system_id":"levelo_inurba_marseille","lat":43.28845,"lon":5.43848,"is_reserved":false,"is_disabled":false,"rental_uris":{"android":"levelo://app?vid=f1ff92a8-5c11-4ada-9288-1fbc0651bc7b","ios":"levelo://app?vid=f1ff92a8-5c11-4ada-9288-1fbc0651bc7b"},"vehicle_type_id":"4","last_reported":1751055103,"current_range_meters":17200,"station_id":"","pricing_plan_id":"cebpf4jnsgd1na2vs0mg"},{"bike_id":"52ccc76d-5e6f-4cd8-8a42-6bfb5aaa07c6","system_id":"levelo_inurba_marseille","lat":43.30139,"lon":5.38781,"is_reserved":false,"is_disabled":false,"rental_uris":{"android":"levelo://app?vid=52ccc76d-5e6f-4cd8-8a42-6bfb5aaa07c6","ios":"levelo://app?vid=52ccc76d-5e6f-4cd8-8a42-6bfb5aaa07c6"},"vehicle_type_id":"4","last_reported":1751055103,"current_range_meters":17200,"station_id":"ce4bghh2rcd13ifvqb60","pricing_plan_id":"cebpf4jnsgd1na2vs0mg"},{"bike_id":"90cde355-6bf3-4d3b-9da2-935aa2288b57","system_id":"levelo_inurba_marseille","lat":43.30143,"lon":5.38077,"is_reserved":false,"is_disabled":false,"rental_uris":{"android":"levelo://app?vid=90cde355-6bf3-4d3b-9da2-935aa2288b57","ios":"levelo://app?vid=90cde355-6bf3-4d3b-9da2-935aa2288b57"},"vehicle_type_id":"4","last_reported":1751055103,"current_range_meters":17200,"station_id":"ce4bgjp2rcd13ifvqbh0","pricing_plan_id":"cebpf4jnsgd1na2vs0mg"},{"bike_id":"d5792c26-406e-4c90-8b58-a0e2c47d90c5","system_id":"levelo_inurba_marseille","lat":43.29526,"lon":5.37491,"is_reserved":false,"is_disabled":false,"rental_uris":{"android":"levelo://app?vid=d5792c26-406e-4c90-8b58-a0e2c47d90c5","ios":"levelo://app?vid=d5792c26-406e-4c90-8b58-a0e2c47d90c5"},"vehicle_type_id":"4","last_reported":1751055103,"current_range_meters":17200,"station_id":"ce4bgkp2rcd13ifvqbmg","pricing_plan_id":"cebpf4jnsgd1na2vs0mg"},{"bike_id":"576289f8-cb8b-4fe0-b67f-84826d253af0","system_id":"levelo_inurba_marseille","lat":43.29601,"lon":5.38101,"is_reserved":false,"is_disabled":false,"rental_uris":{"android":"levelo://app?vid=576289f8-cb8b-4fe0-b67f-84826d253af0","ios":"levelo://app?vid=576289f8-cb8b-4fe0-b67f-84826d253af0"},"vehicle_type_id":"4","last_reported":1751055103,"current_range_meters":17200,"station_id":"ce4bgl12rcd13ifvqbo0","pricing_plan_id":"cebpf4jnsgd1na2vs0mg"},{"bike_id":"49c6944a-b3c0-4749-944d-3af9974a3341","system_id":"levelo_inurba_marseille","lat":43.323452,"lon":5.406321,"is_reserved":false,"is_disabled":false,"rental_uris":{"android":"levelo://app?vid=49c6944a-b3c0-4749-944d-3af9974a3341","ios":"levelo://app?vid=49c6944a-b3c0-4749-944d-3af9974a3341"},"vehicle_type_id":"4","last_reported":1751055103,"current_range_meters":17200,"station_id":"ce4bhq92rcd13ifvqhjg","pricing_plan_id":"cebpf4jnsgd1na2vs0mg"},{"bike_id":"a7883090-0e10-4075-944b-a3cca54bc544","system_id":"levelo_inurba_marseille","lat":43.22504,"lon":5.34761,"is_reserved":false,"is_disabled":false,"rental_uris":{"android":"levelo://app?vid=a7883090-0e10-4075-944b-a3cca54bc544","ios":"levelo://app?vid=a7883090-0e10-4075-944b-a3cca54bc544"},"vehicle_type_id":"4","last_reported":1751055103,"current_range_meters":17200,"station_id":"st_cvj5dfep6f1abm77gieg","pricing_plan_id":"cebpf4jnsgd1na2vs0mg"},{"bike_id":"5a3dab73-c126-4de6-a97f-f9ca71f0b35f","system_id":"levelo_inurba_marseille","lat":43.21748,"lon":5.34615,"is_reserved":false,"is_disabled":false,"rental_uris":{"android":"levelo://app?vid=5a3dab73-c126-4de6-a97f-f9ca71f0b35f","ios":"levelo://app?vid=5a3dab73-c126-4de6-a97f-f9ca71f0b35f"},"vehicle_type_id":"4","last_reported":1751055103,"current_range_meters":17200,"station_id":"st_cvj6r9ubvosntc0bgbag","pricing_plan_id":"cebpf4jnsgd1na2vs0mg"},{"bike_id":"14e8ef37-e834-4d76-9946-e98f7a083a2f","system_id":"levelo_inurba_marseille","lat":43.21197,"lon":5.35073,"is_reserved":false,"is_disabled":false,"rental_uris":{"android":"levelo://app?vid=14e8ef37-e834-4d76-9946-e98f7a083a2f","ios":"levelo://app?vid=14e8ef37-e834-4d76-9946-e98f7a083a2f"},"vehicle_type_id":"4","last_reported":1751055103,"current_range_meters":17200,"station_id":"st_cvj6sg6p6f1abm77japg","pricing_plan_id":"cebpf4jnsgd1na2vs0mg"},{"bike_id":"12c7fc9f-7c7b-4185-9b2f-badd0c17e36b","system_id":"levelo_inurba_marseille","lat":43.24743,"lon":5.37436,"is_reserved":false,"is_disabled":false,"rental_uris":{"android":"levelo://app?vid=12c7fc9f-7c7b-4185-9b2f-badd0c17e36b","ios":"levelo://app?vid=12c7fc9f-7c7b-4185-9b2f-badd0c17e36b"},"vehicle_type_id":"4","last_reported":1751055103,"current_range_meters":17600,"station_id":"","pricing_plan_id":"cebpf4jnsgd1na2vs0mg"},{"bike_id":"70ebd150-e67d-4876-9869-2fc07178c3e0","system_id":"levelo_inurba_marseille","lat":43.29305,"lon":5.3745,"is_reserved":false,"is_disabled":false,"rental_uris":{"android":"levelo://app?vid=70ebd150-e67d-4876-9869-2fc07178c3e0","ios":"levelo://app?vid=70ebd150-e67d-4876-9869-2fc07178c3e0"},"vehicle_type_id":"4","last_reported":1751055103,"current_range_meters":17600,"station_id":"ce4bgi12rcd13ifvqb70","pricing_plan_id":"cebpf4jnsgd1na2vs0mg"},{"bike_id":"6e2393fe-b904-4c44-b6e1-62489c7300ee","system_id":"levelo_inurba_marseille","lat":43.293698,"lon":5.378607,"is_reserved":false,"is_disabled":false,"rental_uris":{"android":"levelo://app?vid=6e2393fe-b904-4c44-b6e1-62489c7300ee","ios":"levelo://app?vid=6e2393fe-b904-4c44-b6e1-62489c7300ee"},"vehicle_type_id":"4","last_reported":1751055103,"current_range_meters":17600,"station_id":"ce4bgjh2rcd13ifvqbf0","pricing_plan_id":"cebpf4jnsgd1na2vs0mg"},{"bike_id":"04ae980c-4d71-40f3-a603-e91af8a3b0b6","system_id":"levelo_inurba_marseille","lat":43.28104,"lon":5.37832,"is_reserved":false,"is_disabled":false,"rental_uris":{"android":"levelo://app?vid=04ae980c-4d71-40f3-a603-e91af8a3b0b6","ios":"levelo://app?vid=04ae980c-4d71-40f3-a603-e91af8a3b0b6"},"vehicle_type_id":"4","last_reported":1751055103,"current_range_meters":17600,"station_id":"ce4bha12rcd13ifvqee0","pricing_plan_id":"cebpf4jnsgd1na2vs0mg"},{"bike_id":"6af79a00-84aa-4908-a347-34425e08c383","system_id":"levelo_inurba_marseille","lat":43.30303,"lon":5.37563,"is_reserved":false,"is_disabled":false,"rental_uris":{"android":"levelo://app?vid=6af79a00-84aa-4908-a347-34425e08c383","ios":"levelo://app?vid=6af79a00-84aa-4908-a347-34425e08c383"},"vehicle_type_id":"4","last_reported":1751055103,"current_range_meters":18000,"station_id":"","pricing_plan_id":"cebpf4jnsgd1na2vs0mg"},{"bike_id":"0c803610-f6e9-41d4-936d-0b433fa62796","system_id":"levelo_inurba_marseille","lat":43.30202,"lon":5.37816,"is_reserved":false,"is_disabled":false,"rental_uris":{"android":"levelo://app?vid=0c803610-f6e9-41d4-936d-0b433fa62796","ios":"levelo://app?vid=0c803610-f6e9-41d4-936d-0b433fa62796"},"vehicle_type_id":"4","last_reported":1751055103,"current_range_meters":18000,"station_id":"","pricing_plan_id":"cebpf4jnsgd1na2vs0mg"},{"bike_id":"805073ca-85b9-42b0-9e57-7e7428595d04","system_id":"levelo_inurba_marseille","lat":43.28855,"lon":5.38454,"is_reserved":false,"is_disabled":false,"rental_uris":{"android":"levelo://app?vid=805073ca-85b9-42b0-9e57-7e7428595d04","ios":"levelo://app?vid=805073ca-85b9-42b0-9e57-7e7428595d04"},"vehicle_type_id":"4","last_reported":1751055103,"current_range_meters":18000,"station_id":"","pricing_plan_id":"cebpf4jnsgd1na2vs0mg"},{"bike_id":"934c0f1f-74e9-4dc3-964c-a90cf008b33b","system_id":"levelo_inurba_marseille","lat":43.29547,"lon":5.3851,"is_reserved":false,"is_disabled":false,"rental_uris":{"android":"levelo://app?vid=934c0f1f-74e9-4dc3-964c-a90cf008b33b","ios":"levelo://app?vid=934c0f1f-74e9-4dc3-964c-a90cf008b33b"},"vehicle_type_id":"4","last_reported":1751055103,"current_range_meters":18000,"station_id":"ce4bgih2rcd13ifvqba0","pricing_plan_id":"cebpf4jnsgd1na2vs0mg"},{"bike_id":"b6cff14c-65a3-4d38-bae1-260388b4ea01","system_id":"levelo_inurba_marseille","lat":43.30951,"lon":5.39027,"is_reserved":false,"is_disabled":false,"rental_uris":{"android":"levelo://app?vid=b6cff14c-65a3-4d38-bae1-260388b4ea01","ios":"levelo://app?vid=b6cff14c-65a3-4d38-bae1-260388b4ea01"},"vehicle_type_id":"4","last_reported":1751055103,"current_range_meters":18000,"station_id":"ce4bgup2rcd13ifvqco0","pricing_plan_id":"cebpf4jnsgd1na2vs0mg"},{"bike_id":"492ee4ba-6b56-4e62-920d-a90a13267762","system_id":"levelo_inurba_marseille","lat":43.29098,"lon":5.38137,"is_reserved":false,"is_disabled":false,"rental_uris":{"android":"levelo://app?vid=492ee4ba-6b56-4e62-920d-a90a13267762","ios":"levelo://app?vid=492ee4ba-6b56-4e62-920d-a90a13267762"},"vehicle_type_id":"4","last_reported":1751055103,"current_range_meters":18000,"station_id":"ce4bh512rcd13ifvqe2g","pricing_plan_id":"cebpf4jnsgd1na2vs0mg"},{"bike_id":"9b6e32b6-08e4-4fa8-869c-e4e89ca7485e","system_id":"levelo_inurba_marseille","lat":43.27345,"lon":5.36244,"is_reserved":false,"is_disabled":false,"rental_uris":{"android":"levelo://app?vid=9b6e32b6-08e4-4fa8-869c-e4e89ca7485e","ios":"levelo://app?vid=9b6e32b6-08e4-4fa8-869c-e4e89ca7485e"},"vehicle_type_id":"4","last_reported":1751055103,"current_range_meters":18000,"station_id":"ce4bhbh2rcd13ifvqeo0","pricing_plan_id":"cebpf4jnsgd1na2vs0mg"},{"bike_id":"80fa7491-189d-4ba2-9da0-d8b919a2df7d","system_id":"levelo_inurba_marseille","lat":43.31727,"lon":5.424,"is_reserved":false,"is_disabled":false,"rental_uris":{"android":"levelo://app?vid=80fa7491-189d-4ba2-9da0-d8b919a2df7d","ios":"levelo://app?vid=80fa7491-189d-4ba2-9da0-d8b919a2df7d"},"vehicle_type_id":"4","last_reported":1751055103,"current_range_meters":18000,"station_id":"ce4bhp92rcd13ifvqhbg","pricing_plan_id":"cebpf4jnsgd1na2vs0mg"},{"bike_id":"43b90f66-d6f9-4e4e-a32f-49c531e37b2d","system_id":"levelo_inurba_marseille","lat":43.26262,"lon":5.40186,"is_reserved":false,"is_disabled":false,"rental_uris":{"android":"levelo://app?vid=43b90f66-d6f9-4e4e-a32f-49c531e37b2d","ios":"levelo://app?vid=43b90f66-d6f9-4e4e-a32f-49c531e37b2d"},"vehicle_type_id":"4","last_reported":1751055103,"current_range_meters":18800,"station_id":"","pricing_plan_id":"cebpf4jnsgd1na2vs0mg"},{"bike_id":"65008621-1b84-4232-bba2-2fdd7de9fab1","system_id":"levelo_inurba_marseille","lat":43.31121,"lon":5.37759,"is_reserved":false,"is_disabled":false,"rental_uris":{"android":"levelo://app?vid=65008621-1b84-4232-bba2-2fdd7de9fab1","ios":"levelo://app?vid=65008621-1b84-4232-bba2-2fdd7de9fab1"},"vehicle_type_id":"4","last_reported":1751055103,"current_range_meters":18800,"station_id":"ce4bgt92rcd13ifvqcg0","pricing_plan_id":"cebpf4jnsgd1na2vs0mg"},{"bike_id":"3d410c4e-0724-415a-90aa-0c4ffa0805b5","system_id":"levelo_inurba_marseille","lat":43.29077,"lon":5.37177,"is_reserved":false,"is_disabled":false,"rental_uris":{"android":"levelo://app?vid=3d410c4e-0724-415a-90aa-0c4ffa0805b5","ios":"levelo://app?vid=3d410c4e-0724-415a-90aa-0c4ffa0805b5"},"vehicle_type_id":"4","last_reported":1751055103,"current_range_meters":18800,"station_id":"ce4bh5p2rcd13ifvqe4g","pricing_plan_id":"cebpf4jnsgd1na2vs0mg"},{"bike_id":"a66b4f1e-0ede-429c-bb89-81df1a70ff6f","system_id":"levelo_inurba_marseille","lat":43.27368,"lon":5.36248,"is_reserved":false,"is_disabled":false,"rental_uris":{"android":"levelo://app?vid=a66b4f1e-0ede-429c-bb89-81df1a70ff6f","ios":"levelo://app?vid=a66b4f1e-0ede-429c-bb89-81df1a70ff6f"},"vehicle_type_id":"4","last_reported":1751055103,"current_range_meters":18800,"station_id":"ce4bhbh2rcd13ifvqeo0","pricing_plan_id":"cebpf4jnsgd1na2vs0mg"},{"bike_id":"a8e170db-ddee-4a3e-b48b-3cb350f12866","system_id":"levelo_inurba_marseille","lat":43.28414,"lon":5.34984,"is_reserved":false,"is_disabled":false,"rental_uris":{"android":"levelo://app?vid=a8e170db-ddee-4a3e-b48b-3cb350f12866","ios":"levelo://app?vid=a8e170db-ddee-4a3e-b48b-3cb350f12866"},"vehicle_type_id":"4","last_reported":1751055103,"current_range_meters":18800,"station_id":"ce4bhbh2rcd13ifvqepg","pricing_plan_id":"cebpf4jnsgd1na2vs0mg"},{"bike_id":"c13cc7fc-25ad-404a-8ab1-c28d5e93f103","system_id":"levelo_inurba_marseille","lat":43.24803,"lon":5.37457,"is_reserved":false,"is_disabled":false,"rental_uris":{"android":"levelo://app?vid=c13cc7fc-25ad-404a-8ab1-c28d5e93f103","ios":"levelo://app?vid=c13cc7fc-25ad-404a-8ab1-c28d5e93f103"},"vehicle_type_id":"4","last_reported":1751055103,"current_range_meters":18800,"station_id":"ce4bhgh2rcd13ifvqfb0","pricing_plan_id":"cebpf4jnsgd1na2vs0mg"},{"bike_id":"24beac26-74a5-400f-b26f-c001fc1ebabe","system_id":"levelo_inurba_marseille","lat":43.24057,"lon":5.377513,"is_reserved":false,"is_disabled":false,"rental_uris":{"android":"levelo://app?vid=24beac26-74a5-400f-b26f-c001fc1ebabe","ios":"levelo://app?vid=24beac26-74a5-400f-b26f-c001fc1ebabe"},"vehicle_type_id":"4","last_reported":1751055103,"current_range_meters":18800,"station_id":"ce4bhnp2rcd13ifvqgvg","pricing_plan_id":"cebpf4jnsgd1na2vs0mg"},{"bike_id":"d5e1d878-e5c4-4d1d-b5fd-495a03b649e0","system_id":"levelo_inurba_marseille","lat":43.315382,"lon":5.380317,"is_reserved":false,"is_disabled":false,"rental_uris":{"android":"levelo://app?vid=d5e1d878-e5c4-4d1d-b5fd-495a03b649e0","ios":"levelo://app?vid=d5e1d878-e5c4-4d1d-b5fd-495a03b649e0"},"vehicle_type_id":"4","last_reported":1751055103,"current_range_meters":18800,"station_id":"ce4bhsp2rcd13ifvqi50","pricing_plan_id":"cebpf4jnsgd1na2vs0mg"},{"bike_id":"4043f5ed-1c71-456d-9c90-de5b8866cdaf","system_id":"levelo_inurba_marseille","lat":43.22939,"lon":5.35365,"is_reserved":false,"is_disabled":false,"rental_uris":{"android":"levelo://app?vid=4043f5ed-1c71-456d-9c90-de5b8866cdaf","ios":"levelo://app?vid=4043f5ed-1c71-456d-9c90-de5b8866cdaf"},"vehicle_type_id":"4","last_reported":1751055103,"current_range_meters":18800,"station_id":"cpo3532slgdg3j2ikp40","pricing_plan_id":"cebpf4jnsgd1na2vs0mg"},{"bike_id":"b334124c-c876-45e4-8b38-f47ede11b4b7","system_id":"levelo_inurba_marseille","lat":43.21759,"lon":5.34572,"is_reserved":false,"is_disabled":false,"rental_uris":{"android":"levelo://app?vid=b334124c-c876-45e4-8b38-f47ede11b4b7","ios":"levelo://app?vid=b334124c-c876-45e4-8b38-f47ede11b4b7"},"vehicle_type_id":"4","last_reported":1751055103,"current_range_meters":18800,"station_id":"st_cvj6r9ubvosntc0bgbag","pricing_plan_id":"cebpf4jnsgd1na2vs0mg"},{"bike_id":"8c4e7c4c-e0c6-40d1-bf89-0b50539a06b8","system_id":"levelo_inurba_marseille","lat":43.27369,"lon":5.36258,"is_reserved":false,"is_disabled":false,"rental_uris":{"android":"levelo://app?vid=8c4e7c4c-e0c6-40d1-bf89-0b50539a06b8","ios":"levelo://app?vid=8c4e7c4c-e0c6-40d1-bf89-0b50539a06b8"},"vehicle_type_id":"4","last_reported":1751055103,"current_range_meters":19200,"station_id":"ce4bhbh2rcd13ifvqeo0","pricing_plan_id":"cebpf4jnsgd1na2vs0mg"},{"bike_id":"30f1e410-dc75-445d-8fc3-9911090e06f2","system_id":"levelo_inurba_marseille","lat":43.28412,"lon":5.34973,"is_reserved":false,"is_disabled":false,"rental_uris":{"android":"levelo://app?vid=30f1e410-dc75-445d-8fc3-9911090e06f2","ios":"levelo://app?vid=30f1e410-dc75-445d-8fc3-9911090e06f2"},"vehicle_type_id":"4","last_reported":1751055103,"current_range_meters":19200,"station_id":"ce4bhbh2rcd13ifvqepg","pricing_plan_id":"cebpf4jnsgd1na2vs0mg"},{"bike_id":"f810be2a-3c00-446f-9ba1-1f3840ce349d","system_id":"levelo_inurba_marseille","lat":43.32119,"lon":5.36779,"is_reserved":false,"is_disabled":false,"rental_uris":{"android":"levelo://app?vid=f810be2a-3c00-446f-9ba1-1f3840ce349d","ios":"levelo://app?vid=f810be2a-3c00-446f-9ba1-1f3840ce349d"},"vehicle_type_id":"4","last_reported":1751055103,"current_range_meters":19200,"station_id":"ce4bhrh2rcd13ifvqhug","pricing_plan_id":"cebpf4jnsgd1na2vs0mg"},{"bike_id":"3eb6451c-98c7-4c1f-8742-e0c2f57c4ef7","system_id":"levelo_inurba_marseille","lat":43.32475,"lon":5.3656,"is_reserved":false,"is_disabled":false,"rental_uris":{"android":"levelo://app?vid=3eb6451c-98c7-4c1f-8742-e0c2f57c4ef7","ios":"levelo://app?vid=3eb6451c-98c7-4c1f-8742-e0c2f57c4ef7"},"vehicle_type_id":"4","last_reported":1751055103,"current_range_meters":19200,"station_id":"ce4bhs12rcd13ifvqhvg","pricing_plan_id":"cebpf4jnsgd1na2vs0mg"},{"bike_id":"73eae19d-5cc5-48fe-810c-85fc7175c6a0","system_id":"levelo_inurba_marseille","lat":43.230594,"lon":5.355025,"is_reserved":false,"is_disabled":false,"rental_uris":{"android":"levelo://app?vid=73eae19d-5cc5-48fe-810c-85fc7175c6a0","ios":"levelo://app?vid=73eae19d-5cc5-48fe-810c-85fc7175c6a0"},"vehicle_type_id":"4","last_reported":1751055103,"current_range_meters":19200,"station_id":"cpo3342slgdg3j2ifvpg","pricing_plan_id":"cebpf4jnsgd1na2vs0mg"},{"bike_id":"b13877a6-4825-4d82-b46b-67fa8ad66c5d","system_id":"levelo_inurba_marseille","lat":43.21197,"lon":5.35065,"is_reserved":false,"is_disabled":false,"rental_uris":{"android":"levelo://app?vid=b13877a6-4825-4d82-b46b-67fa8ad66c5d","ios":"levelo://app?vid=b13877a6-4825-4d82-b46b-67fa8ad66c5d"},"vehicle_type_id":"4","last_reported":1751055103,"current_range_meters":19200,"station_id":"st_cvj6sg6p6f1abm77japg","pricing_plan_id":"cebpf4jnsgd1na2vs0mg"},{"bike_id":"310cb9f4-3777-451d-bedb-8ea3b7fc0c62","system_id":"levelo_inurba_marseille","lat":43.2738,"lon":5.36266,"is_reserved":false,"is_disabled":false,"rental_uris":{"android":"levelo://app?vid=310cb9f4-3777-451d-bedb-8ea3b7fc0c62","ios":"levelo://app?vid=310cb9f4-3777-451d-bedb-8ea3b7fc0c62"},"vehicle_type_id":"4","last_reported":1751055103,"current_range_meters":19600,"station_id":"ce4bhbh2rcd13ifvqeo0","pricing_plan_id":"cebpf4jnsgd1na2vs0mg"},{"bike_id":"88bfaac2-defd-4219-99ee-23bffc813ba2","system_id":"levelo_inurba_marseille","lat":43.28414,"lon":5.34986,"is_reserved":false,"is_disabled":false,"rental_uris":{"android":"levelo://app?vid=88bfaac2-defd-4219-99ee-23bffc813ba2","ios":"levelo://app?vid=88bfaac2-defd-4219-99ee-23bffc813ba2"},"vehicle_type_id":"4","last_reported":1751055103,"current_range_meters":19600,"station_id":"ce4bhbh2rcd13ifvqepg","pricing_plan_id":"cebpf4jnsgd1na2vs0mg"},{"bike_id":"77673b0f-fa8d-4a5f-802e-e3125964cb45","system_id":"levelo_inurba_marseille","lat":43.29259,"lon":5.36684,"is_reserved":false,"is_disabled":false,"rental_uris":{"android":"levelo://app?vid=77673b0f-fa8d-4a5f-802e-e3125964cb45","ios":"levelo://app?vid=77673b0f-fa8d-4a5f-802e-e3125964cb45"},"vehicle_type_id":"4","last_reported":1751055103,"current_range_meters":20000,"station_id":"","pricing_plan_id":"cebpf4jnsgd1na2vs0mg"},{"bike_id":"d308c658-b19c-49c0-8014-5506ff26f69a","system_id":"levelo_inurba_marseille","lat":43.23091,"lon":5.40503,"is_reserved":false,"is_disabled":false,"rental_uris":{"android":"levelo://app?vid=d308c658-b19c-49c0-8014-5506ff26f69a","ios":"levelo://app?vid=d308c658-b19c-49c0-8014-5506ff26f69a"},"vehicle_type_id":"4","last_reported":1751055103,"current_range_meters":20000,"station_id":"","pricing_plan_id":"cebpf4jnsgd1na2vs0mg"},{"bike_id":"3d1e4629-e288-4be5-81d1-eba7221554d4","system_id":"levelo_inurba_marseille","lat":43.28413,"lon":5.34991,"is_reserved":false,"is_disabled":false,"rental_uris":{"android":"levelo://app?vid=3d1e4629-e288-4be5-81d1-eba7221554d4","ios":"levelo://app?vid=3d1e4629-e288-4be5-81d1-eba7221554d4"},"vehicle_type_id":"4","last_reported":1751055103,"current_range_meters":20000,"station_id":"ce4bhbh2rcd13ifvqepg","pricing_plan_id":"cebpf4jnsgd1na2vs0mg"},{"bike_id":"2319f758-8cc4-44be-a026-46a4638bdf6c","system_id":"levelo_inurba_marseille","lat":43.279143,"lon":5.395787,"is_reserved":false,"is_disabled":false,"rental_uris":{"android":"levelo://app?vid=2319f758-8cc4-44be-a026-46a4638bdf6c","ios":"levelo://app?vid=2319f758-8cc4-44be-a026-46a4638bdf6c"},"vehicle_type_id":"4","last_reported":1751055103,"current_range_meters":20000,"station_id":"ce4bhf92rcd13ifvqf40","pricing_plan_id":"cebpf4jnsgd1na2vs0mg"},{"bike_id":"5754f9cb-35e4-4666-9cf9-e60e6d55b7e6","system_id":"levelo_inurba_marseille","lat":43.27557,"lon":5.38395,"is_reserved":false,"is_disabled":false,"rental_uris":{"android":"levelo://app?vid=5754f9cb-35e4-4666-9cf9-e60e6d55b7e6","ios":"levelo://app?vid=5754f9cb-35e4-4666-9cf9-e60e6d55b7e6"},"vehicle_type_id":"4","last_reported":1751055103,"current_range_meters":20000,"station_id":"ce4bhh92rcd13ifvqfi0","pricing_plan_id":"cebpf4jnsgd1na2vs0mg"},{"bike_id":"c0a2de0a-20e3-4e62-848e-f0dbd6b2e588","system_id":"levelo_inurba_marseille","lat":43.225034,"lon":5.347769,"is_reserved":false,"is_disabled":false,"rental_uris":{"android":"levelo://app?vid=c0a2de0a-20e3-4e62-848e-f0dbd6b2e588","ios":"levelo://app?vid=c0a2de0a-20e3-4e62-848e-f0dbd6b2e588"},"vehicle_type_id":"4","last_reported":1751055103,"current_range_meters":20000,"station_id":"st_cvj5dfep6f1abm77gieg","pricing_plan_id":"cebpf4jnsgd1na2vs0mg"},{"bike_id":"0df125fa-c1e6-4005-8f46-b5c054eacd7b","system_id":"levelo_inurba_marseille","lat":43.29529,"lon":5.38538,"is_reserved":false,"is_disabled":false,"rental_uris":{"android":"levelo://app?vid=0df125fa-c1e6-4005-8f46-b5c054eacd7b","ios":"levelo://app?vid=0df125fa-c1e6-4005-8f46-b5c054eacd7b"},"vehicle_type_id":"4","last_reported":1751055103,"current_range_meters":20400,"station_id":"ce4bgih2rcd13ifvqba0","pricing_plan_id":"cebpf4jnsgd1na2vs0mg"},{"bike_id":"d0feedbc-326a-4563-b513-a891ceba8e33","system_id":"levelo_inurba_marseille","lat":43.26196,"lon":5.37446,"is_reserved":false,"is_disabled":false,"rental_uris":{"android":"levelo://app?vid=d0feedbc-326a-4563-b513-a891ceba8e33","ios":"levelo://app?vid=d0feedbc-326a-4563-b513-a891ceba8e33"},"vehicle_type_id":"4","last_reported":1751055103,"current_range_meters":20400,"station_id":"ce4bhgp2rcd13ifvqfc0","pricing_plan_id":"cebpf4jnsgd1na2vs0mg"},{"bike_id":"dae1f0cb-48ef-4fb5-b6f0-61d10719f446","system_id":"levelo_inurba_marseille","lat":43.23196,"lon":5.35562,"is_reserved":false,"is_disabled":false,"rental_uris":{"android":"levelo://app?vid=dae1f0cb-48ef-4fb5-b6f0-61d10719f446","ios":"levelo://app?vid=dae1f0cb-48ef-4fb5-b6f0-61d10719f446"},"vehicle_type_id":"4","last_reported":1751055103,"current_range_meters":20400,"station_id":"ce4bhu92rcd13ifvqi70","pricing_plan_id":"cebpf4jnsgd1na2vs0mg"},{"bike_id":"4f7da216-f811-4c57-9e64-cdee7467bddd","system_id":"levelo_inurba_marseille","lat":43.22519,"lon":5.34777,"is_reserved":false,"is_disabled":false,"rental_uris":{"android":"levelo://app?vid=4f7da216-f811-4c57-9e64-cdee7467bddd","ios":"levelo://app?vid=4f7da216-f811-4c57-9e64-cdee7467bddd"},"vehicle_type_id":"4","last_reported":1751055103,"current_range_meters":20400,"station_id":"st_cvj5dfep6f1abm77gieg","pricing_plan_id":"cebpf4jnsgd1na2vs0mg"},{"bike_id":"37fae773-c603-46e4-b3e1-610479914831","system_id":"levelo_inurba_marseille","lat":43.27226,"lon":5.38695,"is_reserved":false,"is_disabled":false,"rental_uris":{"android":"levelo://app?vid=37fae773-c603-46e4-b3e1-610479914831","ios":"levelo://app?vid=37fae773-c603-46e4-b3e1-610479914831"},"vehicle_type_id":"4","last_reported":1751055103,"current_range_meters":20800,"station_id":"","pricing_plan_id":"cebpf4jnsgd1na2vs0mg"},{"bike_id":"b3719f62-268d-4dd3-b2c5-11f77a528607","system_id":"levelo_inurba_marseille","lat":43.309479,"lon":5.390323,"is_reserved":false,"is_disabled":false,"rental_uris":{"android":"levelo://app?vid=b3719f62-268d-4dd3-b2c5-11f77a528607","ios":"levelo://app?vid=b3719f62-268d-4dd3-b2c5-11f77a528607"},"vehicle_type_id":"4","last_reported":1751055103,"current_range_meters":20800,"station_id":"ce4bgup2rcd13ifvqco0","pricing_plan_id":"cebpf4jnsgd1na2vs0mg"},{"bike_id":"0eeb48dd-dbd3-431c-9605-f5375df15cbc","system_id":"levelo_inurba_marseille","lat":43.27372,"lon":5.36254,"is_reserved":false,"is_disabled":false,"rental_uris":{"android":"levelo://app?vid=0eeb48dd-dbd3-431c-9605-f5375df15cbc","ios":"levelo://app?vid=0eeb48dd-dbd3-431c-9605-f5375df15cbc"},"vehicle_type_id":"4","last_reported":1751055103,"current_range_meters":20800,"station_id":"ce4bhbh2rcd13ifvqeo0","pricing_plan_id":"cebpf4jnsgd1na2vs0mg"},{"bike_id":"b9d502c7-4cce-431a-bce8-985f993421b9","system_id":"levelo_inurba_marseille","lat":43.28421,"lon":5.34965,"is_reserved":false,"is_disabled":false,"rental_uris":{"android":"levelo://app?vid=b9d502c7-4cce-431a-bce8-985f993421b9","ios":"levelo://app?vid=b9d502c7-4cce-431a-bce8-985f993421b9"},"vehicle_type_id":"4","last_reported":1751055103,"current_range_meters":20800,"station_id":"ce4bhbh2rcd13ifvqepg","pricing_plan_id":"cebpf4jnsgd1na2vs0mg"},{"bike_id":"f3308926-97e4-46eb-b405-e4909c7c5290","system_id":"levelo_inurba_marseille","lat":43.28153,"lon":5.42644,"is_reserved":false,"is_disabled":false,"rental_uris":{"android":"levelo://app?vid=f3308926-97e4-46eb-b405-e4909c7c5290","ios":"levelo://app?vid=f3308926-97e4-46eb-b405-e4909c7c5290"},"vehicle_type_id":"4","last_reported":1751055103,"current_range_meters":20800,"station_id":"ce4bhnh2rcd13ifvqgug","pricing_plan_id":"cebpf4jnsgd1na2vs0mg"},{"bike_id":"8938ae4b-572d-47fc-b025-02b05af60188","system_id":"levelo_inurba_marseille","lat":43.22503,"lon":5.34775,"is_reserved":false,"is_disabled":false,"rental_uris":{"android":"levelo://app?vid=8938ae4b-572d-47fc-b025-02b05af60188","ios":"levelo://app?vid=8938ae4b-572d-47fc-b025-02b05af60188"},"vehicle_type_id":"4","last_reported":1751055103,"current_range_meters":20800,"station_id":"st_cvj5dfep6f1abm77gieg","pricing_plan_id":"cebpf4jnsgd1na2vs0mg"},{"bike_id":"6672828e-1144-4fd5-8b1c-123a3349e341","system_id":"levelo_inurba_marseille","lat":43.28094,"lon":5.4077,"is_reserved":false,"is_disabled":false,"rental_uris":{"android":"levelo://app?vid=6672828e-1144-4fd5-8b1c-123a3349e341","ios":"levelo://app?vid=6672828e-1144-4fd5-8b1c-123a3349e341"},"vehicle_type_id":"4","last_reported":1751055103,"current_range_meters":21600,"station_id":"","pricing_plan_id":"cebpf4jnsgd1na2vs0mg"},{"bike_id":"dd32c870-f872-49d9-b4b3-fb963fd8433b","system_id":"levelo_inurba_marseille","lat":43.30137,"lon":5.37436,"is_reserved":false,"is_disabled":false,"rental_uris":{"android":"levelo://app?vid=dd32c870-f872-49d9-b4b3-fb963fd8433b","ios":"levelo://app?vid=dd32c870-f872-49d9-b4b3-fb963fd8433b"},"vehicle_type_id":"4","last_reported":1751055103,"current_range_meters":21600,"station_id":"ce4bgs92rcd13ifvqcc0","pricing_plan_id":"cebpf4jnsgd1na2vs0mg"},{"bike_id":"7d406540-2b2f-4b4b-ac09-34540785d099","system_id":"levelo_inurba_marseille","lat":43.29023,"lon":5.38133,"is_reserved":false,"is_disabled":false,"rental_uris":{"android":"levelo://app?vid=7d406540-2b2f-4b4b-ac09-34540785d099","ios":"levelo://app?vid=7d406540-2b2f-4b4b-ac09-34540785d099"},"vehicle_type_id":"4","last_reported":1751055103,"current_range_meters":21600,"station_id":"ce4bh4p2rcd13ifvqe1g","pricing_plan_id":"cebpf4jnsgd1na2vs0mg"},{"bike_id":"19af8309-e4b0-45a6-ad27-88239110618c","system_id":"levelo_inurba_marseille","lat":43.27371,"lon":5.36237,"is_reserved":false,"is_disabled":false,"rental_uris":{"android":"levelo://app?vid=19af8309-e4b0-45a6-ad27-88239110618c","ios":"levelo://app?vid=19af8309-e4b0-45a6-ad27-88239110618c"},"vehicle_type_id":"4","last_reported":1751055103,"current_range_meters":21600,"station_id":"ce4bhbh2rcd13ifvqeo0","pricing_plan_id":"cebpf4jnsgd1na2vs0mg"},{"bike_id":"ddf14ad6-7714-43ed-873e-d9c0c040eb7f","system_id":"levelo_inurba_marseille","lat":43.265474,"lon":5.372869,"is_reserved":false,"is_disabled":false,"rental_uris":{"android":"levelo://app?vid=ddf14ad6-7714-43ed-873e-d9c0c040eb7f","ios":"levelo://app?vid=ddf14ad6-7714-43ed-873e-d9c0c040eb7f"},"vehicle_type_id":"4","last_reported":1751055103,"current_range_meters":21600,"station_id":"ce4bhg12rcd13ifvqf70","pricing_plan_id":"cebpf4jnsgd1na2vs0mg"},{"bike_id":"6f5589ab-8ea5-47a6-9b02-cca90cf3c0ee","system_id":"levelo_inurba_marseille","lat":43.29782,"lon":5.39327,"is_reserved":false,"is_disabled":false,"rental_uris":{"android":"levelo://app?vid=6f5589ab-8ea5-47a6-9b02-cca90cf3c0ee","ios":"levelo://app?vid=6f5589ab-8ea5-47a6-9b02-cca90cf3c0ee"},"vehicle_type_id":"4","last_reported":1751055103,"current_range_meters":21600,"station_id":"chh1huq6cuj3fo74tm60","pricing_plan_id":"cebpf4jnsgd1na2vs0mg"},{"bike_id":"c595d0e1-c778-4abe-9c79-a9dd74f54e27","system_id":"levelo_inurba_marseille","lat":43.2448,"lon":5.37198,"is_reserved":false,"is_disabled":false,"rental_uris":{"android":"levelo://app?vid=c595d0e1-c778-4abe-9c79-a9dd74f54e27","ios":"levelo://app?vid=c595d0e1-c778-4abe-9c79-a9dd74f54e27"},"vehicle_type_id":"4","last_reported":1751055103,"current_range_meters":22000,"station_id":"","pricing_plan_id":"cebpf4jnsgd1na2vs0mg"},{"bike_id":"09665c02-59b4-4988-89ce-ecfebd8dfdd1","system_id":"levelo_inurba_marseille","lat":43.302576,"lon":5.400839,"is_reserved":false,"is_disabled":false,"rental_uris":{"android":"levelo://app?vid=09665c02-59b4-4988-89ce-ecfebd8dfdd1","ios":"levelo://app?vid=09665c02-59b4-4988-89ce-ecfebd8dfdd1"},"vehicle_type_id":"4","last_reported":1751055103,"current_range_meters":22000,"station_id":"ce4bgvh2rcd13ifvqcs0","pricing_plan_id":"cebpf4jnsgd1na2vs0mg"},