{"last_updated":1707667705,"ttl":30,"version":"2.2","data":{"bikes":[{"bike_id":"424989ab-5f90-47c5-9452-6900e12626e7","system_id":"levelo_inurba_marseille","lat":43.313391,"lon":5.36706,"is_reserved":false,"is_disabled":false,"rental_uris":{"android":"levelo://app?vid=424989ab-5f90-47c5-9452-6900e12626e7","ios":"levelo://app?vid=424989ab-5f90-47c5-9452-6900e12626e7"},"vehicle_type_id":"4","last_reported":1707667705,"current_range_meters":24400,"station_id":"ce4bgr92rcd13ifvqc6g","pricing_plan_id":"free"},{"bike_id":"baa312f7-e4fd-4f93-b192-5ccf078f8e73","system_id":"levelo_inurba_marseille","lat":43.312239,"lon":5.368562,"is_reserved":false,"is_disabled":false,"rental_uris":{"android":"levelo://app?vid=baa312f7-e4fd-4f93-b192-5ccf078f8e73","ios":"levelo://app?vid=baa312f7-e4fd-4f93-b192-5ccf078f8e73"},"vehicle_type_id":"4","last_reported":1707667705,"current_range_meters":23200,"station_id":"ce4bgl92rcd13ifvqbq0","pricing_plan_id":"free"},{"bike_id":"090d47bd-db56-4ce3-bcc5-ffceb6f7a46d","system_id":"levelo_inurba_marseille","lat":43.312239,"lon":5.368562,"is_reserved":false,"is_disabled":false,"rental_uris":{"android":"levelo://app?vid=090d47bd-db56-4ce3-bcc5-ffceb6f7a46d","ios":"levelo://app?vid=090d47bd-db56-4ce3-bcc5-ffceb6f7a46d"},"vehicle_type_id":"4","last_reported":1707667705,"current_range_meters":28000,"station_id":"ce4bgl92rcd13ifvqbq0","pricing_plan_id":"free"},{"bike_id":"69b83784-0c87-4876-a5bd-ed33fdf27c5a","system_id":"levelo_inurba_marseille","lat":43.312239,"lon":5.368562,"is_reserved":false,"is_disabled":false,"rental_uris":{"android":"levelo://app?vid=69b83784-0c87-4876-a5bd-ed33fdf27c5a","ios":"levelo://app?vid=69b83784-0c87-4876-a5bd-ed33fdf27c5a"},"vehicle_type_id":"4","last_reported":1707667705,"current_range_meters":27200,"station_id":"ce4bgl92rcd13ifvqbq0","pricing_plan_id":"free"},{"bike_id":"8f79281e-99be-434e-8d71-d02a0098911e","system_id":"levelo_inurba_marseille","lat":43.312297,"lon":5.368663,"is_reserved":false,"is_disabled":false,"rental_uris":{"android":"levelo://app?vid=8f79281e-99be-434e-8d71-d02a0098911e","ios":"levelo://app?vid=8f79281e-99be-434e-8d71-d02a0098911e"},"vehicle_type_id":"4","last_reported":1707667705,"current_range_meters":16000,"station_id":"ce4bgl92rcd13ifvqbq0","pricing_plan_id":"free"},{"bike_id":"f5d7533f-7dd0-43e3-81a3-1967252838f0","system_id":"levelo_inurba_marseille","lat":43.312239,"lon":5.368562,"is_reserved":false,"is_disabled":false,"rental_uris":{"android":"levelo://app?vid=f5d7533f-7dd0-43e3-81a3-1967252838f0","ios":"levelo://app?vid=f5d7533f-7dd0-43e3-81a3-1967252838f0"},"vehicle_type_id":"4","last_reported":1707667705,"current_range_meters":14000,"station_id":"ce4bgl92rcd13ifvqbq0","pricing_plan_id":"free"},{"bike_id":"d53b05b4-69cf-403b-ab16-476e59db4bcd","system_id":"levelo_inurba_marseille","lat":43.312239,"lon":5.368562,"is_reserved":false,"is_disabled":false,"rental_uris":{"android":"levelo://app?vid=d53b05b4-69cf-403b-ab16-476e59db4bcd","ios":"levelo://app?vid=d53b05b4-69cf-403b-ab16-476e59db4bcd"},"vehicle_type_id":"4","last_reported":1707667705,"current_range_meters":25200,"station_id":"ce4bgl92rcd13ifvqbq0","pricing_plan_id":"free"},{"bike_id":"ece0c7c7-9e1c-419b-a6ab-927ea94970e6","system_id":"levelo_inurba_marseille","lat":43.309076,"lon":5.368465,"is_reserved":false,"is_disabled":false,"rental_uris":{"android":"levelo://app?vid=ece0c7c7-9e1c-419b-a6ab-927ea94970e6","ios":"levelo://app?vid=ece0c7c7-9e1c-419b-a6ab-927ea94970e6"},"vehicle_type_id":"4","last_reported":1707667705,"current_range_meters":14400,"station_id":"ce4bgn92rcd13ifvqbvg","pricing_plan_id":"free"},{"bike_id":"1cdae375-80f8-40a6-be8c-c6cd47f8c06f","system_id":"levelo_inurba_marseille","lat":43.309076,"lon":5.368465,"is_reserved":false,"is_disabled":false,"rental_uris":{"android":"levelo://app?vid=1cdae375-80f8-40a6-be8c-c6cd47f8c06f","ios":"levelo://app?vid=1cdae375-80f8-40a6-be8c-c6cd47f8c06f"},"vehicle_type_id":"4","last_reported":1707667705,"current_range_meters":31200,"station_id":"ce4bgn92rcd13ifvqbvg","pricing_plan_id":"free"},{"bike_id":"84d6dfa0-d329-40d3-ae10-f4860c7bc228","system_id":"levelo_inurba_marseille","lat":43.309076,"lon":5.368465,"is_reserved":false,"is_disabled":false,"rental_uris":{"android":"levelo://app?vid=84d6dfa0-d329-40d3-ae10-f4860c7bc228","ios":"levelo://app?vid=84d6dfa0-d329-40d3-ae10-f4860c7bc228"},"vehicle_type_id":"4","last_reported":1707667705,"current_range_meters":29600,"station_id":"ce4bgn92rcd13ifvqbvg","pricing_plan_id":"free"},{"bike_id":"69d61244-4401-4706-9010-7dcd29b5c215","system_id":"levelo_inurba_marseille","lat":43.316939,"lon":5.369951,"is_reserved":false,"is_disabled":false,"rental_uris":{"android":"levelo://app?vid=69d61244-4401-4706-9010-7dcd29b5c215","ios":"levelo://app?vid=69d61244-4401-4706-9010-7dcd29b5c215"},"vehicle_type_id":"4","last_reported":1707667705,"current_range_meters":5600,"station_id":"","pricing_plan_id":"free"},{"bike_id":"eb139ec6-a62b-4734-8607-f767f684fee1","system_id":"levelo_inurba_marseille","lat":43.314811,"lon":5.373103,"is_reserved":false,"is_disabled":false,"rental_uris":{"android":"levelo://app?vid=eb139ec6-a62b-4734-8607-f767f684fee1","ios":"levelo://app?vid=eb139ec6-a62b-4734-8607-f767f684fee1"},"vehicle_type_id":"4","last_reported":1707667705,"current_range_meters":26800,"station_id":"ce4bgt12rcd13ifvqcd0","pricing_plan_id":"free"},{"bike_id":"ed5e879d-7181-4a63-b6f4-3212c831b6e2","system_id":"levelo_inurba_marseille","lat":43.309039,"lon":5.371797,"is_reserved":false,"is_disabled":false,"rental_uris":{"android":"levelo://app?vid=ed5e879d-7181-4a63-b6f4-3212c831b6e2","ios":"levelo://app?vid=ed5e879d-7181-4a63-b6f4-3212c831b6e2"},"vehicle_type_id":"4","last_reported":1707667705,"current_range_meters":24000,"station_id":"ce4bguh2rcd13ifvqckg","pricing_plan_id":"free"},{"bike_id":"004e7bef-7827-4593-8263-daf3fafeb943","system_id":"levelo_inurba_marseille","lat":43.309039,"lon":5.371797,"is_reserved":false,"is_disabled":false,"rental_uris":{"android":"levelo://app?vid=004e7bef-7827-4593-8263-daf3fafeb943","ios":"levelo://app?vid=004e7bef-7827-4593-8263-daf3fafeb943"},"vehicle_type_id":"4","last_reported":1707667705,"current_range_meters":19600,"station_id":"ce4bguh2rcd13ifvqckg","pricing_plan_id":"free"},{"bike_id":"98b5bd3a-3ee7-497c-a1b8-17d5517d0a3b","system_id":"levelo_inurba_marseille","lat":43.309039,"lon":5.371797,"is_reserved":false,"is_disabled":false,"rental_uris":{"android":"levelo://app?vid=98b5bd3a-3ee7-497c-a1b8-17d5517d0a3b","ios":"levelo://app?vid=98b5bd3a-3ee7-497c-a1b8-17d5517d0a3b"},"vehicle_type_id":"4","last_reported":1707667705,"current_range_meters":24000,"station_id":"ce4bguh2rcd13ifvqckg","pricing_plan_id":"free"},{"bike_id":"18697225-9e0d-41dc-a20b-1e29ba2380d2","system_id":"levelo_inurba_marseille","lat":43.309039,"lon":5.371797,"is_reserved":false,"is_disabled":false,"rental_uris":{"android":"levelo://app?vid=18697225-9e0d-41dc-a20b-1e29ba2380d2","ios":"levelo://app?vid=18697225-9e0d-41dc-a20b-1e29ba2380d2"},"vehicle_type_id":"4","last_reported":1707667705,"current_range_meters":23200,"station_id":"ce4bguh2rcd13ifvqckg","pricing_plan_id":"free"},{"bike_id":"b9e48ac8-61b6-48b7-8ad4-35c29435a4da","system_id":"levelo_inurba_marseille","lat":43.31607,"lon":5.37316,"is_reserved":false,"is_disabled":false,"rental_uris":{"android":"levelo://app?vid=b9e48ac8-61b6-48b7-8ad4-35c29435a4da","ios":"levelo://app?vid=b9e48ac8-61b6-48b7-8ad4-35c29435a4da"},"vehicle_type_id":"4","last_reported":1707667705,"current_range_meters":25600,"station_id":"","pricing_plan_id":"free"},{"bike_id":"03c5ed28-a405-4283-a318-780d2c5b2aff","system_id":"levelo_inurba_marseille","lat":43.30557,"lon":5.36548,"is_reserved":false,"is_disabled":false,"rental_uris":{"android":"levelo://app?vid=03c5ed28-a405-4283-a318-780d2c5b2aff","ios":"levelo://app?vid=03c5ed28-a405-4283-a318-780d2c5b2aff"},"vehicle_type_id":"4","last_reported":1707667705,"current_range_meters":18400,"station_id":"ce4bgs12rcd13ifvqcag","pricing_plan_id":"free"},{"bike_id":"7fd3cced-5cea-40b6-b67f-1fe944cb913d","system_id":"levelo_inurba_marseille","lat":43.30557,"lon":5.36537,"is_reserved":false,"is_disabled":false,"rental_uris":{"android":"levelo://app?vid=7fd3cced-5cea-40b6-b67f-1fe944cb913d","ios":"levelo://app?vid=7fd3cced-5cea-40b6-b67f-1fe944cb913d"},"vehicle_type_id":"4","last_reported":1707667705,"current_range_meters":7600,"station_id":"ce4bgs12rcd13ifvqcag","pricing_plan_id":"free"},{"bike_id":"c3dbdd47-ff8a-4dc8-9414-a965ba78e7a0","system_id":"levelo_inurba_marseille","lat":43.30549,"lon":5.36561,"is_reserved":false,"is_disabled":false,"rental_uris":{"android":"levelo://app?vid=c3dbdd47-ff8a-4dc8-9414-a965ba78e7a0","ios":"levelo://app?vid=c3dbdd47-ff8a-4dc8-9414-a965ba78e7a0"},"vehicle_type_id":"4","last_reported":1707667705,"current_range_meters":20000,"station_id":"ce4bgs12rcd13ifvqcag","pricing_plan_id":"free"},{"bike_id":"b7079aa1-3450-446d-8af4-3ba56009a340","system_id":"levelo_inurba_marseille","lat":43.30548,"lon":5.3656,"is_reserved":false,"is_disabled":false,"rental_uris":{"android":"levelo://app?vid=b7079aa1-3450-446d-8af4-3ba56009a340","ios":"levelo://app?vid=b7079aa1-3450-446d-8af4-3ba56009a340"},"vehicle_type_id":"4","last_reported":1707667705,"current_range_meters":0,"station_id":"ce4bgs12rcd13ifvqcag","pricing_plan_id":"free"},{"bike_id":"fbed3390-ca08-4466-b268-419dd9b9d516","system_id":"levelo_inurba_marseille","lat":43.30547,"lon":5.36555,"is_reserved":false,"is_disabled":false,"rental_uris":{"android":"levelo://app?vid=fbed3390-ca08-4466-b268-419dd9b9d516","ios":"levelo://app?vid=fbed3390-ca08-4466-b268-419dd9b9d516"},"vehicle_type_id":"4","last_reported":1707667705,"current_range_meters":2400,"station_id":"ce4bgs12rcd13ifvqcag","pricing_plan_id":"free"},{"bike_id":"d9610185-91c8-4231-bef7-22db41512b1d","system_id":"levelo_inurba_marseille","lat":43.30547,"lon":5.36541,"is_reserved":false,"is_disabled":false,"rental_uris":{"android":"levelo://app?vid=d9610185-91c8-4231-bef7-22db41512b1d","ios":"levelo://app?vid=d9610185-91c8-4231-bef7-22db41512b1d"},"vehicle_type_id":"4","last_reported":1707667705,"current_range_meters":31200,"station_id":"ce4bgs12rcd13ifvqcag","pricing_plan_id":"free"},{"bike_id":"4e56e3f3-545a-4092-98fa-e268e0ed3350","system_id":"levelo_inurba_marseille","lat":43.30544,"lon":5.36535,"is_reserved":false,"is_disabled":false,"rental_uris":{"android":"levelo://app?vid=4e56e3f3-545a-4092-98fa-e268e0ed3350","ios":"levelo://app?vid=4e56e3f3-545a-4092-98fa-e268e0ed3350"},"vehicle_type_id":"4","last_reported":1707667705,"current_range_meters":8800,"station_id":"ce4bgs12rcd13ifvqcag","pricing_plan_id":"free"},{"bike_id":"2129a444-0e28-4b12-809c-fff872e0e617","system_id":"levelo_inurba_marseille","lat":43.305706,"lon":5.365654,"is_reserved":false,"is_disabled":false,"rental_uris":{"android":"levelo://app?vid=2129a444-0e28-4b12-809c-fff872e0e617","ios":"levelo://app?vid=2129a444-0e28-4b12-809c-fff872e0e617"},"vehicle_type_id":"4","last_reported":1707667705,"current_range_meters":10800,"station_id":"ce4bgs12rcd13ifvqcag","pricing_plan_id":"free"},{"bike_id":"e0a40dea-82c9-4879-b342-3b366757b5e1","system_id":"levelo_inurba_marseille","lat":43.305706,"lon":5.365654,"is_reserved":false,"is_disabled":false,"rental_uris":{"android":"levelo://app?vid=e0a40dea-82c9-4879-b342-3b366757b5e1","ios":"levelo://app?vid=e0a40dea-82c9-4879-b342-3b366757b5e1"},"vehicle_type_id":"4","last_reported":1707667705,"current_range_meters":29600,"station_id":"ce4bgs12rcd13ifvqcag","pricing_plan_id":"free"},{"bike_id":"5562af55-5381-4df0-886a-37ba90d2934a","system_id":"levelo_inurba_marseille","lat":43.305706,"lon":5.365654,"is_reserved":false,"is_disabled":false,"rental_uris":{"android":"levelo://app?vid=5562af55-5381-4df0-886a-37ba90d2934a","ios":"levelo://app?vid=5562af55-5381-4df0-886a-37ba90d2934a"},"vehicle_type_id":"4","last_reported":1707667705,"current_range_meters":19200,"station_id":"ce4bgs12rcd13ifvqcag","pricing_plan_id":"free"},{"bike_id":"9feee40e-41ff-4114-b1a0-2b86d3bbe2f5","system_id":"levelo_inurba_marseille","lat":43.305368,"lon":5.367343,"is_reserved":false,"is_disabled":false,"rental_uris":{"android":"levelo://app?vid=9feee40e-41ff-4114-b1a0-2b86d3bbe2f5","ios":"levelo://app?vid=9feee40e-41ff-4114-b1a0-2b86d3bbe2f5"},"vehicle_type_id":"4","last_reported":1707667705,"current_range_meters":21200,"station_id":"ce4bgrp2rcd13ifvqc9g","pricing_plan_id":"free"},{"bike_id":"92f1b7f6-7338-41d1-8755-16c5308f1119","system_id":"levelo_inurba_marseille","lat":43.305368,"lon":5.367343,"is_reserved":false,"is_disabled":false,"rental_uris":{"android":"levelo://app?vid=92f1b7f6-7338-41d1-8755-16c5308f1119","ios":"levelo://app?vid=92f1b7f6-7338-41d1-8755-16c5308f1119"},"vehicle_type_id":"4","last_reported":1707667705,"current_range_meters":7200,"station_id":"ce4bgrp2rcd13ifvqc9g","pricing_plan_id":"free"},{"bike_id":"8d7bd145-e66b-4edf-b5e6-c55776c10442","system_id":"levelo_inurba_marseille","lat":43.305706,"lon":5.365654,"is_reserved":false,"is_disabled":false,"rental_uris":{"android":"levelo://app?vid=8d7bd145-e66b-4edf-b5e6-c55776c10442","ios":"levelo://app?vid=8d7bd145-e66b-4edf-b5e6-c55776c10442"},"vehicle_type_id":"4","last_reported":1707667705,"current_range_meters":31200,"station_id":"ce4bgs12rcd13ifvqcag","pricing_plan_id":"free"},{"bike_id":"b0a804b4-2326-45b0-b5a2-c19a385c3244","system_id":"levelo_inurba_marseille","lat":43.305706,"lon":5.365654,"is_reserved":false,"is_disabled":false,"rental_uris":{"android":"levelo://app?vid=b0a804b4-2326-45b0-b5a2-c19a385c3244","ios":"levelo://app?vid=b0a804b4-2326-45b0-b5a2-c19a385c3244"},"vehicle_type_id":"4","last_reported":1707667705,"current_range_meters":30800,"station_id":"ce4bgs12rcd13ifvqcag","pricing_plan_id":"free"},{"bike_id":"13b1a8c3-6d84-4cbb-815b-68acad6c83aa","system_id":"levelo_inurba_marseille","lat":43.306,"lon":5.3723,"is_reserved":false,"is_disabled":false,"rental_uris":{"android":"levelo://app?vid=13b1a8c3-6d84-4cbb-815b-68acad6c83aa","ios":"levelo://app?vid=13b1a8c3-6d84-4cbb-815b-68acad6c83aa"},"vehicle_type_id":"4","last_reported":1707667705,"current_range_meters":0,"station_id":"ce4bgqh2rcd13ifvqc4g","pricing_plan_id":"free"},{"bike_id":"f9f239c7-b99d-402d-bda2-b8adb8b6bf19","system_id":"levelo_inurba_marseille","lat":43.30594,"lon":5.37217,"is_reserved":false,"is_disabled":false,"rental_uris":{"android":"levelo://app?vid=f9f239c7-b99d-402d-bda2-b8adb8b6bf19","ios":"levelo://app?vid=f9f239c7-b99d-402d-bda2-b8adb8b6bf19"},"vehicle_type_id":"4","last_reported":1707667705,"current_range_meters":12000,"station_id":"ce4bgqh2rcd13ifvqc4g","pricing_plan_id":"free"},{"bike_id":"857681bd-570f-4c1d-bc19-1586f0defdb4","system_id":"levelo_inurba_marseille","lat":43.305989,"lon":5.37225,"is_reserved":false,"is_disabled":false,"rental_uris":{"android":"levelo://app?vid=857681bd-570f-4c1d-bc19-1586f0defdb4","ios":"levelo://app?vid=857681bd-570f-4c1d-bc19-1586f0defdb4"},"vehicle_type_id":"4","last_reported":1707667705,"current_range_meters":20400,"station_id":"ce4bgqh2rcd13ifvqc4g","pricing_plan_id":"free"},{"bike_id":"43b75d9a-336a-4d56-bb8f-02e418050959","system_id":"levelo_inurba_marseille","lat":43.305989,"lon":5.37225,"is_reserved":false,"is_disabled":false,"rental_uris":{"android":"levelo://app?vid=43b75d9a-336a-4d56-bb8f-02e418050959","ios":"levelo://app?vid=43b75d9a-336a-4d56-bb8f-02e418050959"},"vehicle_type_id":"4","last_reported":1707667705,"current_range_meters":0,"station_id":"ce4bgqh2rcd13ifvqc4g","pricing_plan_id":"free"},{"bike_id":"0cdda674-5009-4682-a2ac-3053c1d8cc82","system_id":"levelo_inurba_marseille","lat":43.311161,"lon":5.377633,"is_reserved":false,"is_disabled":false,"rental_uris":{"android":"levelo://app?vid=0cdda674-5009-4682-a2ac-3053c1d8cc82","ios":"levelo://app?vid=0cdda674-5009-4682-a2ac-3053c1d8cc82"},"vehicle_type_id":"4","last_reported":1707667705,"current_range_meters":18400,"station_id":"ce4bgt92rcd13ifvqcg0","pricing_plan_id":"free"},{"bike_id":"35e6553c-14ad-43e3-951a-a2e86e079a92","system_id":"levelo_inurba_marseille","lat":43.311131,"lon":5.377651,"is_reserved":false,"is_disabled":false,"rental_uris":{"android":"levelo://app?vid=35e6553c-14ad-43e3-951a-a2e86e079a92","ios":"levelo://app?vid=35e6553c-14ad-43e3-951a-a2e86e079a92"},"vehicle_type_id":"4","last_reported":1707667705,"current_range_meters":21600,"station_id":"ce4bgt92rcd13ifvqcg0","pricing_plan_id":"free"},{"bike_id":"c3295083-97d5-48a4-9924-9b1370a288ab","system_id":"levelo_inurba_marseille","lat":43.307945,"lon":5.376487,"is_reserved":false,"is_disabled":false,"rental_uris":{"android":"levelo://app?vid=c3295083-97d5-48a4-9924-9b1370a288ab","ios":"levelo://app?vid=c3295083-97d5-48a4-9924-9b1370a288ab"},"vehicle_type_id":"4","last_reported":1707667705,"current_range_meters":21200,"station_id":"ce4bgv92rcd13ifvqcq0","pricing_plan_id":"free"},{"bike_id":"018ed0fb-5eaf-41ad-a514-1a0e0f54692e","system_id":"levelo_inurba_marseille","lat":43.30304,"lon":5.368987,"is_reserved":false,"is_disabled":false,"rental_uris":{"android":"levelo://app?vid=018ed0fb-5eaf-41ad-a514-1a0e0f54692e","ios":"levelo://app?vid=018ed0fb-5eaf-41ad-a514-1a0e0f54692e"},"vehicle_type_id":"4","last_reported":1707667705,"current_range_meters":20800,"station_id":"ce4bgqh2rcd13ifvqc5g","pricing_plan_id":"free"},{"bike_id":"dca02982-a8ca-4f8f-99aa-c4c50c3dc6cf","system_id":"levelo_inurba_marseille","lat":43.32273,"lon":5.36961,"is_reserved":false,"is_disabled":false,"rental_uris":{"android":"levelo://app?vid=dca02982-a8ca-4f8f-99aa-c4c50c3dc6cf","ios":"levelo://app?vid=dca02982-a8ca-4f8f-99aa-c4c50c3dc6cf"},"vehicle_type_id":"4","last_reported":1707667705,"current_range_meters":18000,"station_id":"","pricing_plan_id":"free"},{"bike_id":"3ab732c0-26d0-4585-a0b6-1da2fc2ba4b6","system_id":"levelo_inurba_marseille","lat":43.301939,"lon":5.366286,"is_reserved":false,"is_disabled":false,"rental_uris":{"android":"levelo://app?vid=3ab732c0-26d0-4585-a0b6-1da2fc2ba4b6","ios":"levelo://app?vid=3ab732c0-26d0-4585-a0b6-1da2fc2ba4b6"},"vehicle_type_id":"4","last_reported":1707667705,"current_range_meters":0,"station_id":"ce4bgrh2rcd13ifvqc8g","pricing_plan_id":"free"},{"bike_id":"0c37cf7a-6e9a-465c-a6b1-877d4c235490","system_id":"levelo_inurba_marseille","lat":43.301939,"lon":5.366286,"is_reserved":false,"is_disabled":false,"rental_uris":{"android":"levelo://app?vid=0c37cf7a-6e9a-465c-a6b1-877d4c235490","ios":"levelo://app?vid=0c37cf7a-6e9a-465c-a6b1-877d4c235490"},"vehicle_type_id":"4","last_reported":1707667705,"current_range_meters":18000,"station_id":"ce4bgrh2rcd13ifvqc8g","pricing_plan_id":"free"},{"bike_id":"6c7eb289-c43e-402b-a39b-aeff7faf73e6","system_id":"levelo_inurba_marseille","lat":43.311802,"lon":5.38247,"is_reserved":false,"is_disabled":false,"rental_uris":{"android":"levelo://app?vid=6c7eb289-c43e-402b-a39b-aeff7faf73e6","ios":"levelo://app?vid=6c7eb289-c43e-402b-a39b-aeff7faf73e6"},"vehicle_type_id":"4","last_reported":1707667705,"current_range_meters":6400,"station_id":"","pricing_plan_id":"free"},{"bike_id":"0ef9d238-ff50-4f98-bcdd-6c571f8995b9","system_id":"levelo_inurba_marseille","lat":43.308012,"lon":5.381511,"is_reserved":false,"is_disabled":false,"rental_uris":{"android":"levelo://app?vid=0ef9d238-ff50-4f98-bcdd-6c571f8995b9","ios":"levelo://app?vid=0ef9d238-ff50-4f98-bcdd-6c571f8995b9"},"vehicle_type_id":"4","last_reported":1707667705,"current_range_meters":12000,"station_id":"ce4bgt12rcd13ifvqce0","pricing_plan_id":"free"},{"bike_id":"7743f5ff-483a-42eb-aff8-2fce0234c88d","system_id":"levelo_inurba_marseille","lat":43.304606,"lon":5.379026,"is_reserved":false,"is_disabled":false,"rental_uris":{"android":"levelo://app?vid=7743f5ff-483a-42eb-aff8-2fce0234c88d","ios":"levelo://app?vid=7743f5ff-483a-42eb-aff8-2fce0234c88d"},"vehicle_type_id":"4","last_reported":1707667705,"current_range_meters":22800,"station_id":"ce4bgup2rcd13ifvqcn0","pricing_plan_id":"free"},{"bike_id":"1968f99d-7009-4337-b5a9-0f4d5ce098b8","system_id":"levelo_inurba_marseille","lat":43.3046,"lon":5.37905,"is_reserved":false,"is_disabled":false,"rental_uris":{"android":"levelo://app?vid=1968f99d-7009-4337-b5a9-0f4d5ce098b8","ios":"levelo://app?vid=1968f99d-7009-4337-b5a9-0f4d5ce098b8"},"vehicle_type_id":"4","last_reported":1707667705,"current_range_meters":800,"station_id":"ce4bgup2rcd13ifvqcn0","pricing_plan_id":"free"},{"bike_id":"a34a2f83-cbcd-4c60-acc0-2f59774cd82e","system_id":"levelo_inurba_marseille","lat":43.324771,"lon":5.36557,"is_reserved":false,"is_disabled":false,"rental_uris":{"android":"levelo://app?vid=a34a2f83-cbcd-4c60-acc0-2f59774cd82e","ios":"levelo://app?vid=a34a2f83-cbcd-4c60-acc0-2f59774cd82e"},"vehicle_type_id":"4","last_reported":1707667705,"current_range_meters":10400,"station_id":"ce4bhs12rcd13ifvqhvg","pricing_plan_id":"free"},{"bike_id":"88757b7e-6a70-4dfc-b04c-255bba11b422","system_id":"levelo_inurba_marseille","lat":43.324771,"lon":5.36557,"is_reserved":false,"is_disabled":false,"rental_uris":{"android":"levelo://app?vid=88757b7e-6a70-4dfc-b04c-255bba11b422","ios":"levelo://app?vid=88757b7e-6a70-4dfc-b04c-255bba11b422"},"vehicle_type_id":"4","last_reported":1707667705,"current_range_meters":0,"station_id":"ce4bhs12rcd13ifvqhvg","pricing_plan_id":"free"},{"bike_id":"11f01369-a7c5-4ba3-8875-c0638819e40c","system_id":"levelo_inurba_marseille","lat":43.324771,"lon":5.36557,"is_reserved":false,"is_disabled":false,"rental_uris":{"android":"levelo://app?vid=11f01369-a7c5-4ba3-8875-c0638819e40c","ios":"levelo://app?vid=11f01369-a7c5-4ba3-8875-c0638819e40c"},"vehicle_type_id":"4","last_reported":1707667705,"current_range_meters":12400,"station_id":"ce4bhs12rcd13ifvqhvg","pricing_plan_id":"free"},{"bike_id":"a25a4e72-39fb-4e4c-b007-4f94627eaa37","system_id":"levelo_inurba_marseille","lat":43.324771,"lon":5.36557,"is_reserved":false,"is_disabled":false,"rental_uris":{"android":"levelo://app?vid=a25a4e72-39fb-4e4c-b007-4f94627eaa37","ios":"levelo://app?vid=a25a4e72-39fb-4e4c-b007-4f94627eaa37"},"vehicle_type_id":"4","last_reported":1707667705,"current_range_meters":21200,"station_id":"ce4bhs12rcd13ifvqhvg","pricing_plan_id":"free"},{"bike_id":"4b938ca4-1902-4f7a-ae5d-4a15896eebd9","system_id":"levelo_inurba_marseille","lat":43.324771,"lon":5.36557,"is_reserved":false,"is_disabled":false,"rental_uris":{"android":"levelo://app?vid=4b938ca4-1902-4f7a-ae5d-4a15896eebd9","ios":"levelo://app?vid=4b938ca4-1902-4f7a-ae5d-4a15896eebd9"},"vehicle_type_id":"4","last_reported":1707667705,"current_range_meters":28400,"station_id":"ce4bhs12rcd13ifvqhvg","pricing_plan_id":"free"},{"bike_id":"73dd03cd-847b-46a2-a69f-9cd97061dc72","system_id":"levelo_inurba_marseille","lat":43.324771,"lon":5.36557,"is_reserved":false,"is_disabled":false,"rental_uris":{"android":"levelo://app?vid=73dd03cd-847b-46a2-a69f-9cd97061dc72","ios":"levelo://app?vid=73dd03cd-847b-46a2-a69f-9cd97061dc72"},"vehicle_type_id":"4","last_reported":1707667705,"current_range_meters":18000,"station_id":"ce4bhs12rcd13ifvqhvg","pricing_plan_id":"free"},{"bike_id":"744a319b-a01d-4d96-a7b5-c0e2a04c1298","system_id":"levelo_inurba_marseille","lat":43.324771,"lon":5.36557,"is_reserved":false,"is_disabled":false,"rental_uris":{"android":"levelo://app?vid=744a319b-a01d-4d96-a7b5-c0e2a04c1298","ios":"levelo://app?vid=744a319b-a01d-4d96-a7b5-c0e2a04c1298"},"vehicle_type_id":"4","last_reported":1707667705,"current_range_meters":10400,"station_id":"ce4bhs12rcd13ifvqhvg","pricing_plan_id":"free"},{"bike_id":"97f71f75-d414-4d74-9636-20377fab8590","system_id":"levelo_inurba_marseille","lat":43.324771,"lon":5.36557,"is_reserved":false,"is_disabled":false,"rental_uris":{"android":"levelo://app?vid=97f71f75-d414-4d74-9636-20377fab8590","ios":"levelo://app?vid=97f71f75-d414-4d74-9636-20377fab8590"},"vehicle_type_id":"4","last_reported":1707667705,"current_range_meters":7200,"station_id":"ce4bhs12rcd13ifvqhvg","pricing_plan_id":"free"},{"bike_id":"db43f9f6-9b82-4d3d-908d-6d4357eef68e","system_id":"levelo_inurba_marseille","lat":43.302784,"lon":5.377158,"is_reserved":false,"is_disabled":false,"rental_uris":{"android":"levelo://app?vid=db43f9f6-9b82-4d3d-908d-6d4357eef68e","ios":"levelo://app?vid=db43f9f6-9b82-4d3d-908d-6d4357eef68e"},"vehicle_type_id":"4","last_reported":1707667705,"current_range_meters":16800,"station_id":"ce4bguh2rcd13ifvqcj0","pricing_plan_id":"free"},{"bike_id":"6a749ca1-461e-4500-9690-ba44c9a57fe4","system_id":"levelo_inurba_marseille","lat":43.302784,"lon":5.377158,"is_reserved":false,"is_disabled":false,"rental_uris":{"android":"levelo://app?vid=6a749ca1-461e-4500-9690-ba44c9a57fe4","ios":"levelo://app?vid=6a749ca1-461e-4500-9690-ba44c9a57fe4"},"vehicle_type_id":"4","last_reported":1707667705,"current_range_meters":20000,"station_id":"ce4bguh2rcd13ifvqcj0","pricing_plan_id":"free"},{"bike_id":"a492622d-1b73-4f05-be17-c275b2336d20","system_id":"levelo_inurba_marseille","lat":43.301429,"lon":5.37413,"is_reserved":false,"is_disabled":false,"rental_uris":{"android":"levelo://app?vid=a492622d-1b73-4f05-be17-c275b2336d20","ios":"levelo://app?vid=a492622d-1b73-4f05-be17-c275b2336d20"},"vehicle_type_id":"4","last_reported":1707667705,"current_range_meters":31600,"station_id":"ce4bgs92rcd13ifvqcc0","pricing_plan_id":"free"},{"bike_id":"0eb65560-c12d-42b3-83b5-e3dfa0419189","system_id":"levelo_inurba_marseille","lat":43.301429,"lon":5.37413,"is_reserved":false,"is_disabled":false,"rental_uris":{"android":"levelo://app?vid=0eb65560-c12d-42b3-83b5-e3dfa0419189","ios":"levelo://app?vid=0eb65560-c12d-42b3-83b5-e3dfa0419189"},"vehicle_type_id":"4","last_reported":1707667705,"current_range_meters":31200,"station_id":"ce4bgs92rcd13ifvqcc0","pricing_plan_id":"free"},{"bike_id":"83e621d3-8454-4a20-a1f9-0d10b3e8bd40","system_id":"levelo_inurba_marseille","lat":43.30143,"lon":5.37413,"is_reserved":false,"is_disabled":false,"rental_uris":{"android":"levelo://app?vid=83e621d3-8454-4a20-a1f9-0d10b3e8bd40","ios":"levelo://app?vid=83e621d3-8454-4a20-a1f9-0d10b3e8bd40"},"vehicle_type_id":"4","last_reported":1707667705,"current_range_meters":30000,"station_id":"ce4bgs92rcd13ifvqcc0","pricing_plan_id":"free"},{"bike_id":"895a9455-4ea2-4e94-ac0e-16ec81c77a43","system_id":"levelo_inurba_marseille","lat":43.301429,"lon":5.37413,"is_reserved":false,"is_disabled":false,"rental_uris":{"android":"levelo://app?vid=895a9455-4ea2-4e94-ac0e-16ec81c77a43","ios":"levelo://app?vid=895a9455-4ea2-4e94-ac0e-16ec81c77a43"},"vehicle_type_id":"4","last_reported":1707667705,"current_range_meters":31600,"station_id":"ce4bgs92rcd13ifvqcc0","pricing_plan_id":"free"},{"bike_id":"f3adfb4d-f0b1-4cf5-b3df-89abfa30c2ac","system_id":"levelo_inurba_marseille","lat":43.301429,"lon":5.37413,"is_reserved":false,"is_disabled":false,"rental_uris":{"android":"levelo://app?vid=f3adfb4d-f0b1-4cf5-b3df-89abfa30c2ac","ios":"levelo://app?vid=f3adfb4d-f0b1-4cf5-b3df-89abfa30c2ac"},"vehicle_type_id":"4","last_reported":1707667705,"current_range_meters":12000,"station_id":"ce4bgs92rcd13ifvqcc0","pricing_plan_id":"free"},{"bike_id":"752eb8ef-7106-44a6-af74-1fc5d312ea37","system_id":"levelo_inurba_marseille","lat":43.30143,"lon":5.37413,"is_reserved":false,"is_disabled":false,"rental_uris":{"android":"levelo://app?vid=752eb8ef-7106-44a6-af74-1fc5d312ea37","ios":"levelo://app?vid=752eb8ef-7106-44a6-af74-1fc5d312ea37"},"vehicle_type_id":"4","last_reported":1707667705,"current_range_meters":22400,"station_id":"ce4bgs92rcd13ifvqcc0","pricing_plan_id":"free"},{"bike_id":"197e2d22-1ad5-47b2-8c09-70933158ca5e","system_id":"levelo_inurba_marseille","lat":43.319935,"lon":5.381699,"is_reserved":false,"is_disabled":false,"rental_uris":{"android":"levelo://app?vid=197e2d22-1ad5-47b2-8c09-70933158ca5e","ios":"levelo://app?vid=197e2d22-1ad5-47b2-8c09-70933158ca5e"},"vehicle_type_id":"4","last_reported":1707667705,"current_range_meters":8400,"station_id":"ce4bhr12rcd13ifvqhpg","pricing_plan_id":"free"},{"bike_id":"52ce10df-218c-4855-ab5a-cd0f3cd6dffb","system_id":"levelo_inurba_marseille","lat":43.319935,"lon":5.381699,"is_reserved":false,"is_disabled":false,"rental_uris":{"android":"levelo://app?vid=52ce10df-218c-4855-ab5a-cd0f3cd6dffb","ios":"levelo://app?vid=52ce10df-218c-4855-ab5a-cd0f3cd6dffb"},"vehicle_type_id":"4","last_reported":1707667705,"current_range_meters":22000,"station_id":"ce4bhr12rcd13ifvqhpg","pricing_plan_id":"free"},{"bike_id":"f212459f-757c-4264-b690-31839c73cc98","system_id":"levelo_inurba_marseille","lat":43.313571,"lon":5.384829,"is_reserved":false,"is_disabled":false,"rental_uris":{"android":"levelo://app?vid=f212459f-757c-4264-b690-31839c73cc98","ios":"levelo://app?vid=f212459f-757c-4264-b690-31839c73cc98"},"vehicle_type_id":"4","last_reported":1707667705,"current_range_meters":26400,"station_id":"ce4bgt92rcd13ifvqcf0","pricing_plan_id":"free"},{"bike_id":"667968c7-1217-4ca4-a6f0-ac804d66b0ff","system_id":"levelo_inurba_marseille","lat":43.313571,"lon":5.384829,"is_reserved":false,"is_disabled":false,"rental_uris":{"android":"levelo://app?vid=667968c7-1217-4ca4-a6f0-ac804d66b0ff","ios":"levelo://app?vid=667968c7-1217-4ca4-a6f0-ac804d66b0ff"},"vehicle_type_id":"4","last_reported":1707667705,"current_range_meters":28800,"station_id":"ce4bgt92rcd13ifvqcf0","pricing_plan_id":"free"},{"bike_id":"5de1bcc6-444f-4231-af4b-c87535665a6a","system_id":"levelo_inurba_marseille","lat":43.299724,"lon":5.371829,"is_reserved":false,"is_disabled":false,"rental_uris":{"android":"levelo://app?vid=5de1bcc6-444f-4231-af4b-c87535665a6a","ios":"levelo://app?vid=5de1bcc6-444f-4231-af4b-c87535665a6a"},"vehicle_type_id":"4","last_reported":1707667705,"current_range_meters":18400,"station_id":"ce4bgr92rcd13ifvqc7g","pricing_plan_id":"free"},{"bike_id":"a0fd1718-4a55-4c19-b80f-eb3f52babd65","system_id":"levelo_inurba_marseille","lat":43.299222,"lon":5.365554,"is_reserved":false,"is_disabled":false,"rental_uris":{"android":"levelo://app?vid=a0fd1718-4a55-4c19-b80f-eb3f52babd65","ios":"levelo://app?vid=a0fd1718-4a55-4c19-b80f-eb3f52babd65"},"vehicle_type_id":"4","last_reported":1707667705,"current_range_meters":16800,"station_id":"ce4bgm92rcd13ifvqbr0","pricing_plan_id":"free"},{"bike_id":"d5b728b0-37a8-470f-98d9-ea798490c8ca","system_id":"levelo_inurba_marseille","lat":43.299724,"lon":5.371829,"is_reserved":false,"is_disabled":false,"rental_uris":{"android":"levelo://app?vid=d5b728b0-37a8-470f-98d9-ea798490c8ca","ios":"levelo://app?vid=d5b728b0-37a8-470f-98d9-ea798490c8ca"},"vehicle_type_id":"4","last_reported":1707667705,"current_range_meters":8000,"station_id":"ce4bgr92rcd13ifvqc7g","pricing_plan_id":"free"},{"bike_id":"1f0cfec7-226f-4350-9a3a-1dbd734d84ed","system_id":"levelo_inurba_marseille","lat":43.299724,"lon":5.371829,"is_reserved":false,"is_disabled":false,"rental_uris":{"android":"levelo://app?vid=1f0cfec7-226f-4350-9a3a-1dbd734d84ed","ios":"levelo://app?vid=1f0cfec7-226f-4350-9a3a-1dbd734d84ed"},"vehicle_type_id":"4","last_reported":1707667705,"current_range_meters":800,"station_id":"ce4bgr92rcd13ifvqc7g","pricing_plan_id":"free"},{"bike_id":"13fc195f-17a3-4d25-a531-a160fd1fa7a7","system_id":"levelo_inurba_marseille","lat":43.299724,"lon":5.371829,"is_reserved":false,"is_disabled":false,"rental_uris":{"android":"levelo://app?vid=13fc195f-17a3-4d25-a531-a160fd1fa7a7","ios":"levelo://app?vid=13fc195f-17a3-4d25-a531-a160fd1fa7a7"},"vehicle_type_id":"4","last_reported":1707667705,"current_range_meters":20000,"station_id":"ce4bgr92rcd13ifvqc7g","pricing_plan_id":"free"},{"bike_id":"eacf918d-ed37-47ba-a3f3-611fe35c8135","system_id":"levelo_inurba_marseille","lat":43.299724,"lon":5.371829,"is_reserved":false,"is_disabled":false,"rental_uris":{"android":"levelo://app?vid=eacf918d-ed37-47ba-a3f3-611fe35c8135","ios":"levelo://app?vid=eacf918d-ed37-47ba-a3f3-611fe35c8135"},"vehicle_type_id":"4","last_reported":1707667705,"current_range_meters":16000,"station_id":"ce4bgr92rcd13ifvqc7g","pricing_plan_id":"free"},{"bike_id":"3e7e1748-ed0c-465a-b1f8-17e45577f603","system_id":"levelo_inurba_marseille","lat":43.2986,"lon":5.36282,"is_reserved":false,"is_disabled":false,"rental_uris":{"android":"levelo://app?vid=3e7e1748-ed0c-465a-b1f8-17e45577f603","ios":"levelo://app?vid=3e7e1748-ed0c-465a-b1f8-17e45577f603"},"vehicle_type_id":"4","last_reported":1707667705,"current_range_meters":18000,"station_id":"ce4bgpp2rcd13ifvqc3g","pricing_plan_id":"free"},{"bike_id":"1195e01a-b78d-433f-b86a-b6c35dd72bde","system_id":"levelo_inurba_marseille","lat":43.298433,"lon":5.362774,"is_reserved":false,"is_disabled":false,"rental_uris":{"android":"levelo://app?vid=1195e01a-b78d-433f-b86a-b6c35dd72bde","ios":"levelo://app?vid=1195e01a-b78d-433f-b86a-b6c35dd72bde"},"vehicle_type_id":"4","last_reported":1707667705,"current_range_meters":12400,"station_id":"ce4bgpp2rcd13ifvqc3g","pricing_plan_id":"free"},{"bike_id":"5a8fa001-e3bf-4287-9f59-de66fa4179c0","system_id":"levelo_inurba_marseille","lat":43.311542,"lon":5.386765,"is_reserved":false,"is_disabled":false,"rental_uris":{"android":"levelo://app?vid=5a8fa001-e3bf-4287-9f59-de66fa4179c0","ios":"levelo://app?vid=5a8fa001-e3bf-4287-9f59-de66fa4179c0"},"vehicle_type_id":"4","last_reported":1707667705,"current_range_meters":24000,"station_id":"","pricing_plan_id":"free"},{"bike_id":"7fc03c05-5240-4ed6-8498-9908f86b0ae3","system_id":"levelo_inurba_marseille","lat":43.298433,"lon":5.362774,"is_reserved":false,"is_disabled":false,"rental_uris":{"android":"levelo://app?vid=7fc03c05-5240-4ed6-8498-9908f86b0ae3","ios":"levelo://app?vid=7fc03c05-5240-4ed6-8498-9908f86b0ae3"},"vehicle_type_id":"4","last_reported":1707667705,"current_range_meters":24400,"station_id":"ce4bgpp2rcd13ifvqc3g","pricing_plan_id":"free"},{"bike_id":"26771657-02d6-4bb0-89e1-d5ee242592bc","system_id":"levelo_inurba_marseille","lat":43.298433,"lon":5.362774,"is_reserved":false,"is_disabled":false,"rental_uris":{"android":"levelo://app?vid=26771657-02d6-4bb0-89e1-d5ee242592bc","ios":"levelo://app?vid=26771657-02d6-4bb0-89e1-d5ee242592bc"},"vehicle_type_id":"4","last_reported":1707667705,"current_range_meters":22000,"station_id":"ce4bgpp2rcd13ifvqc3g","pricing_plan_id":"free"},{"bike_id":"bc9d0828-3280-4632-ba61-6d143638b131","system_id":"levelo_inurba_marseille","lat":43.298527,"lon":5.36288,"is_reserved":false,"is_disabled":false,"rental_uris":{"android":"levelo://app?vid=bc9d0828-3280-4632-ba61-6d143638b131","ios":"levelo://app?vid=bc9d0828-3280-4632-ba61-6d143638b131"},"vehicle_type_id":"4","last_reported":1707667705,"current_range_meters":7600,"station_id":"ce4bgpp2rcd13ifvqc3g","pricing_plan_id":"free"},{"bike_id":"e27a2d58-5ece-40b2-ad99-3da71becd743","system_id":"levelo_inurba_marseille","lat":43.298433,"lon":5.362774,"is_reserved":false,"is_disabled":false,"rental_uris":{"android":"levelo://app?vid=e27a2d58-5ece-40b2-ad99-3da71becd743","ios":"levelo://app?vid=e27a2d58-5ece-40b2-ad99-3da71becd743"},"vehicle_type_id":"4","last_reported":1707667705,"current_range_meters":22800,"station_id":"ce4bgpp2rcd13ifvqc3g","pricing_plan_id":"free"},{"bike_id":"1ac86b2e-b3cd-4039-b3af-2b9e2922a0a4","system_id":"levelo_inurba_marseille","lat":43.298433,"lon":5.362774,"is_reserved":false,"is_disabled":false,"rental_uris":{"android":"levelo://app?vid=1ac86b2e-b3cd-4039-b3af-2b9e2922a0a4","ios":"levelo://app?vid=1ac86b2e-b3cd-4039-b3af-2b9e2922a0a4"},"vehicle_type_id":"4","last_reported":1707667705,"current_range_meters":7600,"station_id":"ce4bgpp2rcd13ifvqc3g","pricing_plan_id":"free"},{"bike_id":"9bf2f2c2-d419-48de-98b7-f28299471a27","system_id":"levelo_inurba_marseille","lat":43.29851,"lon":5.3629,"is_reserved":false,"is_disabled":false,"rental_uris":{"android":"levelo://app?vid=9bf2f2c2-d419-48de-98b7-f28299471a27","ios":"levelo://app?vid=9bf2f2c2-d419-48de-98b7-f28299471a27"},"vehicle_type_id":"4","last_reported":1707667705,"current_range_meters":26400,"station_id":"ce4bgpp2rcd13ifvqc3g","pricing_plan_id":"free"},{"bike_id":"8fef9559-4216-433b-acba-7996c6fbd00f","system_id":"levelo_inurba_marseille","lat":43.298433,"lon":5.362774,"is_reserved":false,"is_disabled":false,"rental_uris":{"android":"levelo://app?vid=8fef9559-4216-433b-acba-7996c6fbd00f","ios":"levelo://app?vid=8fef9559-4216-433b-acba-7996c6fbd00f"},"vehicle_type_id":"4","last_reported":1707667705,"current_range_meters":15200,"station_id":"ce4bgpp2rcd13ifvqc3g","pricing_plan_id":"free"},{"bike_id":"f8ac3af1-4ae1-47ef-9d52-91500b383ae0","system_id":"levelo_inurba_marseille","lat":43.298433,"lon":5.362774,"is_reserved":false,"is_disabled":false,"rental_uris":{"android":"levelo://app?vid=f8ac3af1-4ae1-47ef-9d52-91500b383ae0","ios":"levelo://app?vid=f8ac3af1-4ae1-47ef-9d52-91500b383ae0"},"vehicle_type_id":"4","last_reported":1707667705,"current_range_meters":6400,"station_id":"ce4bgpp2rcd13ifvqc3g","pricing_plan_id":"free"},{"bike_id":"013d8ac4-7705-4739-8e6a-c9710718c9f7","system_id":"levelo_inurba_marseille","lat":43.2985,"lon":5.36288,"is_reserved":false,"is_disabled":false,"rental_uris":{"android":"levelo://app?vid=013d8ac4-7705-4739-8e6a-c9710718c9f7","ios":"levelo://app?vid=013d8ac4-7705-4739-8e6a-c9710718c9f7"},"vehicle_type_id":"4","last_reported":1707667705,"current_range_meters":22000,"station_id":"ce4bgpp2rcd13ifvqc3g","pricing_plan_id":"free"},{"bike_id":"e1aaf497-4cb9-468b-adbe-f621e529f17a","system_id":"levelo_inurba_marseille","lat":43.298433,"lon":5.362774,"is_reserved":false,"is_disabled":false,"rental_uris":{"android":"levelo://app?vid=e1aaf497-4cb9-468b-adbe-f621e529f17a","ios":"levelo://app?vid=e1aaf497-4cb9-468b-adbe-f621e529f17a"},"vehicle_type_id":"4","last_reported":1707667705,"current_range_meters":23200,"station_id":"ce4bgpp2rcd13ifvqc3g","pricing_plan_id":"free"},{"bike_id":"acd87c5e-bcdb-4295-8ec4-6a9327317b9a","system_id":"levelo_inurba_marseille","lat":43.29849,"lon":5.36293,"is_reserved":false,"is_disabled":false,"rental_uris":{"android":"levelo://app?vid=acd87c5e-bcdb-4295-8ec4-6a9327317b9a","ios":"levelo://app?vid=acd87c5e-bcdb-4295-8ec4-6a9327317b9a"},"vehicle_type_id":"4","last_reported":1707667705,"current_range_meters":27200,"station_id":"ce4bgpp2rcd13ifvqc3g","pricing_plan_id":"free"},{"bike_id":"25330743-e649-4682-a639-80af8727ff73","system_id":"levelo_inurba_marseille","lat":43.29848,"lon":5.36281,"is_reserved":false,"is_disabled":false,"rental_uris":{"android":"levelo://app?vid=25330743-e649-4682-a639-80af8727ff73","ios":"levelo://app?vid=25330743-e649-4682-a639-80af8727ff73"},"vehicle_type_id":"4","last_reported":1707667705,"current_range_meters":18800,"station_id":"ce4bgpp2rcd13ifvqc3g","pricing_plan_id":"free"},{"bike_id":"af69f29c-7f5d-456b-814f-dff40e08a5c4","system_id":"levelo_inurba_marseille","lat":43.298457,"lon":5.362775,"is_reserved":false,"is_disabled":false,"rental_uris":{"android":"levelo://app?vid=af69f29c-7f5d-456b-814f-dff40e08a5c4","ios":"levelo://app?vid=af69f29c-7f5d-456b-814f-dff40e08a5c4"},"vehicle_type_id":"4","last_reported":1707667705,"current_range_meters":31200,"station_id":"ce4bgpp2rcd13ifvqc3g","pricing_plan_id":"free"},{"bike_id":"91e9ac95-ac87-4fe1-a309-636969f05bd5","system_id":"levelo_inurba_marseille","lat":43.298433,"lon":5.362774,"is_reserved":false,"is_disabled":false,"rental_uris":{"android":"levelo://app?vid=91e9ac95-ac87-4fe1-a309-636969f05bd5","ios":"levelo://app?vid=91e9ac95-ac87-4fe1-a309-636969f05bd5"},"vehicle_type_id":"4","last_reported":1707667705,"current_range_meters":23200,"station_id":"ce4bgpp2rcd13ifvqc3g","pricing_plan_id":"free"},{"bike_id":"de7b8aaf-39b8-44df-b58a-04cbca66bede","system_id":"levelo_inurba_marseille","lat":43.29846,"lon":5.36275,"is_reserved":false,"is_disabled":false,"rental_uris":{"android":"levelo://app?vid=de7b8aaf-39b8-44df-b58a-04cbca66bede","ios":"levelo://app?vid=de7b8aaf-39b8-44df-b58a-04cbca66bede"},"vehicle_type_id":"4","last_reported":1707667705,"current_range_meters":31200,"station_id":"ce4bgpp2rcd13ifvqc3g","pricing_plan_id":"free"},{"bike_id":"52688a62-9b53-4992-b96d-2f09446e5b86","system_id":"levelo_inurba_marseille","lat":43.29845,"lon":5.36279,"is_reserved":false,"is_disabled":false,"rental_uris":{"android":"levelo://app?vid=52688a62-9b53-4992-b96d-2f09446e5b86","ios":"levelo://app?vid=52688a62-9b53-4992-b96d-2f09446e5b86"},"vehicle_type_id":"4","last_reported":1707667705,"current_range_meters":8800,"station_id":"ce4bgpp2rcd13ifvqc3g","pricing_plan_id":"free"},{"bike_id":"195e1b61-4acc-470a-a3c1-53a551f69084","system_id":"levelo_inurba_marseille","lat":43.305364,"lon":5.384119,"is_reserved":false,"is_disabled":false,"rental_uris":{"android":"levelo://app?vid=195e1b61-4acc-470a-a3c1-53a551f69084","ios":"levelo://app?vid=195e1b61-4acc-470a-a3c1-53a551f69084"},"vehicle_type_id":"4","last_reported":1707667705,"current_range_meters":20400,"station_id":"ce4bgg92rcd13ifvqb30","pricing_plan_id":"free"},{"bike_id":"5d04dd56-ee6f-4008-ad2a-86f5b506007b","system_id":"levelo_inurba_marseille","lat":43.29844,"lon":5.36277,"is_reserved":false,"is_disabled":false,"rental_uris":{"android":"levelo://app?vid=5d04dd56-ee6f-4008-ad2a-86f5b506007b","ios":"levelo://app?vid=5d04dd56-ee6f-4008-ad2a-86f5b506007b"},"vehicle_type_id":"4","last_reported":1707667705,"current_range_meters":2000,"station_id":"ce4bgpp2rcd13ifvqc3g","pricing_plan_id":"free"},{"bike_id":"906a8e43-b2fc-4788-b1d9-dc77a86baace","system_id":"levelo_inurba_marseille","lat":43.29843,"lon":5.36275,"is_reserved":false,"is_disabled":false,"rental_uris":{"android":"levelo://app?vid=906a8e43-b2fc-4788-b1d9-dc77a86baace","ios":"levelo://app?vid=906a8e43-b2fc-4788-b1d9-dc77a86baace"},"vehicle_type_id":"4","last_reported":1707667705,"current_range_meters":28000,"station_id":"ce4bgpp2rcd13ifvqc3g","pricing_plan_id":"free"},{"bike_id":"57849ff2-6a45-4ebd-9520-8a8432191014","system_id":"levelo_inurba_marseille","lat":43.298433,"lon":5.362774,"is_reserved":false,"is_disabled":false,"rental_uris":{"android":"levelo://app?vid=57849ff2-6a45-4ebd-9520-8a8432191014","ios":"levelo://app?vid=57849ff2-6a45-4ebd-9520-8a8432191014"},"vehicle_type_id":"4","last_reported":1707667705,"current_range_meters":22800,"station_id":"ce4bgpp2rcd13ifvqc3g","pricing_plan_id":"free"},{"bike_id":"f91c7fe3-070e-4347-8431-c9523c66baa9","system_id":"levelo_inurba_marseille","lat":43.29839,"lon":5.3626,"is_reserved":false,"is_disabled":false,"rental_uris":{"android":"levelo://app?vid=f91c7fe3-070e-4347-8431-c9523c66baa9","ios":"levelo://app?vid=f91c7fe3-070e-4347-8431-c9523c66baa9"},"vehicle_type_id":"4","last_reported":1707667705,"current_range_meters":26000,"station_id":"ce4bgpp2rcd13ifvqc3g","pricing_plan_id":"free"},{"bike_id":"d1508715-9d25-4794-a055-5d6c2418c93b","system_id":"levelo_inurba_marseille","lat":43.298433,"lon":5.362774,"is_reserved":false,"is_disabled":false,"rental_uris":{"android":"levelo://app?vid=d1508715-9d25-4794-a055-5d6c2418c93b","ios":"levelo://app?vid=d1508715-9d25-4794-a055-5d6c2418c93b"},"vehicle_type_id":"4","last_reported":1707667705,"current_range_meters":29200,"station_id":"ce4bgpp2rcd13ifvqc3g","pricing_plan_id":"free"},{"bike_id":"557c6768-0e0d-4a15-8a6a-b8a1676a8eb7","system_id":"levelo_inurba_marseille","lat":43.299243,"lon":5.37481,"is_reserved":false,"is_disabled":false,"rental_uris":{"android":"levelo://app?vid=557c6768-0e0d-4a15-8a6a-b8a1676a8eb7","ios":"levelo://app?vid=557c6768-0e0d-4a15-8a6a-b8a1676a8eb7"},"vehicle_type_id":"4","last_reported":1707667705,"current_range_meters":0,"station_id":"ce4bgjh2rcd13ifvqbg0","pricing_plan_id":"free"},{"bike_id":"7f3fb8f5-0f0c-45f1-9b91-184855e5a9cc","system_id":"levelo_inurba_marseille","lat":43.327924,"lon":5.366869,"is_reserved":false,"is_disabled":false,"rental_uris":{"android":"levelo://app?vid=7f3fb8f5-0f0c-45f1-9b91-184855e5a9cc","ios":"levelo://app?vid=7f3fb8f5-0f0c-45f1-9b91-184855e5a9cc"},"vehicle_type_id":"4","last_reported":1707667705,"current_range_meters":26000,"station_id":"","pricing_plan_id":"free"},{"bike_id":"1a584bd8-d11f-429e-88a7-aaed7dc1afb6","system_id":"levelo_inurba_marseille","lat":43.322872,"lon":5.382756,"is_reserved":false,"is_disabled":false,"rental_uris":{"android":"levelo://app?vid=1a584bd8-d11f-429e-88a7-aaed7dc1afb6","ios":"levelo://app?vid=1a584bd8-d11f-429e-88a7-aaed7dc1afb6"},"vehicle_type_id":"4","last_reported":1707667705,"current_range_meters":2000,"station_id":"ce4bhr12rcd13ifvqhqg","pricing_plan_id":"free"},{"bike_id":"c3332315-777e-4af8-b68a-18a46d9c4f28","system_id":"levelo_inurba_marseille","lat":43.322872,"lon":5.382756,"is_reserved":false,"is_disabled":false,"rental_uris":{"android":"levelo://app?vid=c3332315-777e-4af8-b68a-18a46d9c4f28","ios":"levelo://app?vid=c3332315-777e-4af8-b68a-18a46d9c4f28"},"vehicle_type_id":"4","last_reported":1707667705,"current_range_meters":31200,"station_id":"ce4bhr12rcd13ifvqhqg","pricing_plan_id":"free"},{"bike_id":"e5750477-e3f2-40a2-b1f6-91d5216398f6","system_id":"levelo_inurba_marseille","lat":43.322872,"lon":5.382756,"is_reserved":false,"is_disabled":false,"rental_uris":{"android":"levelo://app?vid=e5750477-e3f2-40a2-b1f6-91d5216398f6","ios":"levelo://app?vid=e5750477-e3f2-40a2-b1f6-91d5216398f6"},"vehicle_type_id":"4","last_reported":1707667705,"current_range_meters":28400,"station_id":"ce4bhr12rcd13ifvqhqg","pricing_plan_id":"free"},{"bike_id":"33170a3c-d249-42cf-a23e-db8cbeecfd39","system_id":"levelo_inurba_marseille","lat":43.322872,"lon":5.382756,"is_reserved":false,"is_disabled":false,"rental_uris":{"android":"levelo://app?vid=33170a3c-d249-42cf-a23e-db8cbeecfd39","ios":"levelo://app?vid=33170a3c-d249-42cf-a23e-db8cbeecfd39"},"vehicle_type_id":"4","last_reported":1707667705,"current_range_meters":14800,"station_id":"ce4bhr12rcd13ifvqhqg","pricing_plan_id":"free"},{"bike_id":"d16915ab-365b-49c0-8e2e-1059f74f084d","system_id":"levelo_inurba_marseille","lat":43.322872,"lon":5.382756,"is_reserved":false,"is_disabled":false,"rental_uris":{"android":"levelo://app?vid=d16915ab-365b-49c0-8e2e-1059f74f084d","ios":"levelo://app?vid=d16915ab-365b-49c0-8e2e-1059f74f084d"},"vehicle_type_id":"4","last_reported":1707667705,"current_range_meters":27600,"station_id":"ce4bhr12rcd13ifvqhqg","pricing_plan_id":"free"},{"bike_id":"7c59bca1-a347-4cb9-b145-64f6481277fc","system_id":"levelo_inurba_marseille","lat":43.322872,"lon":5.382756,"is_reserved":false,"is_disabled":false,"rental_uris":{"android":"levelo://app?vid=7c59bca1-a347-4cb9-b145-64f6481277fc","ios":"levelo://app?vid=7c59bca1-a347-4cb9-b145-64f6481277fc"},"vehicle_type_id":"4","last_reported":1707667705,"current_range_meters":30800,"station_id":"ce4bhr12rcd13ifvqhqg","pricing_plan_id":"free"},{"bike_id":"2ac1f315-5daf-4bcd-9ff8-b6cb88127386","system_id":"levelo_inurba_marseille","lat":43.322872,"lon":5.382756,"is_reserved":false,"is_disabled":false,"rental_uris":{"android":"levelo://app?vid=2ac1f315-5daf-4bcd-9ff8-b6cb88127386","ios":"levelo://app?vid=2ac1f315-5daf-4bcd-9ff8-b6cb88127386"},"vehicle_type_id":"4","last_reported":1707667705,"current_range_meters":4800,"station_id":"ce4bhr12rcd13ifvqhqg","pricing_plan_id":"free"},{"bike_id":"abd329cb-35b6-432f-a467-7e380a9ce776","system_id":"levelo_inurba_marseille","lat":43.322872,"lon":5.382756,"is_reserved":false,"is_disabled":false,"rental_uris":{"android":"levelo://app?vid=abd329cb-35b6-432f-a467-7e380a9ce776","ios":"levelo://app?vid=abd329cb-35b6-432f-a467-7e380a9ce776"},"vehicle_type_id":"4","last_reported":1707667705,"current_range_meters":6800,"station_id":"ce4bhr12rcd13ifvqhqg","pricing_plan_id":"free"},{"bike_id":"93d9ee7e-980d-42d4-a942-d22c057fb1c1","system_id":"levelo_inurba_marseille","lat":43.297774,"lon":5.370875,"is_reserved":false,"is_disabled":false,"rental_uris":{"android":"levelo://app?vid=93d9ee7e-980d-42d4-a942-d22c057fb1c1","ios":"levelo://app?vid=93d9ee7e-980d-42d4-a942-d22c057fb1c1"},"vehicle_type_id":"4","last_reported":1707667705,"current_range_meters":24400,"station_id":"ce4bgop2rcd13ifvqc1g","pricing_plan_id":"free"},{"bike_id":"c780842c-e95f-47ff-a149-ed36c8a413db","system_id":"levelo_inurba_marseille","lat":43.322872,"lon":5.382756,"is_reserved":false,"is_disabled":false,"rental_uris":{"android":"levelo://app?vid=c780842c-e95f-47ff-a149-ed36c8a413db","ios":"levelo://app?vid=c780842c-e95f-47ff-a149-ed36c8a413db"},"vehicle_type_id":"4","last_reported":1707667705,"current_range_meters":31200,"station_id":"ce4bhr12rcd13ifvqhqg","pricing_plan_id":"free"},{"bike_id":"64013356-5f58-47c1-bf3d-bed7335409fd","system_id":"levelo_inurba_marseille","lat":43.32819,"lon":5.36673,"is_reserved":false,"is_disabled":false,"rental_uris":{"android":"levelo://app?vid=64013356-5f58-47c1-bf3d-bed7335409fd","ios":"levelo://app?vid=64013356-5f58-47c1-bf3d-bed7335409fd"},"vehicle_type_id":"4","last_reported":1707667705,"current_range_meters":24000,"station_id":"ce4bhs92rcd13ifvqi0g","pricing_plan_id":"free"},{"bike_id":"a44933ef-03a0-4282-9ff6-bcc91878fda0","system_id":"levelo_inurba_marseille","lat":43.32822,"lon":5.36681,"is_reserved":false,"is_disabled":false,"rental_uris":{"android":"levelo://app?vid=a44933ef-03a0-4282-9ff6-bcc91878fda0","ios":"levelo://app?vid=a44933ef-03a0-4282-9ff6-bcc91878fda0"},"vehicle_type_id":"4","last_reported":1707667705,"current_range_meters":12000,"station_id":"ce4bhs92rcd13ifvqi0g","pricing_plan_id":"free"},{"bike_id":"9dc43126-690c-4033-80cc-d8c45967e0b8","system_id":"levelo_inurba_marseille","lat":43.32822,"lon":5.36672,"is_reserved":false,"is_disabled":false,"rental_uris":{"android":"levelo://app?vid=9dc43126-690c-4033-80cc-d8c45967e0b8","ios":"levelo://app?vid=9dc43126-690c-4033-80cc-d8c45967e0b8"},"vehicle_type_id":"4","last_reported":1707667705,"current_range_meters":24800,"station_id":"ce4bhs92rcd13ifvqi0g","pricing_plan_id":"free"},{"bike_id":"c7a4a93f-e9ae-4e04-8011-441e8455160b","system_id":"levelo_inurba_marseille","lat":43.328247,"lon":5.36678,"is_reserved":false,"is_disabled":false,"rental_uris":{"android":"levelo://app?vid=c7a4a93f-e9ae-4e04-8011-441e8455160b","ios":"levelo://app?vid=c7a4a93f-e9ae-4e04-8011-441e8455160b"},"vehicle_type_id":"4","last_reported":1707667705,"current_range_meters":24400,"station_id":"ce4bhs92rcd13ifvqi0g","pricing_plan_id":"free"},{"bike_id":"f597095c-71c0-40f7-8122-f04787a50f2e","system_id":"levelo_inurba_marseille","lat":43.328255,"lon":5.366865,"is_reserved":false,"is_disabled":false,"rental_uris":{"android":"levelo://app?vid=f597095c-71c0-40f7-8122-f04787a50f2e","ios":"levelo://app?vid=f597095c-71c0-40f7-8122-f04787a50f2e"},"vehicle_type_id":"4","last_reported":1707667705,"current_range_meters":25200,"station_id":"ce4bhs92rcd13ifvqi0g","pricing_plan_id":"free"},{"bike_id":"9aa15d81-4547-4dcd-a953-444d2c97f15f","system_id":"levelo_inurba_marseille","lat":43.328258,"lon":5.366858,"is_reserved":false,"is_disabled":false,"rental_uris":{"android":"levelo://app?vid=9aa15d81-4547-4dcd-a953-444d2c97f15f","ios":"levelo://app?vid=9aa15d81-4547-4dcd-a953-444d2c97f15f"},"vehicle_type_id":"4","last_reported":1707667705,"current_range_meters":4000,"station_id":"ce4bhs92rcd13ifvqi0g","pricing_plan_id":"free"},{"bike_id":"03730dd5-0a88-4239-8528-528347df93a2","system_id":"levelo_inurba_marseille","lat":43.328371,"lon":5.366909,"is_reserved":false,"is_disabled":false,"rental_uris":{"android":"levelo://app?vid=03730dd5-0a88-4239-8528-528347df93a2","ios":"levelo://app?vid=03730dd5-0a88-4239-8528-528347df93a2"},"vehicle_type_id":"4","last_reported":1707667705,"current_range_meters":12000,"station_id":"ce4bhs92rcd13ifvqi0g","pricing_plan_id":"free"},{"bike_id":"e4aa0c2e-eb2c-4a01-8f5f-8899f6b1b542","system_id":"levelo_inurba_marseille","lat":43.32827,"lon":5.3668,"is_reserved":false,"is_disabled":false,"rental_uris":{"android":"levelo://app?vid=e4aa0c2e-eb2c-4a01-8f5f-8899f6b1b542","ios":"levelo://app?vid=e4aa0c2e-eb2c-4a01-8f5f-8899f6b1b542"},"vehicle_type_id":"4","last_reported":1707667705,"current_range_meters":14000,"station_id":"ce4bhs92rcd13ifvqi0g","pricing_plan_id":"free"},{"bike_id":"ae92069e-3151-4c16-a6fc-2a7ad8ae61ec","system_id":"levelo_inurba_marseille","lat":43.328371,"lon":5.366909,"is_reserved":false,"is_disabled":false,"rental_uris":{"android":"levelo://app?vid=ae92069e-3151-4c16-a6fc-2a7ad8ae61ec","ios":"levelo://app?vid=ae92069e-3151-4c16-a6fc-2a7ad8ae61ec"},"vehicle_type_id":"4","last_reported":1707667705,"current_range_meters":18000,"station_id":"ce4bhs92rcd13ifvqi0g","pricing_plan_id":"free"},{"bike_id":"5eb8c91c-2b41-4db6-916b-67d3fd0c5f1d","system_id":"levelo_inurba_marseille","lat":43.328371,"lon":5.366909,"is_reserved":false,"is_disabled":false,"rental_uris":{"android":"levelo://app?vid=5eb8c91c-2b41-4db6-916b-67d3fd0c5f1d","ios":"levelo://app?vid=5eb8c91c-2b41-4db6-916b-67d3fd0c5f1d"},"vehicle_type_id":"4","last_reported":1707667705,"current_range_meters":7200,"station_id":"ce4bhs92rcd13ifvqi0g","pricing_plan_id":"free"},{"bike_id":"de562f14-ffaa-41a8-9815-6c8ff06728a2","system_id":"levelo_inurba_marseille","lat":43.32829,"lon":5.36674,"is_reserved":false,"is_disabled":false,"rental_uris":{"android":"levelo://app?vid=de562f14-ffaa-41a8-9815-6c8ff06728a2","ios":"levelo://app?vid=de562f14-ffaa-41a8-9815-6c8ff06728a2"},"vehicle_type_id":"4","last_reported":1707667705,"current_range_meters":22800,"station_id":"ce4bhs92rcd13ifvqi0g","pricing_plan_id":"free"},{"bike_id":"e9b1ff74-cd13-466f-a875-2e1fdf44e104","system_id":"levelo_inurba_marseille","lat":43.3283,"lon":5.36687,"is_reserved":false,"is_disabled":false,"rental_uris":{"android":"levelo://app?vid=e9b1ff74-cd13-466f-a875-2e1fdf44e104","ios":"levelo://app?vid=e9b1ff74-cd13-466f-a875-2e1fdf44e104"},"vehicle_type_id":"4","last_reported":1707667705,"current_range_meters":16000,"station_id":"ce4bhs92rcd13ifvqi0g","pricing_plan_id":"free"},{"bike_id":"d974a6e6-7f9c-40ba-b257-f1959c183003","system_id":"levelo_inurba_marseille","lat":43.3283,"lon":5.36672,"is_reserved":false,"is_disabled":false,"rental_uris":{"android":"levelo://app?vid=d974a6e6-7f9c-40ba-b257-f1959c183003","ios":"levelo://app?vid=d974a6e6-7f9c-40ba-b257-f1959c183003"},"vehicle_type_id":"4","last_reported":1707667705,"current_range_meters":13200,"station_id":"ce4bhs92rcd13ifvqi0g","pricing_plan_id":"free"},{"bike_id":"cfe56deb-4c39-4d10-ada1-a51083916709","system_id":"levelo_inurba_marseille","lat":43.296131,"lon":5.370773,"is_reserved":false,"is_disabled":false,"rental_uris":{"android":"levelo://app?vid=cfe56deb-4c39-4d10-ada1-a51083916709","ios":"levelo://app?vid=cfe56deb-4c39-4d10-ada1-a51083916709"},"vehicle_type_id":"4","last_reported":1707667705,"current_range_meters":10400,"station_id":"ce4bgnh2rcd13ifvqc0g","pricing_plan_id":"free"},{"bike_id":"7fd13746-4a1d-411f-8862-f38f68774baf","system_id":"levelo_inurba_marseille","lat":43.296131,"lon":5.370791,"is_reserved":false,"is_disabled":false,"rental_uris":{"android":"levelo://app?vid=7fd13746-4a1d-411f-8862-f38f68774baf","ios":"levelo://app?vid=7fd13746-4a1d-411f-8862-f38f68774baf"},"vehicle_type_id":"4","last_reported":1707667705,"current_range_meters":29200,"station_id":"ce4bgnh2rcd13ifvqc0g","pricing_plan_id":"free"},{"bike_id":"8327cf28-f7db-4b7b-9c67-227c0bdbfad8","system_id":"levelo_inurba_marseille","lat":43.299028,"lon":5.381509,"is_reserved":false,"is_disabled":false,"rental_uris":{"android":"levelo://app?vid=8327cf28-f7db-4b7b-9c67-227c0bdbfad8","ios":"levelo://app?vid=8327cf28-f7db-4b7b-9c67-227c0bdbfad8"},"vehicle_type_id":"4","last_reported":1707667705,"current_range_meters":9600,"station_id":"ce4bgj12rcd13ifvqbc0","pricing_plan_id":"free"},{"bike_id":"5b346f5e-ce12-4f31-9305-51c40026ce35","system_id":"levelo_inurba_marseille","lat":43.299028,"lon":5.381509,"is_reserved":false,"is_disabled":false,"rental_uris":{"android":"levelo://app?vid=5b346f5e-ce12-4f31-9305-51c40026ce35","ios":"levelo://app?vid=5b346f5e-ce12-4f31-9305-51c40026ce35"},"vehicle_type_id":"4","last_reported":1707667705,"current_range_meters":10800,"station_id":"ce4bgj12rcd13ifvqbc0","pricing_plan_id":"free"},{"bike_id":"57fff9ea-3475-435f-9cd5-2c467eefe9bd","system_id":"levelo_inurba_marseille","lat":43.299028,"lon":5.381509,"is_reserved":false,"is_disabled":false,"rental_uris":{"android":"levelo://app?vid=57fff9ea-3475-435f-9cd5-2c467eefe9bd","ios":"levelo://app?vid=57fff9ea-3475-435f-9cd5-2c467eefe9bd"},"vehicle_type_id":"4","last_reported":1707667705,"current_range_meters":22000,"station_id":"ce4bgj12rcd13ifvqbc0","pricing_plan_id":"free"},{"bike_id":"f2d19ab6-9083-46b0-80b4-a0da9159516f","system_id":"levelo_inurba_marseille","lat":43.309589,"lon":5.390258,"is_reserved":false,"is_disabled":false,"rental_uris":{"android":"levelo://app?vid=f2d19ab6-9083-46b0-80b4-a0da9159516f","ios":"levelo://app?vid=f2d19ab6-9083-46b0-80b4-a0da9159516f"},"vehicle_type_id":"4","last_reported":1707667705,"current_range_meters":1200,"station_id":"ce4bgup2rcd13ifvqco0","pricing_plan_id":"free"},{"bike_id":"cd8baeb6-48e1-4cff-9d25-79e2edcc6018","system_id":"levelo_inurba_marseille","lat":43.299028,"lon":5.381509,"is_reserved":false,"is_disabled":false,"rental_uris":{"android":"levelo://app?vid=cd8baeb6-48e1-4cff-9d25-79e2edcc6018","ios":"levelo://app?vid=cd8baeb6-48e1-4cff-9d25-79e2edcc6018"},"vehicle_type_id":"4","last_reported":1707667705,"current_range_meters":25600,"station_id":"ce4bgj12rcd13ifvqbc0","pricing_plan_id":"free"},{"bike_id":"9094d004-d765-496b-aa0d-4ab5f9b70efb","system_id":"levelo_inurba_marseille","lat":43.299028,"lon":5.381509,"is_reserved":false,"is_disabled":false,"rental_uris":{"android":"levelo://app?vid=9094d004-d765-496b-aa0d-4ab5f9b70efb","ios":"levelo://app?vid=9094d004-d765-496b-aa0d-4ab5f9b70efb"},"vehicle_type_id":"4","last_reported":1707667705,"current_range_meters":26000,"station_id":"ce4bgj12rcd13ifvqbc0","pricing_plan_id":"free"},{"bike_id":"3418ff98-7a12-40df-8881-92f6a9c0b306","system_id":"levelo_inurba_marseille","lat":43.309589,"lon":5.390258,"is_reserved":false,"is_disabled":false,"rental_uris":{"android":"levelo://app?vid=3418ff98-7a12-40df-8881-92f6a9c0b306","ios":"levelo://app?vid=3418ff98-7a12-40df-8881-92f6a9c0b306"},"vehicle_type_id":"4","last_reported":1707667705,"current_range_meters":7600,"station_id":"ce4bgup2rcd13ifvqco0","pricing_plan_id":"free"},{"bike_id":"a55ce4a8-6e83-4632-a51f-f5bdb3454378","system_id":"levelo_inurba_marseille","lat":43.309589,"lon":5.390258,"is_reserved":false,"is_disabled":false,"rental_uris":{"android":"levelo://app?vid=a55ce4a8-6e83-4632-a51f-f5bdb3454378","ios":"levelo://app?vid=a55ce4a8-6e83-4632-a51f-f5bdb3454378"},"vehicle_type_id":"4","last_reported":1707667705,"current_range_meters":2000,"station_id":"ce4bgup2rcd13ifvqco0","pricing_plan_id":"free"},{"bike_id":"7e213e69-5b20-4804-9d06-4ccb7e874be7","system_id":"levelo_inurba_marseille","lat":43.317557,"lon":5.390173,"is_reserved":false,"is_disabled":false,"rental_uris":{"android":"levelo://app?vid=7e213e69-5b20-4804-9d06-4ccb7e874be7","ios":"levelo://app?vid=7e213e69-5b20-4804-9d06-4ccb7e874be7"},"vehicle_type_id":"4","last_reported":1707667705,"current_range_meters":30000,"station_id":"ce4bhqp2rcd13ifvqhng","pricing_plan_id":"free"},{"bike_id":"dac65660-7bb2-4107-9194-e5444f4ac872","system_id":"levelo_inurba_marseille","lat":43.296921,"lon":5.376579,"is_reserved":false,"is_disabled":false,"rental_uris":{"android":"levelo://app?vid=dac65660-7bb2-4107-9194-e5444f4ac872","ios":"levelo://app?vid=dac65660-7bb2-4107-9194-e5444f4ac872"},"vehicle_type_id":"4","last_reported":1707667705,"current_range_meters":7600,"station_id":"ce4bgkh2rcd13ifvqbl0","pricing_plan_id":"free"},{"bike_id":"091a357c-7c01-41cb-b81d-782dce7b8678","system_id":"levelo_inurba_marseille","lat":43.295748,"lon":5.37522,"is_reserved":false,"is_disabled":false,"rental_uris":{"android":"levelo://app?vid=091a357c-7c01-41cb-b81d-782dce7b8678","ios":"levelo://app?vid=091a357c-7c01-41cb-b81d-782dce7b8678"},"vehicle_type_id":"4","last_reported":1707667705,"current_range_meters":7200,"station_id":"ce4bgh92rcd13ifvqb50","pricing_plan_id":"free"},{"bike_id":"9a898e6e-f5e6-4d8c-a237-21747c4b48be","system_id":"levelo_inurba_marseille","lat":43.295748,"lon":5.37522,"is_reserved":false,"is_disabled":false,"rental_uris":{"android":"levelo://app?vid=9a898e6e-f5e6-4d8c-a237-21747c4b48be","ios":"levelo://app?vid=9a898e6e-f5e6-4d8c-a237-21747c4b48be"},"vehicle_type_id":"4","last_reported":1707667705,"current_range_meters":30800,"station_id":"ce4bgh92rcd13ifvqb50","pricing_plan_id":"free"},{"bike_id":"7cb240c9-6814-4b28-ad28-54da2c0c91b5","system_id":"levelo_inurba_marseille","lat":43.298037,"lon":5.381066,"is_reserved":false,"is_disabled":false,"rental_uris":{"android":"levelo://app?vid=7cb240c9-6814-4b28-ad28-54da2c0c91b5","ios":"levelo://app?vid=7cb240c9-6814-4b28-ad28-54da2c0c91b5"},"vehicle_type_id":"4","last_reported":1707667705,"current_range_meters":4400,"station_id":"ce4bgip2rcd13ifvqbb0","pricing_plan_id":"free"},{"bike_id":"961acbbc-3d4a-410e-b73b-338c70f9bdba","system_id":"levelo_inurba_marseille","lat":43.298037,"lon":5.381066,"is_reserved":false,"is_disabled":false,"rental_uris":{"android":"levelo://app?vid=961acbbc-3d4a-410e-b73b-338c70f9bdba","ios":"levelo://app?vid=961acbbc-3d4a-410e-b73b-338c70f9bdba"},"vehicle_type_id":"4","last_reported":1707667705,"current_range_meters":9600,"station_id":"ce4bgip2rcd13ifvqbb0","pricing_plan_id":"free"},{"bike_id":"4e183ce5-6439-44d1-8501-eb1d156b0ae3","system_id":"levelo_inurba_marseille","lat":43.298037,"lon":5.381066,"is_reserved":false,"is_disabled":false,"rental_uris":{"android":"levelo://app?vid=4e183ce5-6439-44d1-8501-eb1d156b0ae3","ios":"levelo://app?vid=4e183ce5-6439-44d1-8501-eb1d156b0ae3"},"vehicle_type_id":"4","last_reported":1707667705,"current_range_meters":22400,"station_id":"ce4bgip2rcd13ifvqbb0","pricing_plan_id":"free"},{"bike_id":"c243570c-8620-48bd-a62f-d75d06e2ef16","system_id":"levelo_inurba_marseille","lat":43.304278,"lon":5.388868,"is_reserved":false,"is_disabled":false,"rental_uris":{"android":"levelo://app?vid=c243570c-8620-48bd-a62f-d75d06e2ef16","ios":"levelo://app?vid=c243570c-8620-48bd-a62f-d75d06e2ef16"},"vehicle_type_id":"4","last_reported":1707667705,"current_range_meters":11200,"station_id":"ce4bgk12rcd13ifvqbi0","pricing_plan_id":"free"},{"bike_id":"9a5d2321-dcd5-4b17-a9e4-598e959621bf","system_id":"levelo_inurba_marseille","lat":43.304274,"lon":5.388873,"is_reserved":false,"is_disabled":false,"rental_uris":{"android":"levelo://app?vid=9a5d2321-dcd5-4b17-a9e4-598e959621bf","ios":"levelo://app?vid=9a5d2321-dcd5-4b17-a9e4-598e959621bf"},"vehicle_type_id":"4","last_reported":1707667705,"current_range_meters":13200,"station_id":"ce4bgk12rcd13ifvqbi0","pricing_plan_id":"free"},{"bike_id":"04073ca0-6171-4330-a1dd-a6fff56bcb07","system_id":"levelo_inurba_marseille","lat":43.296277,"lon":5.377108,"is_reserved":false,"is_disabled":false,"rental_uris":{"android":"levelo://app?vid=04073ca0-6171-4330-a1dd-a6fff56bcb07","ios":"levelo://app?vid=04073ca0-6171-4330-a1dd-a6fff56bcb07"},"vehicle_type_id":"4","last_reported":1707667705,"current_range_meters":20000,"station_id":"ce4bgi92rcd13ifvqb90","pricing_plan_id":"free"},{"bike_id":"cdc84c2e-795a-4d18-9f5d-37f313f885fe","system_id":"levelo_inurba_marseille","lat":43.296277,"lon":5.377108,"is_reserved":false,"is_disabled":false,"rental_uris":{"android":"levelo://app?vid=cdc84c2e-795a-4d18-9f5d-37f313f885fe","ios":"levelo://app?vid=cdc84c2e-795a-4d18-9f5d-37f313f885fe"},"vehicle_type_id":"4","last_reported":1707667705,"current_range_meters":2400,"station_id":"ce4bgi92rcd13ifvqb90","pricing_plan_id":"free"},{"bike_id":"aa6a7154-aabe-4d72-b0a0-3cf3ad248e2a","system_id":"levelo_inurba_marseille","lat":43.29533,"lon":5.37509,"is_reserved":false,"is_disabled":false,"rental_uris":{"android":"levelo://app?vid=aa6a7154-aabe-4d72-b0a0-3cf3ad248e2a","ios":"levelo://app?vid=aa6a7154-aabe-4d72-b0a0-3cf3ad248e2a"},"vehicle_type_id":"4","last_reported":1707667705,"current_range_meters":800,"station_id":"ce4bgkp2rcd13ifvqbmg","pricing_plan_id":"free"},{"bike_id":"a7043afb-8391-4841-9efa-36f4e765320d","system_id":"levelo_inurba_marseille","lat":43.299724,"lon":5.384848,"is_reserved":false,"is_disabled":false,"rental_uris":{"android":"levelo://app?vid=a7043afb-8391-4841-9efa-36f4e765320d","ios":"levelo://app?vid=a7043afb-8391-4841-9efa-36f4e765320d"},"vehicle_type_id":"4","last_reported":1707667705,"current_range_meters":1200,"station_id":"ce4bgj92rcd13ifvqbd0","pricing_plan_id":"free"},{"bike_id":"742f7cfc-1e9f-4d6b-9535-94f1fbfa8886","system_id":"levelo_inurba_marseille","lat":43.296277,"lon":5.377108,"is_reserved":false,"is_disabled":false,"rental_uris":{"android":"levelo://app?vid=742f7cfc-1e9f-4d6b-9535-94f1fbfa8886","ios":"levelo://app?vid=742f7cfc-1e9f-4d6b-9535-94f1fbfa8886"},"vehicle_type_id":"4","last_reported":1707667705,"current_range_meters":1600,"station_id":"ce4bgi92rcd13ifvqb90","pricing_plan_id":"free"},{"bike_id":"7408a45e-2a0d-4831-ae46-9df4201836c7","system_id":"levelo_inurba_marseille","lat":43.32367,"lon":5.388836,"is_reserved":false,"is_disabled":false,"rental_uris":{"android":"levelo://app?vid=7408a45e-2a0d-4831-ae46-9df4201836c7","ios":"levelo://app?vid=7408a45e-2a0d-4831-ae46-9df4201836c7"},"vehicle_type_id":"4","last_reported":1707667705,"current_range_meters":4400,"station_id":"ce4bhqp2rcd13ifvqhog","pricing_plan_id":"free"},{"bike_id":"e1c5c8eb-63f6-4b8e-b9dd-0783ca26b249","system_id":"levelo_inurba_marseille","lat":43.32367,"lon":5.388836,"is_reserved":false,"is_disabled":false,"rental_uris":{"android":"levelo://app?vid=e1c5c8eb-63f6-4b8e-b9dd-0783ca26b249","ios":"levelo://app?vid=e1c5c8eb-63f6-4b8e-b9dd-0783ca26b249"},"vehicle_type_id":"4","last_reported":1707667705,"current_range_meters":24000,"station_id":"ce4bhqp2rcd13ifvqhog","pricing_plan_id":"free"},{"bike_id":"55769c3e-d570-4ade-829b-4a0316d221aa","system_id":"levelo_inurba_marseille","lat":43.32366,"lon":5.38882,"is_reserved":false,"is_disabled":false,"rental_uris":{"android":"levelo://app?vid=55769c3e-d570-4ade-829b-4a0316d221aa","ios":"levelo://app?vid=55769c3e-d570-4ade-829b-4a0316d221aa"},"vehicle_type_id":"4","last_reported":1707667705,"current_range_meters":3600,"station_id":"ce4bhqp2rcd13ifvqhog","pricing_plan_id":"free"},{"bike_id":"8c67e61e-e7d9-4bb7-9545-eb36146dd69c","system_id":"levelo_inurba_marseille","lat":43.32369,"lon":5.38882,"is_reserved":false,"is_disabled":false,"rental_uris":{"android":"levelo://app?vid=8c67e61e-e7d9-4bb7-9545-eb36146dd69c","ios":"levelo://app?vid=8c67e61e-e7d9-4bb7-9545-eb36146dd69c"},"vehicle_type_id":"4","last_reported":1707667705,"current_range_meters":15600,"station_id":"ce4bhqp2rcd13ifvqhog","pricing_plan_id":"free"},{"bike_id":"fab4d6e6-5dad-4b4f-bfaf-2d527ea5f7bf","system_id":"levelo_inurba_marseille","lat":43.32369,"lon":5.38883,"is_reserved":false,"is_disabled":false,"rental_uris":{"android":"levelo://app?vid=fab4d6e6-5dad-4b4f-bfaf-2d527ea5f7bf","ios":"levelo://app?vid=fab4d6e6-5dad-4b4f-bfaf-2d527ea5f7bf"},"vehicle_type_id":"4","last_reported":1707667705,"current_range_meters":10400,"station_id":"ce4bhqp2rcd13ifvqhog","pricing_plan_id":"free"},{"bike_id":"00143bcd-3f92-4226-92d6-52e935b7e4aa","system_id":"levelo_inurba_marseille","lat":43.296208,"lon":5.380972,"is_reserved":false,"is_disabled":false,"rental_uris":{"android":"levelo://app?vid=00143bcd-3f92-4226-92d6-52e935b7e4aa","ios":"levelo://app?vid=00143bcd-3f92-4226-92d6-52e935b7e4aa"},"vehicle_type_id":"4","last_reported":1707667705,"current_range_meters":15600,"station_id":"ce4bgl12rcd13ifvqbo0","pricing_plan_id":"free"},{"bike_id":"592edd76-c827-4631-8f6d-a75005197f9e","system_id":"levelo_inurba_marseille","lat":43.29601,"lon":5.381084,"is_reserved":false,"is_disabled":false,"rental_uris":{"android":"levelo://app?vid=592edd76-c827-4631-8f6d-a75005197f9e","ios":"levelo://app?vid=592edd76-c827-4631-8f6d-a75005197f9e"},"vehicle_type_id":"4","last_reported":1707667705,"current_range_meters":15600,"station_id":"ce4bgl12rcd13ifvqbo0","pricing_plan_id":"free"},{"bike_id":"72c4c63f-3219-4278-ab19-b40bfbe0a0a5","system_id":"levelo_inurba_marseille","lat":43.29601,"lon":5.381084,"is_reserved":false,"is_disabled":false,"rental_uris":{"android":"levelo://app?vid=72c4c63f-3219-4278-ab19-b40bfbe0a0a5","ios":"levelo://app?vid=72c4c63f-3219-4278-ab19-b40bfbe0a0a5"},"vehicle_type_id":"4","last_reported":1707667705,"current_range_meters":0,"station_id":"ce4bgl12rcd13ifvqbo0","pricing_plan_id":"free"},{"bike_id":"ed9d1d87-c050-458e-a26d-639804c342d1","system_id":"levelo_inurba_marseille","lat":43.29601,"lon":5.381084,"is_reserved":false,"is_disabled":false,"rental_uris":{"android":"levelo://app?vid=ed9d1d87-c050-458e-a26d-639804c342d1","ios":"levelo://app?vid=ed9d1d87-c050-458e-a26d-639804c342d1"},"vehicle_type_id":"4","last_reported":1707667705,"current_range_meters":0,"station_id":"ce4bgl12rcd13ifvqbo0","pricing_plan_id":"free"},{"bike_id":"de8fe52f-ecd3-44f2-bbf4-571b025393e2","system_id":"levelo_inurba_marseille","lat":43.29281,"lon":5.36844,"is_reserved":false,"is_disabled":false,"rental_uris":{"android":"levelo://app?vid=de8fe52f-ecd3-44f2-bbf4-571b025393e2","ios":"levelo://app?vid=de8fe52f-ecd3-44f2-bbf4-571b025393e2"},"vehicle_type_id":"4","last_reported":1707667705,"current_range_meters":28800,"station_id":"ce4bhbp2rcd13ifvqesg","pricing_plan_id":"free"},{"bike_id":"a94f4a50-fbee-44f6-bce8-3ff8dcbf47ba","system_id":"levelo_inurba_marseille","lat":43.293259,"lon":5.371586,"is_reserved":false,"is_disabled":false,"rental_uris":{"android":"levelo://app?vid=a94f4a50-fbee-44f6-bce8-3ff8dcbf47ba","ios":"levelo://app?vid=a94f4a50-fbee-44f6-bce8-3ff8dcbf47ba"},"vehicle_type_id":"4","last_reported":1707667705,"current_range_meters":20000,"station_id":"ce4bgh92rcd13ifvqb40","pricing_plan_id":"free"},{"bike_id":"578912fe-c109-4d10-9ba9-d2ca7b64428b","system_id":"levelo_inurba_marseille","lat":43.32367,"lon":5.388836,"is_reserved":false,"is_disabled":false,"rental_uris":{"android":"levelo://app?vid=578912fe-c109-4d10-9ba9-d2ca7b64428b","ios":"levelo://app?vid=578912fe-c109-4d10-9ba9-d2ca7b64428b"},"vehicle_type_id":"4","last_reported":1707667705,"current_range_meters":9200,"station_id":"ce4bhqp2rcd13ifvqhog","pricing_plan_id":"free"},{"bike_id":"26c4a5be-f6d4-4903-bbbe-9eb95c81268b","system_id":"levelo_inurba_marseille","lat":43.292587,"lon":5.36844,"is_reserved":false,"is_disabled":false,"rental_uris":{"android":"levelo://app?vid=26c4a5be-f6d4-4903-bbbe-9eb95c81268b","ios":"levelo://app?vid=26c4a5be-f6d4-4903-bbbe-9eb95c81268b"},"vehicle_type_id":"4","last_reported":1707667705,"current_range_meters":0,"station_id":"ce4bhbp2rcd13ifvqesg","pricing_plan_id":"free"},{"bike_id":"ca553b89-2922-4b08-8f9a-fbc64e2f5d5c","system_id":"levelo_inurba_marseille","lat":43.29301,"lon":5.37462,"is_reserved":false,"is_disabled":false,"rental_uris":{"android":"levelo://app?vid=ca553b89-2922-4b08-8f9a-fbc64e2f5d5c","ios":"levelo://app?vid=ca553b89-2922-4b08-8f9a-fbc64e2f5d5c"},"vehicle_type_id":"4","last_reported":1707667705,"current_range_meters":0,"station_id":"ce4bgi12rcd13ifvqb70","pricing_plan_id":"free"},{"bike_id":"7199bc24-e9e3-41c9-aea9-d697a9bd6328","system_id":"levelo_inurba_marseille","lat":43.305994,"lon":5.393687,"is_reserved":false,"is_disabled":false,"rental_uris":{"android":"levelo://app?vid=7199bc24-e9e3-41c9-aea9-d697a9bd6328","ios":"levelo://app?vid=7199bc24-e9e3-41c9-aea9-d697a9bd6328"},"vehicle_type_id":"4","last_reported":1707667705,"current_range_meters":12400,"station_id":"ce4bh0p2rcd13ifvqd80","pricing_plan_id":"free"},{"bike_id":"3f1c9ef7-a6f1-430a-a8cf-507475067d8d","system_id":"levelo_inurba_marseille","lat":43.303002,"lon":5.392142,"is_reserved":false,"is_disabled":false,"rental_uris":{"android":"levelo://app?vid=3f1c9ef7-a6f1-430a-a8cf-507475067d8d","ios":"levelo://app?vid=3f1c9ef7-a6f1-430a-a8cf-507475067d8d"},"vehicle_type_id":"4","last_reported":1707667705,"current_range_meters":15600,"station_id":"ce4bgkh2rcd13ifvqbk0","pricing_plan_id":"free"},{"bike_id":"9e25d580-77bf-4971-968e-a46344f32df5","system_id":"levelo_inurba_marseille","lat":43.2936,"lon":5.37835,"is_reserved":false,"is_disabled":false,"rental_uris":{"android":"levelo://app?vid=9e25d580-77bf-4971-968e-a46344f32df5","ios":"levelo://app?vid=9e25d580-77bf-4971-968e-a46344f32df5"},"vehicle_type_id":"4","last_reported":1707667705,"current_range_meters":0,"station_id":"ce4bgjh2rcd13ifvqbf0","pricing_plan_id":"free"},{"bike_id":"42e94c2a-af26-451d-a3a6-bd6916e66834","system_id":"levelo_inurba_marseille","lat":43.2936,"lon":5.37835,"is_reserved":false,"is_disabled":false,"rental_uris":{"android":"levelo://app?vid=42e94c2a-af26-451d-a3a6-bd6916e66834","ios":"levelo://app?vid=42e94c2a-af26-451d-a3a6-bd6916e66834"},"vehicle_type_id":"4","last_reported":1707667705,"current_range_meters":10400,"station_id":"ce4bgjh2rcd13ifvqbf0","pricing_plan_id":"free"},{"bike_id":"99c1c960-2806-45a3-a11f-497a09b536c1","system_id":"levelo_inurba_marseille","lat":43.2936,"lon":5.37835,"is_reserved":false,"is_disabled":false,"rental_uris":{"android":"levelo://app?vid=99c1c960-2806-45a3-a11f-497a09b536c1","ios":"levelo://app?vid=99c1c960-2806-45a3-a11f-497a09b536c1"},"vehicle_type_id":"4","last_reported":1707667705,"current_range_meters":2000,"station_id":"ce4bgjh2rcd13ifvqbf0","pricing_plan_id":"free"},{"bike_id":"9f6bd6db-c0ce-4b89-90a2-a51612bfc4ad","system_id":"levelo_inurba_marseille","lat":43.2936,"lon":5.37835,"is_reserved":false,"is_disabled":false,"rental_uris":{"android":"levelo://app?vid=9f6bd6db-c0ce-4b89-90a2-a51612bfc4ad","ios":"levelo://app?vid=9f6bd6db-c0ce-4b89-90a2-a51612bfc4ad"},"vehicle_type_id":"4","last_reported":1707667705,"current_range_meters":5600,"station_id":"ce4bgjh2rcd13ifvqbf0","pricing_plan_id":"free"},{"bike_id":"1964fbf8-325f-4d36-9ff2-6a7cc02835e8","system_id":"levelo_inurba_marseille","lat":43.2936,"lon":5.37835,"is_reserved":false,"is_disabled":false,"rental_uris":{"android":"levelo://app?vid=1964fbf8-325f-4d36-9ff2-6a7cc02835e8","ios":"levelo://app?vid=1964fbf8-325f-4d36-9ff2-6a7cc02835e8"},"vehicle_type_id":"4","last_reported":1707667705,"current_range_meters":24000,"station_id":"ce4bgjh2rcd13ifvqbf0","pricing_plan_id":"free"},{"bike_id":"492f4403-aeb5-49d7-b036-501379a921ca","system_id":"levelo_inurba_marseille","lat":43.30085,"lon":5.390856,"is_reserved":false,"is_disabled":false,"rental_uris":{"android":"levelo://app?vid=492f4403-aeb5-49d7-b036-501379a921ca","ios":"levelo://app?vid=492f4403-aeb5-49d7-b036-501379a921ca"},"vehicle_type_id":"4","last_reported":1707667705,"current_range_meters":23200,"station_id":"ce4bh192rcd13ifvqdb0","pricing_plan_id":"free"},{"bike_id":"77a38c2a-2dff-49d6-9a4d-79ccc30c2421","system_id":"levelo_inurba_marseille","lat":43.30085,"lon":5.390856,"is_reserved":false,"is_disabled":false,"rental_uris":{"android":"levelo://app?vid=77a38c2a-2dff-49d6-9a4d-79ccc30c2421","ios":"levelo://app?vid=77a38c2a-2dff-49d6-9a4d-79ccc30c2421"},"vehicle_type_id":"4","last_reported":1707667705,"current_range_meters":23600,"station_id":"ce4bh192rcd13ifvqdb0","pricing_plan_id":"free"},{"bike_id":"8509eae1-ab0c-4aa0-ab51-265218bd8d63","system_id":"levelo_inurba_marseille","lat":43.300852,"lon":5.390859,"is_reserved":false,"is_disabled":false,"rental_uris":{"android":"levelo://app?vid=8509eae1-ab0c-4aa0-ab51-265218bd8d63","ios":"levelo://app?vid=8509eae1-ab0c-4aa0-ab51-265218bd8d63"},"vehicle_type_id":"4","last_reported":1707667705,"current_range_meters":19200,"station_id":"ce4bh192rcd13ifvqdb0","pricing_plan_id":"free"},{"bike_id":"e25fbe08-9812-4939-9c31-d32578ecbca5","system_id":"levelo_inurba_marseille","lat":43.293009,"lon":5.374584,"is_reserved":false,"is_disabled":false,"rental_uris":{"android":"levelo://app?vid=e25fbe08-9812-4939-9c31-d32578ecbca5","ios":"levelo://app?vid=e25fbe08-9812-4939-9c31-d32578ecbca5"},"vehicle_type_id":"4","last_reported":1707667705,"current_range_meters":17600,"station_id":"ce4bgi12rcd13ifvqb70","pricing_plan_id":"free"},{"bike_id":"ce435404-5d37-42ef-a3a3-3cbc59528692","system_id":"levelo_inurba_marseille","lat":43.291994,"lon":5.357886,"is_reserved":false,"is_disabled":false,"rental_uris":{"android":"levelo://app?vid=ce435404-5d37-42ef-a3a3-3cbc59528692","ios":"levelo://app?vid=ce435404-5d37-42ef-a3a3-3cbc59528692"},"vehicle_type_id":"4","last_reported":1707667705,"current_range_meters":11600,"station_id":"ce4bhb12rcd13ifvqel0","pricing_plan_id":"free"},{"bike_id":"6e7a64e6-6ae7-4de7-8027-2952038c097e","system_id":"levelo_inurba_marseille","lat":43.2954,"lon":5.38541,"is_reserved":false,"is_disabled":false,"rental_uris":{"android":"levelo://app?vid=6e7a64e6-6ae7-4de7-8027-2952038c097e","ios":"levelo://app?vid=6e7a64e6-6ae7-4de7-8027-2952038c097e"},"vehicle_type_id":"4","last_reported":1707667705,"current_range_meters":4000,"station_id":"ce4bgih2rcd13ifvqba0","pricing_plan_id":"free"},{"bike_id":"af454c47-2290-4df6-9fce-f8656a77534b","system_id":"levelo_inurba_marseille","lat":43.29536,"lon":5.38539,"is_reserved":false,"is_disabled":false,"rental_uris":{"android":"levelo://app?vid=af454c47-2290-4df6-9fce-f8656a77534b","ios":"levelo://app?vid=af454c47-2290-4df6-9fce-f8656a77534b"},"vehicle_type_id":"4","last_reported":1707667705,"current_range_meters":0,"station_id":"ce4bgih2rcd13ifvqba0","pricing_plan_id":"free"},{"bike_id":"c1df362c-2c7c-4833-97a5-ddae60e2f618","system_id":"levelo_inurba_marseille","lat":43.29538,"lon":5.38549,"is_reserved":false,"is_disabled":false,"rental_uris":{"android":"levelo://app?vid=c1df362c-2c7c-4833-97a5-ddae60e2f618","ios":"levelo://app?vid=c1df362c-2c7c-4833-97a5-ddae60e2f618"},"vehicle_type_id":"4","last_reported":1707667705,"current_range_meters":19200,"station_id":"ce4bgih2rcd13ifvqba0","pricing_plan_id":"free"},{"bike_id":"e23c3fc9-ffe6-4a3a-97b1-655e10c8c65b","system_id":"levelo_inurba_marseille","lat":43.29529,"lon":5.385581,"is_reserved":false,"is_disabled":false,"rental_uris":{"android":"levelo://app?vid=e23c3fc9-ffe6-4a3a-97b1-655e10c8c65b","ios":"levelo://app?vid=e23c3fc9-ffe6-4a3a-97b1-655e10c8c65b"},"vehicle_type_id":"4","last_reported":1707667705,"current_range_meters":8400,"station_id":"ce4bgih2rcd13ifvqba0","pricing_plan_id":"free"},{"bike_id":"0b058594-8b15-472a-a97a-eac29ffa1f85","system_id":"levelo_inurba_marseille","lat":43.29078,"lon":5.37167,"is_reserved":false,"is_disabled":false,"rental_uris":{"android":"levelo://app?vid=0b058594-8b15-472a-a97a-eac29ffa1f85","ios":"levelo://app?vid=0b058594-8b15-472a-a97a-eac29ffa1f85"},"vehicle_type_id":"4","last_reported":1707667705,"current_range_meters":12000,"station_id":"ce4bh5p2rcd13ifvqe4g","pricing_plan_id":"free"},{"bike_id":"4b4d9919-b49a-44f3-9bae-dfcc494cc1bf","system_id":"levelo_inurba_marseille","lat":43.29068,"lon":5.37155,"is_reserved":false,"is_disabled":false,"rental_uris":{"android":"levelo://app?vid=4b4d9919-b49a-44f3-9bae-dfcc494cc1bf","ios":"levelo://app?vid=4b4d9919-b49a-44f3-9bae-dfcc494cc1bf"},"vehicle_type_id":"4","last_reported":1707667705,"current_range_meters":12800,"station_id":"ce4bh5p2rcd13ifvqe4g","pricing_plan_id":"free"},{"bike_id":"9695779a-1c57-4242-9f71-9d5fefe9d7a9","system_id":"levelo_inurba_marseille","lat":43.29066,"lon":5.37159,"is_reserved":false,"is_disabled":false,"rental_uris":{"android":"levelo://app?vid=9695779a-1c57-4242-9f71-9d5fefe9d7a9","ios":"levelo://app?vid=9695779a-1c57-4242-9f71-9d5fefe9d7a9"},"vehicle_type_id":"4","last_reported":1707667705,"current_range_meters":3200,"station_id":"ce4bh5p2rcd13ifvqe4g","pricing_plan_id":"free"},{"bike_id":"62776205-6dec-415c-975d-6ffd993826ea","system_id":"levelo_inurba_marseille","lat":43.302008,"lon":5.394694,"is_reserved":false,"is_disabled":false,"rental_uris":{"android":"levelo://app?vid=62776205-6dec-415c-975d-6ffd993826ea","ios":"levelo://app?vid=62776205-6dec-415c-975d-6ffd993826ea"},"vehicle_type_id":"4","last_reported":1707667705,"current_range_meters":1600,"station_id":"ce4bh0p2rcd13ifvqd70","pricing_plan_id":"free"},{"bike_id":"cc968d47-2c09-4029-8057-57c88b04b2d8","system_id":"levelo_inurba_marseille","lat":43.290631,"lon":5.359244,"is_reserved":false,"is_disabled":false,"rental_uris":{"android":"levelo://app?vid=cc968d47-2c09-4029-8057-57c88b04b2d8","ios":"levelo://app?vid=cc968d47-2c09-4029-8057-57c88b04b2d8"},"vehicle_type_id":"4","last_reported":1707667705,"current_range_meters":20800,"station_id":"ce4bha92rcd13ifvqeg0","pricing_plan_id":"free"},{"bike_id":"ac6a94a7-7ffc-4a07-9876-7aa4107294bc","system_id":"levelo_inurba_marseille","lat":43.294162,"lon":5.386292,"is_reserved":false,"is_disabled":false,"rental_uris":{"android":"levelo://app?vid=ac6a94a7-7ffc-4a07-9876-7aa4107294bc","ios":"levelo://app?vid=ac6a94a7-7ffc-4a07-9876-7aa4107294bc"},"vehicle_type_id":"4","last_reported":1707667705,"current_range_meters":9200,"station_id":"ce4bh2h2rcd13ifvqdh0","pricing_plan_id":"free"},{"bike_id":"5fdc21cd-1b99-4ae9-b3c2-31d126ecbab3","system_id":"levelo_inurba_marseille","lat":43.294162,"lon":5.386292,"is_reserved":false,"is_disabled":false,"rental_uris":{"android":"levelo://app?vid=5fdc21cd-1b99-4ae9-b3c2-31d126ecbab3","ios":"levelo://app?vid=5fdc21cd-1b99-4ae9-b3c2-31d126ecbab3"},"vehicle_type_id":"4","last_reported":1707667705,"current_range_meters":3200,"station_id":"ce4bh2h2rcd13ifvqdh0","pricing_plan_id":"free"},{"bike_id":"52f82008-8caa-4fe1-aa43-f4db47a464bf","system_id":"levelo_inurba_marseille","lat":43.289184,"lon":5.366408,"is_reserved":false,"is_disabled":false,"rental_uris":{"android":"levelo://app?vid=52f82008-8caa-4fe1-aa43-f4db47a464bf","ios":"levelo://app?vid=52f82008-8caa-4fe1-aa43-f4db47a464bf"},"vehicle_type_id":"4","last_reported":1707667705,"current_range_meters":17200,"station_id":"ce4bhap2rcd13ifvqek0","pricing_plan_id":"free"},{"bike_id":"42fab0bf-c7d3-4ecc-aba1-bfdcc5a6df2e","system_id":"levelo_inurba_marseille","lat":43.289468,"lon":5.363719,"is_reserved":false,"is_disabled":false,"rental_uris":{"android":"levelo://app?vid=42fab0bf-c7d3-4ecc-aba1-bfdcc5a6df2e","ios":"levelo://app?vid=42fab0bf-c7d3-4ecc-aba1-bfdcc5a6df2e"},"vehicle_type_id":"4","last_reported":1707667705,"current_range_meters":18400,"station_id":"ce4bhc92rcd13ifvqetg","pricing_plan_id":"free"},{"bike_id":"8de78c22-66a9-429d-8d22-338f2c2c87b9","system_id":"levelo_inurba_marseille","lat":43.304296,"lon":5.397513,"is_reserved":false,"is_disabled":false,"rental_uris":{"android":"levelo://app?vid=8de78c22-66a9-429d-8d22-338f2c2c87b9","ios":"levelo://app?vid=8de78c22-66a9-429d-8d22-338f2c2c87b9"},"vehicle_type_id":"4","last_reported":1707667705,"current_range_meters":14800,"station_id":"ce4bh092rcd13ifvqd20","pricing_plan_id":"free"},{"bike_id":"e5dbc782-f23e-4ba5-b5e4-d3761d731411","system_id":"levelo_inurba_marseille","lat":43.292642,"lon":5.384254,"is_reserved":false,"is_disabled":false,"rental_uris":{"android":"levelo://app?vid=e5dbc782-f23e-4ba5-b5e4-d3761d731411","ios":"levelo://app?vid=e5dbc782-f23e-4ba5-b5e4-d3761d731411"},"vehicle_type_id":"4","last_reported":1707667705,"current_range_meters":7200,"station_id":"ce4bh692rcd13ifvqea0","pricing_plan_id":"free"},{"bike_id":"ed034bf3-de85-4071-96db-45d2beb77345","system_id":"levelo_inurba_marseille","lat":43.304296,"lon":5.397513,"is_reserved":false,"is_disabled":false,"rental_uris":{"android":"levelo://app?vid=ed034bf3-de85-4071-96db-45d2beb77345","ios":"levelo://app?vid=ed034bf3-de85-4071-96db-45d2beb77345"},"vehicle_type_id":"4","last_reported":1707667705,"current_range_meters":14000,"station_id":"ce4bh092rcd13ifvqd20","pricing_plan_id":"free"},{"bike_id":"443d7c37-aa39-4aa7-a142-34c3e152dac7","system_id":"levelo_inurba_marseille","lat":43.304274,"lon":5.397513,"is_reserved":false,"is_disabled":false,"rental_uris":{"android":"levelo://app?vid=443d7c37-aa39-4aa7-a142-34c3e152dac7","ios":"levelo://app?vid=443d7c37-aa39-4aa7-a142-34c3e152dac7"},"vehicle_type_id":"4","last_reported":1707667705,"current_range_meters":27200,"station_id":"ce4bh092rcd13ifvqd20","pricing_plan_id":"free"},{"bike_id":"ae07e20b-85b5-48d7-83a9-96f8676d23b6","system_id":"levelo_inurba_marseille","lat":43.292623,"lon":5.38438,"is_reserved":false,"is_disabled":false,"rental_uris":{"android":"levelo://app?vid=ae07e20b-85b5-48d7-83a9-96f8676d23b6","ios":"levelo://app?vid=ae07e20b-85b5-48d7-83a9-96f8676d23b6"},"vehicle_type_id":"4","last_reported":1707667705,"current_range_meters":0,"station_id":"ce4bh692rcd13ifvqea0","pricing_plan_id":"free"},{"bike_id":"d2876e92-ede1-4f67-86fb-07ad0e0b6406","system_id":"levelo_inurba_marseille","lat":43.304296,"lon":5.397513,"is_reserved":false,"is_disabled":false,"rental_uris":{"android":"levelo://app?vid=d2876e92-ede1-4f67-86fb-07ad0e0b6406","ios":"levelo://app?vid=d2876e92-ede1-4f67-86fb-07ad0e0b6406"},"vehicle_type_id":"4","last_reported":1707667705,"current_range_meters":6000,"station_id":"ce4bh092rcd13ifvqd20","pricing_plan_id":"free"},{"bike_id":"bf1749bb-4e0c-4d87-b466-4c0f37d6a465","system_id":"levelo_inurba_marseille","lat":43.292642,"lon":5.384254,"is_reserved":false,"is_disabled":false,"rental_uris":{"android":"levelo://app?vid=bf1749bb-4e0c-4d87-b466-4c0f37d6a465","ios":"levelo://app?vid=bf1749bb-4e0c-4d87-b466-4c0f37d6a465"},"vehicle_type_id":"4","last_reported":1707667705,"current_range_meters":0,"station_id":"ce4bh692rcd13ifvqea0","pricing_plan_id":"free"},{"bike_id":"fbce1458-e8f7-43d9-942e-badae58ce44f","system_id":"levelo_inurba_marseille","lat":43.290103,"lon":5.356114,"is_reserved":false,"is_disabled":false,"rental_uris":{"android":"levelo://app?vid=fbce1458-e8f7-43d9-942e-badae58ce44f","ios":"levelo://app?vid=fbce1458-e8f7-43d9-942e-badae58ce44f"},"vehicle_type_id":"4","last_reported":1707667705,"current_range_meters":26000,"station_id":"ce4bhb92rcd13ifvqen0","pricing_plan_id":"free"},{"bike_id":"80ae4bc3-5059-4a4f-8ba2-a847155766e5","system_id":"levelo_inurba_marseille","lat":43.29007,"lon":5.35609,"is_reserved":false,"is_disabled":false,"rental_uris":{"android":"levelo://app?vid=80ae4bc3-5059-4a4f-8ba2-a847155766e5","ios":"levelo://app?vid=80ae4bc3-5059-4a4f-8ba2-a847155766e5"},"vehicle_type_id":"4","last_reported":1707667705,"current_range_meters":0,"station_id":"ce4bhb92rcd13ifvqen0","pricing_plan_id":"free"},{"bike_id":"c0368a1a-24c0-4ecd-8924-44f9c1b4a52f","system_id":"levelo_inurba_marseille","lat":43.290104,"lon":5.356111,"is_reserved":false,"is_disabled":false,"rental_uris":{"android":"levelo://app?vid=c0368a1a-24c0-4ecd-8924-44f9c1b4a52f","ios":"levelo://app?vid=c0368a1a-24c0-4ecd-8924-44f9c1b4a52f"},"vehicle_type_id":"4","last_reported":1707667705,"current_range_meters":800,"station_id":"ce4bhb92rcd13ifvqen0","pricing_plan_id":"free"},{"bike_id":"629f8539-eadd-40c0-b546-6caa17f5979c","system_id":"levelo_inurba_marseille","lat":43.290103,"lon":5.356114,"is_reserved":false,"is_disabled":false,"rental_uris":{"android":"levelo://app?vid=629f8539-eadd-40c0-b546-6caa17f5979c","ios":"levelo://app?vid=629f8539-eadd-40c0-b546-6caa17f5979c"},"vehicle_type_id":"4","last_reported":1707667705,"current_range_meters":22000,"station_id":"ce4bhb92rcd13ifvqen0","pricing_plan_id":"free"},{"bike_id":"c3b769de-fb87-4839-8099-90b96fb4b3e9","system_id":"levelo_inurba_marseille","lat":43.290995,"lon":5.381361,"is_reserved":false,"is_disabled":false,"rental_uris":{"android":"levelo://app?vid=c3b769de-fb87-4839-8099-90b96fb4b3e9","ios":"levelo://app?vid=c3b769de-fb87-4839-8099-90b96fb4b3e9"},"vehicle_type_id":"4","last_reported":1707667705,"current_range_meters":3200,"station_id":"ce4bh512rcd13ifvqe2g","pricing_plan_id":"free"},{"bike_id":"117edbbc-8888-40aa-a26d-c3b4ef02d072","system_id":"levelo_inurba_marseille","lat":43.290995,"lon":5.381361,"is_reserved":false,"is_disabled":false,"rental_uris":{"android":"levelo://app?vid=117edbbc-8888-40aa-a26d-c3b4ef02d072","ios":"levelo://app?vid=117edbbc-8888-40aa-a26d-c3b4ef02d072"},"vehicle_type_id":"4","last_reported":1707667705,"current_range_meters":25600,"station_id":"ce4bh512rcd13ifvqe2g","pricing_plan_id":"free"},{"bike_id":"8d05340f-d953-49dd-8106-6e69cc84cb82","system_id":"levelo_inurba_marseille","lat":43.290995,"lon":5.381361,"is_reserved":false,"is_disabled":false,"rental_uris":{"android":"levelo://app?vid=8d05340f-d953-49dd-8106-6e69cc84cb82","ios":"levelo://app?vid=8d05340f-d953-49dd-8106-6e69cc84cb82"},"vehicle_type_id":"4","last_reported":1707667705,"current_range_meters":2000,"station_id":"ce4bh512rcd13ifvqe2g","pricing_plan_id":"free"},{"bike_id":"1c7f52d9-7db9-4cd8-8993-22ba17343859","system_id":"levelo_inurba_marseille","lat":43.290995,"lon":5.381361,"is_reserved":false,"is_disabled":false,"rental_uris":{"android":"levelo://app?vid=1c7f52d9-7db9-4cd8-8993-22ba17343859","ios":"levelo://app?vid=1c7f52d9-7db9-4cd8-8993-22ba17343859"},"vehicle_type_id":"4","last_reported":1707667705,"current_range_meters":0,"station_id":"ce4bh512rcd13ifvqe2g","pricing_plan_id":"free"},{"bike_id":"2bd79669-70cb-4bd9-bb70-31d4ccaca8a7","system_id":"levelo_inurba_marseille","lat":43.29788,"lon":5.39346,"is_reserved":false,"is_disabled":false,"rental_uris":{"android":"levelo://app?vid=2bd79669-70cb-4bd9-bb70-31d4ccaca8a7","ios":"levelo://app?vid=2bd79669-70cb-4bd9-bb70-31d4ccaca8a7"},"vehicle_type_id":"4","last_reported":1707667705,"current_range_meters":6400,"station_id":"chh1huq6cuj3fo74tm60","pricing_plan_id":"free"},{"bike_id":"0bb73f05-5a6b-4f46-8db9-cff4df97225c","system_id":"levelo_inurba_marseille","lat":43.33019,"lon":5.39035,"is_reserved":false,"is_disabled":false,"rental_uris":{"android":"levelo://app?vid=0bb73f05-5a6b-4f46-8db9-cff4df97225c","ios":"levelo://app?vid=0bb73f05-5a6b-4f46-8db9-cff4df97225c"},"vehicle_type_id":"4","last_reported":1707667705,"current_range_meters":12000,"station_id":"ce4bhr92rcd13ifvqhrg","pricing_plan_id":"free"},{"bike_id":"52b1c4ba-1367-461b-9d7b-682e89718428","system_id":"levelo_inurba_marseille","lat":43.33017,"lon":5.39039,"is_reserved":false,"is_disabled":false,"rental_uris":{"android":"levelo://app?vid=52b1c4ba-1367-461b-9d7b-682e89718428","ios":"levelo://app?vid=52b1c4ba-1367-461b-9d7b-682e89718428"},"vehicle_type_id":"4","last_reported":1707667705,"current_range_meters":9600,"station_id":"ce4bhr92rcd13ifvqhrg","pricing_plan_id":"free"},{"bike_id":"c1b36393-798b-4504-88b3-a7646b8a5044","system_id":"levelo_inurba_marseille","lat":43.33021,"lon":5.39035,"is_reserved":false,"is_disabled":false,"rental_uris":{"android":"levelo://app?vid=c1b36393-798b-4504-88b3-a7646b8a5044","ios":"levelo://app?vid=c1b36393-798b-4504-88b3-a7646b8a5044"},"vehicle_type_id":"4","last_reported":1707667705,"current_range_meters":18800,"station_id":"ce4bhr92rcd13ifvqhrg","pricing_plan_id":"free"},{"bike_id":"e3cdd8db-1a8c-42b0-8a1d-74e27724a81e","system_id":"levelo_inurba_marseille","lat":43.330442,"lon":5.389148,"is_reserved":false,"is_disabled":false,"rental_uris":{"android":"levelo://app?vid=e3cdd8db-1a8c-42b0-8a1d-74e27724a81e","ios":"levelo://app?vid=e3cdd8db-1a8c-42b0-8a1d-74e27724a81e"},"vehicle_type_id":"4","last_reported":1707667705,"current_range_meters":7600,"station_id":"ce4bhr92rcd13ifvqhrg","pricing_plan_id":"free"},{"bike_id":"15deb984-f6bb-4602-9c85-af3956663ee9","system_id":"levelo_inurba_marseille","lat":43.3302,"lon":5.3904,"is_reserved":false,"is_disabled":false,"rental_uris":{"android":"levelo://app?vid=15deb984-f6bb-4602-9c85-af3956663ee9","ios":"levelo://app?vid=15deb984-f6bb-4602-9c85-af3956663ee9"},"vehicle_type_id":"4","last_reported":1707667705,"current_range_meters":3600,"station_id":"ce4bhr92rcd13ifvqhrg","pricing_plan_id":"free"},{"bike_id":"84c612fa-d1d7-4abf-9a85-0f2fae371c35","system_id":"levelo_inurba_marseille","lat":43.33024,"lon":5.39035,"is_reserved":false,"is_disabled":false,"rental_uris":{"android":"levelo://app?vid=84c612fa-d1d7-4abf-9a85-0f2fae371c35","ios":"levelo://app?vid=84c612fa-d1d7-4abf-9a85-0f2fae371c35"},"vehicle_type_id":"4","last_reported":1707667705,"current_range_meters":3200,"station_id":"ce4bhr92rcd13ifvqhrg","pricing_plan_id":"free"},{"bike_id":"8ac029f7-b9b3-4582-b8f8-423bd8dd6533","system_id":"levelo_inurba_marseille","lat":43.3302,"lon":5.39041,"is_reserved":false,"is_disabled":false,"rental_uris":{"android":"levelo://app?vid=8ac029f7-b9b3-4582-b8f8-423bd8dd6533","ios":"levelo://app?vid=8ac029f7-b9b3-4582-b8f8-423bd8dd6533"},"vehicle_type_id":"4","last_reported":1707667705,"current_range_meters":8000,"station_id":"ce4bhr92rcd13ifvqhrg","pricing_plan_id":"free"},{"bike_id":"05754e72-842e-4824-b463-16b77b6c9f5f","system_id":"levelo_inurba_marseille","lat":43.33018,"lon":5.39044,"is_reserved":false,"is_disabled":false,"rental_uris":{"android":"levelo://app?vid=05754e72-842e-4824-b463-16b77b6c9f5f","ios":"levelo://app?vid=05754e72-842e-4824-b463-16b77b6c9f5f"},"vehicle_type_id":"4","last_reported":1707667705,"current_range_meters":19200,"station_id":"ce4bhr92rcd13ifvqhrg","pricing_plan_id":"free"},{"bike_id":"46dae732-6cd2-4bdd-8595-b9a46e38e12d","system_id":"levelo_inurba_marseille","lat":43.330442,"lon":5.389148,"is_reserved":false,"is_disabled":false,"rental_uris":{"android":"levelo://app?vid=46dae732-6cd2-4bdd-8595-b9a46e38e12d","ios":"levelo://app?vid=46dae732-6cd2-4bdd-8595-b9a46e38e12d"},"vehicle_type_id":"4","last_reported":1707667705,"current_range_meters":15200,"station_id":"ce4bhr92rcd13ifvqhrg","pricing_plan_id":"free"},{"bike_id":"57684a67-5c6b-42d1-9a4e-a6134838c612","system_id":"levelo_inurba_marseille","lat":43.33019,"lon":5.39043,"is_reserved":false,"is_disabled":false,"rental_uris":{"android":"levelo://app?vid=57684a67-5c6b-42d1-9a4e-a6134838c612","ios":"levelo://app?vid=57684a67-5c6b-42d1-9a4e-a6134838c612"},"vehicle_type_id":"4","last_reported":1707667705,"current_range_meters":28800,"station_id":"ce4bhr92rcd13ifvqhrg","pricing_plan_id":"free"},{"bike_id":"f0dd3082-5565-475e-a771-5567c92069c7","system_id":"levelo_inurba_marseille","lat":43.33022,"lon":5.3904,"is_reserved":false,"is_disabled":false,"rental_uris":{"android":"levelo://app?vid=f0dd3082-5565-475e-a771-5567c92069c7","ios":"levelo://app?vid=f0dd3082-5565-475e-a771-5567c92069c7"},"vehicle_type_id":"4","last_reported":1707667705,"current_range_meters":8800,"station_id":"ce4bhr92rcd13ifvqhrg","pricing_plan_id":"free"},{"bike_id":"8db4f1f3-d1cb-454b-9aa5-d61c997312a7","system_id":"levelo_inurba_marseille","lat":43.29527,"lon":5.39041,"is_reserved":false,"is_disabled":false,"rental_uris":{"android":"levelo://app?vid=8db4f1f3-d1cb-454b-9aa5-d61c997312a7","ios":"levelo://app?vid=8db4f1f3-d1cb-454b-9aa5-d61c997312a7"},"vehicle_type_id":"4","last_reported":1707667705,"current_range_meters":24000,"station_id":"ce4bh3p2rcd13ifvqdp0","pricing_plan_id":"free"},{"bike_id":"b4c77a84-9e62-4a6d-b8d6-bb89dc72d115","system_id":"levelo_inurba_marseille","lat":43.33023,"lon":5.39039,"is_reserved":false,"is_disabled":false,"rental_uris":{"android":"levelo://app?vid=b4c77a84-9e62-4a6d-b8d6-bb89dc72d115","ios":"levelo://app?vid=b4c77a84-9e62-4a6d-b8d6-bb89dc72d115"},"vehicle_type_id":"4","last_reported":1707667705,"current_range_meters":10400,"station_id":"ce4bhr92rcd13ifvqhrg","pricing_plan_id":"free"},{"bike_id":"ba7895df-fdf0-43d4-b40a-e7e64d29137d","system_id":"levelo_inurba_marseille","lat":43.330442,"lon":5.389148,"is_reserved":false,"is_disabled":false,"rental_uris":{"android":"levelo://app?vid=ba7895df-fdf0-43d4-b40a-e7e64d29137d","ios":"levelo://app?vid=ba7895df-fdf0-43d4-b40a-e7e64d29137d"},"vehicle_type_id":"4","last_reported":1707667705,"current_range_meters":27600,"station_id":"ce4bhr92rcd13ifvqhrg","pricing_plan_id":"free"},{"bike_id":"47f09297-ca42-4e52-9568-386405c17dff","system_id":"levelo_inurba_marseille","lat":43.33019,"lon":5.39046,"is_reserved":false,"is_disabled":false,"rental_uris":{"android":"levelo://app?vid=47f09297-ca42-4e52-9568-386405c17dff","ios":"levelo://app?vid=47f09297-ca42-4e52-9568-386405c17dff"},"vehicle_type_id":"4","last_reported":1707667705,"current_range_meters":11200,"station_id":"ce4bhr92rcd13ifvqhrg","pricing_plan_id":"free"},{"bike_id":"ca21e58c-40c8-4549-92f0-c57d86be085e","system_id":"levelo_inurba_marseille","lat":43.33023,"lon":5.39041,"is_reserved":false,"is_disabled":false,"rental_uris":{"android":"levelo://app?vid=ca21e58c-40c8-4549-92f0-c57d86be085e","ios":"levelo://app?vid=ca21e58c-40c8-4549-92f0-c57d86be085e"},"vehicle_type_id":"4","last_reported":1707667705,"current_range_meters":14400,"station_id":"ce4bhr92rcd13ifvqhrg","pricing_plan_id":"free"},{"bike_id":"c049a4bb-b2d8-42f6-99d6-c0be769574ba","system_id":"levelo_inurba_marseille","lat":43.33021,"lon":5.39044,"is_reserved":false,"is_disabled":false,"rental_uris":{"android":"levelo://app?vid=c049a4bb-b2d8-42f6-99d6-c0be769574ba","ios":"levelo://app?vid=c049a4bb-b2d8-42f6-99d6-c0be769574ba"},"vehicle_type_id":"4","last_reported":1707667705,"current_range_meters":16800,"station_id":"ce4bhr92rcd13ifvqhrg","pricing_plan_id":"free"},{"bike_id":"c1e50d83-9fb1-4fdf-8c1c-abe6adf436ba","system_id":"levelo_inurba_marseille","lat":43.33026,"lon":5.39038,"is_reserved":false,"is_disabled":false,"rental_uris":{"android":"levelo://app?vid=c1e50d83-9fb1-4fdf-8c1c-abe6adf436ba","ios":"levelo://app?vid=c1e50d83-9fb1-4fdf-8c1c-abe6adf436ba"},"vehicle_type_id":"4","last_reported":1707667705,"current_range_meters":3200,"station_id":"ce4bhr92rcd13ifvqhrg","pricing_plan_id":"free"},{"bike_id":"b4b681f8-4998-43c4-8d99-96354da923b7","system_id":"levelo_inurba_marseille","lat":43.33027,"lon":5.39038,"is_reserved":false,"is_disabled":false,"rental_uris":{"android":"levelo://app?vid=b4b681f8-4998-43c4-8d99-96354da923b7","ios":"levelo://app?vid=b4b681f8-4998-43c4-8d99-96354da923b7"},"vehicle_type_id":"4","last_reported":1707667705,"current_range_meters":1600,"station_id":"ce4bhr92rcd13ifvqhrg","pricing_plan_id":"free"},{"bike_id":"264c3796-f3e4-4bee-bd9b-539ed64d3e3d","system_id":"levelo_inurba_marseille","lat":43.33027,"lon":5.39039,"is_reserved":false,"is_disabled":false,"rental_uris":{"android":"levelo://app?vid=264c3796-f3e4-4bee-bd9b-539ed64d3e3d","ios":"levelo://app?vid=264c3796-f3e4-4bee-bd9b-539ed64d3e3d"},"vehicle_type_id":"4","last_reported":1707667705,"current_range_meters":4800,"station_id":"ce4bhr92rcd13ifvqhrg","pricing_plan_id":"free"},{"bike_id":"b52dc9ea-7e17-4421-b084-551dc9b9c210","system_id":"levelo_inurba_marseille","lat":43.295169,"lon":5.390426,"is_reserved":false,"is_disabled":false,"rental_uris":{"android":"levelo://app?vid=b52dc9ea-7e17-4421-b084-551dc9b9c210","ios":"levelo://app?vid=b52dc9ea-7e17-4421-b084-551dc9b9c210"},"vehicle_type_id":"4","last_reported":1707667705,"current_range_meters":6400,"station_id":"ce4bh3p2rcd13ifvqdp0","pricing_plan_id":"free"},{"bike_id":"25e70b8b-fe09-4644-a310-2fdfa569ddb6","system_id":"levelo_inurba_marseille","lat":43.29531,"lon":5.39053,"is_reserved":false,"is_disabled":false,"rental_uris":{"android":"levelo://app?vid=25e70b8b-fe09-4644-a310-2fdfa569ddb6","ios":"levelo://app?vid=25e70b8b-fe09-4644-a310-2fdfa569ddb6"},"vehicle_type_id":"4","last_reported":1707667705,"current_range_meters":26000,"station_id":"ce4bh3p2rcd13ifvqdp0","pricing_plan_id":"free"},{"bike_id":"6143b246-3fa0-4c50-967f-81b19f2106fa","system_id":"levelo_inurba_marseille","lat":43.33029,"lon":5.39037,"is_reserved":false,"is_disabled":false,"rental_uris":{"android":"levelo://app?vid=6143b246-3fa0-4c50-967f-81b19f2106fa","ios":"levelo://app?vid=6143b246-3fa0-4c50-967f-81b19f2106fa"},"vehicle_type_id":"4","last_reported":1707667705,"current_range_meters":9600,"station_id":"ce4bhr92rcd13ifvqhrg","pricing_plan_id":"free"},{"bike_id":"e92320c6-2076-4aee-8416-475298b6461d","system_id":"levelo_inurba_marseille","lat":43.33025,"lon":5.39044,"is_reserved":false,"is_disabled":false,"rental_uris":{"android":"levelo://app?vid=e92320c6-2076-4aee-8416-475298b6461d","ios":"levelo://app?vid=e92320c6-2076-4aee-8416-475298b6461d"},"vehicle_type_id":"4","last_reported":1707667705,"current_range_meters":18000,"station_id":"ce4bhr92rcd13ifvqhrg","pricing_plan_id":"free"},{"bike_id":"2eff85b4-a28d-42ed-bd4e-305f6c2ad641","system_id":"levelo_inurba_marseille","lat":43.289741,"lon":5.378306,"is_reserved":false,"is_disabled":false,"rental_uris":{"android":"levelo://app?vid=2eff85b4-a28d-42ed-bd4e-305f6c2ad641","ios":"levelo://app?vid=2eff85b4-a28d-42ed-bd4e-305f6c2ad641"},"vehicle_type_id":"4","last_reported":1707667705,"current_range_meters":3600,"station_id":"ce4bh9p2rcd13ifvqed0","pricing_plan_id":"free"},