{"last_updated":1758388026,"ttl":60,"version":"2.2","data":{"bikes":[{"bike_id":"77e5d7e2-57da-4e95-8fc0-f5575886c294","system_id":"levelo_inurba_marseille","lat":43.302484,"lon":5.400746,"is_reserved":false,"is_disabled":false,"rental_uris":{"android":"levelo://app?vid=77e5d7e2-57da-4e95-8fc0-f5575886c294","ios":"levelo://app?vid=77e5d7e2-57da-4e95-8fc0-f5575886c294"},"vehicle_type_id":"4","last_reported":1758388026,"current_range_meters":2800,"station_id":"ce4bgvh2rcd13ifvqcs0","pricing_plan_id":"cebpf4jnsgd1na2vs0mg"},{"bike_id":"50c1c1e3-58c2-4ff0-a78a-a7e499f3540c","system_id":"levelo_inurba_marseille","lat":43.28893,"lon":5.43277,"is_reserved":false,"is_disabled":false,"rental_uris":{"android":"levelo://app?vid=50c1c1e3-58c2-4ff0-a78a-a7e499f3540c","ios":"levelo://app?vid=50c1c1e3-58c2-4ff0-a78a-a7e499f3540c"},"vehicle_type_id":"4","last_reported":1758388026,"current_range_meters":2800,"station_id":"","pricing_plan_id":"cebpf4jnsgd1na2vs0mg"},{"bike_id":"2756534c-6138-4832-a7f5-e41114171434","system_id":"levelo_inurba_marseille","lat":43.2959,"lon":5.38163,"is_reserved":false,"is_disabled":false,"rental_uris":{"android":"levelo://app?vid=2756534c-6138-4832-a7f5-e41114171434","ios":"levelo://app?vid=2756534c-6138-4832-a7f5-e41114171434"},"vehicle_type_id":"4","last_reported":1758388026,"current_range_meters":3200,"station_id":"ce4bgl12rcd13ifvqbo0","pricing_plan_id":"cebpf4jnsgd1na2vs0mg"},{"bike_id":"5e1549e6-879c-42e0-8ce8-b9675e30105c","system_id":"levelo_inurba_marseille","lat":43.21167,"lon":5.35072,"is_reserved":false,"is_disabled":false,"rental_uris":{"android":"levelo://app?vid=5e1549e6-879c-42e0-8ce8-b9675e30105c","ios":"levelo://app?vid=5e1549e6-879c-42e0-8ce8-b9675e30105c"},"vehicle_type_id":"4","last_reported":1758388026,"current_range_meters":3200,"station_id":"st_cvj6sg6p6f1abm77japg","pricing_plan_id":"cebpf4jnsgd1na2vs0mg"},{"bike_id":"a3eb1dcd-c5cf-4391-8c07-776c1895713a","system_id":"levelo_inurba_marseille","lat":43.24624,"lon":5.4315,"is_reserved":false,"is_disabled":false,"rental_uris":{"android":"levelo://app?vid=a3eb1dcd-c5cf-4391-8c07-776c1895713a","ios":"levelo://app?vid=a3eb1dcd-c5cf-4391-8c07-776c1895713a"},"vehicle_type_id":"4","last_reported":1758388026,"current_range_meters":3200,"station_id":"st_d2m6c4gdas8pm72e190g","pricing_plan_id":"cebpf4jnsgd1na2vs0mg"},{"bike_id":"2054f737-84d4-4831-8d36-d12d08cef199","system_id":"levelo_inurba_marseille","lat":43.28489,"lon":5.38552,"is_reserved":false,"is_disabled":false,"rental_uris":{"android":"levelo://app?vid=2054f737-84d4-4831-8d36-d12d08cef199","ios":"levelo://app?vid=2054f737-84d4-4831-8d36-d12d08cef199"},"vehicle_type_id":"4","last_reported":1758388026,"current_range_meters":3200,"station_id":"ce4bh8p2rcd13ifvqeb0","pricing_plan_id":"cebpf4jnsgd1na2vs0mg"},{"bike_id":"de76441e-65aa-48a3-a17a-f2546b756c6d","system_id":"levelo_inurba_marseille","lat":43.28997,"lon":5.35617,"is_reserved":false,"is_disabled":false,"rental_uris":{"android":"levelo://app?vid=de76441e-65aa-48a3-a17a-f2546b756c6d","ios":"levelo://app?vid=de76441e-65aa-48a3-a17a-f2546b756c6d"},"vehicle_type_id":"4","last_reported":1758388026,"current_range_meters":3200,"station_id":"ce4bhb92rcd13ifvqen0","pricing_plan_id":"cebpf4jnsgd1na2vs0mg"},{"bike_id":"fce43978-0792-453f-b1b6-dbdc2e463c48","system_id":"levelo_inurba_marseille","lat":43.31709,"lon":5.43705,"is_reserved":false,"is_disabled":false,"rental_uris":{"android":"levelo://app?vid=fce43978-0792-453f-b1b6-dbdc2e463c48","ios":"levelo://app?vid=fce43978-0792-453f-b1b6-dbdc2e463c48"},"vehicle_type_id":"4","last_reported":1758388026,"current_range_meters":3200,"station_id":"ce4bhp92rcd13ifvqhcg","pricing_plan_id":"cebpf4jnsgd1na2vs0mg"},{"bike_id":"85c8e685-734d-4760-966b-86b771a65d9b","system_id":"levelo_inurba_marseille","lat":43.21189,"lon":5.35078,"is_reserved":false,"is_disabled":true,"rental_uris":{"android":"levelo://app?vid=85c8e685-734d-4760-966b-86b771a65d9b","ios":"levelo://app?vid=85c8e685-734d-4760-966b-86b771a65d9b"},"vehicle_type_id":"4","last_reported":1758388026,"current_range_meters":3600,"station_id":"st_cvj6sg6p6f1abm77japg","pricing_plan_id":"cebpf4jnsgd1na2vs0mg"},{"bike_id":"09bf928b-8752-427b-9ac9-f25d34288147","system_id":"levelo_inurba_marseille","lat":43.29578,"lon":5.36739,"is_reserved":false,"is_disabled":false,"rental_uris":{"android":"levelo://app?vid=09bf928b-8752-427b-9ac9-f25d34288147","ios":"levelo://app?vid=09bf928b-8752-427b-9ac9-f25d34288147"},"vehicle_type_id":"4","last_reported":1758388026,"current_range_meters":3600,"station_id":"ce4bgph2rcd13ifvqc2g","pricing_plan_id":"cebpf4jnsgd1na2vs0mg"},{"bike_id":"0b0a19bb-6a62-41a2-85ba-27f3a789cdee","system_id":"levelo_inurba_marseille","lat":43.26198,"lon":5.37443,"is_reserved":false,"is_disabled":false,"rental_uris":{"android":"levelo://app?vid=0b0a19bb-6a62-41a2-85ba-27f3a789cdee","ios":"levelo://app?vid=0b0a19bb-6a62-41a2-85ba-27f3a789cdee"},"vehicle_type_id":"4","last_reported":1758388026,"current_range_meters":3600,"station_id":"ce4bhgp2rcd13ifvqfc0","pricing_plan_id":"cebpf4jnsgd1na2vs0mg"},{"bike_id":"f696d7bd-cfef-4efe-a8e9-b6f6ee910b2f","system_id":"levelo_inurba_marseille","lat":43.282721,"lon":5.350595,"is_reserved":false,"is_disabled":false,"rental_uris":{"android":"levelo://app?vid=f696d7bd-cfef-4efe-a8e9-b6f6ee910b2f","ios":"levelo://app?vid=f696d7bd-cfef-4efe-a8e9-b6f6ee910b2f"},"vehicle_type_id":"4","last_reported":1758388026,"current_range_meters":3600,"station_id":"","pricing_plan_id":"cebpf4jnsgd1na2vs0mg"},{"bike_id":"577d0e24-bf90-43b8-a759-bea08b7d7e19","system_id":"levelo_inurba_marseille","lat":43.21739,"lon":5.34604,"is_reserved":false,"is_disabled":true,"rental_uris":{"android":"levelo://app?vid=577d0e24-bf90-43b8-a759-bea08b7d7e19","ios":"levelo://app?vid=577d0e24-bf90-43b8-a759-bea08b7d7e19"},"vehicle_type_id":"4","last_reported":1758388026,"current_range_meters":3600,"station_id":"st_cvj6r9ubvosntc0bgbag","pricing_plan_id":"cebpf4jnsgd1na2vs0mg"},{"bike_id":"8c169a96-8b38-45c1-aa0d-eb1f40806901","system_id":"levelo_inurba_marseille","lat":43.28104,"lon":5.37836,"is_reserved":false,"is_disabled":false,"rental_uris":{"android":"levelo://app?vid=8c169a96-8b38-45c1-aa0d-eb1f40806901","ios":"levelo://app?vid=8c169a96-8b38-45c1-aa0d-eb1f40806901"},"vehicle_type_id":"4","last_reported":1758388026,"current_range_meters":3600,"station_id":"ce4bha12rcd13ifvqee0","pricing_plan_id":"cebpf4jnsgd1na2vs0mg"},{"bike_id":"ba697894-2d1a-4898-b749-491d7e8f1d5d","system_id":"levelo_inurba_marseille","lat":43.2929,"lon":5.36826,"is_reserved":false,"is_disabled":false,"rental_uris":{"android":"levelo://app?vid=ba697894-2d1a-4898-b749-491d7e8f1d5d","ios":"levelo://app?vid=ba697894-2d1a-4898-b749-491d7e8f1d5d"},"vehicle_type_id":"4","last_reported":1758388026,"current_range_meters":3600,"station_id":"ce4bhbp2rcd13ifvqesg","pricing_plan_id":"cebpf4jnsgd1na2vs0mg"},{"bike_id":"97fe4709-ffeb-4022-9f33-7a15f93edc31","system_id":"levelo_inurba_marseille","lat":43.23041,"lon":5.40088,"is_reserved":false,"is_disabled":false,"rental_uris":{"android":"levelo://app?vid=97fe4709-ffeb-4022-9f33-7a15f93edc31","ios":"levelo://app?vid=97fe4709-ffeb-4022-9f33-7a15f93edc31"},"vehicle_type_id":"4","last_reported":1758388026,"current_range_meters":3600,"station_id":"ce4bhn12rcd13ifvqgqg","pricing_plan_id":"cebpf4jnsgd1na2vs0mg"},{"bike_id":"42323a1a-489c-43cb-90ae-c675b27444d5","system_id":"levelo_inurba_marseille","lat":43.21649,"lon":5.34366,"is_reserved":false,"is_disabled":false,"rental_uris":{"android":"levelo://app?vid=42323a1a-489c-43cb-90ae-c675b27444d5","ios":"levelo://app?vid=42323a1a-489c-43cb-90ae-c675b27444d5"},"vehicle_type_id":"4","last_reported":1758388026,"current_range_meters":3600,"station_id":"","pricing_plan_id":"cebpf4jnsgd1na2vs0mg"},{"bike_id":"f307d6a5-319a-46b6-9fc4-226db3d26eb7","system_id":"levelo_inurba_marseille","lat":43.28842,"lon":5.35852,"is_reserved":false,"is_disabled":false,"rental_uris":{"android":"levelo://app?vid=f307d6a5-319a-46b6-9fc4-226db3d26eb7","ios":"levelo://app?vid=f307d6a5-319a-46b6-9fc4-226db3d26eb7"},"vehicle_type_id":"4","last_reported":1758388026,"current_range_meters":3200,"station_id":"ce4bhb12rcd13ifvqem0","pricing_plan_id":"cebpf4jnsgd1na2vs0mg"},{"bike_id":"bcf8dfcd-6a61-4f3a-9ea3-bfa1d3b72eb0","system_id":"levelo_inurba_marseille","lat":43.29528,"lon":5.38536,"is_reserved":false,"is_disabled":false,"rental_uris":{"android":"levelo://app?vid=bcf8dfcd-6a61-4f3a-9ea3-bfa1d3b72eb0","ios":"levelo://app?vid=bcf8dfcd-6a61-4f3a-9ea3-bfa1d3b72eb0"},"vehicle_type_id":"4","last_reported":1758388026,"current_range_meters":4000,"station_id":"ce4bgih2rcd13ifvqba0","pricing_plan_id":"cebpf4jnsgd1na2vs0mg"},{"bike_id":"05e4ae13-8b76-4b12-a138-e9a49c0e4ded","system_id":"levelo_inurba_marseille","lat":43.295719,"lon":5.396802,"is_reserved":false,"is_disabled":false,"rental_uris":{"android":"levelo://app?vid=05e4ae13-8b76-4b12-a138-e9a49c0e4ded","ios":"levelo://app?vid=05e4ae13-8b76-4b12-a138-e9a49c0e4ded"},"vehicle_type_id":"4","last_reported":1758388026,"current_range_meters":4000,"station_id":"ce4bh312rcd13ifvqdj0","pricing_plan_id":"cebpf4jnsgd1na2vs0mg"},{"bike_id":"f36ef82a-6b6d-4f4a-8f27-e6740d1679d4","system_id":"levelo_inurba_marseille","lat":43.30058,"lon":5.375871,"is_reserved":false,"is_disabled":false,"rental_uris":{"android":"levelo://app?vid=f36ef82a-6b6d-4f4a-8f27-e6740d1679d4","ios":"levelo://app?vid=f36ef82a-6b6d-4f4a-8f27-e6740d1679d4"},"vehicle_type_id":"4","last_reported":1758388026,"current_range_meters":4000,"station_id":"","pricing_plan_id":"cebpf4jnsgd1na2vs0mg"},{"bike_id":"a8efefe6-cb45-4c3d-9c23-babc31a9c13c","system_id":"levelo_inurba_marseille","lat":43.272831,"lon":5.362727,"is_reserved":false,"is_disabled":false,"rental_uris":{"android":"levelo://app?vid=a8efefe6-cb45-4c3d-9c23-babc31a9c13c","ios":"levelo://app?vid=a8efefe6-cb45-4c3d-9c23-babc31a9c13c"},"vehicle_type_id":"4","last_reported":1758388026,"current_range_meters":4000,"station_id":"ce4bhbh2rcd13ifvqeo0","pricing_plan_id":"cebpf4jnsgd1na2vs0mg"},{"bike_id":"721a710a-6571-4408-adff-59ddc449ca5f","system_id":"levelo_inurba_marseille","lat":43.295987,"lon":5.380957,"is_reserved":false,"is_disabled":false,"rental_uris":{"android":"levelo://app?vid=721a710a-6571-4408-adff-59ddc449ca5f","ios":"levelo://app?vid=721a710a-6571-4408-adff-59ddc449ca5f"},"vehicle_type_id":"4","last_reported":1758388026,"current_range_meters":2800,"station_id":"ce4bghh2rcd13ifvqb60","pricing_plan_id":"cebpf4jnsgd1na2vs0mg"},{"bike_id":"66ba5fb6-791e-4981-8bd0-4e02055670c7","system_id":"levelo_inurba_marseille","lat":43.27898,"lon":5.38021,"is_reserved":false,"is_disabled":false,"rental_uris":{"android":"levelo://app?vid=66ba5fb6-791e-4981-8bd0-4e02055670c7","ios":"levelo://app?vid=66ba5fb6-791e-4981-8bd0-4e02055670c7"},"vehicle_type_id":"4","last_reported":1758388026,"current_range_meters":4000,"station_id":"ce4bhf92rcd13ifvqf50","pricing_plan_id":"cebpf4jnsgd1na2vs0mg"},{"bike_id":"e942f984-8fe7-48d1-8f04-3806656b9996","system_id":"levelo_inurba_marseille","lat":43.33633,"lon":5.37933,"is_reserved":false,"is_disabled":false,"rental_uris":{"android":"levelo://app?vid=e942f984-8fe7-48d1-8f04-3806656b9996","ios":"levelo://app?vid=e942f984-8fe7-48d1-8f04-3806656b9996"},"vehicle_type_id":"4","last_reported":1758388026,"current_range_meters":4400,"station_id":"","pricing_plan_id":"cebpf4jnsgd1na2vs0mg"},{"bike_id":"6959345d-3211-402d-8210-d6e2b969ab72","system_id":"levelo_inurba_marseille","lat":43.297082,"lon":5.366,"is_reserved":false,"is_disabled":false,"rental_uris":{"android":"levelo://app?vid=6959345d-3211-402d-8210-d6e2b969ab72","ios":"levelo://app?vid=6959345d-3211-402d-8210-d6e2b969ab72"},"vehicle_type_id":"4","last_reported":1758388026,"current_range_meters":4000,"station_id":"ce4bgn12rcd13ifvqbt0","pricing_plan_id":"cebpf4jnsgd1na2vs0mg"},{"bike_id":"6fd54359-496a-4260-b5c0-6045626469f5","system_id":"levelo_inurba_marseille","lat":43.26942,"lon":5.40249,"is_reserved":false,"is_disabled":false,"rental_uris":{"android":"levelo://app?vid=6fd54359-496a-4260-b5c0-6045626469f5","ios":"levelo://app?vid=6fd54359-496a-4260-b5c0-6045626469f5"},"vehicle_type_id":"4","last_reported":1758388026,"current_range_meters":4400,"station_id":"cjm6bp8fraef2m0cb0m0","pricing_plan_id":"cebpf4jnsgd1na2vs0mg"},{"bike_id":"4562b14f-e980-4f8b-b209-3beedfffeea0","system_id":"levelo_inurba_marseille","lat":43.29201,"lon":5.35798,"is_reserved":false,"is_disabled":false,"rental_uris":{"android":"levelo://app?vid=4562b14f-e980-4f8b-b209-3beedfffeea0","ios":"levelo://app?vid=4562b14f-e980-4f8b-b209-3beedfffeea0"},"vehicle_type_id":"4","last_reported":1758388026,"current_range_meters":6800,"station_id":"ce4bhb12rcd13ifvqel0","pricing_plan_id":"cebpf4jnsgd1na2vs0mg"},{"bike_id":"e61305c7-f027-4569-9f18-5b1dd7efa2d8","system_id":"levelo_inurba_marseille","lat":43.2984,"lon":5.36277,"is_reserved":false,"is_disabled":false,"rental_uris":{"android":"levelo://app?vid=e61305c7-f027-4569-9f18-5b1dd7efa2d8","ios":"levelo://app?vid=e61305c7-f027-4569-9f18-5b1dd7efa2d8"},"vehicle_type_id":"4","last_reported":1758388026,"current_range_meters":4800,"station_id":"ce4bgpp2rcd13ifvqc3g","pricing_plan_id":"cebpf4jnsgd1na2vs0mg"},{"bike_id":"9f0f401b-ff98-4040-b24f-13fefb233bef","system_id":"levelo_inurba_marseille","lat":43.21198,"lon":5.35071,"is_reserved":false,"is_disabled":false,"rental_uris":{"android":"levelo://app?vid=9f0f401b-ff98-4040-b24f-13fefb233bef","ios":"levelo://app?vid=9f0f401b-ff98-4040-b24f-13fefb233bef"},"vehicle_type_id":"4","last_reported":1758388026,"current_range_meters":4400,"station_id":"st_cvj6sg6p6f1abm77japg","pricing_plan_id":"cebpf4jnsgd1na2vs0mg"},{"bike_id":"e5e33936-4921-4343-ba8b-c9a53c550252","system_id":"levelo_inurba_marseille","lat":43.28702,"lon":5.373689,"is_reserved":false,"is_disabled":false,"rental_uris":{"android":"levelo://app?vid=e5e33936-4921-4343-ba8b-c9a53c550252","ios":"levelo://app?vid=e5e33936-4921-4343-ba8b-c9a53c550252"},"vehicle_type_id":"4","last_reported":1758388026,"current_range_meters":4000,"station_id":"ce4bh3p2rcd13ifvqdq0","pricing_plan_id":"cebpf4jnsgd1na2vs0mg"},{"bike_id":"142c1e21-ef2c-4ad0-ad90-07cc6910f7ff","system_id":"levelo_inurba_marseille","lat":43.304319,"lon":5.39746,"is_reserved":false,"is_disabled":false,"rental_uris":{"android":"levelo://app?vid=142c1e21-ef2c-4ad0-ad90-07cc6910f7ff","ios":"levelo://app?vid=142c1e21-ef2c-4ad0-ad90-07cc6910f7ff"},"vehicle_type_id":"4","last_reported":1758388026,"current_range_meters":4400,"station_id":"ce4bh092rcd13ifvqd20","pricing_plan_id":"cebpf4jnsgd1na2vs0mg"},{"bike_id":"a8e84b53-b031-4b96-9faa-ea4dbbf1764c","system_id":"levelo_inurba_marseille","lat":43.2957,"lon":5.39989,"is_reserved":false,"is_disabled":false,"rental_uris":{"android":"levelo://app?vid=a8e84b53-b031-4b96-9faa-ea4dbbf1764c","ios":"levelo://app?vid=a8e84b53-b031-4b96-9faa-ea4dbbf1764c"},"vehicle_type_id":"4","last_reported":1758388026,"current_range_meters":4800,"station_id":"ce4bh312rcd13ifvqdj0","pricing_plan_id":"cebpf4jnsgd1na2vs0mg"},{"bike_id":"650d72c5-80d7-4dfc-af61-0936bc541984","system_id":"levelo_inurba_marseille","lat":43.29295,"lon":5.37455,"is_reserved":false,"is_disabled":false,"rental_uris":{"android":"levelo://app?vid=650d72c5-80d7-4dfc-af61-0936bc541984","ios":"levelo://app?vid=650d72c5-80d7-4dfc-af61-0936bc541984"},"vehicle_type_id":"4","last_reported":1758388026,"current_range_meters":4800,"station_id":"ce4bgi12rcd13ifvqb70","pricing_plan_id":"cebpf4jnsgd1na2vs0mg"},{"bike_id":"13631fe9-17b3-4b2d-9a48-037250c1ce2a","system_id":"levelo_inurba_marseille","lat":43.31144,"lon":5.39477,"is_reserved":false,"is_disabled":false,"rental_uris":{"android":"levelo://app?vid=13631fe9-17b3-4b2d-9a48-037250c1ce2a","ios":"levelo://app?vid=13631fe9-17b3-4b2d-9a48-037250c1ce2a"},"vehicle_type_id":"4","last_reported":1758388026,"current_range_meters":4800,"station_id":"","pricing_plan_id":"cebpf4jnsgd1na2vs0mg"},{"bike_id":"d88b4b01-18be-42aa-ab08-335cafbfb429","system_id":"levelo_inurba_marseille","lat":43.28337,"lon":5.3867,"is_reserved":false,"is_disabled":false,"rental_uris":{"android":"levelo://app?vid=d88b4b01-18be-42aa-ab08-335cafbfb429","ios":"levelo://app?vid=d88b4b01-18be-42aa-ab08-335cafbfb429"},"vehicle_type_id":"4","last_reported":1758388026,"current_range_meters":4800,"station_id":"ce4bh492rcd13ifvqdvg","pricing_plan_id":"cebpf4jnsgd1na2vs0mg"},{"bike_id":"adb64b3f-7dfb-4e7c-a372-d18e1a8f836f","system_id":"levelo_inurba_marseille","lat":43.292603,"lon":5.384412,"is_reserved":false,"is_disabled":false,"rental_uris":{"android":"levelo://app?vid=adb64b3f-7dfb-4e7c-a372-d18e1a8f836f","ios":"levelo://app?vid=adb64b3f-7dfb-4e7c-a372-d18e1a8f836f"},"vehicle_type_id":"4","last_reported":1758388026,"current_range_meters":4800,"station_id":"ce4bh692rcd13ifvqea0","pricing_plan_id":"cebpf4jnsgd1na2vs0mg"},{"bike_id":"915bd022-5e58-48d9-826d-f9fa0f685cfe","system_id":"levelo_inurba_marseille","lat":43.29171,"lon":5.37147,"is_reserved":false,"is_disabled":false,"rental_uris":{"android":"levelo://app?vid=915bd022-5e58-48d9-826d-f9fa0f685cfe","ios":"levelo://app?vid=915bd022-5e58-48d9-826d-f9fa0f685cfe"},"vehicle_type_id":"4","last_reported":1758388026,"current_range_meters":4800,"station_id":"ce4bha92rcd13ifvqeh0","pricing_plan_id":"cebpf4jnsgd1na2vs0mg"},{"bike_id":"10118d3f-1c30-497a-823e-4d9831dc658e","system_id":"levelo_inurba_marseille","lat":43.29196,"lon":5.35794,"is_reserved":false,"is_disabled":false,"rental_uris":{"android":"levelo://app?vid=10118d3f-1c30-497a-823e-4d9831dc658e","ios":"levelo://app?vid=10118d3f-1c30-497a-823e-4d9831dc658e"},"vehicle_type_id":"4","last_reported":1758388026,"current_range_meters":5600,"station_id":"ce4bhb12rcd13ifvqel0","pricing_plan_id":"cebpf4jnsgd1na2vs0mg"},{"bike_id":"cad97885-b582-49b2-8b83-0a6c3d079fc6","system_id":"levelo_inurba_marseille","lat":43.297018,"lon":5.365873,"is_reserved":false,"is_disabled":false,"rental_uris":{"android":"levelo://app?vid=cad97885-b582-49b2-8b83-0a6c3d079fc6","ios":"levelo://app?vid=cad97885-b582-49b2-8b83-0a6c3d079fc6"},"vehicle_type_id":"4","last_reported":1758388026,"current_range_meters":5600,"station_id":"ce4bgn12rcd13ifvqbt0","pricing_plan_id":"cebpf4jnsgd1na2vs0mg"},{"bike_id":"dd54508b-cebc-429e-947d-94cace74c022","system_id":"levelo_inurba_marseille","lat":43.23971,"lon":5.36609,"is_reserved":false,"is_disabled":true,"rental_uris":{"android":"levelo://app?vid=dd54508b-cebc-429e-947d-94cace74c022","ios":"levelo://app?vid=dd54508b-cebc-429e-947d-94cace74c022"},"vehicle_type_id":"4","last_reported":1758388026,"current_range_meters":5600,"station_id":"ce4bhi12rcd13ifvqfp0","pricing_plan_id":"cebpf4jnsgd1na2vs0mg"},{"bike_id":"6dc49f8f-31b8-485c-b489-e3fd253e6676","system_id":"levelo_inurba_marseille","lat":43.32665,"lon":5.41,"is_reserved":false,"is_disabled":true,"rental_uris":{"android":"levelo://app?vid=6dc49f8f-31b8-485c-b489-e3fd253e6676","ios":"levelo://app?vid=6dc49f8f-31b8-485c-b489-e3fd253e6676"},"vehicle_type_id":"4","last_reported":1758388026,"current_range_meters":5600,"station_id":"ce4bhpp2rcd13ifvqhgg","pricing_plan_id":"cebpf4jnsgd1na2vs0mg"},{"bike_id":"7d6ac39d-cf1f-40d3-a758-86d696a5a152","system_id":"levelo_inurba_marseille","lat":43.29306,"lon":5.37176,"is_reserved":false,"is_disabled":false,"rental_uris":{"android":"levelo://app?vid=7d6ac39d-cf1f-40d3-a758-86d696a5a152","ios":"levelo://app?vid=7d6ac39d-cf1f-40d3-a758-86d696a5a152"},"vehicle_type_id":"4","last_reported":1758388026,"current_range_meters":5600,"station_id":"ce4bgh92rcd13ifvqb40","pricing_plan_id":"cebpf4jnsgd1na2vs0mg"},{"bike_id":"4a42c3a7-350b-4a49-9c56-c4b3d7531c94","system_id":"levelo_inurba_marseille","lat":43.305533,"lon":5.366949,"is_reserved":false,"is_disabled":false,"rental_uris":{"android":"levelo://app?vid=4a42c3a7-350b-4a49-9c56-c4b3d7531c94","ios":"levelo://app?vid=4a42c3a7-350b-4a49-9c56-c4b3d7531c94"},"vehicle_type_id":"4","last_reported":1758388026,"current_range_meters":5600,"station_id":"ce4bgrp2rcd13ifvqc9g","pricing_plan_id":"cebpf4jnsgd1na2vs0mg"},{"bike_id":"58c47028-edab-4dfa-95db-ab2d54d0af0c","system_id":"levelo_inurba_marseille","lat":43.28354,"lon":5.38101,"is_reserved":false,"is_disabled":false,"rental_uris":{"android":"levelo://app?vid=58c47028-edab-4dfa-95db-ab2d54d0af0c","ios":"levelo://app?vid=58c47028-edab-4dfa-95db-ab2d54d0af0c"},"vehicle_type_id":"4","last_reported":1758388026,"current_range_meters":5600,"station_id":"ce4bh412rcd13ifvqdr0","pricing_plan_id":"cebpf4jnsgd1na2vs0mg"},{"bike_id":"3823bd4f-55dd-447c-9565-ca703ceecb6e","system_id":"levelo_inurba_marseille","lat":43.29575,"lon":5.3752,"is_reserved":false,"is_disabled":false,"rental_uris":{"android":"levelo://app?vid=3823bd4f-55dd-447c-9565-ca703ceecb6e","ios":"levelo://app?vid=3823bd4f-55dd-447c-9565-ca703ceecb6e"},"vehicle_type_id":"4","last_reported":1758388026,"current_range_meters":5600,"station_id":"ce4bgh92rcd13ifvqb50","pricing_plan_id":"cebpf4jnsgd1na2vs0mg"},{"bike_id":"63663824-8355-4dda-9c0f-af60dadabb98","system_id":"levelo_inurba_marseille","lat":43.28032,"lon":5.36945,"is_reserved":false,"is_disabled":false,"rental_uris":{"android":"levelo://app?vid=63663824-8355-4dda-9c0f-af60dadabb98","ios":"levelo://app?vid=63663824-8355-4dda-9c0f-af60dadabb98"},"vehicle_type_id":"4","last_reported":1758388026,"current_range_meters":4800,"station_id":"ce4bha12rcd13ifvqef0","pricing_plan_id":"cebpf4jnsgd1na2vs0mg"},{"bike_id":"ab5b9659-77bc-417b-8f8b-7002662fbf28","system_id":"levelo_inurba_marseille","lat":43.29318,"lon":5.41153,"is_reserved":false,"is_disabled":false,"rental_uris":{"android":"levelo://app?vid=ab5b9659-77bc-417b-8f8b-7002662fbf28","ios":"levelo://app?vid=ab5b9659-77bc-417b-8f8b-7002662fbf28"},"vehicle_type_id":"4","last_reported":1758388026,"current_range_meters":5600,"station_id":"","pricing_plan_id":"cebpf4jnsgd1na2vs0mg"},{"bike_id":"ddeab940-4cd6-4ef2-964f-9d64245bc0e9","system_id":"levelo_inurba_marseille","lat":43.28609,"lon":5.37064,"is_reserved":false,"is_disabled":false,"rental_uris":{"android":"levelo://app?vid=ddeab940-4cd6-4ef2-964f-9d64245bc0e9","ios":"levelo://app?vid=ddeab940-4cd6-4ef2-964f-9d64245bc0e9"},"vehicle_type_id":"4","last_reported":1758388026,"current_range_meters":5600,"station_id":"ce4bht12rcd13ifvqi60","pricing_plan_id":"cebpf4jnsgd1na2vs0mg"},{"bike_id":"6abb12c8-eaca-47a3-9363-e86b86ae5e48","system_id":"levelo_inurba_marseille","lat":43.31711,"lon":5.37741,"is_reserved":false,"is_disabled":false,"rental_uris":{"android":"levelo://app?vid=6abb12c8-eaca-47a3-9363-e86b86ae5e48","ios":"levelo://app?vid=6abb12c8-eaca-47a3-9363-e86b86ae5e48"},"vehicle_type_id":"4","last_reported":1758388026,"current_range_meters":5600,"station_id":"ce4bgth2rcd13ifvqch0","pricing_plan_id":"cebpf4jnsgd1na2vs0mg"},{"bike_id":"d45beed4-21d5-4470-886e-03e149eb472d","system_id":"levelo_inurba_marseille","lat":43.278409,"lon":5.392105,"is_reserved":false,"is_disabled":false,"rental_uris":{"android":"levelo://app?vid=d45beed4-21d5-4470-886e-03e149eb472d","ios":"levelo://app?vid=d45beed4-21d5-4470-886e-03e149eb472d"},"vehicle_type_id":"4","last_reported":1758388026,"current_range_meters":5600,"station_id":"ce4bhjp2rcd13ifvqga0","pricing_plan_id":"cebpf4jnsgd1na2vs0mg"},{"bike_id":"208230b2-e68a-413b-a14a-e7ab3f4bb067","system_id":"levelo_inurba_marseille","lat":43.290741,"lon":5.371593,"is_reserved":false,"is_disabled":false,"rental_uris":{"android":"levelo://app?vid=208230b2-e68a-413b-a14a-e7ab3f4bb067","ios":"levelo://app?vid=208230b2-e68a-413b-a14a-e7ab3f4bb067"},"vehicle_type_id":"4","last_reported":1758388026,"current_range_meters":6000,"station_id":"ce4bh5p2rcd13ifvqe4g","pricing_plan_id":"cebpf4jnsgd1na2vs0mg"},{"bike_id":"4be34378-9580-4e00-ac88-562ca8f442fa","system_id":"levelo_inurba_marseille","lat":43.291974,"lon":5.393203,"is_reserved":false,"is_disabled":false,"rental_uris":{"android":"levelo://app?vid=4be34378-9580-4e00-ac88-562ca8f442fa","ios":"levelo://app?vid=4be34378-9580-4e00-ac88-562ca8f442fa"},"vehicle_type_id":"4","last_reported":1758388026,"current_range_meters":6000,"station_id":"ce4bh192rcd13ifvqdd0","pricing_plan_id":"cebpf4jnsgd1na2vs0mg"},{"bike_id":"974c0906-e5f2-49b8-9dbe-e53c81d305d1","system_id":"levelo_inurba_marseille","lat":43.26953,"lon":5.38628,"is_reserved":false,"is_disabled":false,"rental_uris":{"android":"levelo://app?vid=974c0906-e5f2-49b8-9dbe-e53c81d305d1","ios":"levelo://app?vid=974c0906-e5f2-49b8-9dbe-e53c81d305d1"},"vehicle_type_id":"4","last_reported":1758388026,"current_range_meters":6000,"station_id":"ce4bhh92rcd13ifvqfh0","pricing_plan_id":"cebpf4jnsgd1na2vs0mg"},{"bike_id":"2f0c84be-e020-4960-9408-7685a02d0829","system_id":"levelo_inurba_marseille","lat":43.21742,"lon":5.34619,"is_reserved":false,"is_disabled":true,"rental_uris":{"android":"levelo://app?vid=2f0c84be-e020-4960-9408-7685a02d0829","ios":"levelo://app?vid=2f0c84be-e020-4960-9408-7685a02d0829"},"vehicle_type_id":"4","last_reported":1758388026,"current_range_meters":6000,"station_id":"st_cvj6r9ubvosntc0bgbag","pricing_plan_id":"cebpf4jnsgd1na2vs0mg"},{"bike_id":"c8de5b3d-4d3e-42f7-a785-bde2d3268dae","system_id":"levelo_inurba_marseille","lat":43.30419,"lon":5.39749,"is_reserved":false,"is_disabled":false,"rental_uris":{"android":"levelo://app?vid=c8de5b3d-4d3e-42f7-a785-bde2d3268dae","ios":"levelo://app?vid=c8de5b3d-4d3e-42f7-a785-bde2d3268dae"},"vehicle_type_id":"4","last_reported":1758388026,"current_range_meters":6000,"station_id":"ce4bh092rcd13ifvqd20","pricing_plan_id":"cebpf4jnsgd1na2vs0mg"},{"bike_id":"c03d6efb-bd90-4355-bf16-a308bb4cefda","system_id":"levelo_inurba_marseille","lat":43.2678,"lon":5.39415,"is_reserved":false,"is_disabled":false,"rental_uris":{"android":"levelo://app?vid=c03d6efb-bd90-4355-bf16-a308bb4cefda","ios":"levelo://app?vid=c03d6efb-bd90-4355-bf16-a308bb4cefda"},"vehicle_type_id":"4","last_reported":1758388026,"current_range_meters":6400,"station_id":"ce4bhh12rcd13ifvqfg0","pricing_plan_id":"cebpf4jnsgd1na2vs0mg"},{"bike_id":"357e5970-abe5-4ef3-85da-e4a3b478621c","system_id":"levelo_inurba_marseille","lat":43.24176,"lon":5.39734,"is_reserved":false,"is_disabled":false,"rental_uris":{"android":"levelo://app?vid=357e5970-abe5-4ef3-85da-e4a3b478621c","ios":"levelo://app?vid=357e5970-abe5-4ef3-85da-e4a3b478621c"},"vehicle_type_id":"4","last_reported":1758388026,"current_range_meters":12400,"station_id":"ce4bhn12rcd13ifvqgpg","pricing_plan_id":"cebpf4jnsgd1na2vs0mg"},{"bike_id":"5ced689e-038b-4a6d-bc57-fe3fd60be7c5","system_id":"levelo_inurba_marseille","lat":43.29525,"lon":5.39393,"is_reserved":false,"is_disabled":false,"rental_uris":{"android":"levelo://app?vid=5ced689e-038b-4a6d-bc57-fe3fd60be7c5","ios":"levelo://app?vid=5ced689e-038b-4a6d-bc57-fe3fd60be7c5"},"vehicle_type_id":"4","last_reported":1758388026,"current_range_meters":6800,"station_id":"ce4bh292rcd13ifvqdf0","pricing_plan_id":"cebpf4jnsgd1na2vs0mg"},{"bike_id":"04ac4072-76af-404d-8a72-a8ffe8ae8fcc","system_id":"levelo_inurba_marseille","lat":43.32364,"lon":5.38877,"is_reserved":false,"is_disabled":false,"rental_uris":{"android":"levelo://app?vid=04ac4072-76af-404d-8a72-a8ffe8ae8fcc","ios":"levelo://app?vid=04ac4072-76af-404d-8a72-a8ffe8ae8fcc"},"vehicle_type_id":"4","last_reported":1758388026,"current_range_meters":6400,"station_id":"ce4bhqp2rcd13ifvqhog","pricing_plan_id":"cebpf4jnsgd1na2vs0mg"},{"bike_id":"19bab787-ad47-40ab-b451-fb385af835e6","system_id":"levelo_inurba_marseille","lat":43.28948,"lon":5.36377,"is_reserved":false,"is_disabled":false,"rental_uris":{"android":"levelo://app?vid=19bab787-ad47-40ab-b451-fb385af835e6","ios":"levelo://app?vid=19bab787-ad47-40ab-b451-fb385af835e6"},"vehicle_type_id":"4","last_reported":1758388026,"current_range_meters":6000,"station_id":"ce4bhc92rcd13ifvqetg","pricing_plan_id":"cebpf4jnsgd1na2vs0mg"},{"bike_id":"f02bf06f-b896-427b-af2d-b833678465dc","system_id":"levelo_inurba_marseille","lat":43.26212,"lon":5.3744,"is_reserved":false,"is_disabled":false,"rental_uris":{"android":"levelo://app?vid=f02bf06f-b896-427b-af2d-b833678465dc","ios":"levelo://app?vid=f02bf06f-b896-427b-af2d-b833678465dc"},"vehicle_type_id":"4","last_reported":1758388026,"current_range_meters":6800,"station_id":"ce4bhgp2rcd13ifvqfc0","pricing_plan_id":"cebpf4jnsgd1na2vs0mg"},{"bike_id":"d0228d61-2b99-4914-8dd6-bc81fd7513be","system_id":"levelo_inurba_marseille","lat":43.29368,"lon":5.37858,"is_reserved":false,"is_disabled":false,"rental_uris":{"android":"levelo://app?vid=d0228d61-2b99-4914-8dd6-bc81fd7513be","ios":"levelo://app?vid=d0228d61-2b99-4914-8dd6-bc81fd7513be"},"vehicle_type_id":"4","last_reported":1758388026,"current_range_meters":8800,"station_id":"ce4bgjh2rcd13ifvqbf0","pricing_plan_id":"cebpf4jnsgd1na2vs0mg"},{"bike_id":"d3f6e9e8-9364-4a93-b986-ef736ab400c4","system_id":"levelo_inurba_marseille","lat":43.27072,"lon":5.42291,"is_reserved":false,"is_disabled":false,"rental_uris":{"android":"levelo://app?vid=d3f6e9e8-9364-4a93-b986-ef736ab400c4","ios":"levelo://app?vid=d3f6e9e8-9364-4a93-b986-ef736ab400c4"},"vehicle_type_id":"4","last_reported":1758388026,"current_range_meters":6800,"station_id":"ce4bhk92rcd13ifvqgb0","pricing_plan_id":"cebpf4jnsgd1na2vs0mg"},{"bike_id":"fc40df1c-5e33-48b3-adeb-93bc5ef49f37","system_id":"levelo_inurba_marseille","lat":43.29249,"lon":5.38445,"is_reserved":false,"is_disabled":false,"rental_uris":{"android":"levelo://app?vid=fc40df1c-5e33-48b3-adeb-93bc5ef49f37","ios":"levelo://app?vid=fc40df1c-5e33-48b3-adeb-93bc5ef49f37"},"vehicle_type_id":"4","last_reported":1758388026,"current_range_meters":6800,"station_id":"ce4bh692rcd13ifvqea0","pricing_plan_id":"cebpf4jnsgd1na2vs0mg"},{"bike_id":"138e4625-8f7b-49c3-8cd8-b35afc99c6e7","system_id":"levelo_inurba_marseille","lat":43.29163,"lon":5.37158,"is_reserved":false,"is_disabled":false,"rental_uris":{"android":"levelo://app?vid=138e4625-8f7b-49c3-8cd8-b35afc99c6e7","ios":"levelo://app?vid=138e4625-8f7b-49c3-8cd8-b35afc99c6e7"},"vehicle_type_id":"4","last_reported":1758388026,"current_range_meters":6800,"station_id":"ce4bha92rcd13ifvqeh0","pricing_plan_id":"cebpf4jnsgd1na2vs0mg"},{"bike_id":"b4897b1d-982e-4a86-8552-de37ed9b471e","system_id":"levelo_inurba_marseille","lat":43.28675,"lon":5.38634,"is_reserved":false,"is_disabled":false,"rental_uris":{"android":"levelo://app?vid=b4897b1d-982e-4a86-8552-de37ed9b471e","ios":"levelo://app?vid=b4897b1d-982e-4a86-8552-de37ed9b471e"},"vehicle_type_id":"4","last_reported":1758388026,"current_range_meters":7200,"station_id":"ce4bh492rcd13ifvqdug","pricing_plan_id":"cebpf4jnsgd1na2vs0mg"},{"bike_id":"e1065c32-ac19-477b-812a-39f964d50769","system_id":"levelo_inurba_marseille","lat":43.23187,"lon":5.35567,"is_reserved":false,"is_disabled":true,"rental_uris":{"android":"levelo://app?vid=e1065c32-ac19-477b-812a-39f964d50769","ios":"levelo://app?vid=e1065c32-ac19-477b-812a-39f964d50769"},"vehicle_type_id":"4","last_reported":1758388026,"current_range_meters":7200,"station_id":"ce4bhu92rcd13ifvqi70","pricing_plan_id":"cebpf4jnsgd1na2vs0mg"},{"bike_id":"3f473a1c-eeef-40aa-b080-13e2f871fcae","system_id":"levelo_inurba_marseille","lat":43.30586,"lon":5.39348,"is_reserved":false,"is_disabled":false,"rental_uris":{"android":"levelo://app?vid=3f473a1c-eeef-40aa-b080-13e2f871fcae","ios":"levelo://app?vid=3f473a1c-eeef-40aa-b080-13e2f871fcae"},"vehicle_type_id":"4","last_reported":1758388026,"current_range_meters":6800,"station_id":"ce4bh0p2rcd13ifvqd80","pricing_plan_id":"cebpf4jnsgd1na2vs0mg"},{"bike_id":"296364ea-4bb9-41b0-8ecc-b2e6f66a7896","system_id":"levelo_inurba_marseille","lat":43.29163,"lon":5.37167,"is_reserved":false,"is_disabled":false,"rental_uris":{"android":"levelo://app?vid=296364ea-4bb9-41b0-8ecc-b2e6f66a7896","ios":"levelo://app?vid=296364ea-4bb9-41b0-8ecc-b2e6f66a7896"},"vehicle_type_id":"4","last_reported":1758388026,"current_range_meters":7200,"station_id":"ce4bha92rcd13ifvqeh0","pricing_plan_id":"cebpf4jnsgd1na2vs0mg"},{"bike_id":"08876b90-9a69-4941-9691-baba3902b961","system_id":"levelo_inurba_marseille","lat":43.31218,"lon":5.36859,"is_reserved":false,"is_disabled":false,"rental_uris":{"android":"levelo://app?vid=08876b90-9a69-4941-9691-baba3902b961","ios":"levelo://app?vid=08876b90-9a69-4941-9691-baba3902b961"},"vehicle_type_id":"4","last_reported":1758388026,"current_range_meters":6800,"station_id":"ce4bgl92rcd13ifvqbq0","pricing_plan_id":"cebpf4jnsgd1na2vs0mg"},{"bike_id":"ea318794-9a5f-4a4f-a61b-3c1343224386","system_id":"levelo_inurba_marseille","lat":43.28715,"lon":5.379368,"is_reserved":false,"is_disabled":false,"rental_uris":{"android":"levelo://app?vid=ea318794-9a5f-4a4f-a61b-3c1343224386","ios":"levelo://app?vid=ea318794-9a5f-4a4f-a61b-3c1343224386"},"vehicle_type_id":"4","last_reported":1758388026,"current_range_meters":7200,"station_id":"ce4bh9p2rcd13ifvqec0","pricing_plan_id":"cebpf4jnsgd1na2vs0mg"},{"bike_id":"1f2d59f9-3273-45b8-8acb-2684772353be","system_id":"levelo_inurba_marseille","lat":43.31219,"lon":5.36855,"is_reserved":false,"is_disabled":false,"rental_uris":{"android":"levelo://app?vid=1f2d59f9-3273-45b8-8acb-2684772353be","ios":"levelo://app?vid=1f2d59f9-3273-45b8-8acb-2684772353be"},"vehicle_type_id":"4","last_reported":1758388026,"current_range_meters":9200,"station_id":"ce4bgl92rcd13ifvqbq0","pricing_plan_id":"cebpf4jnsgd1na2vs0mg"},{"bike_id":"3c9735e9-fd7e-4079-8199-725760347837","system_id":"levelo_inurba_marseille","lat":43.21189,"lon":5.3508,"is_reserved":false,"is_disabled":false,"rental_uris":{"android":"levelo://app?vid=3c9735e9-fd7e-4079-8199-725760347837","ios":"levelo://app?vid=3c9735e9-fd7e-4079-8199-725760347837"},"vehicle_type_id":"4","last_reported":1758388026,"current_range_meters":8000,"station_id":"st_cvj6sg6p6f1abm77japg","pricing_plan_id":"cebpf4jnsgd1na2vs0mg"},{"bike_id":"6bf06d9a-48e7-4a6a-a19c-63fc6c4f5cf2","system_id":"levelo_inurba_marseille","lat":43.28944,"lon":5.36381,"is_reserved":false,"is_disabled":false,"rental_uris":{"android":"levelo://app?vid=6bf06d9a-48e7-4a6a-a19c-63fc6c4f5cf2","ios":"levelo://app?vid=6bf06d9a-48e7-4a6a-a19c-63fc6c4f5cf2"},"vehicle_type_id":"4","last_reported":1758388026,"current_range_meters":8000,"station_id":"ce4bhc92rcd13ifvqetg","pricing_plan_id":"cebpf4jnsgd1na2vs0mg"},{"bike_id":"5bb42022-0e19-48bc-a5b4-218bb1d7482e","system_id":"levelo_inurba_marseille","lat":43.31269,"lon":5.37732,"is_reserved":false,"is_disabled":false,"rental_uris":{"android":"levelo://app?vid=5bb42022-0e19-48bc-a5b4-218bb1d7482e","ios":"levelo://app?vid=5bb42022-0e19-48bc-a5b4-218bb1d7482e"},"vehicle_type_id":"4","last_reported":1758388026,"current_range_meters":8000,"station_id":"","pricing_plan_id":"cebpf4jnsgd1na2vs0mg"},{"bike_id":"bf6e6d27-c09e-4725-9fbc-20073fd5a515","system_id":"levelo_inurba_marseille","lat":43.289376,"lon":5.396214,"is_reserved":false,"is_disabled":false,"rental_uris":{"android":"levelo://app?vid=bf6e6d27-c09e-4725-9fbc-20073fd5a515","ios":"levelo://app?vid=bf6e6d27-c09e-4725-9fbc-20073fd5a515"},"vehicle_type_id":"4","last_reported":1758388026,"current_range_meters":8000,"station_id":"","pricing_plan_id":"cebpf4jnsgd1na2vs0mg"},{"bike_id":"0960e3dd-c358-4474-bd10-8223758e1f6b","system_id":"levelo_inurba_marseille","lat":43.296996,"lon":5.376855,"is_reserved":false,"is_disabled":false,"rental_uris":{"android":"levelo://app?vid=0960e3dd-c358-4474-bd10-8223758e1f6b","ios":"levelo://app?vid=0960e3dd-c358-4474-bd10-8223758e1f6b"},"vehicle_type_id":"4","last_reported":1758388026,"current_range_meters":8000,"station_id":"","pricing_plan_id":"cebpf4jnsgd1na2vs0mg"},{"bike_id":"b57d7f70-815d-4fb4-99c8-218c75c88687","system_id":"levelo_inurba_marseille","lat":43.296933,"lon":5.365873,"is_reserved":false,"is_disabled":false,"rental_uris":{"android":"levelo://app?vid=b57d7f70-815d-4fb4-99c8-218c75c88687","ios":"levelo://app?vid=b57d7f70-815d-4fb4-99c8-218c75c88687"},"vehicle_type_id":"4","last_reported":1758388026,"current_range_meters":2800,"station_id":"ce4bgn12rcd13ifvqbt0","pricing_plan_id":"cebpf4jnsgd1na2vs0mg"},{"bike_id":"734add67-b197-4856-be9c-69b34607d2d4","system_id":"levelo_inurba_marseille","lat":43.274628,"lon":5.361248,"is_reserved":false,"is_disabled":false,"rental_uris":{"android":"levelo://app?vid=734add67-b197-4856-be9c-69b34607d2d4","ios":"levelo://app?vid=734add67-b197-4856-be9c-69b34607d2d4"},"vehicle_type_id":"4","last_reported":1758388026,"current_range_meters":8000,"station_id":"ce4bh5p2rcd13ifvqe4g","pricing_plan_id":"cebpf4jnsgd1na2vs0mg"},{"bike_id":"dd506220-e774-4d2d-9e3d-de64880acebb","system_id":"levelo_inurba_marseille","lat":43.291726,"lon":5.371582,"is_reserved":false,"is_disabled":false,"rental_uris":{"android":"levelo://app?vid=dd506220-e774-4d2d-9e3d-de64880acebb","ios":"levelo://app?vid=dd506220-e774-4d2d-9e3d-de64880acebb"},"vehicle_type_id":"4","last_reported":1758388026,"current_range_meters":11200,"station_id":"ce4bha92rcd13ifvqeh0","pricing_plan_id":"cebpf4jnsgd1na2vs0mg"},{"bike_id":"3082f593-a5a6-48f9-afa8-383813f7af0b","system_id":"levelo_inurba_marseille","lat":43.21728,"lon":5.34623,"is_reserved":false,"is_disabled":true,"rental_uris":{"android":"levelo://app?vid=3082f593-a5a6-48f9-afa8-383813f7af0b","ios":"levelo://app?vid=3082f593-a5a6-48f9-afa8-383813f7af0b"},"vehicle_type_id":"4","last_reported":1758388026,"current_range_meters":8400,"station_id":"st_cvj6r9ubvosntc0bgbag","pricing_plan_id":"cebpf4jnsgd1na2vs0mg"},{"bike_id":"c627b34a-8e81-4438-af3b-4fd0aab1c160","system_id":"levelo_inurba_marseille","lat":43.29657,"lon":5.36042,"is_reserved":false,"is_disabled":false,"rental_uris":{"android":"levelo://app?vid=c627b34a-8e81-4438-af3b-4fd0aab1c160","ios":"levelo://app?vid=c627b34a-8e81-4438-af3b-4fd0aab1c160"},"vehicle_type_id":"4","last_reported":1758388026,"current_range_meters":8400,"station_id":"","pricing_plan_id":"cebpf4jnsgd1na2vs0mg"},{"bike_id":"19e8d798-613a-48af-a6c6-5a04774bd706","system_id":"levelo_inurba_marseille","lat":43.27994,"lon":5.41661,"is_reserved":false,"is_disabled":false,"rental_uris":{"android":"levelo://app?vid=19e8d798-613a-48af-a6c6-5a04774bd706","ios":"levelo://app?vid=19e8d798-613a-48af-a6c6-5a04774bd706"},"vehicle_type_id":"4","last_reported":1758388026,"current_range_meters":8400,"station_id":"ce4bho12rcd13ifvqh1g","pricing_plan_id":"cebpf4jnsgd1na2vs0mg"},{"bike_id":"7dd65b1b-fb7b-4087-9803-34d477de11ae","system_id":"levelo_inurba_marseille","lat":43.21172,"lon":5.35087,"is_reserved":false,"is_disabled":false,"rental_uris":{"android":"levelo://app?vid=7dd65b1b-fb7b-4087-9803-34d477de11ae","ios":"levelo://app?vid=7dd65b1b-fb7b-4087-9803-34d477de11ae"},"vehicle_type_id":"4","last_reported":1758388026,"current_range_meters":8800,"station_id":"st_cvj6sg6p6f1abm77japg","pricing_plan_id":"cebpf4jnsgd1na2vs0mg"},{"bike_id":"1f88fe94-0c69-4b5f-bbd7-9ea062115b4d","system_id":"levelo_inurba_marseille","lat":43.304287,"lon":5.388926,"is_reserved":false,"is_disabled":false,"rental_uris":{"android":"levelo://app?vid=1f88fe94-0c69-4b5f-bbd7-9ea062115b4d","ios":"levelo://app?vid=1f88fe94-0c69-4b5f-bbd7-9ea062115b4d"},"vehicle_type_id":"4","last_reported":1758388026,"current_range_meters":8800,"station_id":"ce4bgk12rcd13ifvqbi0","pricing_plan_id":"cebpf4jnsgd1na2vs0mg"},{"bike_id":"74b860f3-e193-4fea-9ed7-95346585da99","system_id":"levelo_inurba_marseille","lat":43.25336,"lon":5.4218,"is_reserved":false,"is_disabled":false,"rental_uris":{"android":"levelo://app?vid=74b860f3-e193-4fea-9ed7-95346585da99","ios":"levelo://app?vid=74b860f3-e193-4fea-9ed7-95346585da99"},"vehicle_type_id":"4","last_reported":1758388026,"current_range_meters":8800,"station_id":"st_d2m65c5bi1j21697t3ng","pricing_plan_id":"cebpf4jnsgd1na2vs0mg"},{"bike_id":"81f07bbe-cad7-4297-9e0d-b2380f297505","system_id":"levelo_inurba_marseille","lat":43.29893,"lon":5.38888,"is_reserved":false,"is_disabled":false,"rental_uris":{"android":"levelo://app?vid=81f07bbe-cad7-4297-9e0d-b2380f297505","ios":"levelo://app?vid=81f07bbe-cad7-4297-9e0d-b2380f297505"},"vehicle_type_id":"4","last_reported":1758388026,"current_range_meters":8800,"station_id":"ce4bh392rcd13ifvqdl0","pricing_plan_id":"cebpf4jnsgd1na2vs0mg"},{"bike_id":"6a4f32fb-c91c-4709-bc8a-cda630caa70f","system_id":"levelo_inurba_marseille","lat":43.30911,"lon":5.36849,"is_reserved":false,"is_disabled":false,"rental_uris":{"android":"levelo://app?vid=6a4f32fb-c91c-4709-bc8a-cda630caa70f","ios":"levelo://app?vid=6a4f32fb-c91c-4709-bc8a-cda630caa70f"},"vehicle_type_id":"4","last_reported":1758388026,"current_range_meters":7200,"station_id":"ce4bgn92rcd13ifvqbvg","pricing_plan_id":"cebpf4jnsgd1na2vs0mg"},{"bike_id":"0e7612a4-3b2d-44eb-906b-f4504ffd2a7f","system_id":"levelo_inurba_marseille","lat":43.30242,"lon":5.40058,"is_reserved":false,"is_disabled":true,"rental_uris":{"android":"levelo://app?vid=0e7612a4-3b2d-44eb-906b-f4504ffd2a7f","ios":"levelo://app?vid=0e7612a4-3b2d-44eb-906b-f4504ffd2a7f"},"vehicle_type_id":"4","last_reported":1758388026,"current_range_meters":8800,"station_id":"ce4bgvh2rcd13ifvqcs0","pricing_plan_id":"cebpf4jnsgd1na2vs0mg"},{"bike_id":"af505c0c-04fc-4ca7-b6f0-f1d0721d3aad","system_id":"levelo_inurba_marseille","lat":43.29591,"lon":5.38111,"is_reserved":false,"is_disabled":false,"rental_uris":{"android":"levelo://app?vid=af505c0c-04fc-4ca7-b6f0-f1d0721d3aad","ios":"levelo://app?vid=af505c0c-04fc-4ca7-b6f0-f1d0721d3aad"},"vehicle_type_id":"4","last_reported":1758388026,"current_range_meters":8800,"station_id":"ce4bgl12rcd13ifvqbo0","pricing_plan_id":"cebpf4jnsgd1na2vs0mg"},{"bike_id":"bfd5a40a-2bde-4af0-aa0f-f9803a57a5f3","system_id":"levelo_inurba_marseille","lat":43.284058,"lon":5.349788,"is_reserved":false,"is_disabled":false,"rental_uris":{"android":"levelo://app?vid=bfd5a40a-2bde-4af0-aa0f-f9803a57a5f3","ios":"levelo://app?vid=bfd5a40a-2bde-4af0-aa0f-f9803a57a5f3"},"vehicle_type_id":"4","last_reported":1758388026,"current_range_meters":8800,"station_id":"ce4bhbh2rcd13ifvqepg","pricing_plan_id":"cebpf4jnsgd1na2vs0mg"},{"bike_id":"876af6ad-468a-4cc9-a1f2-25aa1e3799ea","system_id":"levelo_inurba_marseille","lat":43.25084,"lon":5.39524,"is_reserved":false,"is_disabled":false,"rental_uris":{"android":"levelo://app?vid=876af6ad-468a-4cc9-a1f2-25aa1e3799ea","ios":"levelo://app?vid=876af6ad-468a-4cc9-a1f2-25aa1e3799ea"},"vehicle_type_id":"4","last_reported":1758388026,"current_range_meters":8400,"station_id":"ce4bhm12rcd13ifvqgkg","pricing_plan_id":"cebpf4jnsgd1na2vs0mg"},{"bike_id":"3d5e91ba-73bb-4636-b4ef-6fba59dc71f7","system_id":"levelo_inurba_marseille","lat":43.28942,"lon":5.36385,"is_reserved":false,"is_disabled":false,"rental_uris":{"android":"levelo://app?vid=3d5e91ba-73bb-4636-b4ef-6fba59dc71f7","ios":"levelo://app?vid=3d5e91ba-73bb-4636-b4ef-6fba59dc71f7"},"vehicle_type_id":"4","last_reported":1758388026,"current_range_meters":8400,"station_id":"ce4bhc92rcd13ifvqetg","pricing_plan_id":"cebpf4jnsgd1na2vs0mg"},{"bike_id":"fcb3f6af-c7d4-4ccc-be82-7f951e8865a2","system_id":"levelo_inurba_marseille","lat":43.21186,"lon":5.35084,"is_reserved":false,"is_disabled":false,"rental_uris":{"android":"levelo://app?vid=fcb3f6af-c7d4-4ccc-be82-7f951e8865a2","ios":"levelo://app?vid=fcb3f6af-c7d4-4ccc-be82-7f951e8865a2"},"vehicle_type_id":"4","last_reported":1758388026,"current_range_meters":9200,"station_id":"st_cvj6sg6p6f1abm77japg","pricing_plan_id":"cebpf4jnsgd1na2vs0mg"},{"bike_id":"92bddf53-917d-4150-a30a-80c479641d10","system_id":"levelo_inurba_marseille","lat":43.24163,"lon":5.36395,"is_reserved":false,"is_disabled":false,"rental_uris":{"android":"levelo://app?vid=92bddf53-917d-4150-a30a-80c479641d10","ios":"levelo://app?vid=92bddf53-917d-4150-a30a-80c479641d10"},"vehicle_type_id":"4","last_reported":1758388026,"current_range_meters":9200,"station_id":"cpo36qri1sfpv3e86is0","pricing_plan_id":"cebpf4jnsgd1na2vs0mg"},{"bike_id":"2ef28b59-9845-4ff6-8acd-d9ca2821858b","system_id":"levelo_inurba_marseille","lat":43.2481,"lon":5.37457,"is_reserved":false,"is_disabled":false,"rental_uris":{"android":"levelo://app?vid=2ef28b59-9845-4ff6-8acd-d9ca2821858b","ios":"levelo://app?vid=2ef28b59-9845-4ff6-8acd-d9ca2821858b"},"vehicle_type_id":"4","last_reported":1758388026,"current_range_meters":9200,"station_id":"ce4bhgh2rcd13ifvqfb0","pricing_plan_id":"cebpf4jnsgd1na2vs0mg"},{"bike_id":"f6f098fc-3242-49b7-90b3-1f11f68fb01c","system_id":"levelo_inurba_marseille","lat":43.31118,"lon":5.37783,"is_reserved":false,"is_disabled":false,"rental_uris":{"android":"levelo://app?vid=f6f098fc-3242-49b7-90b3-1f11f68fb01c","ios":"levelo://app?vid=f6f098fc-3242-49b7-90b3-1f11f68fb01c"},"vehicle_type_id":"4","last_reported":1758388026,"current_range_meters":9200,"station_id":"ce4bgt92rcd13ifvqcg0","pricing_plan_id":"cebpf4jnsgd1na2vs0mg"},{"bike_id":"0ec9df45-509d-4006-ae9b-4bea40fed8ff","system_id":"levelo_inurba_marseille","lat":43.25084,"lon":5.39526,"is_reserved":false,"is_disabled":false,"rental_uris":{"android":"levelo://app?vid=0ec9df45-509d-4006-ae9b-4bea40fed8ff","ios":"levelo://app?vid=0ec9df45-509d-4006-ae9b-4bea40fed8ff"},"vehicle_type_id":"4","last_reported":1758388026,"current_range_meters":9200,"station_id":"ce4bhm12rcd13ifvqgkg","pricing_plan_id":"cebpf4jnsgd1na2vs0mg"},{"bike_id":"c06f205f-b149-48e1-af6e-4e386850564e","system_id":"levelo_inurba_marseille","lat":43.24395,"lon":5.37063,"is_reserved":false,"is_disabled":true,"rental_uris":{"android":"levelo://app?vid=c06f205f-b149-48e1-af6e-4e386850564e","ios":"levelo://app?vid=c06f205f-b149-48e1-af6e-4e386850564e"},"vehicle_type_id":"4","last_reported":1758388026,"current_range_meters":9200,"station_id":"ce4bhhh2rcd13ifvqfk0","pricing_plan_id":"cebpf4jnsgd1na2vs0mg"},{"bike_id":"e875771d-9ea7-4a34-b0e1-1c56b55eef93","system_id":"levelo_inurba_marseille","lat":43.29197,"lon":5.39325,"is_reserved":false,"is_disabled":false,"rental_uris":{"android":"levelo://app?vid=e875771d-9ea7-4a34-b0e1-1c56b55eef93","ios":"levelo://app?vid=e875771d-9ea7-4a34-b0e1-1c56b55eef93"},"vehicle_type_id":"4","last_reported":1758388026,"current_range_meters":8800,"station_id":"ce4bh192rcd13ifvqdd0","pricing_plan_id":"cebpf4jnsgd1na2vs0mg"},{"bike_id":"58dd4310-e8b5-40c4-ae62-7812f9f3c38d","system_id":"levelo_inurba_marseille","lat":43.28916,"lon":5.38408,"is_reserved":false,"is_disabled":false,"rental_uris":{"android":"levelo://app?vid=58dd4310-e8b5-40c4-ae62-7812f9f3c38d","ios":"levelo://app?vid=58dd4310-e8b5-40c4-ae62-7812f9f3c38d"},"vehicle_type_id":"4","last_reported":1758388026,"current_range_meters":9200,"station_id":"ce4bh612rcd13ifvqe6g","pricing_plan_id":"cebpf4jnsgd1na2vs0mg"},{"bike_id":"19672e1b-b0c6-4215-b381-92bb12f21ca2","system_id":"levelo_inurba_marseille","lat":43.30084,"lon":5.3907,"is_reserved":false,"is_disabled":false,"rental_uris":{"android":"levelo://app?vid=19672e1b-b0c6-4215-b381-92bb12f21ca2","ios":"levelo://app?vid=19672e1b-b0c6-4215-b381-92bb12f21ca2"},"vehicle_type_id":"4","last_reported":1758388026,"current_range_meters":8800,"station_id":"ce4bh192rcd13ifvqdb0","pricing_plan_id":"cebpf4jnsgd1na2vs0mg"},{"bike_id":"4000a2db-8be1-45fb-b1b8-a3dd4894f9fb","system_id":"levelo_inurba_marseille","lat":43.295188,"lon":5.390328,"is_reserved":false,"is_disabled":false,"rental_uris":{"android":"levelo://app?vid=4000a2db-8be1-45fb-b1b8-a3dd4894f9fb","ios":"levelo://app?vid=4000a2db-8be1-45fb-b1b8-a3dd4894f9fb"},"vehicle_type_id":"4","last_reported":1758388026,"current_range_meters":9200,"station_id":"ce4bh3h2rcd13ifvqdo0","pricing_plan_id":"cebpf4jnsgd1na2vs0mg"},{"bike_id":"30d94a7b-b91f-4e64-93cf-5478401a4e72","system_id":"levelo_inurba_marseille","lat":43.29247,"lon":5.40905,"is_reserved":false,"is_disabled":false,"rental_uris":{"android":"levelo://app?vid=30d94a7b-b91f-4e64-93cf-5478401a4e72","ios":"levelo://app?vid=30d94a7b-b91f-4e64-93cf-5478401a4e72"},"vehicle_type_id":"4","last_reported":1758388026,"current_range_meters":9600,"station_id":"ce4bh192rcd13ifvqdc0","pricing_plan_id":"cebpf4jnsgd1na2vs0mg"},{"bike_id":"d18b426c-8059-4207-b0cc-64bb6cd2b593","system_id":"levelo_inurba_marseille","lat":43.25817,"lon":5.39436,"is_reserved":false,"is_disabled":false,"rental_uris":{"android":"levelo://app?vid=d18b426c-8059-4207-b0cc-64bb6cd2b593","ios":"levelo://app?vid=d18b426c-8059-4207-b0cc-64bb6cd2b593"},"vehicle_type_id":"4","last_reported":1758388026,"current_range_meters":9200,"station_id":"ce4bhip2rcd13ifvqft0","pricing_plan_id":"cebpf4jnsgd1na2vs0mg"},{"bike_id":"e23f4ce9-5d02-4a93-a7cf-706b6cb53bc5","system_id":"levelo_inurba_marseille","lat":43.29688,"lon":5.36616,"is_reserved":false,"is_disabled":false,"rental_uris":{"android":"levelo://app?vid=e23f4ce9-5d02-4a93-a7cf-706b6cb53bc5","ios":"levelo://app?vid=e23f4ce9-5d02-4a93-a7cf-706b6cb53bc5"},"vehicle_type_id":"4","last_reported":1758388026,"current_range_meters":9600,"station_id":"ce4bgn12rcd13ifvqbt0","pricing_plan_id":"cebpf4jnsgd1na2vs0mg"},{"bike_id":"2770c61c-16c1-4049-9422-0ee29aa57469","system_id":"levelo_inurba_marseille","lat":43.292258,"lon":5.360508,"is_reserved":false,"is_disabled":false,"rental_uris":{"android":"levelo://app?vid=2770c61c-16c1-4049-9422-0ee29aa57469","ios":"levelo://app?vid=2770c61c-16c1-4049-9422-0ee29aa57469"},"vehicle_type_id":"4","last_reported":1758388026,"current_range_meters":9600,"station_id":"ce4bhbh2rcd13ifvqeqg","pricing_plan_id":"cebpf4jnsgd1na2vs0mg"},{"bike_id":"cf776281-cf95-4b8b-a1c0-070eef242dfc","system_id":"levelo_inurba_marseille","lat":43.29005,"lon":5.37581,"is_reserved":false,"is_disabled":false,"rental_uris":{"android":"levelo://app?vid=cf776281-cf95-4b8b-a1c0-070eef242dfc","ios":"levelo://app?vid=cf776281-cf95-4b8b-a1c0-070eef242dfc"},"vehicle_type_id":"4","last_reported":1758388026,"current_range_meters":9600,"station_id":"ce4bh692rcd13ifvqe90","pricing_plan_id":"cebpf4jnsgd1na2vs0mg"},{"bike_id":"575f379b-682e-45a6-a90b-e2da032a9ae0","system_id":"levelo_inurba_marseille","lat":43.21192,"lon":5.35106,"is_reserved":false,"is_disabled":false,"rental_uris":{"android":"levelo://app?vid=575f379b-682e-45a6-a90b-e2da032a9ae0","ios":"levelo://app?vid=575f379b-682e-45a6-a90b-e2da032a9ae0"},"vehicle_type_id":"4","last_reported":1758388026,"current_range_meters":9600,"station_id":"st_cvj6sg6p6f1abm77japg","pricing_plan_id":"cebpf4jnsgd1na2vs0mg"},{"bike_id":"4c6e98a2-12a5-4039-95a3-eda6416592e2","system_id":"levelo_inurba_marseille","lat":43.29518,"lon":5.39044,"is_reserved":false,"is_disabled":false,"rental_uris":{"android":"levelo://app?vid=4c6e98a2-12a5-4039-95a3-eda6416592e2","ios":"levelo://app?vid=4c6e98a2-12a5-4039-95a3-eda6416592e2"},"vehicle_type_id":"4","last_reported":1758388026,"current_range_meters":9600,"station_id":"ce4bh3p2rcd13ifvqdp0","pricing_plan_id":"cebpf4jnsgd1na2vs0mg"},{"bike_id":"b77580f2-2757-4ce2-89a7-bf551bfbec7a","system_id":"levelo_inurba_marseille","lat":43.292906,"lon":5.374648,"is_reserved":false,"is_disabled":false,"rental_uris":{"android":"levelo://app?vid=b77580f2-2757-4ce2-89a7-bf551bfbec7a","ios":"levelo://app?vid=b77580f2-2757-4ce2-89a7-bf551bfbec7a"},"vehicle_type_id":"4","last_reported":1758388026,"current_range_meters":10000,"station_id":"","pricing_plan_id":"cebpf4jnsgd1na2vs0mg"},{"bike_id":"5b84af94-a4d6-4b46-a63f-085ff5681f73","system_id":"levelo_inurba_marseille","lat":43.21183,"lon":5.35079,"is_reserved":false,"is_disabled":false,"rental_uris":{"android":"levelo://app?vid=5b84af94-a4d6-4b46-a63f-085ff5681f73","ios":"levelo://app?vid=5b84af94-a4d6-4b46-a63f-085ff5681f73"},"vehicle_type_id":"4","last_reported":1758388026,"current_range_meters":10000,"station_id":"st_cvj6sg6p6f1abm77japg","pricing_plan_id":"cebpf4jnsgd1na2vs0mg"},{"bike_id":"b766d582-d4f0-4f9a-9867-0ae0b8177870","system_id":"levelo_inurba_marseille","lat":43.21188,"lon":5.35073,"is_reserved":false,"is_disabled":false,"rental_uris":{"android":"levelo://app?vid=b766d582-d4f0-4f9a-9867-0ae0b8177870","ios":"levelo://app?vid=b766d582-d4f0-4f9a-9867-0ae0b8177870"},"vehicle_type_id":"4","last_reported":1758388026,"current_range_meters":10000,"station_id":"st_cvj6sg6p6f1abm77japg","pricing_plan_id":"cebpf4jnsgd1na2vs0mg"},{"bike_id":"e6f59a7f-e88f-4d65-bed3-135ed8be6983","system_id":"levelo_inurba_marseille","lat":43.32418,"lon":5.3911,"is_reserved":false,"is_disabled":false,"rental_uris":{"android":"levelo://app?vid=e6f59a7f-e88f-4d65-bed3-135ed8be6983","ios":"levelo://app?vid=e6f59a7f-e88f-4d65-bed3-135ed8be6983"},"vehicle_type_id":"4","last_reported":1758388026,"current_range_meters":10000,"station_id":"","pricing_plan_id":"cebpf4jnsgd1na2vs0mg"},{"bike_id":"617dca4b-4508-4d52-9e62-d583d919ac44","system_id":"levelo_inurba_marseille","lat":43.29735,"lon":5.3712,"is_reserved":false,"is_disabled":false,"rental_uris":{"android":"levelo://app?vid=617dca4b-4508-4d52-9e62-d583d919ac44","ios":"levelo://app?vid=617dca4b-4508-4d52-9e62-d583d919ac44"},"vehicle_type_id":"4","last_reported":1758388026,"current_range_meters":10000,"station_id":"","pricing_plan_id":"cebpf4jnsgd1na2vs0mg"},{"bike_id":"bde2f357-f251-4d22-bae2-2ac38a92e187","system_id":"levelo_inurba_marseille","lat":43.26029,"lon":5.37551,"is_reserved":false,"is_disabled":false,"rental_uris":{"android":"levelo://app?vid=bde2f357-f251-4d22-bae2-2ac38a92e187","ios":"levelo://app?vid=bde2f357-f251-4d22-bae2-2ac38a92e187"},"vehicle_type_id":"4","last_reported":1758388026,"current_range_meters":10000,"station_id":"ce4bhgh2rcd13ifvqfa0","pricing_plan_id":"cebpf4jnsgd1na2vs0mg"},{"bike_id":"c4706891-6ce1-4440-91ff-a3ecf2ff007e","system_id":"levelo_inurba_marseille","lat":43.26374,"lon":5.40075,"is_reserved":false,"is_disabled":false,"rental_uris":{"android":"levelo://app?vid=c4706891-6ce1-4440-91ff-a3ecf2ff007e","ios":"levelo://app?vid=c4706891-6ce1-4440-91ff-a3ecf2ff007e"},"vehicle_type_id":"4","last_reported":1758388026,"current_range_meters":11200,"station_id":"","pricing_plan_id":"cebpf4jnsgd1na2vs0mg"},{"bike_id":"98e8af00-4b83-49fb-a286-0d2396c92bd0","system_id":"levelo_inurba_marseille","lat":43.30929,"lon":5.36848,"is_reserved":false,"is_disabled":true,"rental_uris":{"android":"levelo://app?vid=98e8af00-4b83-49fb-a286-0d2396c92bd0","ios":"levelo://app?vid=98e8af00-4b83-49fb-a286-0d2396c92bd0"},"vehicle_type_id":"4","last_reported":1758388026,"current_range_meters":11600,"station_id":"ce4bgn92rcd13ifvqbvg","pricing_plan_id":"cebpf4jnsgd1na2vs0mg"},{"bike_id":"761078b0-9e79-400d-8037-2adcd2846fde","system_id":"levelo_inurba_marseille","lat":43.29925,"lon":5.36553,"is_reserved":false,"is_disabled":false,"rental_uris":{"android":"levelo://app?vid=761078b0-9e79-400d-8037-2adcd2846fde","ios":"levelo://app?vid=761078b0-9e79-400d-8037-2adcd2846fde"},"vehicle_type_id":"4","last_reported":1758388026,"current_range_meters":11200,"station_id":"ce4bgm92rcd13ifvqbr0","pricing_plan_id":"cebpf4jnsgd1na2vs0mg"},{"bike_id":"ca7124de-ce9c-4f9e-8c5f-6e03823db7ec","system_id":"levelo_inurba_marseille","lat":43.28602,"lon":5.37061,"is_reserved":false,"is_disabled":false,"rental_uris":{"android":"levelo://app?vid=ca7124de-ce9c-4f9e-8c5f-6e03823db7ec","ios":"levelo://app?vid=ca7124de-ce9c-4f9e-8c5f-6e03823db7ec"},"vehicle_type_id":"4","last_reported":1758388026,"current_range_meters":11200,"station_id":"ce4bht12rcd13ifvqi60","pricing_plan_id":"cebpf4jnsgd1na2vs0mg"},{"bike_id":"91cf9f6a-a52c-4529-b6b3-c37ed21357de","system_id":"levelo_inurba_marseille","lat":43.29622,"lon":5.3715,"is_reserved":false,"is_disabled":false,"rental_uris":{"android":"levelo://app?vid=91cf9f6a-a52c-4529-b6b3-c37ed21357de","ios":"levelo://app?vid=91cf9f6a-a52c-4529-b6b3-c37ed21357de"},"vehicle_type_id":"4","last_reported":1758388026,"current_range_meters":11600,"station_id":"ce4bgnh2rcd13ifvqc0g","pricing_plan_id":"cebpf4jnsgd1na2vs0mg"},{"bike_id":"b357c907-3ee9-4080-95df-e223adffb4df","system_id":"levelo_inurba_marseille","lat":43.29527,"lon":5.38537,"is_reserved":false,"is_disabled":false,"rental_uris":{"android":"levelo://app?vid=b357c907-3ee9-4080-95df-e223adffb4df","ios":"levelo://app?vid=b357c907-3ee9-4080-95df-e223adffb4df"},"vehicle_type_id":"4","last_reported":1758388026,"current_range_meters":11600,"station_id":"ce4bgih2rcd13ifvqba0","pricing_plan_id":"cebpf4jnsgd1na2vs0mg"},{"bike_id":"23470b9b-7720-4c31-9a17-bbe0e10f919b","system_id":"levelo_inurba_marseille","lat":43.28037,"lon":5.36946,"is_reserved":false,"is_disabled":false,"rental_uris":{"android":"levelo://app?vid=23470b9b-7720-4c31-9a17-bbe0e10f919b","ios":"levelo://app?vid=23470b9b-7720-4c31-9a17-bbe0e10f919b"},"vehicle_type_id":"4","last_reported":1758388026,"current_range_meters":11600,"station_id":"ce4bha12rcd13ifvqef0","pricing_plan_id":"cebpf4jnsgd1na2vs0mg"},{"bike_id":"61c58e0b-8043-4a81-b703-ad26e4c74021","system_id":"levelo_inurba_marseille","lat":43.28609,"lon":5.37058,"is_reserved":false,"is_disabled":false,"rental_uris":{"android":"levelo://app?vid=61c58e0b-8043-4a81-b703-ad26e4c74021","ios":"levelo://app?vid=61c58e0b-8043-4a81-b703-ad26e4c74021"},"vehicle_type_id":"4","last_reported":1758388026,"current_range_meters":11600,"station_id":"ce4bht12rcd13ifvqi60","pricing_plan_id":"cebpf4jnsgd1na2vs0mg"},{"bike_id":"11f536f5-f858-4572-b106-c5cc3146e3cd","system_id":"levelo_inurba_marseille","lat":43.25347,"lon":5.42182,"is_reserved":false,"is_disabled":false,"rental_uris":{"android":"levelo://app?vid=11f536f5-f858-4572-b106-c5cc3146e3cd","ios":"levelo://app?vid=11f536f5-f858-4572-b106-c5cc3146e3cd"},"vehicle_type_id":"4","last_reported":1758388026,"current_range_meters":11600,"station_id":"st_d2m65c5bi1j21697t3ng","pricing_plan_id":"cebpf4jnsgd1na2vs0mg"},{"bike_id":"d403b2f2-f869-4a83-a470-dec41196bdc3","system_id":"levelo_inurba_marseille","lat":43.32377,"lon":5.38892,"is_reserved":false,"is_disabled":false,"rental_uris":{"android":"levelo://app?vid=d403b2f2-f869-4a83-a470-dec41196bdc3","ios":"levelo://app?vid=d403b2f2-f869-4a83-a470-dec41196bdc3"},"vehicle_type_id":"4","last_reported":1758388026,"current_range_meters":11600,"station_id":"ce4bhqp2rcd13ifvqhog","pricing_plan_id":"cebpf4jnsgd1na2vs0mg"},{"bike_id":"100fc699-7bc2-45de-9e70-967069e79569","system_id":"levelo_inurba_marseille","lat":43.27934,"lon":5.41045,"is_reserved":false,"is_disabled":false,"rental_uris":{"android":"levelo://app?vid=100fc699-7bc2-45de-9e70-967069e79569","ios":"levelo://app?vid=100fc699-7bc2-45de-9e70-967069e79569"},"vehicle_type_id":"4","last_reported":1758388026,"current_range_meters":12000,"station_id":"ce4bhnp2rcd13ifvqh0g","pricing_plan_id":"cebpf4jnsgd1na2vs0mg"},{"bike_id":"70cd50b3-3280-433e-bc2d-d4924cd3814f","system_id":"levelo_inurba_marseille","lat":43.2894,"lon":5.36392,"is_reserved":false,"is_disabled":false,"rental_uris":{"android":"levelo://app?vid=70cd50b3-3280-433e-bc2d-d4924cd3814f","ios":"levelo://app?vid=70cd50b3-3280-433e-bc2d-d4924cd3814f"},"vehicle_type_id":"4","last_reported":1758388026,"current_range_meters":12000,"station_id":"ce4bhc92rcd13ifvqetg","pricing_plan_id":"cebpf4jnsgd1na2vs0mg"},{"bike_id":"9dda362f-31ca-490a-a5c0-06c09f1dbe36","system_id":"levelo_inurba_marseille","lat":43.23963,"lon":5.36639,"is_reserved":false,"is_disabled":false,"rental_uris":{"android":"levelo://app?vid=9dda362f-31ca-490a-a5c0-06c09f1dbe36","ios":"levelo://app?vid=9dda362f-31ca-490a-a5c0-06c09f1dbe36"},"vehicle_type_id":"4","last_reported":1758388026,"current_range_meters":12000,"station_id":"ce4bhi12rcd13ifvqfp0","pricing_plan_id":"cebpf4jnsgd1na2vs0mg"},{"bike_id":"e625530a-7e7c-4cc7-9d09-7be5571d0104","system_id":"levelo_inurba_marseille","lat":43.2582,"lon":5.39438,"is_reserved":false,"is_disabled":false,"rental_uris":{"android":"levelo://app?vid=e625530a-7e7c-4cc7-9d09-7be5571d0104","ios":"levelo://app?vid=e625530a-7e7c-4cc7-9d09-7be5571d0104"},"vehicle_type_id":"4","last_reported":1758388026,"current_range_meters":12000,"station_id":"ce4bhip2rcd13ifvqft0","pricing_plan_id":"cebpf4jnsgd1na2vs0mg"},{"bike_id":"161b73f1-3b0e-4ae1-a4cc-f38b49a2e583","system_id":"levelo_inurba_marseille","lat":43.2319,"lon":5.3555,"is_reserved":false,"is_disabled":false,"rental_uris":{"android":"levelo://app?vid=161b73f1-3b0e-4ae1-a4cc-f38b49a2e583","ios":"levelo://app?vid=161b73f1-3b0e-4ae1-a4cc-f38b49a2e583"},"vehicle_type_id":"4","last_reported":1758388026,"current_range_meters":12400,"station_id":"ce4bhu92rcd13ifvqi70","pricing_plan_id":"cebpf4jnsgd1na2vs0mg"},{"bike_id":"90ec948a-ca2e-4a69-b9d1-fa757e73f9c4","system_id":"levelo_inurba_marseille","lat":43.29033,"lon":5.37579,"is_reserved":false,"is_disabled":false,"rental_uris":{"android":"levelo://app?vid=90ec948a-ca2e-4a69-b9d1-fa757e73f9c4","ios":"levelo://app?vid=90ec948a-ca2e-4a69-b9d1-fa757e73f9c4"},"vehicle_type_id":"4","last_reported":1758388026,"current_range_meters":12400,"station_id":"ce4bh692rcd13ifvqe90","pricing_plan_id":"cebpf4jnsgd1na2vs0mg"},{"bike_id":"dbdefd69-80e9-4965-9ba1-f440a37789d3","system_id":"levelo_inurba_marseille","lat":43.28417,"lon":5.34972,"is_reserved":false,"is_disabled":false,"rental_uris":{"android":"levelo://app?vid=dbdefd69-80e9-4965-9ba1-f440a37789d3","ios":"levelo://app?vid=dbdefd69-80e9-4965-9ba1-f440a37789d3"},"vehicle_type_id":"4","last_reported":1758388026,"current_range_meters":12800,"station_id":"ce4bhbh2rcd13ifvqepg","pricing_plan_id":"cebpf4jnsgd1na2vs0mg"},{"bike_id":"7fb58d99-54fa-4834-9399-d93d773fcc6f","system_id":"levelo_inurba_marseille","lat":43.21186,"lon":5.35075,"is_reserved":false,"is_disabled":false,"rental_uris":{"android":"levelo://app?vid=7fb58d99-54fa-4834-9399-d93d773fcc6f","ios":"levelo://app?vid=7fb58d99-54fa-4834-9399-d93d773fcc6f"},"vehicle_type_id":"4","last_reported":1758388026,"current_range_meters":12400,"station_id":"st_cvj6sg6p6f1abm77japg","pricing_plan_id":"cebpf4jnsgd1na2vs0mg"},{"bike_id":"1c184486-5df7-4033-bfa8-af74c49cbd92","system_id":"levelo_inurba_marseille","lat":43.23192,"lon":5.35544,"is_reserved":false,"is_disabled":false,"rental_uris":{"android":"levelo://app?vid=1c184486-5df7-4033-bfa8-af74c49cbd92","ios":"levelo://app?vid=1c184486-5df7-4033-bfa8-af74c49cbd92"},"vehicle_type_id":"4","last_reported":1758388026,"current_range_meters":12400,"station_id":"ce4bhu92rcd13ifvqi70","pricing_plan_id":"cebpf4jnsgd1na2vs0mg"},{"bike_id":"e1399eb3-97ac-45f5-b97f-1c8eddb096ad","system_id":"levelo_inurba_marseille","lat":43.28999,"lon":5.35607,"is_reserved":false,"is_disabled":false,"rental_uris":{"android":"levelo://app?vid=e1399eb3-97ac-45f5-b97f-1c8eddb096ad","ios":"levelo://app?vid=e1399eb3-97ac-45f5-b97f-1c8eddb096ad"},"vehicle_type_id":"4","last_reported":1758388026,"current_range_meters":16400,"station_id":"ce4bhb92rcd13ifvqen0","pricing_plan_id":"cebpf4jnsgd1na2vs0mg"},{"bike_id":"b3fe673d-5eb2-48b9-b30d-5bb54294d7e6","system_id":"levelo_inurba_marseille","lat":43.32281,"lon":5.38276,"is_reserved":false,"is_disabled":false,"rental_uris":{"android":"levelo://app?vid=b3fe673d-5eb2-48b9-b30d-5bb54294d7e6","ios":"levelo://app?vid=b3fe673d-5eb2-48b9-b30d-5bb54294d7e6"},"vehicle_type_id":"4","last_reported":1758388026,"current_range_meters":12800,"station_id":"ce4bhr12rcd13ifvqhqg","pricing_plan_id":"cebpf4jnsgd1na2vs0mg"},{"bike_id":"c1843d42-9f15-4235-8c7f-0c60147cb155","system_id":"levelo_inurba_marseille","lat":43.21192,"lon":5.35081,"is_reserved":false,"is_disabled":false,"rental_uris":{"android":"levelo://app?vid=c1843d42-9f15-4235-8c7f-0c60147cb155","ios":"levelo://app?vid=c1843d42-9f15-4235-8c7f-0c60147cb155"},"vehicle_type_id":"4","last_reported":1758388026,"current_range_meters":12800,"station_id":"st_cvj6sg6p6f1abm77japg","pricing_plan_id":"cebpf4jnsgd1na2vs0mg"},{"bike_id":"0f7caa9f-1d1a-40d7-9b4a-2f8720e63681","system_id":"levelo_inurba_marseille","lat":43.30861,"lon":5.37534,"is_reserved":false,"is_disabled":false,"rental_uris":{"android":"levelo://app?vid=0f7caa9f-1d1a-40d7-9b4a-2f8720e63681","ios":"levelo://app?vid=0f7caa9f-1d1a-40d7-9b4a-2f8720e63681"},"vehicle_type_id":"4","last_reported":1758388026,"current_range_meters":13600,"station_id":"","pricing_plan_id":"cebpf4jnsgd1na2vs0mg"},{"bike_id":"213f818a-2fc2-423a-8734-2921a1895f7c","system_id":"levelo_inurba_marseille","lat":43.21197,"lon":5.35075,"is_reserved":false,"is_disabled":false,"rental_uris":{"android":"levelo://app?vid=213f818a-2fc2-423a-8734-2921a1895f7c","ios":"levelo://app?vid=213f818a-2fc2-423a-8734-2921a1895f7c"},"vehicle_type_id":"4","last_reported":1758388026,"current_range_meters":13600,"station_id":"st_cvj6sg6p6f1abm77japg","pricing_plan_id":"cebpf4jnsgd1na2vs0mg"},{"bike_id":"c49423b8-f32d-4806-8874-e1a32571d0e3","system_id":"levelo_inurba_marseille","lat":43.297998,"lon":5.403956,"is_reserved":false,"is_disabled":false,"rental_uris":{"android":"levelo://app?vid=c49423b8-f32d-4806-8874-e1a32571d0e3","ios":"levelo://app?vid=c49423b8-f32d-4806-8874-e1a32571d0e3"},"vehicle_type_id":"4","last_reported":1758388026,"current_range_meters":12800,"station_id":"ce4bh112rcd13ifvqd90","pricing_plan_id":"cebpf4jnsgd1na2vs0mg"},{"bike_id":"55d1bc08-fd54-4a82-afc7-2adcaa7b1c4e","system_id":"levelo_inurba_marseille","lat":43.30033,"lon":5.3771,"is_reserved":false,"is_disabled":false,"rental_uris":{"android":"levelo://app?vid=55d1bc08-fd54-4a82-afc7-2adcaa7b1c4e","ios":"levelo://app?vid=55d1bc08-fd54-4a82-afc7-2adcaa7b1c4e"},"vehicle_type_id":"4","last_reported":1758388026,"current_range_meters":13600,"station_id":"","pricing_plan_id":"cebpf4jnsgd1na2vs0mg"},{"bike_id":"438ead59-de14-4fa0-a61d-03a70a4122ae","system_id":"levelo_inurba_marseille","lat":43.97268,"lon":4.89162,"is_reserved":false,"is_disabled":true,"rental_uris":{"android":"levelo://app?vid=438ead59-de14-4fa0-a61d-03a70a4122ae","ios":"levelo://app?vid=438ead59-de14-4fa0-a61d-03a70a4122ae"},"vehicle_type_id":"4","last_reported":1758388026,"current_range_meters":13600,"station_id":"","pricing_plan_id":"cebpf4jnsgd1na2vs0mg"},{"bike_id":"4c28dc7b-43a3-475b-ab81-9a0268a22465","system_id":"levelo_inurba_marseille","lat":43.26785,"lon":5.39416,"is_reserved":false,"is_disabled":false,"rental_uris":{"android":"levelo://app?vid=4c28dc7b-43a3-475b-ab81-9a0268a22465","ios":"levelo://app?vid=4c28dc7b-43a3-475b-ab81-9a0268a22465"},"vehicle_type_id":"4","last_reported":1758388026,"current_range_meters":13600,"station_id":"ce4bhh12rcd13ifvqfg0","pricing_plan_id":"cebpf4jnsgd1na2vs0mg"},{"bike_id":"76fbbde8-bed0-487c-8f23-c44a34d4bb93","system_id":"levelo_inurba_marseille","lat":43.28708,"lon":5.37952,"is_reserved":false,"is_disabled":false,"rental_uris":{"android":"levelo://app?vid=76fbbde8-bed0-487c-8f23-c44a34d4bb93","ios":"levelo://app?vid=76fbbde8-bed0-487c-8f23-c44a34d4bb93"},"vehicle_type_id":"4","last_reported":1758388026,"current_range_meters":14000,"station_id":"ce4bh9p2rcd13ifvqec0","pricing_plan_id":"cebpf4jnsgd1na2vs0mg"},{"bike_id":"a5f44d8d-d393-41ff-b959-449dce041dec","system_id":"levelo_inurba_marseille","lat":43.272751,"lon":5.390858,"is_reserved":false,"is_disabled":false,"rental_uris":{"android":"levelo://app?vid=a5f44d8d-d393-41ff-b959-449dce041dec","ios":"levelo://app?vid=a5f44d8d-d393-41ff-b959-449dce041dec"},"vehicle_type_id":"4","last_reported":1758388026,"current_range_meters":14000,"station_id":"ce4bh492rcd13ifvqdug","pricing_plan_id":"cebpf4jnsgd1na2vs0mg"},{"bike_id":"51cd0766-e41e-470c-8469-ed21fab297d9","system_id":"levelo_inurba_marseille","lat":43.29525,"lon":5.38539,"is_reserved":false,"is_disabled":false,"rental_uris":{"android":"levelo://app?vid=51cd0766-e41e-470c-8469-ed21fab297d9","ios":"levelo://app?vid=51cd0766-e41e-470c-8469-ed21fab297d9"},"vehicle_type_id":"4","last_reported":1758388026,"current_range_meters":14000,"station_id":"ce4bgih2rcd13ifvqba0","pricing_plan_id":"cebpf4jnsgd1na2vs0mg"},{"bike_id":"97893650-9a0c-47e4-baee-ec60bbc1b06d","system_id":"levelo_inurba_marseille","lat":43.25725,"lon":5.41118,"is_reserved":false,"is_disabled":true,"rental_uris":{"android":"levelo://app?vid=97893650-9a0c-47e4-baee-ec60bbc1b06d","ios":"levelo://app?vid=97893650-9a0c-47e4-baee-ec60bbc1b06d"},"vehicle_type_id":"4","last_reported":1758388026,"current_range_meters":14000,"station_id":"ce4bhkp2rcd13ifvqgd0","pricing_plan_id":"cebpf4jnsgd1na2vs0mg"},{"bike_id":"2d82061a-a240-43d1-93a6-ab71cf777b3c","system_id":"levelo_inurba_marseille","lat":43.21167,"lon":5.35078,"is_reserved":false,"is_disabled":false,"rental_uris":{"android":"levelo://app?vid=2d82061a-a240-43d1-93a6-ab71cf777b3c","ios":"levelo://app?vid=2d82061a-a240-43d1-93a6-ab71cf777b3c"},"vehicle_type_id":"4","last_reported":1758388026,"current_range_meters":14000,"station_id":"st_cvj6sg6p6f1abm77japg","pricing_plan_id":"cebpf4jnsgd1na2vs0mg"},{"bike_id":"d0665e4f-00da-46e5-b2cc-396a4c65bcca","system_id":"levelo_inurba_marseille","lat":43.23198,"lon":5.35583,"is_reserved":false,"is_disabled":false,"rental_uris":{"android":"levelo://app?vid=d0665e4f-00da-46e5-b2cc-396a4c65bcca","ios":"levelo://app?vid=d0665e4f-00da-46e5-b2cc-396a4c65bcca"},"vehicle_type_id":"4","last_reported":1758388026,"current_range_meters":14000,"station_id":"ce4bhu92rcd13ifvqi70","pricing_plan_id":"cebpf4jnsgd1na2vs0mg"},{"bike_id":"2015c1f2-c286-408a-b930-50d865ce0bb9","system_id":"levelo_inurba_marseille","lat":43.21188,"lon":5.3509,"is_reserved":false,"is_disabled":false,"rental_uris":{"android":"levelo://app?vid=2015c1f2-c286-408a-b930-50d865ce0bb9","ios":"levelo://app?vid=2015c1f2-c286-408a-b930-50d865ce0bb9"},"vehicle_type_id":"4","last_reported":1758388026,"current_range_meters":14000,"station_id":"st_cvj6sg6p6f1abm77japg","pricing_plan_id":"cebpf4jnsgd1na2vs0mg"},{"bike_id":"cfe5fe94-b357-427a-8ea6-31b774b914a1","system_id":"levelo_inurba_marseille","lat":43.299205,"lon":5.374739,"is_reserved":false,"is_disabled":false,"rental_uris":{"android":"levelo://app?vid=cfe5fe94-b357-427a-8ea6-31b774b914a1","ios":"levelo://app?vid=cfe5fe94-b357-427a-8ea6-31b774b914a1"},"vehicle_type_id":"4","last_reported":1758388026,"current_range_meters":12400,"station_id":"ce4bgjh2rcd13ifvqbg0","pricing_plan_id":"cebpf4jnsgd1na2vs0mg"},{"bike_id":"a07a513e-e5a9-4481-8592-d991379bc662","system_id":"levelo_inurba_marseille","lat":43.337536,"lon":5.374536,"is_reserved":false,"is_disabled":false,"rental_uris":{"android":"levelo://app?vid=a07a513e-e5a9-4481-8592-d991379bc662","ios":"levelo://app?vid=a07a513e-e5a9-4481-8592-d991379bc662"},"vehicle_type_id":"4","last_reported":1758388026,"current_range_meters":14000,"station_id":"","pricing_plan_id":"cebpf4jnsgd1na2vs0mg"},{"bike_id":"8f90c6e9-c2a0-414b-a280-ed01b517d1e8","system_id":"levelo_inurba_marseille","lat":43.21179,"lon":5.35079,"is_reserved":false,"is_disabled":false,"rental_uris":{"android":"levelo://app?vid=8f90c6e9-c2a0-414b-a280-ed01b517d1e8","ios":"levelo://app?vid=8f90c6e9-c2a0-414b-a280-ed01b517d1e8"},"vehicle_type_id":"4","last_reported":1758388026,"current_range_meters":14400,"station_id":"st_cvj6sg6p6f1abm77japg","pricing_plan_id":"cebpf4jnsgd1na2vs0mg"},{"bike_id":"8e6747cf-b8c6-4cd7-bba9-81728939e96e","system_id":"levelo_inurba_marseille","lat":43.27808,"lon":5.40721,"is_reserved":false,"is_disabled":true,"rental_uris":{"android":"levelo://app?vid=8e6747cf-b8c6-4cd7-bba9-81728939e96e","ios":"levelo://app?vid=8e6747cf-b8c6-4cd7-bba9-81728939e96e"},"vehicle_type_id":"4","last_reported":1758388026,"current_range_meters":14400,"station_id":"ce4bhnh2rcd13ifvqgtg","pricing_plan_id":"cebpf4jnsgd1na2vs0mg"},{"bike_id":"1c9778d3-2bdd-43fc-a46a-fc2159802419","system_id":"levelo_inurba_marseille","lat":43.25867,"lon":5.399,"is_reserved":false,"is_disabled":false,"rental_uris":{"android":"levelo://app?vid=1c9778d3-2bdd-43fc-a46a-fc2159802419","ios":"levelo://app?vid=1c9778d3-2bdd-43fc-a46a-fc2159802419"},"vehicle_type_id":"4","last_reported":1758388026,"current_range_meters":14400,"station_id":"ce4bhl92rcd13ifvqghg","pricing_plan_id":"cebpf4jnsgd1na2vs0mg"},{"bike_id":"6184d109-d662-43c3-91e2-eb4d866a0723","system_id":"levelo_inurba_marseille","lat":43.29516,"lon":5.39032,"is_reserved":false,"is_disabled":false,"rental_uris":{"android":"levelo://app?vid=6184d109-d662-43c3-91e2-eb4d866a0723","ios":"levelo://app?vid=6184d109-d662-43c3-91e2-eb4d866a0723"},"vehicle_type_id":"4","last_reported":1758388026,"current_range_meters":14800,"station_id":"ce4bh3p2rcd13ifvqdp0","pricing_plan_id":"cebpf4jnsgd1na2vs0mg"},{"bike_id":"68adab37-f5ad-4072-b58a-fe6c68285ca6","system_id":"levelo_inurba_marseille","lat":43.30587,"lon":5.3774,"is_reserved":false,"is_disabled":false,"rental_uris":{"android":"levelo://app?vid=68adab37-f5ad-4072-b58a-fe6c68285ca6","ios":"levelo://app?vid=68adab37-f5ad-4072-b58a-fe6c68285ca6"},"vehicle_type_id":"4","last_reported":1758388026,"current_range_meters":14800,"station_id":"","pricing_plan_id":"cebpf4jnsgd1na2vs0mg"},{"bike_id":"57e2f675-5048-4ba5-8fa7-5a7dca8c9ee4","system_id":"levelo_inurba_marseille","lat":43.2319,"lon":5.35542,"is_reserved":false,"is_disabled":false,"rental_uris":{"android":"levelo://app?vid=57e2f675-5048-4ba5-8fa7-5a7dca8c9ee4","ios":"levelo://app?vid=57e2f675-5048-4ba5-8fa7-5a7dca8c9ee4"},"vehicle_type_id":"4","last_reported":1758388026,"current_range_meters":14800,"station_id":"ce4bhu92rcd13ifvqi70","pricing_plan_id":"cebpf4jnsgd1na2vs0mg"},{"bike_id":"a5fe8e48-ccdd-4612-b47f-6015374767f8","system_id":"levelo_inurba_marseille","lat":43.29226,"lon":5.3606,"is_reserved":false,"is_disabled":false,"rental_uris":{"android":"levelo://app?vid=a5fe8e48-ccdd-4612-b47f-6015374767f8","ios":"levelo://app?vid=a5fe8e48-ccdd-4612-b47f-6015374767f8"},"vehicle_type_id":"4","last_reported":1758388026,"current_range_meters":14800,"station_id":"ce4bhbh2rcd13ifvqeqg","pricing_plan_id":"cebpf4jnsgd1na2vs0mg"},{"bike_id":"534ff5b4-9e83-493b-9063-104ef0af4212","system_id":"levelo_inurba_marseille","lat":43.2801,"lon":5.41676,"is_reserved":false,"is_disabled":true,"rental_uris":{"android":"levelo://app?vid=534ff5b4-9e83-493b-9063-104ef0af4212","ios":"levelo://app?vid=534ff5b4-9e83-493b-9063-104ef0af4212"},"vehicle_type_id":"4","last_reported":1758388026,"current_range_meters":14800,"station_id":"ce4bho12rcd13ifvqh1g","pricing_plan_id":"cebpf4jnsgd1na2vs0mg"},{"bike_id":"013e6f79-a8fb-4b82-a9a2-93cc7b13cb5c","system_id":"levelo_inurba_marseille","lat":43.29599,"lon":5.38093,"is_reserved":false,"is_disabled":false,"rental_uris":{"android":"levelo://app?vid=013e6f79-a8fb-4b82-a9a2-93cc7b13cb5c","ios":"levelo://app?vid=013e6f79-a8fb-4b82-a9a2-93cc7b13cb5c"},"vehicle_type_id":"4","last_reported":1758388026,"current_range_meters":14800,"station_id":"ce4bgl12rcd13ifvqbo0","pricing_plan_id":"cebpf4jnsgd1na2vs0mg"},{"bike_id":"05ea2c86-2c72-43b6-b5ae-61045abe2776","system_id":"levelo_inurba_marseille","lat":43.28031,"lon":5.36941,"is_reserved":false,"is_disabled":false,"rental_uris":{"android":"levelo://app?vid=05ea2c86-2c72-43b6-b5ae-61045abe2776","ios":"levelo://app?vid=05ea2c86-2c72-43b6-b5ae-61045abe2776"},"vehicle_type_id":"4","last_reported":1758388026,"current_range_meters":14800,"station_id":"ce4bha12rcd13ifvqef0","pricing_plan_id":"cebpf4jnsgd1na2vs0mg"},{"bike_id":"5319fae8-be79-4d87-b5d0-b333eba32d6a","system_id":"levelo_inurba_marseille","lat":43.21185,"lon":5.35096,"is_reserved":false,"is_disabled":false,"rental_uris":{"android":"levelo://app?vid=5319fae8-be79-4d87-b5d0-b333eba32d6a","ios":"levelo://app?vid=5319fae8-be79-4d87-b5d0-b333eba32d6a"},"vehicle_type_id":"4","last_reported":1758388026,"current_range_meters":15200,"station_id":"st_cvj6sg6p6f1abm77japg","pricing_plan_id":"cebpf4jnsgd1na2vs0mg"},{"bike_id":"c5d5d828-54fb-4c92-b6de-291cb0b43de9","system_id":"levelo_inurba_marseille","lat":43.299699,"lon":5.38488,"is_reserved":false,"is_disabled":false,"rental_uris":{"android":"levelo://app?vid=c5d5d828-54fb-4c92-b6de-291cb0b43de9","ios":"levelo://app?vid=c5d5d828-54fb-4c92-b6de-291cb0b43de9"},"vehicle_type_id":"4","last_reported":1758388026,"current_range_meters":15200,"station_id":"ce4bgj92rcd13ifvqbd0","pricing_plan_id":"cebpf4jnsgd1na2vs0mg"},{"bike_id":"43d57fd4-047e-4ac8-97e5-ec9b96239472","system_id":"levelo_inurba_marseille","lat":43.33046,"lon":5.39521,"is_reserved":false,"is_disabled":false,"rental_uris":{"android":"levelo://app?vid=43d57fd4-047e-4ac8-97e5-ec9b96239472","ios":"levelo://app?vid=43d57fd4-047e-4ac8-97e5-ec9b96239472"},"vehicle_type_id":"4","last_reported":1758388026,"current_range_meters":15200,"station_id":"","pricing_plan_id":"cebpf4jnsgd1na2vs0mg"},{"bike_id":"3e4c2468-8069-4704-a874-8cedab71bf63","system_id":"levelo_inurba_marseille","lat":43.317172,"lon":5.423976,"is_reserved":false,"is_disabled":false,"rental_uris":{"android":"levelo://app?vid=3e4c2468-8069-4704-a874-8cedab71bf63","ios":"levelo://app?vid=3e4c2468-8069-4704-a874-8cedab71bf63"},"vehicle_type_id":"4","last_reported":1758388026,"current_range_meters":15200,"station_id":"ce4bhp92rcd13ifvqhbg","pricing_plan_id":"cebpf4jnsgd1na2vs0mg"},{"bike_id":"682ddf13-cca0-4ce0-ad0c-0f8275b0073b","system_id":"levelo_inurba_marseille","lat":43.287194,"lon":5.379428,"is_reserved":false,"is_disabled":false,"rental_uris":{"android":"levelo://app?vid=682ddf13-cca0-4ce0-ad0c-0f8275b0073b","ios":"levelo://app?vid=682ddf13-cca0-4ce0-ad0c-0f8275b0073b"},"vehicle_type_id":"4","last_reported":1758388026,"current_range_meters":16000,"station_id":"ce4bh9p2rcd13ifvqec0","pricing_plan_id":"cebpf4jnsgd1na2vs0mg"},{"bike_id":"9637c146-59d7-436a-a4f3-e8022fe36949","system_id":"levelo_inurba_marseille","lat":43.2117,"lon":5.35106,"is_reserved":false,"is_disabled":false,"rental_uris":{"android":"levelo://app?vid=9637c146-59d7-436a-a4f3-e8022fe36949","ios":"levelo://app?vid=9637c146-59d7-436a-a4f3-e8022fe36949"},"vehicle_type_id":"4","last_reported":1758388026,"current_range_meters":16000,"station_id":"st_cvj6sg6p6f1abm77japg","pricing_plan_id":"cebpf4jnsgd1na2vs0mg"},{"bike_id":"8171bb39-1823-4beb-9d0f-da3a0a84e3df","system_id":"levelo_inurba_marseille","lat":43.2306,"lon":5.35506,"is_reserved":false,"is_disabled":false,"rental_uris":{"android":"levelo://app?vid=8171bb39-1823-4beb-9d0f-da3a0a84e3df","ios":"levelo://app?vid=8171bb39-1823-4beb-9d0f-da3a0a84e3df"},"vehicle_type_id":"4","last_reported":1758388026,"current_range_meters":16000,"station_id":"cpo3342slgdg3j2ifvpg","pricing_plan_id":"cebpf4jnsgd1na2vs0mg"},{"bike_id":"a3797e3d-07a3-441c-8434-4c614eae3326","system_id":"levelo_inurba_marseille","lat":43.25524,"lon":5.37622,"is_reserved":false,"is_disabled":false,"rental_uris":{"android":"levelo://app?vid=a3797e3d-07a3-441c-8434-4c614eae3326","ios":"levelo://app?vid=a3797e3d-07a3-441c-8434-4c614eae3326"},"vehicle_type_id":"4","last_reported":1758388026,"current_range_meters":16000,"station_id":"ce4bhh12rcd13ifvqff0","pricing_plan_id":"cebpf4jnsgd1na2vs0mg"},{"bike_id":"8e71b0f5-972a-4caf-899f-a6b7a06e1188","system_id":"levelo_inurba_marseille","lat":43.28228,"lon":5.39066,"is_reserved":false,"is_disabled":false,"rental_uris":{"android":"levelo://app?vid=8e71b0f5-972a-4caf-899f-a6b7a06e1188","ios":"levelo://app?vid=8e71b0f5-972a-4caf-899f-a6b7a06e1188"},"vehicle_type_id":"4","last_reported":1758388026,"current_range_meters":16000,"station_id":"ce4bhn92rcd13ifvqgsg","pricing_plan_id":"cebpf4jnsgd1na2vs0mg"},{"bike_id":"d801b961-8b0f-429d-9d3e-817010448aec","system_id":"levelo_inurba_marseille","lat":43.337632,"lon":5.374376,"is_reserved":false,"is_disabled":false,"rental_uris":{"android":"levelo://app?vid=d801b961-8b0f-429d-9d3e-817010448aec","ios":"levelo://app?vid=d801b961-8b0f-429d-9d3e-817010448aec"},"vehicle_type_id":"4","last_reported":1758388026,"current_range_meters":16400,"station_id":"","pricing_plan_id":"cebpf4jnsgd1na2vs0mg"},{"bike_id":"7fc7a88e-7e11-4356-95f9-79399ce4f04e","system_id":"levelo_inurba_marseille","lat":43.29535,"lon":5.38533,"is_reserved":false,"is_disabled":false,"rental_uris":{"android":"levelo://app?vid=7fc7a88e-7e11-4356-95f9-79399ce4f04e","ios":"levelo://app?vid=7fc7a88e-7e11-4356-95f9-79399ce4f04e"},"vehicle_type_id":"4","last_reported":1758388026,"current_range_meters":16400,"station_id":"ce4bgih2rcd13ifvqba0","pricing_plan_id":"cebpf4jnsgd1na2vs0mg"},{"bike_id":"3eca1de9-6ab6-4ee4-89ec-45cfef8c4712","system_id":"levelo_inurba_marseille","lat":43.30137,"lon":5.39861,"is_reserved":false,"is_disabled":false,"rental_uris":{"android":"levelo://app?vid=3eca1de9-6ab6-4ee4-89ec-45cfef8c4712","ios":"levelo://app?vid=3eca1de9-6ab6-4ee4-89ec-45cfef8c4712"},"vehicle_type_id":"4","last_reported":1758388026,"current_range_meters":16400,"station_id":"ce4bh0h2rcd13ifvqd40","pricing_plan_id":"cebpf4jnsgd1na2vs0mg"},{"bike_id":"118b6d7e-3328-44e2-ae13-d04071b8c00f","system_id":"levelo_inurba_marseille","lat":43.21184,"lon":5.35088,"is_reserved":false,"is_disabled":false,"rental_uris":{"android":"levelo://app?vid=118b6d7e-3328-44e2-ae13-d04071b8c00f","ios":"levelo://app?vid=118b6d7e-3328-44e2-ae13-d04071b8c00f"},"vehicle_type_id":"4","last_reported":1758388026,"current_range_meters":16400,"station_id":"st_cvj6sg6p6f1abm77japg","pricing_plan_id":"cebpf4jnsgd1na2vs0mg"},{"bike_id":"15609c4e-f589-422c-9a62-c8d2d4eb92fd","system_id":"levelo_inurba_marseille","lat":43.33008,"lon":5.39043,"is_reserved":false,"is_disabled":false,"rental_uris":{"android":"levelo://app?vid=15609c4e-f589-422c-9a62-c8d2d4eb92fd","ios":"levelo://app?vid=15609c4e-f589-422c-9a62-c8d2d4eb92fd"},"vehicle_type_id":"4","last_reported":1758388026,"current_range_meters":16400,"station_id":"ce4bhr92rcd13ifvqhrg","pricing_plan_id":"cebpf4jnsgd1na2vs0mg"},{"bike_id":"9b153d06-4262-479a-9aff-ecbbf5623db8","system_id":"levelo_inurba_marseille","lat":43.28452,"lon":5.35908,"is_reserved":false,"is_disabled":false,"rental_uris":{"android":"levelo://app?vid=9b153d06-4262-479a-9aff-ecbbf5623db8","ios":"levelo://app?vid=9b153d06-4262-479a-9aff-ecbbf5623db8"},"vehicle_type_id":"4","last_reported":1758388026,"current_range_meters":16400,"station_id":"ce4bhah2rcd13ifvqei0","pricing_plan_id":"cebpf4jnsgd1na2vs0mg"},{"bike_id":"eb103872-17f2-4b2f-a1c9-35607b3611bc","system_id":"levelo_inurba_marseille","lat":43.30132,"lon":5.38106,"is_reserved":false,"is_disabled":false,"rental_uris":{"android":"levelo://app?vid=eb103872-17f2-4b2f-a1c9-35607b3611bc","ios":"levelo://app?vid=eb103872-17f2-4b2f-a1c9-35607b3611bc"},"vehicle_type_id":"4","last_reported":1758388026,"current_range_meters":16400,"station_id":"ce4bgjp2rcd13ifvqbh0","pricing_plan_id":"cebpf4jnsgd1na2vs0mg"},{"bike_id":"554db724-ebca-4d9a-aeda-24cff15519c3","system_id":"levelo_inurba_marseille","lat":43.289186,"lon":5.384078,"is_reserved":false,"is_disabled":false,"rental_uris":{"android":"levelo://app?vid=554db724-ebca-4d9a-aeda-24cff15519c3","ios":"levelo://app?vid=554db724-ebca-4d9a-aeda-24cff15519c3"},"vehicle_type_id":"4","last_reported":1758388026,"current_range_meters":16400,"station_id":"ce4bh612rcd13ifvqe6g","pricing_plan_id":"cebpf4jnsgd1na2vs0mg"},{"bike_id":"fad9eeb6-2644-49ba-8a27-998ed5f08bad","system_id":"levelo_inurba_marseille","lat":43.29264,"lon":5.38441,"is_reserved":false,"is_disabled":false,"rental_uris":{"android":"levelo://app?vid=fad9eeb6-2644-49ba-8a27-998ed5f08bad","ios":"levelo://app?vid=fad9eeb6-2644-49ba-8a27-998ed5f08bad"},"vehicle_type_id":"4","last_reported":1758388026,"current_range_meters":16800,"station_id":"ce4bh692rcd13ifvqea0","pricing_plan_id":"cebpf4jnsgd1na2vs0mg"},{"bike_id":"ae5ccd80-2896-4733-9148-6522e9bbfe0c","system_id":"levelo_inurba_marseille","lat":43.2255,"lon":5.41627,"is_reserved":false,"is_disabled":true,"rental_uris":{"android":"levelo://app?vid=ae5ccd80-2896-4733-9148-6522e9bbfe0c","ios":"levelo://app?vid=ae5ccd80-2896-4733-9148-6522e9bbfe0c"},"vehicle_type_id":"4","last_reported":1758388026,"current_range_meters":16800,"station_id":"st_d2o4gvlbi1j2169b742g","pricing_plan_id":"cebpf4jnsgd1na2vs0mg"},{"bike_id":"0223bf00-fb57-4957-afcb-d1ff532f751c","system_id":"levelo_inurba_marseille","lat":43.28344,"lon":5.38102,"is_reserved":false,"is_disabled":false,"rental_uris":{"android":"levelo://app?vid=0223bf00-fb57-4957-afcb-d1ff532f751c","ios":"levelo://app?vid=0223bf00-fb57-4957-afcb-d1ff532f751c"},"vehicle_type_id":"4","last_reported":1758388026,"current_range_meters":16800,"station_id":"ce4bh412rcd13ifvqdr0","pricing_plan_id":"cebpf4jnsgd1na2vs0mg"},{"bike_id":"363d99e5-837c-43c8-abcc-c80ef2e2786a","system_id":"levelo_inurba_marseille","lat":43.21185,"lon":5.35073,"is_reserved":false,"is_disabled":false,"rental_uris":{"android":"levelo://app?vid=363d99e5-837c-43c8-abcc-c80ef2e2786a","ios":"levelo://app?vid=363d99e5-837c-43c8-abcc-c80ef2e2786a"},"vehicle_type_id":"4","last_reported":1758388026,"current_range_meters":17200,"station_id":"st_cvj6sg6p6f1abm77japg","pricing_plan_id":"cebpf4jnsgd1na2vs0mg"},{"bike_id":"ad3b9a79-2fea-4743-a6da-194a3004707a","system_id":"levelo_inurba_marseille","lat":43.29373,"lon":5.37853,"is_reserved":false,"is_disabled":true,"rental_uris":{"android":"levelo://app?vid=ad3b9a79-2fea-4743-a6da-194a3004707a","ios":"levelo://app?vid=ad3b9a79-2fea-4743-a6da-194a3004707a"},"vehicle_type_id":"4","last_reported":1758388026,"current_range_meters":16800,"station_id":"ce4bgjh2rcd13ifvqbf0","pricing_plan_id":"cebpf4jnsgd1na2vs0mg"},{"bike_id":"76bbf107-7ec5-4826-b296-ab629ecd14ab","system_id":"levelo_inurba_marseille","lat":43.29837,"lon":5.4201,"is_reserved":false,"is_disabled":false,"rental_uris":{"android":"levelo://app?vid=76bbf107-7ec5-4826-b296-ab629ecd14ab","ios":"levelo://app?vid=76bbf107-7ec5-4826-b296-ab629ecd14ab"},"vehicle_type_id":"4","last_reported":1758388026,"current_range_meters":16800,"station_id":"","pricing_plan_id":"cebpf4jnsgd1na2vs0mg"},{"bike_id":"7c304f72-5c33-4214-a78c-931d6575be91","system_id":"levelo_inurba_marseille","lat":43.29298,"lon":5.37447,"is_reserved":false,"is_disabled":false,"rental_uris":{"android":"levelo://app?vid=7c304f72-5c33-4214-a78c-931d6575be91","ios":"levelo://app?vid=7c304f72-5c33-4214-a78c-931d6575be91"},"vehicle_type_id":"4","last_reported":1758388026,"current_range_meters":17200,"station_id":"ce4bgi12rcd13ifvqb70","pricing_plan_id":"cebpf4jnsgd1na2vs0mg"},{"bike_id":"e86857f8-f405-4657-b145-ec58ed187087","system_id":"levelo_inurba_marseille","lat":43.31484,"lon":5.3881,"is_reserved":false,"is_disabled":false,"rental_uris":{"android":"levelo://app?vid=e86857f8-f405-4657-b145-ec58ed187087","ios":"levelo://app?vid=e86857f8-f405-4657-b145-ec58ed187087"},"vehicle_type_id":"4","last_reported":1758388026,"current_range_meters":17200,"station_id":"ce4bgt92rcd13ifvqcf0","pricing_plan_id":"cebpf4jnsgd1na2vs0mg"},{"bike_id":"3b50abd9-8f3d-466e-805d-20879e953967","system_id":"levelo_inurba_marseille","lat":43.24065,"lon":5.3775,"is_reserved":false,"is_disabled":false,"rental_uris":{"android":"levelo://app?vid=3b50abd9-8f3d-466e-805d-20879e953967","ios":"levelo://app?vid=3b50abd9-8f3d-466e-805d-20879e953967"},"vehicle_type_id":"4","last_reported":1758388026,"current_range_meters":16800,"station_id":"ce4bhnp2rcd13ifvqgvg","pricing_plan_id":"cebpf4jnsgd1na2vs0mg"},{"bike_id":"757a1d80-5ef0-428b-9235-35f505a9cf08","system_id":"levelo_inurba_marseille","lat":43.3041,"lon":5.4129,"is_reserved":false,"is_disabled":false,"rental_uris":{"android":"levelo://app?vid=757a1d80-5ef0-428b-9235-35f505a9cf08","ios":"levelo://app?vid=757a1d80-5ef0-428b-9235-35f505a9cf08"},"vehicle_type_id":"4","last_reported":1758388026,"current_range_meters":17200,"station_id":"ce4bhop2rcd13ifvqh8g","pricing_plan_id":"cebpf4jnsgd1na2vs0mg"},{"bike_id":"d2667e4e-8f97-413d-81b1-13a394c6285f","system_id":"levelo_inurba_marseille","lat":43.21729,"lon":5.34614,"is_reserved":false,"is_disabled":true,"rental_uris":{"android":"levelo://app?vid=d2667e4e-8f97-413d-81b1-13a394c6285f","ios":"levelo://app?vid=d2667e4e-8f97-413d-81b1-13a394c6285f"},"vehicle_type_id":"4","last_reported":1758388026,"current_range_meters":17200,"station_id":"st_cvj6r9ubvosntc0bgbag","pricing_plan_id":"cebpf4jnsgd1na2vs0mg"},{"bike_id":"36e133c0-33e2-4c6c-8ae5-933914b7bfb4","system_id":"levelo_inurba_marseille","lat":43.29526,"lon":5.3853,"is_reserved":false,"is_disabled":false,"rental_uris":{"android":"levelo://app?vid=36e133c0-33e2-4c6c-8ae5-933914b7bfb4","ios":"levelo://app?vid=36e133c0-33e2-4c6c-8ae5-933914b7bfb4"},"vehicle_type_id":"4","last_reported":1758388026,"current_range_meters":17600,"station_id":"ce4bgih2rcd13ifvqba0","pricing_plan_id":"cebpf4jnsgd1na2vs0mg"},{"bike_id":"6c070616-0760-4752-a61b-3f8c9d939fbd","system_id":"levelo_inurba_marseille","lat":43.24657,"lon":5.38156,"is_reserved":false,"is_disabled":false,"rental_uris":{"android":"levelo://app?vid=6c070616-0760-4752-a61b-3f8c9d939fbd","ios":"levelo://app?vid=6c070616-0760-4752-a61b-3f8c9d939fbd"},"vehicle_type_id":"4","last_reported":1758388026,"current_range_meters":17600,"station_id":"ce4bhih2rcd13ifvqfr0","pricing_plan_id":"cebpf4jnsgd1na2vs0mg"},{"bike_id":"c8345a32-b47f-4143-8deb-43190697bcaf","system_id":"levelo_inurba_marseille","lat":43.23187,"lon":5.35563,"is_reserved":false,"is_disabled":false,"rental_uris":{"android":"levelo://app?vid=c8345a32-b47f-4143-8deb-43190697bcaf","ios":"levelo://app?vid=c8345a32-b47f-4143-8deb-43190697bcaf"},"vehicle_type_id":"4","last_reported":1758388026,"current_range_meters":17600,"station_id":"ce4bhu92rcd13ifvqi70","pricing_plan_id":"cebpf4jnsgd1na2vs0mg"},{"bike_id":"4c8d793e-1b8b-4d3b-bb28-f273b0db280a","system_id":"levelo_inurba_marseille","lat":43.31321,"lon":5.397,"is_reserved":false,"is_disabled":false,"rental_uris":{"android":"levelo://app?vid=4c8d793e-1b8b-4d3b-bb28-f273b0db280a","ios":"levelo://app?vid=4c8d793e-1b8b-4d3b-bb28-f273b0db280a"},"vehicle_type_id":"4","last_reported":1758388026,"current_range_meters":17200,"station_id":"ce4bgvp2rcd13ifvqcu0","pricing_plan_id":"cebpf4jnsgd1na2vs0mg"},{"bike_id":"75cdae86-aa3c-46f9-92bf-f3662c1063cf","system_id":"levelo_inurba_marseille","lat":43.33718,"lon":5.39206,"is_reserved":false,"is_disabled":false,"rental_uris":{"android":"levelo://app?vid=75cdae86-aa3c-46f9-92bf-f3662c1063cf","ios":"levelo://app?vid=75cdae86-aa3c-46f9-92bf-f3662c1063cf"},"vehicle_type_id":"4","last_reported":1758388026,"current_range_meters":17600,"station_id":"ce4bhr92rcd13ifvqhsg","pricing_plan_id":"cebpf4jnsgd1na2vs0mg"},{"bike_id":"a3a4206e-9698-40c4-99a7-c2a694b15382","system_id":"levelo_inurba_marseille","lat":43.25923,"lon":5.40911,"is_reserved":false,"is_disabled":false,"rental_uris":{"android":"levelo://app?vid=a3a4206e-9698-40c4-99a7-c2a694b15382","ios":"levelo://app?vid=a3a4206e-9698-40c4-99a7-c2a694b15382"},"vehicle_type_id":"4","last_reported":1758388026,"current_range_meters":17600,"station_id":"ce4bhm92rcd13ifvqglg","pricing_plan_id":"cebpf4jnsgd1na2vs0mg"},{"bike_id":"4cff8f07-01f2-4ad0-b37a-5b21e64a1390","system_id":"levelo_inurba_marseille","lat":43.29061,"lon":5.3717,"is_reserved":false,"is_disabled":false,"rental_uris":{"android":"levelo://app?vid=4cff8f07-01f2-4ad0-b37a-5b21e64a1390","ios":"levelo://app?vid=4cff8f07-01f2-4ad0-b37a-5b21e64a1390"},"vehicle_type_id":"4","last_reported":1758388026,"current_range_meters":17600,"station_id":"ce4bh5p2rcd13ifvqe4g","pricing_plan_id":"cebpf4jnsgd1na2vs0mg"},{"bike_id":"24b74286-c536-495f-aab1-4a3891599c1a","system_id":"levelo_inurba_marseille","lat":43.314877,"lon":5.37313,"is_reserved":false,"is_disabled":false,"rental_uris":{"android":"levelo://app?vid=24b74286-c536-495f-aab1-4a3891599c1a","ios":"levelo://app?vid=24b74286-c536-495f-aab1-4a3891599c1a"},"vehicle_type_id":"4","last_reported":1758388026,"current_range_meters":17600,"station_id":"","pricing_plan_id":"cebpf4jnsgd1na2vs0mg"},{"bike_id":"ec7c6731-2836-44af-8296-8c9c7f106141","system_id":"levelo_inurba_marseille","lat":43.231805,"lon":5.399839,"is_reserved":false,"is_disabled":false,"rental_uris":{"android":"levelo://app?vid=ec7c6731-2836-44af-8296-8c9c7f106141","ios":"levelo://app?vid=ec7c6731-2836-44af-8296-8c9c7f106141"},"vehicle_type_id":"4","last_reported":1758388026,"current_range_meters":18000,"station_id":"ce4bhn12rcd13ifvqgqg","pricing_plan_id":"cebpf4jnsgd1na2vs0mg"},{"bike_id":"1c2ec2b3-5fa4-4dad-b085-89cc349ccb29","system_id":"levelo_inurba_marseille","lat":43.3172,"lon":5.42394,"is_reserved":false,"is_disabled":false,"rental_uris":{"android":"levelo://app?vid=1c2ec2b3-5fa4-4dad-b085-89cc349ccb29","ios":"levelo://app?vid=1c2ec2b3-5fa4-4dad-b085-89cc349ccb29"},"vehicle_type_id":"4","last_reported":1758388026,"current_range_meters":18000,"station_id":"ce4bhp92rcd13ifvqhbg","pricing_plan_id":"cebpf4jnsgd1na2vs0mg"},{"bike_id":"f1fed1ca-8816-44c8-8d21-52e8ab64d46d","system_id":"levelo_inurba_marseille","lat":43.25955,"lon":5.37543,"is_reserved":false,"is_disabled":false,"rental_uris":{"android":"levelo://app?vid=f1fed1ca-8816-44c8-8d21-52e8ab64d46d","ios":"levelo://app?vid=f1fed1ca-8816-44c8-8d21-52e8ab64d46d"},"vehicle_type_id":"4","last_reported":1758388026,"current_range_meters":18000,"station_id":"","pricing_plan_id":"cebpf4jnsgd1na2vs0mg"},{"bike_id":"6b0e58c1-39e1-47d9-a1aa-ec91b68b9111","system_id":"levelo_inurba_marseille","lat":43.32374,"lon":5.38888,"is_reserved":false,"is_disabled":false,"rental_uris":{"android":"levelo://app?vid=6b0e58c1-39e1-47d9-a1aa-ec91b68b9111","ios":"levelo://app?vid=6b0e58c1-39e1-47d9-a1aa-ec91b68b9111"},"vehicle_type_id":"4","last_reported":1758388026,"current_range_meters":18000,"station_id":"ce4bhqp2rcd13ifvqhog","pricing_plan_id":"cebpf4jnsgd1na2vs0mg"},{"bike_id":"8a4cd761-1479-43fb-92b6-bed7cfc4c6b3","system_id":"levelo_inurba_marseille","lat":43.30538,"lon":5.36705,"is_reserved":false,"is_disabled":false,"rental_uris":{"android":"levelo://app?vid=8a4cd761-1479-43fb-92b6-bed7cfc4c6b3","ios":"levelo://app?vid=8a4cd761-1479-43fb-92b6-bed7cfc4c6b3"},"vehicle_type_id":"4","last_reported":1758388026,"current_range_meters":18000,"station_id":"ce4bgrp2rcd13ifvqc9g","pricing_plan_id":"cebpf4jnsgd1na2vs0mg"},{"bike_id":"9176512c-2cc1-4df2-a8e0-6be514fbcdbf","system_id":"levelo_inurba_marseille","lat":43.33748,"lon":5.37465,"is_reserved":false,"is_disabled":false,"rental_uris":{"android":"levelo://app?vid=9176512c-2cc1-4df2-a8e0-6be514fbcdbf","ios":"levelo://app?vid=9176512c-2cc1-4df2-a8e0-6be514fbcdbf"},"vehicle_type_id":"4","last_reported":1758388026,"current_range_meters":18000,"station_id":"","pricing_plan_id":"cebpf4jnsgd1na2vs0mg"},{"bike_id":"4143fa22-f2d9-4eaa-92dd-b17d23943548","system_id":"levelo_inurba_marseille","lat":43.29291,"lon":5.37464,"is_reserved":false,"is_disabled":false,"rental_uris":{"android":"levelo://app?vid=4143fa22-f2d9-4eaa-92dd-b17d23943548","ios":"levelo://app?vid=4143fa22-f2d9-4eaa-92dd-b17d23943548"},"vehicle_type_id":"4","last_reported":1758388026,"current_range_meters":18000,"station_id":"ce4bgi12rcd13ifvqb70","pricing_plan_id":"cebpf4jnsgd1na2vs0mg"},{"bike_id":"5340a2fb-5b0d-4be5-aa58-304705269bac","system_id":"levelo_inurba_marseille","lat":43.290331,"lon":5.375634,"is_reserved":false,"is_disabled":false,"rental_uris":{"android":"levelo://app?vid=5340a2fb-5b0d-4be5-aa58-304705269bac","ios":"levelo://app?vid=5340a2fb-5b0d-4be5-aa58-304705269bac"},"vehicle_type_id":"4","last_reported":1758388026,"current_range_meters":18000,"station_id":"ce4bh692rcd13ifvqe90","pricing_plan_id":"cebpf4jnsgd1na2vs0mg"},{"bike_id":"f3805ac9-2ab6-41f8-b374-0887d951860e","system_id":"levelo_inurba_marseille","lat":43.21727,"lon":5.34622,"is_reserved":false,"is_disabled":true,"rental_uris":{"android":"levelo://app?vid=f3805ac9-2ab6-41f8-b374-0887d951860e","ios":"levelo://app?vid=f3805ac9-2ab6-41f8-b374-0887d951860e"},"vehicle_type_id":"4","last_reported":1758388026,"current_range_meters":18800,"station_id":"st_cvj6r9ubvosntc0bgbag","pricing_plan_id":"cebpf4jnsgd1na2vs0mg"},{"bike_id":"043e2cf5-48ef-484f-94a6-db745333cde6","system_id":"levelo_inurba_marseille","lat":43.24166,"lon":5.364,"is_reserved":false,"is_disabled":false,"rental_uris":{"android":"levelo://app?vid=043e2cf5-48ef-484f-94a6-db745333cde6","ios":"levelo://app?vid=043e2cf5-48ef-484f-94a6-db745333cde6"},"vehicle_type_id":"4","last_reported":1758388026,"current_range_meters":18800,"station_id":"cpo36qri1sfpv3e86is0","pricing_plan_id":"cebpf4jnsgd1na2vs0mg"},{"bike_id":"6c351b80-692d-4294-bb4e-15a815e01fbf","system_id":"levelo_inurba_marseille","lat":43.2905,"lon":5.359258,"is_reserved":false,"is_disabled":false,"rental_uris":{"android":"levelo://app?vid=6c351b80-692d-4294-bb4e-15a815e01fbf","ios":"levelo://app?vid=6c351b80-692d-4294-bb4e-15a815e01fbf"},"vehicle_type_id":"4","last_reported":1758388026,"current_range_meters":18800,"station_id":"ce4bha92rcd13ifvqeg0","pricing_plan_id":"cebpf4jnsgd1na2vs0mg"},{"bike_id":"f581ccb4-ae4a-44ef-9aee-8da2f62ff531","system_id":"levelo_inurba_marseille","lat":43.31244,"lon":5.36824,"is_reserved":false,"is_disabled":false,"rental_uris":{"android":"levelo://app?vid=f581ccb4-ae4a-44ef-9aee-8da2f62ff531","ios":"levelo://app?vid=f581ccb4-ae4a-44ef-9aee-8da2f62ff531"},"vehicle_type_id":"4","last_reported":1758388026,"current_range_meters":19200,"station_id":"ce4bgl92rcd13ifvqbq0","pricing_plan_id":"cebpf4jnsgd1na2vs0mg"},{"bike_id":"a121288d-6df6-4b73-a816-4e415a547654","system_id":"levelo_inurba_marseille","lat":43.3122,"lon":5.36847,"is_reserved":false,"is_disabled":false,"rental_uris":{"android":"levelo://app?vid=a121288d-6df6-4b73-a816-4e415a547654","ios":"levelo://app?vid=a121288d-6df6-4b73-a816-4e415a547654"},"vehicle_type_id":"4","last_reported":1758388026,"current_range_meters":19200,"station_id":"ce4bgl92rcd13ifvqbq0","pricing_plan_id":"cebpf4jnsgd1na2vs0mg"},{"bike_id":"6be3bd8b-eada-4f83-bfbf-82d34cec3c94","system_id":"levelo_inurba_marseille","lat":43.337724,"lon":5.374496,"is_reserved":false,"is_disabled":false,"rental_uris":{"android":"levelo://app?vid=6be3bd8b-eada-4f83-bfbf-82d34cec3c94","ios":"levelo://app?vid=6be3bd8b-eada-4f83-bfbf-82d34cec3c94"},"vehicle_type_id":"4","last_reported":1758388026,"current_range_meters":19200,"station_id":"","pricing_plan_id":"cebpf4jnsgd1na2vs0mg"},{"bike_id":"88cef810-ad04-4bb5-9721-92cb9ded5e9a","system_id":"levelo_inurba_marseille","lat":43.26052,"lon":5.394,"is_reserved":false,"is_disabled":false,"rental_uris":{"android":"levelo://app?vid=88cef810-ad04-4bb5-9721-92cb9ded5e9a","ios":"levelo://app?vid=88cef810-ad04-4bb5-9721-92cb9ded5e9a"},"vehicle_type_id":"4","last_reported":1758388026,"current_range_meters":18800,"station_id":"ce4bhh92rcd13ifvqfj0","pricing_plan_id":"cebpf4jnsgd1na2vs0mg"},{"bike_id":"cbf0d6a1-c86e-46bc-8a2b-aec4cdc18330","system_id":"levelo_inurba_marseille","lat":43.29256,"lon":5.409,"is_reserved":false,"is_disabled":false,"rental_uris":{"android":"levelo://app?vid=cbf0d6a1-c86e-46bc-8a2b-aec4cdc18330","ios":"levelo://app?vid=cbf0d6a1-c86e-46bc-8a2b-aec4cdc18330"},"vehicle_type_id":"4","last_reported":1758388026,"current_range_meters":20400,"station_id":"ce4bh192rcd13ifvqdc0","pricing_plan_id":"cebpf4jnsgd1na2vs0mg"},{"bike_id":"5622e999-d65d-4fa4-a389-19e0a9c721ab","system_id":"levelo_inurba_marseille","lat":43.28042,"lon":5.36937,"is_reserved":false,"is_disabled":false,"rental_uris":{"android":"levelo://app?vid=5622e999-d65d-4fa4-a389-19e0a9c721ab","ios":"levelo://app?vid=5622e999-d65d-4fa4-a389-19e0a9c721ab"},"vehicle_type_id":"4","last_reported":1758388026,"current_range_meters":19200,"station_id":"ce4bha12rcd13ifvqef0","pricing_plan_id":"cebpf4jnsgd1na2vs0mg"},{"bike_id":"02d61225-669a-456c-8754-601446571b27","system_id":"levelo_inurba_marseille","lat":43.23191,"lon":5.35544,"is_reserved":false,"is_disabled":false,"rental_uris":{"android":"levelo://app?vid=02d61225-669a-456c-8754-601446571b27","ios":"levelo://app?vid=02d61225-669a-456c-8754-601446571b27"},"vehicle_type_id":"4","last_reported":1758388026,"current_range_meters":19200,"station_id":"ce4bhu92rcd13ifvqi70","pricing_plan_id":"cebpf4jnsgd1na2vs0mg"},{"bike_id":"48e29c2d-9aeb-4e27-b687-6e617ade3e9f","system_id":"levelo_inurba_marseille","lat":43.285158,"lon":5.350256,"is_reserved":false,"is_disabled":false,"rental_uris":{"android":"levelo://app?vid=48e29c2d-9aeb-4e27-b687-6e617ade3e9f","ios":"levelo://app?vid=48e29c2d-9aeb-4e27-b687-6e617ade3e9f"},"vehicle_type_id":"4","last_reported":1758388026,"current_range_meters":19200,"station_id":"ce4bhbh2rcd13ifvqepg","pricing_plan_id":"cebpf4jnsgd1na2vs0mg"},{"bike_id":"fd5749f0-7565-4d62-bea1-a84dbf66a55d","system_id":"levelo_inurba_marseille","lat":43.279093,"lon":5.395668,"is_reserved":false,"is_disabled":false,"rental_uris":{"android":"levelo://app?vid=fd5749f0-7565-4d62-bea1-a84dbf66a55d","ios":"levelo://app?vid=fd5749f0-7565-4d62-bea1-a84dbf66a55d"},