{"last_updated":1749762608,"ttl":60,"version":"2.2","data":{"bikes":[{"bike_id":"b31f0139-170f-4194-984f-4386218a1e9d","system_id":"levelo_inurba_marseille","lat":43.33771,"lon":5.37424,"is_reserved":false,"is_disabled":true,"rental_uris":{"android":"levelo://app?vid=b31f0139-170f-4194-984f-4386218a1e9d","ios":"levelo://app?vid=b31f0139-170f-4194-984f-4386218a1e9d"},"vehicle_type_id":"4","last_reported":1749762608,"current_range_meters":0,"station_id":"","pricing_plan_id":"cebpf4jnsgd1na2vs0mg"},{"bike_id":"1acfb620-cad7-48c0-8901-d7a5b74a5b65","system_id":"levelo_inurba_marseille","lat":43.33751,"lon":5.37456,"is_reserved":false,"is_disabled":false,"rental_uris":{"android":"levelo://app?vid=1acfb620-cad7-48c0-8901-d7a5b74a5b65","ios":"levelo://app?vid=1acfb620-cad7-48c0-8901-d7a5b74a5b65"},"vehicle_type_id":"4","last_reported":1749762608,"current_range_meters":6800,"station_id":"","pricing_plan_id":"cebpf4jnsgd1na2vs0mg"},{"bike_id":"94318c46-7440-4b99-b14f-b14e148f17c3","system_id":"levelo_inurba_marseille","lat":43.331498,"lon":5.382102,"is_reserved":false,"is_disabled":true,"rental_uris":{"android":"levelo://app?vid=94318c46-7440-4b99-b14f-b14e148f17c3","ios":"levelo://app?vid=94318c46-7440-4b99-b14f-b14e148f17c3"},"vehicle_type_id":"4","last_reported":1749762608,"current_range_meters":0,"station_id":"","pricing_plan_id":"cebpf4jnsgd1na2vs0mg"},{"bike_id":"d4726352-7076-43eb-a171-725f7f1300cd","system_id":"levelo_inurba_marseille","lat":43.28215,"lon":5.39059,"is_reserved":false,"is_disabled":true,"rental_uris":{"android":"levelo://app?vid=d4726352-7076-43eb-a171-725f7f1300cd","ios":"levelo://app?vid=d4726352-7076-43eb-a171-725f7f1300cd"},"vehicle_type_id":"4","last_reported":1749762608,"current_range_meters":0,"station_id":"","pricing_plan_id":"cebpf4jnsgd1na2vs0mg"},{"bike_id":"bf89d78c-eb96-40d5-beb0-f402ef102cc1","system_id":"levelo_inurba_marseille","lat":43.337444,"lon":5.374475,"is_reserved":false,"is_disabled":true,"rental_uris":{"android":"levelo://app?vid=bf89d78c-eb96-40d5-beb0-f402ef102cc1","ios":"levelo://app?vid=bf89d78c-eb96-40d5-beb0-f402ef102cc1"},"vehicle_type_id":"4","last_reported":1749762608,"current_range_meters":0,"station_id":"","pricing_plan_id":"cebpf4jnsgd1na2vs0mg"},{"bike_id":"0f8596cb-25ec-4c64-b1d4-3f9c1bb52814","system_id":"levelo_inurba_marseille","lat":43.295843,"lon":5.375707,"is_reserved":false,"is_disabled":true,"rental_uris":{"android":"levelo://app?vid=0f8596cb-25ec-4c64-b1d4-3f9c1bb52814","ios":"levelo://app?vid=0f8596cb-25ec-4c64-b1d4-3f9c1bb52814"},"vehicle_type_id":"4","last_reported":1749762608,"current_range_meters":0,"station_id":"","pricing_plan_id":"cebpf4jnsgd1na2vs0mg"},{"bike_id":"5c219ba0-bd6f-4ec1-8199-9fc28d07f25c","system_id":"levelo_inurba_marseille","lat":43.32303,"lon":5.44676,"is_reserved":false,"is_disabled":true,"rental_uris":{"android":"levelo://app?vid=5c219ba0-bd6f-4ec1-8199-9fc28d07f25c","ios":"levelo://app?vid=5c219ba0-bd6f-4ec1-8199-9fc28d07f25c"},"vehicle_type_id":"4","last_reported":1749762608,"current_range_meters":0,"station_id":"","pricing_plan_id":"cebpf4jnsgd1na2vs0mg"},{"bike_id":"7c6a9c32-3bbe-4d4c-8294-1969d0688a87","system_id":"levelo_inurba_marseille","lat":43.2847,"lon":5.42095,"is_reserved":false,"is_disabled":true,"rental_uris":{"android":"levelo://app?vid=7c6a9c32-3bbe-4d4c-8294-1969d0688a87","ios":"levelo://app?vid=7c6a9c32-3bbe-4d4c-8294-1969d0688a87"},"vehicle_type_id":"4","last_reported":1749762608,"current_range_meters":0,"station_id":"","pricing_plan_id":"cebpf4jnsgd1na2vs0mg"},{"bike_id":"cc6342fe-1062-4d93-9c27-0529122084bd","system_id":"levelo_inurba_marseille","lat":43.28586,"lon":5.35799,"is_reserved":false,"is_disabled":true,"rental_uris":{"android":"levelo://app?vid=cc6342fe-1062-4d93-9c27-0529122084bd","ios":"levelo://app?vid=cc6342fe-1062-4d93-9c27-0529122084bd"},"vehicle_type_id":"4","last_reported":1749762608,"current_range_meters":0,"station_id":"","pricing_plan_id":"cebpf4jnsgd1na2vs0mg"},{"bike_id":"492f4bbd-1190-4ef2-b66a-479ffe91b09b","system_id":"levelo_inurba_marseille","lat":43.337444,"lon":5.374475,"is_reserved":false,"is_disabled":true,"rental_uris":{"android":"levelo://app?vid=492f4bbd-1190-4ef2-b66a-479ffe91b09b","ios":"levelo://app?vid=492f4bbd-1190-4ef2-b66a-479ffe91b09b"},"vehicle_type_id":"4","last_reported":1749762608,"current_range_meters":0,"station_id":"","pricing_plan_id":"cebpf4jnsgd1na2vs0mg"},{"bike_id":"ce526313-e4c7-47eb-856f-183916936663","system_id":"levelo_inurba_marseille","lat":43.262218,"lon":5.395748,"is_reserved":false,"is_disabled":true,"rental_uris":{"android":"levelo://app?vid=ce526313-e4c7-47eb-856f-183916936663","ios":"levelo://app?vid=ce526313-e4c7-47eb-856f-183916936663"},"vehicle_type_id":"4","last_reported":1749762608,"current_range_meters":0,"station_id":"","pricing_plan_id":"cebpf4jnsgd1na2vs0mg"},{"bike_id":"722effaf-c498-4a4b-9711-2f0a515cf14b","system_id":"levelo_inurba_marseille","lat":43.30305,"lon":5.39207,"is_reserved":false,"is_disabled":true,"rental_uris":{"android":"levelo://app?vid=722effaf-c498-4a4b-9711-2f0a515cf14b","ios":"levelo://app?vid=722effaf-c498-4a4b-9711-2f0a515cf14b"},"vehicle_type_id":"4","last_reported":1749762608,"current_range_meters":0,"station_id":"ce4bgkh2rcd13ifvqbk0","pricing_plan_id":"cebpf4jnsgd1na2vs0mg"},{"bike_id":"66209e3e-3f6c-4ab4-9316-864c06dd9c63","system_id":"levelo_inurba_marseille","lat":43.31073,"lon":5.38353,"is_reserved":false,"is_disabled":true,"rental_uris":{"android":"levelo://app?vid=66209e3e-3f6c-4ab4-9316-864c06dd9c63","ios":"levelo://app?vid=66209e3e-3f6c-4ab4-9316-864c06dd9c63"},"vehicle_type_id":"4","last_reported":1749762608,"current_range_meters":0,"station_id":"ce4bgv92rcd13ifvqcr0","pricing_plan_id":"cebpf4jnsgd1na2vs0mg"},{"bike_id":"ee6a438e-f524-42d9-b0dd-f762df2189e9","system_id":"levelo_inurba_marseille","lat":43.301719,"lon":5.400736,"is_reserved":false,"is_disabled":true,"rental_uris":{"android":"levelo://app?vid=ee6a438e-f524-42d9-b0dd-f762df2189e9","ios":"levelo://app?vid=ee6a438e-f524-42d9-b0dd-f762df2189e9"},"vehicle_type_id":"4","last_reported":1749762608,"current_range_meters":0,"station_id":"ce4bgvh2rcd13ifvqcs0","pricing_plan_id":"cebpf4jnsgd1na2vs0mg"},{"bike_id":"37824172-b22f-4b3d-99d1-302b5b89bf5f","system_id":"levelo_inurba_marseille","lat":43.288399,"lon":5.393109,"is_reserved":false,"is_disabled":true,"rental_uris":{"android":"levelo://app?vid=37824172-b22f-4b3d-99d1-302b5b89bf5f","ios":"levelo://app?vid=37824172-b22f-4b3d-99d1-302b5b89bf5f"},"vehicle_type_id":"4","last_reported":1749762608,"current_range_meters":0,"station_id":"ce4bh2p2rcd13ifvqdi0","pricing_plan_id":"cebpf4jnsgd1na2vs0mg"},{"bike_id":"0ebc1a3b-1647-43ec-af9e-360336a1d9e1","system_id":"levelo_inurba_marseille","lat":43.2842,"lon":5.34975,"is_reserved":false,"is_disabled":true,"rental_uris":{"android":"levelo://app?vid=0ebc1a3b-1647-43ec-af9e-360336a1d9e1","ios":"levelo://app?vid=0ebc1a3b-1647-43ec-af9e-360336a1d9e1"},"vehicle_type_id":"4","last_reported":1749762608,"current_range_meters":0,"station_id":"ce4bhbh2rcd13ifvqepg","pricing_plan_id":"cebpf4jnsgd1na2vs0mg"},{"bike_id":"8a62f3bc-3bd4-487e-93ed-4cfaed735013","system_id":"levelo_inurba_marseille","lat":43.29268,"lon":5.36847,"is_reserved":false,"is_disabled":true,"rental_uris":{"android":"levelo://app?vid=8a62f3bc-3bd4-487e-93ed-4cfaed735013","ios":"levelo://app?vid=8a62f3bc-3bd4-487e-93ed-4cfaed735013"},"vehicle_type_id":"4","last_reported":1749762608,"current_range_meters":0,"station_id":"ce4bhbp2rcd13ifvqesg","pricing_plan_id":"cebpf4jnsgd1na2vs0mg"},{"bike_id":"61f4103d-bbfb-4241-a136-1c0d32161bf9","system_id":"levelo_inurba_marseille","lat":43.28614,"lon":5.35101,"is_reserved":false,"is_disabled":true,"rental_uris":{"android":"levelo://app?vid=61f4103d-bbfb-4241-a136-1c0d32161bf9","ios":"levelo://app?vid=61f4103d-bbfb-4241-a136-1c0d32161bf9"},"vehicle_type_id":"4","last_reported":1749762608,"current_range_meters":0,"station_id":"ce4bhch2rcd13ifvqeug","pricing_plan_id":"cebpf4jnsgd1na2vs0mg"},{"bike_id":"701292be-4ef9-45f7-8da3-17cfe05c0354","system_id":"levelo_inurba_marseille","lat":43.25583,"lon":5.38223,"is_reserved":false,"is_disabled":true,"rental_uris":{"android":"levelo://app?vid=701292be-4ef9-45f7-8da3-17cfe05c0354","ios":"levelo://app?vid=701292be-4ef9-45f7-8da3-17cfe05c0354"},"vehicle_type_id":"4","last_reported":1749762608,"current_range_meters":0,"station_id":"ce4bhih2rcd13ifvqfs0","pricing_plan_id":"cebpf4jnsgd1na2vs0mg"},{"bike_id":"3a95650e-3b7f-4eec-b29c-edc0f4501c80","system_id":"levelo_inurba_marseille","lat":43.27503,"lon":5.42467,"is_reserved":false,"is_disabled":true,"rental_uris":{"android":"levelo://app?vid=3a95650e-3b7f-4eec-b29c-edc0f4501c80","ios":"levelo://app?vid=3a95650e-3b7f-4eec-b29c-edc0f4501c80"},"vehicle_type_id":"4","last_reported":1749762608,"current_range_meters":0,"station_id":"ce4bhn92rcd13ifvqgrg","pricing_plan_id":"cebpf4jnsgd1na2vs0mg"},{"bike_id":"79e5273c-fb48-4a38-958b-ab067d1903ba","system_id":"levelo_inurba_marseille","lat":43.28446,"lon":5.39197,"is_reserved":false,"is_disabled":true,"rental_uris":{"android":"levelo://app?vid=79e5273c-fb48-4a38-958b-ab067d1903ba","ios":"levelo://app?vid=79e5273c-fb48-4a38-958b-ab067d1903ba"},"vehicle_type_id":"4","last_reported":1749762608,"current_range_meters":0,"station_id":"ce4bhoh2rcd13ifvqh5g","pricing_plan_id":"cebpf4jnsgd1na2vs0mg"},{"bike_id":"b18ce1ce-bbed-467d-b219-56823a682e66","system_id":"levelo_inurba_marseille","lat":43.32721,"lon":5.42342,"is_reserved":false,"is_disabled":true,"rental_uris":{"android":"levelo://app?vid=b18ce1ce-bbed-467d-b219-56823a682e66","ios":"levelo://app?vid=b18ce1ce-bbed-467d-b219-56823a682e66"},"vehicle_type_id":"4","last_reported":1749762608,"current_range_meters":0,"station_id":"ce4bhp92rcd13ifvqhcg","pricing_plan_id":"cebpf4jnsgd1na2vs0mg"},{"bike_id":"2dc64c9a-2328-48a9-a94b-e8496e3de0bb","system_id":"levelo_inurba_marseille","lat":43.31532,"lon":5.38025,"is_reserved":false,"is_disabled":true,"rental_uris":{"android":"levelo://app?vid=2dc64c9a-2328-48a9-a94b-e8496e3de0bb","ios":"levelo://app?vid=2dc64c9a-2328-48a9-a94b-e8496e3de0bb"},"vehicle_type_id":"4","last_reported":1749762608,"current_range_meters":0,"station_id":"ce4bhsp2rcd13ifvqi50","pricing_plan_id":"cebpf4jnsgd1na2vs0mg"},{"bike_id":"a9b6bf99-4070-4437-bb20-72962ae30b90","system_id":"levelo_inurba_marseille","lat":43.27473,"lon":5.363973,"is_reserved":false,"is_disabled":true,"rental_uris":{"android":"levelo://app?vid=a9b6bf99-4070-4437-bb20-72962ae30b90","ios":"levelo://app?vid=a9b6bf99-4070-4437-bb20-72962ae30b90"},"vehicle_type_id":"4","last_reported":1749762608,"current_range_meters":400,"station_id":"","pricing_plan_id":"cebpf4jnsgd1na2vs0mg"},{"bike_id":"3d2b3a50-e398-4321-87d1-b21555c86fc0","system_id":"levelo_inurba_marseille","lat":43.31485,"lon":5.3731,"is_reserved":false,"is_disabled":true,"rental_uris":{"android":"levelo://app?vid=3d2b3a50-e398-4321-87d1-b21555c86fc0","ios":"levelo://app?vid=3d2b3a50-e398-4321-87d1-b21555c86fc0"},"vehicle_type_id":"4","last_reported":1749762608,"current_range_meters":400,"station_id":"ce4bgt12rcd13ifvqcd0","pricing_plan_id":"cebpf4jnsgd1na2vs0mg"},{"bike_id":"57e53f3d-694b-4384-acfd-564d1db11ac1","system_id":"levelo_inurba_marseille","lat":43.24779,"lon":5.40639,"is_reserved":false,"is_disabled":true,"rental_uris":{"android":"levelo://app?vid=57e53f3d-694b-4384-acfd-564d1db11ac1","ios":"levelo://app?vid=57e53f3d-694b-4384-acfd-564d1db11ac1"},"vehicle_type_id":"4","last_reported":1749762608,"current_range_meters":800,"station_id":"","pricing_plan_id":"cebpf4jnsgd1na2vs0mg"},{"bike_id":"3589a205-671f-4e20-a149-145bef043099","system_id":"levelo_inurba_marseille","lat":43.29241,"lon":5.36429,"is_reserved":false,"is_disabled":true,"rental_uris":{"android":"levelo://app?vid=3589a205-671f-4e20-a149-145bef043099","ios":"levelo://app?vid=3589a205-671f-4e20-a149-145bef043099"},"vehicle_type_id":"4","last_reported":1749762608,"current_range_meters":800,"station_id":"","pricing_plan_id":"cebpf4jnsgd1na2vs0mg"},{"bike_id":"efae402f-a949-433c-a0a5-98ae6a258f34","system_id":"levelo_inurba_marseille","lat":43.29868,"lon":5.39725,"is_reserved":false,"is_disabled":true,"rental_uris":{"android":"levelo://app?vid=efae402f-a949-433c-a0a5-98ae6a258f34","ios":"levelo://app?vid=efae402f-a949-433c-a0a5-98ae6a258f34"},"vehicle_type_id":"4","last_reported":1749762608,"current_range_meters":1200,"station_id":"ce4bh0h2rcd13ifvqd50","pricing_plan_id":"cebpf4jnsgd1na2vs0mg"},{"bike_id":"b01cda4e-f84d-44ca-bff7-e1ee908a5982","system_id":"levelo_inurba_marseille","lat":43.29225,"lon":5.36064,"is_reserved":false,"is_disabled":true,"rental_uris":{"android":"levelo://app?vid=b01cda4e-f84d-44ca-bff7-e1ee908a5982","ios":"levelo://app?vid=b01cda4e-f84d-44ca-bff7-e1ee908a5982"},"vehicle_type_id":"4","last_reported":1749762608,"current_range_meters":1200,"station_id":"ce4bhbh2rcd13ifvqeqg","pricing_plan_id":"cebpf4jnsgd1na2vs0mg"},{"bike_id":"25a9de62-bc0a-4b91-b9d2-8557f3cfbf4e","system_id":"levelo_inurba_marseille","lat":43.25108,"lon":5.40325,"is_reserved":false,"is_disabled":true,"rental_uris":{"android":"levelo://app?vid=25a9de62-bc0a-4b91-b9d2-8557f3cfbf4e","ios":"levelo://app?vid=25a9de62-bc0a-4b91-b9d2-8557f3cfbf4e"},"vehicle_type_id":"4","last_reported":1749762608,"current_range_meters":1200,"station_id":"ce4bhlh2rcd13ifvqgig","pricing_plan_id":"cebpf4jnsgd1na2vs0mg"},{"bike_id":"66b1cbfb-c132-4ef4-922c-0beab9b5a350","system_id":"levelo_inurba_marseille","lat":43.29758,"lon":5.46011,"is_reserved":false,"is_disabled":true,"rental_uris":{"android":"levelo://app?vid=66b1cbfb-c132-4ef4-922c-0beab9b5a350","ios":"levelo://app?vid=66b1cbfb-c132-4ef4-922c-0beab9b5a350"},"vehicle_type_id":"4","last_reported":1749762608,"current_range_meters":1600,"station_id":"","pricing_plan_id":"cebpf4jnsgd1na2vs0mg"},{"bike_id":"66533b80-cc71-40e8-8ac8-a74667eb0995","system_id":"levelo_inurba_marseille","lat":43.29252,"lon":5.40904,"is_reserved":false,"is_disabled":true,"rental_uris":{"android":"levelo://app?vid=66533b80-cc71-40e8-8ac8-a74667eb0995","ios":"levelo://app?vid=66533b80-cc71-40e8-8ac8-a74667eb0995"},"vehicle_type_id":"4","last_reported":1749762608,"current_range_meters":1600,"station_id":"ce4bh192rcd13ifvqdc0","pricing_plan_id":"cebpf4jnsgd1na2vs0mg"},{"bike_id":"d55db689-169a-4c14-b6fa-e5585576108f","system_id":"levelo_inurba_marseille","lat":43.25728,"lon":5.41108,"is_reserved":false,"is_disabled":true,"rental_uris":{"android":"levelo://app?vid=d55db689-169a-4c14-b6fa-e5585576108f","ios":"levelo://app?vid=d55db689-169a-4c14-b6fa-e5585576108f"},"vehicle_type_id":"4","last_reported":1749762608,"current_range_meters":1600,"station_id":"ce4bhkp2rcd13ifvqgd0","pricing_plan_id":"cebpf4jnsgd1na2vs0mg"},{"bike_id":"4111fd20-827c-4bf2-af25-9292fd99ab9a","system_id":"levelo_inurba_marseille","lat":43.24554,"lon":5.39509,"is_reserved":false,"is_disabled":true,"rental_uris":{"android":"levelo://app?vid=4111fd20-827c-4bf2-af25-9292fd99ab9a","ios":"levelo://app?vid=4111fd20-827c-4bf2-af25-9292fd99ab9a"},"vehicle_type_id":"4","last_reported":1749762608,"current_range_meters":1600,"station_id":"ce4bhlp2rcd13ifvqgjg","pricing_plan_id":"cebpf4jnsgd1na2vs0mg"},{"bike_id":"c80ee6b2-b34e-4434-af5d-292631c2d2b1","system_id":"levelo_inurba_marseille","lat":43.32661,"lon":5.40988,"is_reserved":false,"is_disabled":true,"rental_uris":{"android":"levelo://app?vid=c80ee6b2-b34e-4434-af5d-292631c2d2b1","ios":"levelo://app?vid=c80ee6b2-b34e-4434-af5d-292631c2d2b1"},"vehicle_type_id":"4","last_reported":1749762608,"current_range_meters":2000,"station_id":"ce4bhpp2rcd13ifvqhgg","pricing_plan_id":"cebpf4jnsgd1na2vs0mg"},{"bike_id":"0161bd5e-3992-4e6b-a37f-c99408197a24","system_id":"levelo_inurba_marseille","lat":43.31759,"lon":5.39016,"is_reserved":false,"is_disabled":true,"rental_uris":{"android":"levelo://app?vid=0161bd5e-3992-4e6b-a37f-c99408197a24","ios":"levelo://app?vid=0161bd5e-3992-4e6b-a37f-c99408197a24"},"vehicle_type_id":"4","last_reported":1749762608,"current_range_meters":2000,"station_id":"ce4bhqp2rcd13ifvqhng","pricing_plan_id":"cebpf4jnsgd1na2vs0mg"},{"bike_id":"5077581b-cebb-46fc-ba69-4fa8272d4810","system_id":"levelo_inurba_marseille","lat":43.21357,"lon":5.35485,"is_reserved":false,"is_disabled":false,"rental_uris":{"android":"levelo://app?vid=5077581b-cebb-46fc-ba69-4fa8272d4810","ios":"levelo://app?vid=5077581b-cebb-46fc-ba69-4fa8272d4810"},"vehicle_type_id":"4","last_reported":1749762608,"current_range_meters":2800,"station_id":"","pricing_plan_id":"cebpf4jnsgd1na2vs0mg"},{"bike_id":"4b46de49-fc9e-423b-b68b-7bdf05a00e45","system_id":"levelo_inurba_marseille","lat":43.25298,"lon":5.39373,"is_reserved":false,"is_disabled":false,"rental_uris":{"android":"levelo://app?vid=4b46de49-fc9e-423b-b68b-7bdf05a00e45","ios":"levelo://app?vid=4b46de49-fc9e-423b-b68b-7bdf05a00e45"},"vehicle_type_id":"4","last_reported":1749762608,"current_range_meters":2800,"station_id":"","pricing_plan_id":"cebpf4jnsgd1na2vs0mg"},{"bike_id":"853e9d90-8fb4-4c17-a762-9923b9fb02f0","system_id":"levelo_inurba_marseille","lat":43.25425,"lon":5.38097,"is_reserved":false,"is_disabled":false,"rental_uris":{"android":"levelo://app?vid=853e9d90-8fb4-4c17-a762-9923b9fb02f0","ios":"levelo://app?vid=853e9d90-8fb4-4c17-a762-9923b9fb02f0"},"vehicle_type_id":"4","last_reported":1749762608,"current_range_meters":2800,"station_id":"","pricing_plan_id":"cebpf4jnsgd1na2vs0mg"},{"bike_id":"50c89449-b033-49dc-a413-ebeab8224e4d","system_id":"levelo_inurba_marseille","lat":43.24809,"lon":5.37457,"is_reserved":false,"is_disabled":false,"rental_uris":{"android":"levelo://app?vid=50c89449-b033-49dc-a413-ebeab8224e4d","ios":"levelo://app?vid=50c89449-b033-49dc-a413-ebeab8224e4d"},"vehicle_type_id":"4","last_reported":1749762608,"current_range_meters":2800,"station_id":"ce4bhgh2rcd13ifvqfb0","pricing_plan_id":"cebpf4jnsgd1na2vs0mg"},{"bike_id":"165a6ce2-f806-45b2-bf82-39d7bdd011fc","system_id":"levelo_inurba_marseille","lat":43.29386,"lon":5.38515,"is_reserved":false,"is_disabled":false,"rental_uris":{"android":"levelo://app?vid=165a6ce2-f806-45b2-bf82-39d7bdd011fc","ios":"levelo://app?vid=165a6ce2-f806-45b2-bf82-39d7bdd011fc"},"vehicle_type_id":"4","last_reported":1749762608,"current_range_meters":3200,"station_id":"","pricing_plan_id":"cebpf4jnsgd1na2vs0mg"},{"bike_id":"365d06ca-38cb-4cd1-ad85-d19375fde2ca","system_id":"levelo_inurba_marseille","lat":43.28463,"lon":5.3589,"is_reserved":false,"is_disabled":false,"rental_uris":{"android":"levelo://app?vid=365d06ca-38cb-4cd1-ad85-d19375fde2ca","ios":"levelo://app?vid=365d06ca-38cb-4cd1-ad85-d19375fde2ca"},"vehicle_type_id":"4","last_reported":1749762608,"current_range_meters":3200,"station_id":"ce4bhah2rcd13ifvqei0","pricing_plan_id":"cebpf4jnsgd1na2vs0mg"},{"bike_id":"a4c3474f-18de-4e00-8239-acb787a857bc","system_id":"levelo_inurba_marseille","lat":43.23182,"lon":5.39989,"is_reserved":false,"is_disabled":false,"rental_uris":{"android":"levelo://app?vid=a4c3474f-18de-4e00-8239-acb787a857bc","ios":"levelo://app?vid=a4c3474f-18de-4e00-8239-acb787a857bc"},"vehicle_type_id":"4","last_reported":1749762608,"current_range_meters":3200,"station_id":"ce4bhn12rcd13ifvqgqg","pricing_plan_id":"cebpf4jnsgd1na2vs0mg"},{"bike_id":"2f206bf2-f2ad-484f-8b85-9b356ca24c26","system_id":"levelo_inurba_marseille","lat":43.24811,"lon":5.37456,"is_reserved":false,"is_disabled":false,"rental_uris":{"android":"levelo://app?vid=2f206bf2-f2ad-484f-8b85-9b356ca24c26","ios":"levelo://app?vid=2f206bf2-f2ad-484f-8b85-9b356ca24c26"},"vehicle_type_id":"4","last_reported":1749762608,"current_range_meters":3600,"station_id":"ce4bhgh2rcd13ifvqfb0","pricing_plan_id":"cebpf4jnsgd1na2vs0mg"},{"bike_id":"a65610d2-25bc-44d0-bbd3-3e69717b1aca","system_id":"levelo_inurba_marseille","lat":43.30709,"lon":5.40179,"is_reserved":false,"is_disabled":false,"rental_uris":{"android":"levelo://app?vid=a65610d2-25bc-44d0-bbd3-3e69717b1aca","ios":"levelo://app?vid=a65610d2-25bc-44d0-bbd3-3e69717b1aca"},"vehicle_type_id":"4","last_reported":1749762608,"current_range_meters":4400,"station_id":"","pricing_plan_id":"cebpf4jnsgd1na2vs0mg"},{"bike_id":"8685cae3-996f-48a5-812f-f5b2ccb04c9a","system_id":"levelo_inurba_marseille","lat":43.284107,"lon":5.375124,"is_reserved":false,"is_disabled":false,"rental_uris":{"android":"levelo://app?vid=8685cae3-996f-48a5-812f-f5b2ccb04c9a","ios":"levelo://app?vid=8685cae3-996f-48a5-812f-f5b2ccb04c9a"},"vehicle_type_id":"4","last_reported":1749762608,"current_range_meters":4400,"station_id":"ce4bh412rcd13ifvqds0","pricing_plan_id":"cebpf4jnsgd1na2vs0mg"},{"bike_id":"5514c35d-6efe-4239-9a72-fa946ca5d7a0","system_id":"levelo_inurba_marseille","lat":43.30377,"lon":5.42488,"is_reserved":false,"is_disabled":false,"rental_uris":{"android":"levelo://app?vid=5514c35d-6efe-4239-9a72-fa946ca5d7a0","ios":"levelo://app?vid=5514c35d-6efe-4239-9a72-fa946ca5d7a0"},"vehicle_type_id":"4","last_reported":1749762608,"current_range_meters":4400,"station_id":"ce4bhoh2rcd13ifvqh6g","pricing_plan_id":"cebpf4jnsgd1na2vs0mg"},{"bike_id":"66314ca9-30a7-4c0a-8507-6f89f4c9b4e1","system_id":"levelo_inurba_marseille","lat":43.26178,"lon":5.37051,"is_reserved":false,"is_disabled":false,"rental_uris":{"android":"levelo://app?vid=66314ca9-30a7-4c0a-8507-6f89f4c9b4e1","ios":"levelo://app?vid=66314ca9-30a7-4c0a-8507-6f89f4c9b4e1"},"vehicle_type_id":"4","last_reported":1749762608,"current_range_meters":4800,"station_id":"","pricing_plan_id":"cebpf4jnsgd1na2vs0mg"},{"bike_id":"f28ac209-4ada-4b57-b006-bca5a188a4b9","system_id":"levelo_inurba_marseille","lat":43.310743,"lon":5.383603,"is_reserved":false,"is_disabled":false,"rental_uris":{"android":"levelo://app?vid=f28ac209-4ada-4b57-b006-bca5a188a4b9","ios":"levelo://app?vid=f28ac209-4ada-4b57-b006-bca5a188a4b9"},"vehicle_type_id":"4","last_reported":1749762608,"current_range_meters":4800,"station_id":"ce4bgv92rcd13ifvqcr0","pricing_plan_id":"cebpf4jnsgd1na2vs0mg"},{"bike_id":"543ae042-548d-459c-9bf9-84a2ef008637","system_id":"levelo_inurba_marseille","lat":43.28936,"lon":5.366452,"is_reserved":false,"is_disabled":false,"rental_uris":{"android":"levelo://app?vid=543ae042-548d-459c-9bf9-84a2ef008637","ios":"levelo://app?vid=543ae042-548d-459c-9bf9-84a2ef008637"},"vehicle_type_id":"4","last_reported":1749762608,"current_range_meters":4800,"station_id":"ce4bhc92rcd13ifvqetg","pricing_plan_id":"cebpf4jnsgd1na2vs0mg"},{"bike_id":"9b261823-dbd5-4dc6-8e9e-ebe9f5fc100e","system_id":"levelo_inurba_marseille","lat":43.29024,"lon":5.38647,"is_reserved":false,"is_disabled":false,"rental_uris":{"android":"levelo://app?vid=9b261823-dbd5-4dc6-8e9e-ebe9f5fc100e","ios":"levelo://app?vid=9b261823-dbd5-4dc6-8e9e-ebe9f5fc100e"},"vehicle_type_id":"4","last_reported":1749762608,"current_range_meters":5600,"station_id":"ce4bh4p2rcd13ifvqe0g","pricing_plan_id":"cebpf4jnsgd1na2vs0mg"},{"bike_id":"8a8cce2b-e7e8-4dcf-82b7-8b5b4354324d","system_id":"levelo_inurba_marseille","lat":43.28939,"lon":5.36396,"is_reserved":false,"is_disabled":false,"rental_uris":{"android":"levelo://app?vid=8a8cce2b-e7e8-4dcf-82b7-8b5b4354324d","ios":"levelo://app?vid=8a8cce2b-e7e8-4dcf-82b7-8b5b4354324d"},"vehicle_type_id":"4","last_reported":1749762608,"current_range_meters":5600,"station_id":"ce4bhc92rcd13ifvqetg","pricing_plan_id":"cebpf4jnsgd1na2vs0mg"},{"bike_id":"cc75948a-4cf0-4592-babe-3fb3b8670bdd","system_id":"levelo_inurba_marseille","lat":43.27937,"lon":5.41045,"is_reserved":false,"is_disabled":false,"rental_uris":{"android":"levelo://app?vid=cc75948a-4cf0-4592-babe-3fb3b8670bdd","ios":"levelo://app?vid=cc75948a-4cf0-4592-babe-3fb3b8670bdd"},"vehicle_type_id":"4","last_reported":1749762608,"current_range_meters":5600,"station_id":"ce4bhnp2rcd13ifvqh0g","pricing_plan_id":"cebpf4jnsgd1na2vs0mg"},{"bike_id":"cdf14ced-e13b-4d0d-9027-e5bf5c9866d4","system_id":"levelo_inurba_marseille","lat":43.24645,"lon":5.38875,"is_reserved":false,"is_disabled":false,"rental_uris":{"android":"levelo://app?vid=cdf14ced-e13b-4d0d-9027-e5bf5c9866d4","ios":"levelo://app?vid=cdf14ced-e13b-4d0d-9027-e5bf5c9866d4"},"vehicle_type_id":"4","last_reported":1749762608,"current_range_meters":6000,"station_id":"ce4bhg12rcd13ifvqf60","pricing_plan_id":"cebpf4jnsgd1na2vs0mg"},{"bike_id":"019918e0-4e86-4aba-bd91-859c91c44435","system_id":"levelo_inurba_marseille","lat":43.2587,"lon":5.39888,"is_reserved":false,"is_disabled":false,"rental_uris":{"android":"levelo://app?vid=019918e0-4e86-4aba-bd91-859c91c44435","ios":"levelo://app?vid=019918e0-4e86-4aba-bd91-859c91c44435"},"vehicle_type_id":"4","last_reported":1749762608,"current_range_meters":6000,"station_id":"ce4bhl92rcd13ifvqghg","pricing_plan_id":"cebpf4jnsgd1na2vs0mg"},{"bike_id":"6c174182-e93e-4049-8227-713141a05f23","system_id":"levelo_inurba_marseille","lat":43.2407,"lon":5.37764,"is_reserved":false,"is_disabled":false,"rental_uris":{"android":"levelo://app?vid=6c174182-e93e-4049-8227-713141a05f23","ios":"levelo://app?vid=6c174182-e93e-4049-8227-713141a05f23"},"vehicle_type_id":"4","last_reported":1749762608,"current_range_meters":6000,"station_id":"ce4bhnp2rcd13ifvqgvg","pricing_plan_id":"cebpf4jnsgd1na2vs0mg"},{"bike_id":"8e108a83-e2bf-43e0-9b41-3765b051abd1","system_id":"levelo_inurba_marseille","lat":43.28062,"lon":5.3495,"is_reserved":false,"is_disabled":false,"rental_uris":{"android":"levelo://app?vid=8e108a83-e2bf-43e0-9b41-3765b051abd1","ios":"levelo://app?vid=8e108a83-e2bf-43e0-9b41-3765b051abd1"},"vehicle_type_id":"4","last_reported":1749762608,"current_range_meters":6400,"station_id":"","pricing_plan_id":"cebpf4jnsgd1na2vs0mg"},{"bike_id":"e75b1438-52ed-4f29-b5f2-cbf3bda4afec","system_id":"levelo_inurba_marseille","lat":43.31363,"lon":5.38488,"is_reserved":false,"is_disabled":false,"rental_uris":{"android":"levelo://app?vid=e75b1438-52ed-4f29-b5f2-cbf3bda4afec","ios":"levelo://app?vid=e75b1438-52ed-4f29-b5f2-cbf3bda4afec"},"vehicle_type_id":"4","last_reported":1749762608,"current_range_meters":6400,"station_id":"ce4bgt92rcd13ifvqcf0","pricing_plan_id":"cebpf4jnsgd1na2vs0mg"},{"bike_id":"48d34ad3-2644-46dd-82a0-47e5ff24cebe","system_id":"levelo_inurba_marseille","lat":43.30423,"lon":5.388864,"is_reserved":false,"is_disabled":false,"rental_uris":{"android":"levelo://app?vid=48d34ad3-2644-46dd-82a0-47e5ff24cebe","ios":"levelo://app?vid=48d34ad3-2644-46dd-82a0-47e5ff24cebe"},"vehicle_type_id":"4","last_reported":1749762608,"current_range_meters":6800,"station_id":"ce4bgk12rcd13ifvqbi0","pricing_plan_id":"cebpf4jnsgd1na2vs0mg"},{"bike_id":"6722f8f8-860f-4bdc-a327-fd5a75315728","system_id":"levelo_inurba_marseille","lat":43.302166,"lon":5.394665,"is_reserved":false,"is_disabled":false,"rental_uris":{"android":"levelo://app?vid=6722f8f8-860f-4bdc-a327-fd5a75315728","ios":"levelo://app?vid=6722f8f8-860f-4bdc-a327-fd5a75315728"},"vehicle_type_id":"4","last_reported":1749762608,"current_range_meters":6800,"station_id":"ce4bh0p2rcd13ifvqd70","pricing_plan_id":"cebpf4jnsgd1na2vs0mg"},{"bike_id":"72ab3f62-9ed5-4b3f-9414-c1931a91b7f0","system_id":"levelo_inurba_marseille","lat":43.27498,"lon":5.42446,"is_reserved":false,"is_disabled":false,"rental_uris":{"android":"levelo://app?vid=72ab3f62-9ed5-4b3f-9414-c1931a91b7f0","ios":"levelo://app?vid=72ab3f62-9ed5-4b3f-9414-c1931a91b7f0"},"vehicle_type_id":"4","last_reported":1749762608,"current_range_meters":6800,"station_id":"ce4bhn92rcd13ifvqgrg","pricing_plan_id":"cebpf4jnsgd1na2vs0mg"},{"bike_id":"aaafc9a0-7043-4a81-b596-f021cc6da98c","system_id":"levelo_inurba_marseille","lat":43.28704,"lon":5.39984,"is_reserved":false,"is_disabled":false,"rental_uris":{"android":"levelo://app?vid=aaafc9a0-7043-4a81-b596-f021cc6da98c","ios":"levelo://app?vid=aaafc9a0-7043-4a81-b596-f021cc6da98c"},"vehicle_type_id":"4","last_reported":1749762608,"current_range_meters":6800,"station_id":"ce4bho92rcd13ifvqh3g","pricing_plan_id":"cebpf4jnsgd1na2vs0mg"},{"bike_id":"8105426e-eb6c-4b79-bfaa-254c1b037d55","system_id":"levelo_inurba_marseille","lat":43.3237,"lon":5.36769,"is_reserved":false,"is_disabled":false,"rental_uris":{"android":"levelo://app?vid=8105426e-eb6c-4b79-bfaa-254c1b037d55","ios":"levelo://app?vid=8105426e-eb6c-4b79-bfaa-254c1b037d55"},"vehicle_type_id":"4","last_reported":1749762608,"current_range_meters":6800,"station_id":"ce4bhsh2rcd13ifvqi2g","pricing_plan_id":"cebpf4jnsgd1na2vs0mg"},{"bike_id":"6af7607a-b405-4237-bda7-089b54ee505e","system_id":"levelo_inurba_marseille","lat":43.3122,"lon":5.36861,"is_reserved":false,"is_disabled":false,"rental_uris":{"android":"levelo://app?vid=6af7607a-b405-4237-bda7-089b54ee505e","ios":"levelo://app?vid=6af7607a-b405-4237-bda7-089b54ee505e"},"vehicle_type_id":"4","last_reported":1749762608,"current_range_meters":7200,"station_id":"ce4bgl92rcd13ifvqbq0","pricing_plan_id":"cebpf4jnsgd1na2vs0mg"},{"bike_id":"b11dada3-73b8-44aa-9578-581ecef8c92e","system_id":"levelo_inurba_marseille","lat":43.29869,"lon":5.3972,"is_reserved":false,"is_disabled":false,"rental_uris":{"android":"levelo://app?vid=b11dada3-73b8-44aa-9578-581ecef8c92e","ios":"levelo://app?vid=b11dada3-73b8-44aa-9578-581ecef8c92e"},"vehicle_type_id":"4","last_reported":1749762608,"current_range_meters":7200,"station_id":"ce4bh0h2rcd13ifvqd50","pricing_plan_id":"cebpf4jnsgd1na2vs0mg"},{"bike_id":"dc2ffc5b-f591-49e9-87e8-1424c33f4e4c","system_id":"levelo_inurba_marseille","lat":43.29532,"lon":5.39387,"is_reserved":false,"is_disabled":false,"rental_uris":{"android":"levelo://app?vid=dc2ffc5b-f591-49e9-87e8-1424c33f4e4c","ios":"levelo://app?vid=dc2ffc5b-f591-49e9-87e8-1424c33f4e4c"},"vehicle_type_id":"4","last_reported":1749762608,"current_range_meters":7200,"station_id":"ce4bh292rcd13ifvqdf0","pricing_plan_id":"cebpf4jnsgd1na2vs0mg"},{"bike_id":"eaf0d951-5347-40bc-9935-ce185dd5822f","system_id":"levelo_inurba_marseille","lat":43.29028,"lon":5.3996,"is_reserved":false,"is_disabled":false,"rental_uris":{"android":"levelo://app?vid=eaf0d951-5347-40bc-9935-ce185dd5822f","ios":"levelo://app?vid=eaf0d951-5347-40bc-9935-ce185dd5822f"},"vehicle_type_id":"4","last_reported":1749762608,"current_range_meters":7200,"station_id":"ce4bh392rcd13ifvqdm0","pricing_plan_id":"cebpf4jnsgd1na2vs0mg"},{"bike_id":"4d7a4278-ed01-4602-90f3-2e674e4d70c3","system_id":"levelo_inurba_marseille","lat":43.2572,"lon":5.41112,"is_reserved":false,"is_disabled":false,"rental_uris":{"android":"levelo://app?vid=4d7a4278-ed01-4602-90f3-2e674e4d70c3","ios":"levelo://app?vid=4d7a4278-ed01-4602-90f3-2e674e4d70c3"},"vehicle_type_id":"4","last_reported":1749762608,"current_range_meters":7200,"station_id":"ce4bhkp2rcd13ifvqgd0","pricing_plan_id":"cebpf4jnsgd1na2vs0mg"},{"bike_id":"c2c7556d-f2ac-4306-af14-b3a7bd5c0cbf","system_id":"levelo_inurba_marseille","lat":43.29785,"lon":5.39337,"is_reserved":false,"is_disabled":false,"rental_uris":{"android":"levelo://app?vid=c2c7556d-f2ac-4306-af14-b3a7bd5c0cbf","ios":"levelo://app?vid=c2c7556d-f2ac-4306-af14-b3a7bd5c0cbf"},"vehicle_type_id":"4","last_reported":1749762608,"current_range_meters":7200,"station_id":"chh1huq6cuj3fo74tm60","pricing_plan_id":"cebpf4jnsgd1na2vs0mg"},{"bike_id":"126ef016-ac91-4ce5-a668-ac7ef0b33b75","system_id":"levelo_inurba_marseille","lat":43.31071,"lon":5.38357,"is_reserved":false,"is_disabled":false,"rental_uris":{"android":"levelo://app?vid=126ef016-ac91-4ce5-a668-ac7ef0b33b75","ios":"levelo://app?vid=126ef016-ac91-4ce5-a668-ac7ef0b33b75"},"vehicle_type_id":"4","last_reported":1749762608,"current_range_meters":8000,"station_id":"ce4bgv92rcd13ifvqcr0","pricing_plan_id":"cebpf4jnsgd1na2vs0mg"},{"bike_id":"c5f0e9f2-20d2-424c-817a-07f894cbd28e","system_id":"levelo_inurba_marseille","lat":43.28363,"lon":5.38628,"is_reserved":false,"is_disabled":false,"rental_uris":{"android":"levelo://app?vid=c5f0e9f2-20d2-424c-817a-07f894cbd28e","ios":"levelo://app?vid=c5f0e9f2-20d2-424c-817a-07f894cbd28e"},"vehicle_type_id":"4","last_reported":1749762608,"current_range_meters":8000,"station_id":"ce4bh492rcd13ifvqdvg","pricing_plan_id":"cebpf4jnsgd1na2vs0mg"},{"bike_id":"784b3d2b-9746-4b11-a928-1f1a0fe2b24e","system_id":"levelo_inurba_marseille","lat":43.25114,"lon":5.40322,"is_reserved":false,"is_disabled":false,"rental_uris":{"android":"levelo://app?vid=784b3d2b-9746-4b11-a928-1f1a0fe2b24e","ios":"levelo://app?vid=784b3d2b-9746-4b11-a928-1f1a0fe2b24e"},"vehicle_type_id":"4","last_reported":1749762608,"current_range_meters":8000,"station_id":"ce4bhlh2rcd13ifvqgig","pricing_plan_id":"cebpf4jnsgd1na2vs0mg"},{"bike_id":"dbacae93-7c1c-48ec-9494-91113ef4f93b","system_id":"levelo_inurba_marseille","lat":43.28441,"lon":5.39204,"is_reserved":false,"is_disabled":false,"rental_uris":{"android":"levelo://app?vid=dbacae93-7c1c-48ec-9494-91113ef4f93b","ios":"levelo://app?vid=dbacae93-7c1c-48ec-9494-91113ef4f93b"},"vehicle_type_id":"4","last_reported":1749762608,"current_range_meters":8000,"station_id":"ce4bhoh2rcd13ifvqh5g","pricing_plan_id":"cebpf4jnsgd1na2vs0mg"},{"bike_id":"ba8561bf-70a2-469c-afbe-26daca8f8768","system_id":"levelo_inurba_marseille","lat":43.34143,"lon":5.40898,"is_reserved":false,"is_disabled":false,"rental_uris":{"android":"levelo://app?vid=ba8561bf-70a2-469c-afbe-26daca8f8768","ios":"levelo://app?vid=ba8561bf-70a2-469c-afbe-26daca8f8768"},"vehicle_type_id":"4","last_reported":1749762608,"current_range_meters":8000,"station_id":"ce4bhqh2rcd13ifvqhlg","pricing_plan_id":"cebpf4jnsgd1na2vs0mg"},{"bike_id":"e5ff82fd-cc37-4e1f-aade-050998fb0f61","system_id":"levelo_inurba_marseille","lat":43.26264,"lon":5.37133,"is_reserved":false,"is_disabled":false,"rental_uris":{"android":"levelo://app?vid=e5ff82fd-cc37-4e1f-aade-050998fb0f61","ios":"levelo://app?vid=e5ff82fd-cc37-4e1f-aade-050998fb0f61"},"vehicle_type_id":"4","last_reported":1749762608,"current_range_meters":8400,"station_id":"","pricing_plan_id":"cebpf4jnsgd1na2vs0mg"},{"bike_id":"308cbf69-b866-4a48-b377-e4f7d5e7c70b","system_id":"levelo_inurba_marseille","lat":43.32904,"lon":5.39015,"is_reserved":false,"is_disabled":false,"rental_uris":{"android":"levelo://app?vid=308cbf69-b866-4a48-b377-e4f7d5e7c70b","ios":"levelo://app?vid=308cbf69-b866-4a48-b377-e4f7d5e7c70b"},"vehicle_type_id":"4","last_reported":1749762608,"current_range_meters":8400,"station_id":"","pricing_plan_id":"cebpf4jnsgd1na2vs0mg"},{"bike_id":"3f1e0be4-6078-4eb6-8eda-b19c38fed811","system_id":"levelo_inurba_marseille","lat":43.28461,"lon":5.35885,"is_reserved":false,"is_disabled":false,"rental_uris":{"android":"levelo://app?vid=3f1e0be4-6078-4eb6-8eda-b19c38fed811","ios":"levelo://app?vid=3f1e0be4-6078-4eb6-8eda-b19c38fed811"},"vehicle_type_id":"4","last_reported":1749762608,"current_range_meters":8400,"station_id":"ce4bhah2rcd13ifvqei0","pricing_plan_id":"cebpf4jnsgd1na2vs0mg"},{"bike_id":"8dc568bf-ed0e-41ce-b717-40001c1a5f94","system_id":"levelo_inurba_marseille","lat":43.289217,"lon":5.363853,"is_reserved":false,"is_disabled":false,"rental_uris":{"android":"levelo://app?vid=8dc568bf-ed0e-41ce-b717-40001c1a5f94","ios":"levelo://app?vid=8dc568bf-ed0e-41ce-b717-40001c1a5f94"},"vehicle_type_id":"4","last_reported":1749762608,"current_range_meters":8400,"station_id":"ce4bhc92rcd13ifvqetg","pricing_plan_id":"cebpf4jnsgd1na2vs0mg"},{"bike_id":"6c5b09d0-a58d-481d-b8f8-bb89e04f6751","system_id":"levelo_inurba_marseille","lat":43.29555,"lon":5.42292,"is_reserved":false,"is_disabled":false,"rental_uris":{"android":"levelo://app?vid=6c5b09d0-a58d-481d-b8f8-bb89e04f6751","ios":"levelo://app?vid=6c5b09d0-a58d-481d-b8f8-bb89e04f6751"},"vehicle_type_id":"4","last_reported":1749762608,"current_range_meters":8400,"station_id":"ce4bhph2rcd13ifvqhdg","pricing_plan_id":"cebpf4jnsgd1na2vs0mg"},{"bike_id":"acf45683-b354-4fc8-84c3-9f0ff05126b2","system_id":"levelo_inurba_marseille","lat":43.26807,"lon":5.402663,"is_reserved":false,"is_disabled":false,"rental_uris":{"android":"levelo://app?vid=acf45683-b354-4fc8-84c3-9f0ff05126b2","ios":"levelo://app?vid=acf45683-b354-4fc8-84c3-9f0ff05126b2"},"vehicle_type_id":"4","last_reported":1749762608,"current_range_meters":8400,"station_id":"ce501612rcd8frsf0b60","pricing_plan_id":"cebpf4jnsgd1na2vs0mg"},{"bike_id":"db390731-709e-4589-b98e-48bd1fa7566c","system_id":"levelo_inurba_marseille","lat":43.30148,"lon":5.38062,"is_reserved":false,"is_disabled":false,"rental_uris":{"android":"levelo://app?vid=db390731-709e-4589-b98e-48bd1fa7566c","ios":"levelo://app?vid=db390731-709e-4589-b98e-48bd1fa7566c"},"vehicle_type_id":"4","last_reported":1749762608,"current_range_meters":8800,"station_id":"ce4bgjp2rcd13ifvqbh0","pricing_plan_id":"cebpf4jnsgd1na2vs0mg"},{"bike_id":"9ebf6d7d-3c5f-40f6-85c5-14fe442b4b5f","system_id":"levelo_inurba_marseille","lat":43.26488,"lon":5.3954,"is_reserved":false,"is_disabled":false,"rental_uris":{"android":"levelo://app?vid=9ebf6d7d-3c5f-40f6-85c5-14fe442b4b5f","ios":"levelo://app?vid=9ebf6d7d-3c5f-40f6-85c5-14fe442b4b5f"},"vehicle_type_id":"4","last_reported":1749762608,"current_range_meters":8800,"station_id":"ce4bhi12rcd13ifvqfq0","pricing_plan_id":"cebpf4jnsgd1na2vs0mg"},{"bike_id":"38c34fcb-73ef-441e-99aa-ae2325141acf","system_id":"levelo_inurba_marseille","lat":43.27813,"lon":5.40713,"is_reserved":false,"is_disabled":false,"rental_uris":{"android":"levelo://app?vid=38c34fcb-73ef-441e-99aa-ae2325141acf","ios":"levelo://app?vid=38c34fcb-73ef-441e-99aa-ae2325141acf"},"vehicle_type_id":"4","last_reported":1749762608,"current_range_meters":8800,"station_id":"ce4bhnh2rcd13ifvqgtg","pricing_plan_id":"cebpf4jnsgd1na2vs0mg"},{"bike_id":"a2421370-e442-436f-a98a-844d44299694","system_id":"levelo_inurba_marseille","lat":43.32367,"lon":5.36763,"is_reserved":false,"is_disabled":false,"rental_uris":{"android":"levelo://app?vid=a2421370-e442-436f-a98a-844d44299694","ios":"levelo://app?vid=a2421370-e442-436f-a98a-844d44299694"},"vehicle_type_id":"4","last_reported":1749762608,"current_range_meters":8800,"station_id":"ce4bhsh2rcd13ifvqi2g","pricing_plan_id":"cebpf4jnsgd1na2vs0mg"},{"bike_id":"c57b5346-a64d-4e66-a2be-de4f8bc18eaf","system_id":"levelo_inurba_marseille","lat":43.30428,"lon":5.39741,"is_reserved":false,"is_disabled":false,"rental_uris":{"android":"levelo://app?vid=c57b5346-a64d-4e66-a2be-de4f8bc18eaf","ios":"levelo://app?vid=c57b5346-a64d-4e66-a2be-de4f8bc18eaf"},"vehicle_type_id":"4","last_reported":1749762608,"current_range_meters":9200,"station_id":"ce4bh092rcd13ifvqd20","pricing_plan_id":"cebpf4jnsgd1na2vs0mg"},{"bike_id":"27678a92-51ee-4f6e-a4ee-9478c87e300f","system_id":"levelo_inurba_marseille","lat":43.28712,"lon":5.386499,"is_reserved":false,"is_disabled":false,"rental_uris":{"android":"levelo://app?vid=27678a92-51ee-4f6e-a4ee-9478c87e300f","ios":"levelo://app?vid=27678a92-51ee-4f6e-a4ee-9478c87e300f"},"vehicle_type_id":"4","last_reported":1749762608,"current_range_meters":9200,"station_id":"ce4bh492rcd13ifvqdug","pricing_plan_id":"cebpf4jnsgd1na2vs0mg"},{"bike_id":"538be204-294c-44d3-be2e-ddd41840eef1","system_id":"levelo_inurba_marseille","lat":43.217479,"lon":5.346017,"is_reserved":false,"is_disabled":false,"rental_uris":{"android":"levelo://app?vid=538be204-294c-44d3-be2e-ddd41840eef1","ios":"levelo://app?vid=538be204-294c-44d3-be2e-ddd41840eef1"},"vehicle_type_id":"4","last_reported":1749762608,"current_range_meters":9200,"station_id":"st_cvj6r9ubvosntc0bgbag","pricing_plan_id":"cebpf4jnsgd1na2vs0mg"},{"bike_id":"a25b84b4-c252-4eda-97fb-1a1f22303c5d","system_id":"levelo_inurba_marseille","lat":43.31397,"lon":5.37429,"is_reserved":false,"is_disabled":false,"rental_uris":{"android":"levelo://app?vid=a25b84b4-c252-4eda-97fb-1a1f22303c5d","ios":"levelo://app?vid=a25b84b4-c252-4eda-97fb-1a1f22303c5d"},"vehicle_type_id":"4","last_reported":1749762608,"current_range_meters":9600,"station_id":"","pricing_plan_id":"cebpf4jnsgd1na2vs0mg"},{"bike_id":"4410865e-be0d-4aae-bffb-13b30691eab5","system_id":"levelo_inurba_marseille","lat":43.29534,"lon":5.385377,"is_reserved":false,"is_disabled":false,"rental_uris":{"android":"levelo://app?vid=4410865e-be0d-4aae-bffb-13b30691eab5","ios":"levelo://app?vid=4410865e-be0d-4aae-bffb-13b30691eab5"},"vehicle_type_id":"4","last_reported":1749762608,"current_range_meters":9600,"station_id":"ce4bgih2rcd13ifvqba0","pricing_plan_id":"cebpf4jnsgd1na2vs0mg"},{"bike_id":"82c9e919-8d69-45aa-aca9-b0b4926160ea","system_id":"levelo_inurba_marseille","lat":43.31162,"lon":5.38708,"is_reserved":false,"is_disabled":false,"rental_uris":{"android":"levelo://app?vid=82c9e919-8d69-45aa-aca9-b0b4926160ea","ios":"levelo://app?vid=82c9e919-8d69-45aa-aca9-b0b4926160ea"},"vehicle_type_id":"4","last_reported":1749762608,"current_range_meters":9600,"station_id":"ce4bgv12rcd13ifvqcp0","pricing_plan_id":"cebpf4jnsgd1na2vs0mg"},{"bike_id":"d69be9e8-dd7e-4f72-9987-a9a9f616c36d","system_id":"levelo_inurba_marseille","lat":43.30656,"lon":5.40093,"is_reserved":false,"is_disabled":false,"rental_uris":{"android":"levelo://app?vid=d69be9e8-dd7e-4f72-9987-a9a9f616c36d","ios":"levelo://app?vid=d69be9e8-dd7e-4f72-9987-a9a9f616c36d"},"vehicle_type_id":"4","last_reported":1749762608,"current_range_meters":9600,"station_id":"ce4bh112rcd13ifvqda0","pricing_plan_id":"cebpf4jnsgd1na2vs0mg"},{"bike_id":"b24e2f9d-3f4a-4cf7-b7b0-3a4ecba9f9f4","system_id":"levelo_inurba_marseille","lat":43.29029,"lon":5.38638,"is_reserved":false,"is_disabled":false,"rental_uris":{"android":"levelo://app?vid=b24e2f9d-3f4a-4cf7-b7b0-3a4ecba9f9f4","ios":"levelo://app?vid=b24e2f9d-3f4a-4cf7-b7b0-3a4ecba9f9f4"},"vehicle_type_id":"4","last_reported":1749762608,"current_range_meters":9600,"station_id":"ce4bh4p2rcd13ifvqe0g","pricing_plan_id":"cebpf4jnsgd1na2vs0mg"},{"bike_id":"b23225b1-18f8-48ff-8a1c-9d5c0239c002","system_id":"levelo_inurba_marseille","lat":43.28103,"lon":5.37834,"is_reserved":false,"is_disabled":false,"rental_uris":{"android":"levelo://app?vid=b23225b1-18f8-48ff-8a1c-9d5c0239c002","ios":"levelo://app?vid=b23225b1-18f8-48ff-8a1c-9d5c0239c002"},"vehicle_type_id":"4","last_reported":1749762608,"current_range_meters":9600,"station_id":"ce4bha12rcd13ifvqee0","pricing_plan_id":"cebpf4jnsgd1na2vs0mg"},{"bike_id":"6bf563f3-6a3e-4286-b02f-50d444dc80b7","system_id":"levelo_inurba_marseille","lat":43.2757,"lon":5.38409,"is_reserved":false,"is_disabled":false,"rental_uris":{"android":"levelo://app?vid=6bf563f3-6a3e-4286-b02f-50d444dc80b7","ios":"levelo://app?vid=6bf563f3-6a3e-4286-b02f-50d444dc80b7"},"vehicle_type_id":"4","last_reported":1749762608,"current_range_meters":9600,"station_id":"ce4bhh92rcd13ifvqfi0","pricing_plan_id":"cebpf4jnsgd1na2vs0mg"},{"bike_id":"500320f2-e4bb-4906-a414-ca67470055ab","system_id":"levelo_inurba_marseille","lat":43.25636,"lon":5.38606,"is_reserved":false,"is_disabled":false,"rental_uris":{"android":"levelo://app?vid=500320f2-e4bb-4906-a414-ca67470055ab","ios":"levelo://app?vid=500320f2-e4bb-4906-a414-ca67470055ab"},"vehicle_type_id":"4","last_reported":1749762608,"current_range_meters":10000,"station_id":"","pricing_plan_id":"cebpf4jnsgd1na2vs0mg"},{"bike_id":"501fe5cc-ec9f-4031-8e12-9c9a87dfd25d","system_id":"levelo_inurba_marseille","lat":43.31818,"lon":5.40571,"is_reserved":false,"is_disabled":false,"rental_uris":{"android":"levelo://app?vid=501fe5cc-ec9f-4031-8e12-9c9a87dfd25d","ios":"levelo://app?vid=501fe5cc-ec9f-4031-8e12-9c9a87dfd25d"},"vehicle_type_id":"4","last_reported":1749762608,"current_range_meters":10000,"station_id":"","pricing_plan_id":"cebpf4jnsgd1na2vs0mg"},{"bike_id":"f8e539a2-3d55-4433-9bee-076742b9bc88","system_id":"levelo_inurba_marseille","lat":43.30594,"lon":5.39361,"is_reserved":false,"is_disabled":false,"rental_uris":{"android":"levelo://app?vid=f8e539a2-3d55-4433-9bee-076742b9bc88","ios":"levelo://app?vid=f8e539a2-3d55-4433-9bee-076742b9bc88"},"vehicle_type_id":"4","last_reported":1749762608,"current_range_meters":10000,"station_id":"ce4bh0p2rcd13ifvqd80","pricing_plan_id":"cebpf4jnsgd1na2vs0mg"},{"bike_id":"5d9854c2-0900-43ec-a119-94a110b42f04","system_id":"levelo_inurba_marseille","lat":43.3065,"lon":5.40068,"is_reserved":false,"is_disabled":false,"rental_uris":{"android":"levelo://app?vid=5d9854c2-0900-43ec-a119-94a110b42f04","ios":"levelo://app?vid=5d9854c2-0900-43ec-a119-94a110b42f04"},"vehicle_type_id":"4","last_reported":1749762608,"current_range_meters":10000,"station_id":"ce4bh112rcd13ifvqda0","pricing_plan_id":"cebpf4jnsgd1na2vs0mg"},{"bike_id":"0efa34d9-c846-4bf1-a586-63b487e8ac53","system_id":"levelo_inurba_marseille","lat":43.31992,"lon":5.38163,"is_reserved":false,"is_disabled":false,"rental_uris":{"android":"levelo://app?vid=0efa34d9-c846-4bf1-a586-63b487e8ac53","ios":"levelo://app?vid=0efa34d9-c846-4bf1-a586-63b487e8ac53"},"vehicle_type_id":"4","last_reported":1749762608,"current_range_meters":10000,"station_id":"ce4bhr12rcd13ifvqhpg","pricing_plan_id":"cebpf4jnsgd1na2vs0mg"},{"bike_id":"737bf404-6486-46f6-a7af-76c3f8ace47d","system_id":"levelo_inurba_marseille","lat":43.28359,"lon":5.38093,"is_reserved":false,"is_disabled":false,"rental_uris":{"android":"levelo://app?vid=737bf404-6486-46f6-a7af-76c3f8ace47d","ios":"levelo://app?vid=737bf404-6486-46f6-a7af-76c3f8ace47d"},"vehicle_type_id":"4","last_reported":1749762608,"current_range_meters":10800,"station_id":"ce4bh412rcd13ifvqdr0","pricing_plan_id":"cebpf4jnsgd1na2vs0mg"},{"bike_id":"292c8c32-2af2-446a-b403-7f3a0877e2fa","system_id":"levelo_inurba_marseille","lat":43.29259,"lon":5.38437,"is_reserved":false,"is_disabled":false,"rental_uris":{"android":"levelo://app?vid=292c8c32-2af2-446a-b403-7f3a0877e2fa","ios":"levelo://app?vid=292c8c32-2af2-446a-b403-7f3a0877e2fa"},"vehicle_type_id":"4","last_reported":1749762608,"current_range_meters":10800,"station_id":"ce4bh692rcd13ifvqea0","pricing_plan_id":"cebpf4jnsgd1na2vs0mg"},{"bike_id":"cb3c91bf-b03d-4648-9902-92dfaeba2d02","system_id":"levelo_inurba_marseille","lat":43.28488,"lon":5.38556,"is_reserved":false,"is_disabled":false,"rental_uris":{"android":"levelo://app?vid=cb3c91bf-b03d-4648-9902-92dfaeba2d02","ios":"levelo://app?vid=cb3c91bf-b03d-4648-9902-92dfaeba2d02"},"vehicle_type_id":"4","last_reported":1749762608,"current_range_meters":10800,"station_id":"ce4bh8p2rcd13ifvqeb0","pricing_plan_id":"cebpf4jnsgd1na2vs0mg"},{"bike_id":"4be38dc6-d3af-4606-903e-7bf53c505331","system_id":"levelo_inurba_marseille","lat":43.2846,"lon":5.35889,"is_reserved":false,"is_disabled":false,"rental_uris":{"android":"levelo://app?vid=4be38dc6-d3af-4606-903e-7bf53c505331","ios":"levelo://app?vid=4be38dc6-d3af-4606-903e-7bf53c505331"},"vehicle_type_id":"4","last_reported":1749762608,"current_range_meters":10800,"station_id":"ce4bhah2rcd13ifvqei0","pricing_plan_id":"cebpf4jnsgd1na2vs0mg"},{"bike_id":"591adc0a-d672-42ad-b6ee-b90fed42abf3","system_id":"levelo_inurba_marseille","lat":43.25127,"lon":5.40306,"is_reserved":false,"is_disabled":false,"rental_uris":{"android":"levelo://app?vid=591adc0a-d672-42ad-b6ee-b90fed42abf3","ios":"levelo://app?vid=591adc0a-d672-42ad-b6ee-b90fed42abf3"},"vehicle_type_id":"4","last_reported":1749762608,"current_range_meters":10800,"station_id":"ce4bhlh2rcd13ifvqgig","pricing_plan_id":"cebpf4jnsgd1na2vs0mg"},{"bike_id":"cd53e204-0085-4ec9-8375-52308dbeea84","system_id":"levelo_inurba_marseille","lat":43.29783,"lon":5.39345,"is_reserved":false,"is_disabled":false,"rental_uris":{"android":"levelo://app?vid=cd53e204-0085-4ec9-8375-52308dbeea84","ios":"levelo://app?vid=cd53e204-0085-4ec9-8375-52308dbeea84"},"vehicle_type_id":"4","last_reported":1749762608,"current_range_meters":10800,"station_id":"chh1huq6cuj3fo74tm60","pricing_plan_id":"cebpf4jnsgd1na2vs0mg"},{"bike_id":"94ba6f4b-428d-4ab6-ab1a-43165113acc6","system_id":"levelo_inurba_marseille","lat":43.31111,"lon":5.37767,"is_reserved":false,"is_disabled":false,"rental_uris":{"android":"levelo://app?vid=94ba6f4b-428d-4ab6-ab1a-43165113acc6","ios":"levelo://app?vid=94ba6f4b-428d-4ab6-ab1a-43165113acc6"},"vehicle_type_id":"4","last_reported":1749762608,"current_range_meters":11200,"station_id":"ce4bgt92rcd13ifvqcg0","pricing_plan_id":"cebpf4jnsgd1na2vs0mg"},{"bike_id":"95d9adcb-1c6b-406b-8e08-c3a110c83951","system_id":"levelo_inurba_marseille","lat":43.29034,"lon":5.37571,"is_reserved":false,"is_disabled":false,"rental_uris":{"android":"levelo://app?vid=95d9adcb-1c6b-406b-8e08-c3a110c83951","ios":"levelo://app?vid=95d9adcb-1c6b-406b-8e08-c3a110c83951"},"vehicle_type_id":"4","last_reported":1749762608,"current_range_meters":11200,"station_id":"ce4bh692rcd13ifvqe90","pricing_plan_id":"cebpf4jnsgd1na2vs0mg"},{"bike_id":"bbfe53f6-0e76-4f8d-a0e5-c4f4a7102c7d","system_id":"levelo_inurba_marseille","lat":43.24182,"lon":5.39732,"is_reserved":false,"is_disabled":false,"rental_uris":{"android":"levelo://app?vid=bbfe53f6-0e76-4f8d-a0e5-c4f4a7102c7d","ios":"levelo://app?vid=bbfe53f6-0e76-4f8d-a0e5-c4f4a7102c7d"},"vehicle_type_id":"4","last_reported":1749762608,"current_range_meters":11200,"station_id":"ce4bhn12rcd13ifvqgpg","pricing_plan_id":"cebpf4jnsgd1na2vs0mg"},{"bike_id":"040bd027-fa7d-42c9-807f-e534b24621e0","system_id":"levelo_inurba_marseille","lat":43.32345,"lon":5.40591,"is_reserved":false,"is_disabled":false,"rental_uris":{"android":"levelo://app?vid=040bd027-fa7d-42c9-807f-e534b24621e0","ios":"levelo://app?vid=040bd027-fa7d-42c9-807f-e534b24621e0"},"vehicle_type_id":"4","last_reported":1749762608,"current_range_meters":11200,"station_id":"ce4bhq92rcd13ifvqhjg","pricing_plan_id":"cebpf4jnsgd1na2vs0mg"},{"bike_id":"97421c04-2630-4fc1-9da9-b17d88602c5f","system_id":"levelo_inurba_marseille","lat":43.337687,"lon":5.37437,"is_reserved":false,"is_disabled":false,"rental_uris":{"android":"levelo://app?vid=97421c04-2630-4fc1-9da9-b17d88602c5f","ios":"levelo://app?vid=97421c04-2630-4fc1-9da9-b17d88602c5f"},"vehicle_type_id":"4","last_reported":1749762608,"current_range_meters":11600,"station_id":"","pricing_plan_id":"cebpf4jnsgd1na2vs0mg"},{"bike_id":"ee050184-0220-42a8-8c16-af56c478a845","system_id":"levelo_inurba_marseille","lat":43.29525,"lon":5.38549,"is_reserved":false,"is_disabled":false,"rental_uris":{"android":"levelo://app?vid=ee050184-0220-42a8-8c16-af56c478a845","ios":"levelo://app?vid=ee050184-0220-42a8-8c16-af56c478a845"},"vehicle_type_id":"4","last_reported":1749762608,"current_range_meters":11600,"station_id":"ce4bgih2rcd13ifvqba0","pricing_plan_id":"cebpf4jnsgd1na2vs0mg"},{"bike_id":"ce025206-9ced-4c05-967b-a05defcc61eb","system_id":"levelo_inurba_marseille","lat":43.299379,"lon":5.365563,"is_reserved":false,"is_disabled":false,"rental_uris":{"android":"levelo://app?vid=ce025206-9ced-4c05-967b-a05defcc61eb","ios":"levelo://app?vid=ce025206-9ced-4c05-967b-a05defcc61eb"},"vehicle_type_id":"4","last_reported":1749762608,"current_range_meters":11600,"station_id":"ce4bgm92rcd13ifvqbr0","pricing_plan_id":"cebpf4jnsgd1na2vs0mg"},{"bike_id":"f29bc8f6-1ce3-4a61-ad98-87e8cff7f4ba","system_id":"levelo_inurba_marseille","lat":43.2957,"lon":5.39978,"is_reserved":false,"is_disabled":false,"rental_uris":{"android":"levelo://app?vid=f29bc8f6-1ce3-4a61-ad98-87e8cff7f4ba","ios":"levelo://app?vid=f29bc8f6-1ce3-4a61-ad98-87e8cff7f4ba"},"vehicle_type_id":"4","last_reported":1749762608,"current_range_meters":11600,"station_id":"ce4bh312rcd13ifvqdj0","pricing_plan_id":"cebpf4jnsgd1na2vs0mg"},{"bike_id":"db290275-4e2a-4a78-988a-4985a4429640","system_id":"levelo_inurba_marseille","lat":43.284103,"lon":5.375147,"is_reserved":false,"is_disabled":false,"rental_uris":{"android":"levelo://app?vid=db290275-4e2a-4a78-988a-4985a4429640","ios":"levelo://app?vid=db290275-4e2a-4a78-988a-4985a4429640"},"vehicle_type_id":"4","last_reported":1749762608,"current_range_meters":11600,"station_id":"ce4bh412rcd13ifvqds0","pricing_plan_id":"cebpf4jnsgd1na2vs0mg"},{"bike_id":"8d60347d-541c-40fb-90ca-203bf6bd520a","system_id":"levelo_inurba_marseille","lat":43.271278,"lon":5.363966,"is_reserved":false,"is_disabled":false,"rental_uris":{"android":"levelo://app?vid=8d60347d-541c-40fb-90ca-203bf6bd520a","ios":"levelo://app?vid=8d60347d-541c-40fb-90ca-203bf6bd520a"},"vehicle_type_id":"4","last_reported":1749762608,"current_range_meters":12000,"station_id":"","pricing_plan_id":"cebpf4jnsgd1na2vs0mg"},{"bike_id":"d1585d35-f934-41f3-90f3-90fda07e16ee","system_id":"levelo_inurba_marseille","lat":43.31171,"lon":5.38693,"is_reserved":false,"is_disabled":false,"rental_uris":{"android":"levelo://app?vid=d1585d35-f934-41f3-90f3-90fda07e16ee","ios":"levelo://app?vid=d1585d35-f934-41f3-90f3-90fda07e16ee"},"vehicle_type_id":"4","last_reported":1749762608,"current_range_meters":12000,"station_id":"ce4bgv12rcd13ifvqcp0","pricing_plan_id":"cebpf4jnsgd1na2vs0mg"},{"bike_id":"b9976ba6-16e5-4fca-8a0c-40eee7440a39","system_id":"levelo_inurba_marseille","lat":43.28947,"lon":5.36345,"is_reserved":false,"is_disabled":false,"rental_uris":{"android":"levelo://app?vid=b9976ba6-16e5-4fca-8a0c-40eee7440a39","ios":"levelo://app?vid=b9976ba6-16e5-4fca-8a0c-40eee7440a39"},"vehicle_type_id":"4","last_reported":1749762608,"current_range_meters":12000,"station_id":"ce4bhc92rcd13ifvqetg","pricing_plan_id":"cebpf4jnsgd1na2vs0mg"},{"bike_id":"4f5d4f7f-82eb-4b6d-a9fa-d9a19a3749ec","system_id":"levelo_inurba_marseille","lat":43.26205,"lon":5.37434,"is_reserved":false,"is_disabled":false,"rental_uris":{"android":"levelo://app?vid=4f5d4f7f-82eb-4b6d-a9fa-d9a19a3749ec","ios":"levelo://app?vid=4f5d4f7f-82eb-4b6d-a9fa-d9a19a3749ec"},"vehicle_type_id":"4","last_reported":1749762608,"current_range_meters":12000,"station_id":"ce4bhgp2rcd13ifvqfc0","pricing_plan_id":"cebpf4jnsgd1na2vs0mg"},{"bike_id":"1001a6a0-9894-45d2-89d2-ea8bd0e4c325","system_id":"levelo_inurba_marseille","lat":43.28718,"lon":5.39958,"is_reserved":false,"is_disabled":false,"rental_uris":{"android":"levelo://app?vid=1001a6a0-9894-45d2-89d2-ea8bd0e4c325","ios":"levelo://app?vid=1001a6a0-9894-45d2-89d2-ea8bd0e4c325"},"vehicle_type_id":"4","last_reported":1749762608,"current_range_meters":12000,"station_id":"ce4bho92rcd13ifvqh3g","pricing_plan_id":"cebpf4jnsgd1na2vs0mg"},{"bike_id":"1268e070-f02d-4537-93df-0bfd5c4daa05","system_id":"levelo_inurba_marseille","lat":43.327,"lon":5.37658,"is_reserved":false,"is_disabled":false,"rental_uris":{"android":"levelo://app?vid=1268e070-f02d-4537-93df-0bfd5c4daa05","ios":"levelo://app?vid=1268e070-f02d-4537-93df-0bfd5c4daa05"},"vehicle_type_id":"4","last_reported":1749762608,"current_range_meters":12400,"station_id":"","pricing_plan_id":"cebpf4jnsgd1na2vs0mg"},{"bike_id":"83ad8241-60c4-42de-b76a-fbfc2eb5a88b","system_id":"levelo_inurba_marseille","lat":43.29877,"lon":5.36404,"is_reserved":false,"is_disabled":false,"rental_uris":{"android":"levelo://app?vid=83ad8241-60c4-42de-b76a-fbfc2eb5a88b","ios":"levelo://app?vid=83ad8241-60c4-42de-b76a-fbfc2eb5a88b"},"vehicle_type_id":"4","last_reported":1749762608,"current_range_meters":12400,"station_id":"","pricing_plan_id":"cebpf4jnsgd1na2vs0mg"},{"bike_id":"455d3dfd-5f62-49aa-afe6-04654e40b6e9","system_id":"levelo_inurba_marseille","lat":43.30924,"lon":5.40139,"is_reserved":false,"is_disabled":false,"rental_uris":{"android":"levelo://app?vid=455d3dfd-5f62-49aa-afe6-04654e40b6e9","ios":"levelo://app?vid=455d3dfd-5f62-49aa-afe6-04654e40b6e9"},"vehicle_type_id":"4","last_reported":1749762608,"current_range_meters":12400,"station_id":"ce4bgvp2rcd13ifvqct0","pricing_plan_id":"cebpf4jnsgd1na2vs0mg"},{"bike_id":"dd69c70b-2eac-43e7-9cf3-39391afc723b","system_id":"levelo_inurba_marseille","lat":43.31321,"lon":5.39702,"is_reserved":false,"is_disabled":false,"rental_uris":{"android":"levelo://app?vid=dd69c70b-2eac-43e7-9cf3-39391afc723b","ios":"levelo://app?vid=dd69c70b-2eac-43e7-9cf3-39391afc723b"},"vehicle_type_id":"4","last_reported":1749762608,"current_range_meters":12400,"station_id":"ce4bgvp2rcd13ifvqcu0","pricing_plan_id":"cebpf4jnsgd1na2vs0mg"},{"bike_id":"812a7d1f-fdb4-4f0d-83d5-abeb697c7fd2","system_id":"levelo_inurba_marseille","lat":43.308843,"lon":5.396326,"is_reserved":false,"is_disabled":false,"rental_uris":{"android":"levelo://app?vid=812a7d1f-fdb4-4f0d-83d5-abeb697c7fd2","ios":"levelo://app?vid=812a7d1f-fdb4-4f0d-83d5-abeb697c7fd2"},"vehicle_type_id":"4","last_reported":1749762608,"current_range_meters":12400,"station_id":"ce4bh012rcd13ifvqcv0","pricing_plan_id":"cebpf4jnsgd1na2vs0mg"},{"bike_id":"c5c9eccb-d0b6-4d87-a447-91b497df3699","system_id":"levelo_inurba_marseille","lat":43.29629,"lon":5.40599,"is_reserved":false,"is_disabled":false,"rental_uris":{"android":"levelo://app?vid=c5c9eccb-d0b6-4d87-a447-91b497df3699","ios":"levelo://app?vid=c5c9eccb-d0b6-4d87-a447-91b497df3699"},"vehicle_type_id":"4","last_reported":1749762608,"current_range_meters":12400,"station_id":"ce4bh0h2rcd13ifvqd60","pricing_plan_id":"cebpf4jnsgd1na2vs0mg"},{"bike_id":"e2e27818-bf4a-4e1a-8cb4-28f487746ad8","system_id":"levelo_inurba_marseille","lat":43.283504,"lon":5.381031,"is_reserved":false,"is_disabled":false,"rental_uris":{"android":"levelo://app?vid=e2e27818-bf4a-4e1a-8cb4-28f487746ad8","ios":"levelo://app?vid=e2e27818-bf4a-4e1a-8cb4-28f487746ad8"},"vehicle_type_id":"4","last_reported":1749762608,"current_range_meters":12400,"station_id":"ce4bh412rcd13ifvqdr0","pricing_plan_id":"cebpf4jnsgd1na2vs0mg"},{"bike_id":"fd5c0873-d8ef-4cc8-a1f7-cd7dc19f4832","system_id":"levelo_inurba_marseille","lat":43.28104,"lon":5.37836,"is_reserved":false,"is_disabled":false,"rental_uris":{"android":"levelo://app?vid=fd5c0873-d8ef-4cc8-a1f7-cd7dc19f4832","ios":"levelo://app?vid=fd5c0873-d8ef-4cc8-a1f7-cd7dc19f4832"},"vehicle_type_id":"4","last_reported":1749762608,"current_range_meters":12400,"station_id":"ce4bha12rcd13ifvqee0","pricing_plan_id":"cebpf4jnsgd1na2vs0mg"},{"bike_id":"c77335bd-6c2a-4d29-ab0f-7ac1a231af2d","system_id":"levelo_inurba_marseille","lat":43.2668,"lon":5.38265,"is_reserved":false,"is_disabled":false,"rental_uris":{"android":"levelo://app?vid=c77335bd-6c2a-4d29-ab0f-7ac1a231af2d","ios":"levelo://app?vid=c77335bd-6c2a-4d29-ab0f-7ac1a231af2d"},"vehicle_type_id":"4","last_reported":1749762608,"current_range_meters":12400,"station_id":"ce4bhg92rcd13ifvqf90","pricing_plan_id":"cebpf4jnsgd1na2vs0mg"},{"bike_id":"ee7a235a-9320-467e-964a-0bb080281501","system_id":"levelo_inurba_marseille","lat":43.27815,"lon":5.4071,"is_reserved":false,"is_disabled":false,"rental_uris":{"android":"levelo://app?vid=ee7a235a-9320-467e-964a-0bb080281501","ios":"levelo://app?vid=ee7a235a-9320-467e-964a-0bb080281501"},"vehicle_type_id":"4","last_reported":1749762608,"current_range_meters":12400,"station_id":"ce4bhnh2rcd13ifvqgtg","pricing_plan_id":"cebpf4jnsgd1na2vs0mg"},{"bike_id":"abd0d78f-a5d4-4339-93f7-6b3fc51d77c5","system_id":"levelo_inurba_marseille","lat":43.36626,"lon":5.35554,"is_reserved":false,"is_disabled":false,"rental_uris":{"android":"levelo://app?vid=abd0d78f-a5d4-4339-93f7-6b3fc51d77c5","ios":"levelo://app?vid=abd0d78f-a5d4-4339-93f7-6b3fc51d77c5"},"vehicle_type_id":"4","last_reported":1749762608,"current_range_meters":12800,"station_id":"","pricing_plan_id":"cebpf4jnsgd1na2vs0mg"},{"bike_id":"6e464720-93b0-4699-80fe-881649eb71cd","system_id":"levelo_inurba_marseille","lat":43.2327,"lon":5.35635,"is_reserved":false,"is_disabled":false,"rental_uris":{"android":"levelo://app?vid=6e464720-93b0-4699-80fe-881649eb71cd","ios":"levelo://app?vid=6e464720-93b0-4699-80fe-881649eb71cd"},"vehicle_type_id":"4","last_reported":1749762608,"current_range_meters":12800,"station_id":"","pricing_plan_id":"cebpf4jnsgd1na2vs0mg"},{"bike_id":"e5ef7447-82af-477b-846f-d44631249354","system_id":"levelo_inurba_marseille","lat":43.32486,"lon":5.388053,"is_reserved":false,"is_disabled":false,"rental_uris":{"android":"levelo://app?vid=e5ef7447-82af-477b-846f-d44631249354","ios":"levelo://app?vid=e5ef7447-82af-477b-846f-d44631249354"},"vehicle_type_id":"4","last_reported":1749762608,"current_range_meters":12800,"station_id":"","pricing_plan_id":"cebpf4jnsgd1na2vs0mg"},{"bike_id":"94f65fc7-c495-4fc3-bd53-b2d2bfbe5284","system_id":"levelo_inurba_marseille","lat":43.28847,"lon":5.39314,"is_reserved":false,"is_disabled":false,"rental_uris":{"android":"levelo://app?vid=94f65fc7-c495-4fc3-bd53-b2d2bfbe5284","ios":"levelo://app?vid=94f65fc7-c495-4fc3-bd53-b2d2bfbe5284"},"vehicle_type_id":"4","last_reported":1749762608,"current_range_meters":12800,"station_id":"ce4bh2p2rcd13ifvqdi0","pricing_plan_id":"cebpf4jnsgd1na2vs0mg"},{"bike_id":"d0fbac6a-2962-4df3-bdd3-a58d1fc84094","system_id":"levelo_inurba_marseille","lat":43.2928,"lon":5.40115,"is_reserved":false,"is_disabled":false,"rental_uris":{"android":"levelo://app?vid=d0fbac6a-2962-4df3-bdd3-a58d1fc84094","ios":"levelo://app?vid=d0fbac6a-2962-4df3-bdd3-a58d1fc84094"},"vehicle_type_id":"4","last_reported":1749762608,"current_range_meters":12800,"station_id":"ce4bh312rcd13ifvqdk0","pricing_plan_id":"cebpf4jnsgd1na2vs0mg"},{"bike_id":"e2d73edd-ab09-4323-8ecb-853ebc0a86d1","system_id":"levelo_inurba_marseille","lat":43.29262,"lon":5.38446,"is_reserved":false,"is_disabled":false,"rental_uris":{"android":"levelo://app?vid=e2d73edd-ab09-4323-8ecb-853ebc0a86d1","ios":"levelo://app?vid=e2d73edd-ab09-4323-8ecb-853ebc0a86d1"},"vehicle_type_id":"4","last_reported":1749762608,"current_range_meters":12800,"station_id":"ce4bh692rcd13ifvqea0","pricing_plan_id":"cebpf4jnsgd1na2vs0mg"},{"bike_id":"2bcbef13-a603-4ae9-8cf8-218fb0233a1f","system_id":"levelo_inurba_marseille","lat":43.2965,"lon":5.3867,"is_reserved":false,"is_disabled":false,"rental_uris":{"android":"levelo://app?vid=2bcbef13-a603-4ae9-8cf8-218fb0233a1f","ios":"levelo://app?vid=2bcbef13-a603-4ae9-8cf8-218fb0233a1f"},"vehicle_type_id":"4","last_reported":1749762608,"current_range_meters":13600,"station_id":"","pricing_plan_id":"cebpf4jnsgd1na2vs0mg"},{"bike_id":"063eff84-b62e-4128-85ed-5896eed2f5f4","system_id":"levelo_inurba_marseille","lat":43.3132,"lon":5.37502,"is_reserved":false,"is_disabled":false,"rental_uris":{"android":"levelo://app?vid=063eff84-b62e-4128-85ed-5896eed2f5f4","ios":"levelo://app?vid=063eff84-b62e-4128-85ed-5896eed2f5f4"},"vehicle_type_id":"4","last_reported":1749762608,"current_range_meters":13600,"station_id":"","pricing_plan_id":"cebpf4jnsgd1na2vs0mg"},{"bike_id":"15284ff4-ce88-4a17-a687-f43278dc7eda","system_id":"levelo_inurba_marseille","lat":43.29525,"lon":5.38536,"is_reserved":false,"is_disabled":false,"rental_uris":{"android":"levelo://app?vid=15284ff4-ce88-4a17-a687-f43278dc7eda","ios":"levelo://app?vid=15284ff4-ce88-4a17-a687-f43278dc7eda"},"vehicle_type_id":"4","last_reported":1749762608,"current_range_meters":13600,"station_id":"ce4bgih2rcd13ifvqba0","pricing_plan_id":"cebpf4jnsgd1na2vs0mg"},{"bike_id":"0524d389-8516-4147-9b20-c36ab6969bcb","system_id":"levelo_inurba_marseille","lat":43.25822,"lon":5.39429,"is_reserved":false,"is_disabled":false,"rental_uris":{"android":"levelo://app?vid=0524d389-8516-4147-9b20-c36ab6969bcb","ios":"levelo://app?vid=0524d389-8516-4147-9b20-c36ab6969bcb"},"vehicle_type_id":"4","last_reported":1749762608,"current_range_meters":13600,"station_id":"ce4bhip2rcd13ifvqft0","pricing_plan_id":"cebpf4jnsgd1na2vs0mg"},{"bike_id":"3fe50ebb-7407-4c5c-803b-1cd761668abb","system_id":"levelo_inurba_marseille","lat":43.22933,"lon":5.35379,"is_reserved":false,"is_disabled":false,"rental_uris":{"android":"levelo://app?vid=3fe50ebb-7407-4c5c-803b-1cd761668abb","ios":"levelo://app?vid=3fe50ebb-7407-4c5c-803b-1cd761668abb"},"vehicle_type_id":"4","last_reported":1749762608,"current_range_meters":13600,"station_id":"cpo3532slgdg3j2ikp40","pricing_plan_id":"cebpf4jnsgd1na2vs0mg"},{"bike_id":"ae6f4f8e-e109-4f06-8e1d-b876f3a0edae","system_id":"levelo_inurba_marseille","lat":43.29535,"lon":5.38531,"is_reserved":false,"is_disabled":false,"rental_uris":{"android":"levelo://app?vid=ae6f4f8e-e109-4f06-8e1d-b876f3a0edae","ios":"levelo://app?vid=ae6f4f8e-e109-4f06-8e1d-b876f3a0edae"},"vehicle_type_id":"4","last_reported":1749762608,"current_range_meters":14000,"station_id":"ce4bgih2rcd13ifvqba0","pricing_plan_id":"cebpf4jnsgd1na2vs0mg"},{"bike_id":"a9c2029a-abfa-45a1-9a6f-fd7ce213973d","system_id":"levelo_inurba_marseille","lat":43.28619,"lon":5.35102,"is_reserved":false,"is_disabled":false,"rental_uris":{"android":"levelo://app?vid=a9c2029a-abfa-45a1-9a6f-fd7ce213973d","ios":"levelo://app?vid=a9c2029a-abfa-45a1-9a6f-fd7ce213973d"},"vehicle_type_id":"4","last_reported":1749762608,"current_range_meters":14000,"station_id":"ce4bhch2rcd13ifvqeug","pricing_plan_id":"cebpf4jnsgd1na2vs0mg"},{"bike_id":"6d64abc2-67fa-4cac-8a08-f6e15e15046b","system_id":"levelo_inurba_marseille","lat":43.29199,"lon":5.39334,"is_reserved":false,"is_disabled":false,"rental_uris":{"android":"levelo://app?vid=6d64abc2-67fa-4cac-8a08-f6e15e15046b","ios":"levelo://app?vid=6d64abc2-67fa-4cac-8a08-f6e15e15046b"},"vehicle_type_id":"4","last_reported":1749762608,"current_range_meters":14400,"station_id":"ce4bh192rcd13ifvqdd0","pricing_plan_id":"cebpf4jnsgd1na2vs0mg"},{"bike_id":"2b3487c0-6d03-4c54-801f-a27aa1820b7e","system_id":"levelo_inurba_marseille","lat":43.26556,"lon":5.37309,"is_reserved":false,"is_disabled":false,"rental_uris":{"android":"levelo://app?vid=2b3487c0-6d03-4c54-801f-a27aa1820b7e","ios":"levelo://app?vid=2b3487c0-6d03-4c54-801f-a27aa1820b7e"},"vehicle_type_id":"4","last_reported":1749762608,"current_range_meters":14400,"station_id":"ce4bhg12rcd13ifvqf70","pricing_plan_id":"cebpf4jnsgd1na2vs0mg"},{"bike_id":"ab55524a-82b3-4b4c-a892-eefc366f495e","system_id":"levelo_inurba_marseille","lat":43.24674,"lon":5.38155,"is_reserved":false,"is_disabled":false,"rental_uris":{"android":"levelo://app?vid=ab55524a-82b3-4b4c-a892-eefc366f495e","ios":"levelo://app?vid=ab55524a-82b3-4b4c-a892-eefc366f495e"},"vehicle_type_id":"4","last_reported":1749762608,"current_range_meters":14400,"station_id":"ce4bhih2rcd13ifvqfr0","pricing_plan_id":"cebpf4jnsgd1na2vs0mg"},{"bike_id":"78e4331f-c67f-4812-a1cf-4af0acc5e2d6","system_id":"levelo_inurba_marseille","lat":43.32354,"lon":5.36742,"is_reserved":false,"is_disabled":false,"rental_uris":{"android":"levelo://app?vid=78e4331f-c67f-4812-a1cf-4af0acc5e2d6","ios":"levelo://app?vid=78e4331f-c67f-4812-a1cf-4af0acc5e2d6"},"vehicle_type_id":"4","last_reported":1749762608,"current_range_meters":14400,"station_id":"ce4bhsh2rcd13ifvqi2g","pricing_plan_id":"cebpf4jnsgd1na2vs0mg"},{"bike_id":"c0bd4251-d527-48a7-9378-e4e80c1c274f","system_id":"levelo_inurba_marseille","lat":43.31861,"lon":5.37374,"is_reserved":false,"is_disabled":false,"rental_uris":{"android":"levelo://app?vid=c0bd4251-d527-48a7-9378-e4e80c1c274f","ios":"levelo://app?vid=c0bd4251-d527-48a7-9378-e4e80c1c274f"},"vehicle_type_id":"4","last_reported":1749762608,"current_range_meters":14800,"station_id":"","pricing_plan_id":"cebpf4jnsgd1na2vs0mg"},{"bike_id":"62c0da7f-aff9-4ffa-86b8-6966d8f0e555","system_id":"levelo_inurba_marseille","lat":43.21193,"lon":5.35091,"is_reserved":false,"is_disabled":false,"rental_uris":{"android":"levelo://app?vid=62c0da7f-aff9-4ffa-86b8-6966d8f0e555","ios":"levelo://app?vid=62c0da7f-aff9-4ffa-86b8-6966d8f0e555"},"vehicle_type_id":"4","last_reported":1749762608,"current_range_meters":14800,"station_id":"","pricing_plan_id":"cebpf4jnsgd1na2vs0mg"},{"bike_id":"5b1c5214-637f-48d1-bc6d-f1fa81d9a462","system_id":"levelo_inurba_marseille","lat":43.28688,"lon":5.37946,"is_reserved":false,"is_disabled":false,"rental_uris":{"android":"levelo://app?vid=5b1c5214-637f-48d1-bc6d-f1fa81d9a462","ios":"levelo://app?vid=5b1c5214-637f-48d1-bc6d-f1fa81d9a462"},"vehicle_type_id":"4","last_reported":1749762608,"current_range_meters":14800,"station_id":"ce4bh9p2rcd13ifvqec0","pricing_plan_id":"cebpf4jnsgd1na2vs0mg"},{"bike_id":"bcc36335-30bf-427e-bc24-5acde7748b29","system_id":"levelo_inurba_marseille","lat":43.28947,"lon":5.36609,"is_reserved":false,"is_disabled":false,"rental_uris":{"android":"levelo://app?vid=bcc36335-30bf-427e-bc24-5acde7748b29","ios":"levelo://app?vid=bcc36335-30bf-427e-bc24-5acde7748b29"},"vehicle_type_id":"4","last_reported":1749762608,"current_range_meters":14800,"station_id":"ce4bhap2rcd13ifvqek0","pricing_plan_id":"cebpf4jnsgd1na2vs0mg"},{"bike_id":"566c7291-85cb-414c-ace7-f588a8181d84","system_id":"levelo_inurba_marseille","lat":43.24065,"lon":5.37723,"is_reserved":false,"is_disabled":false,"rental_uris":{"android":"levelo://app?vid=566c7291-85cb-414c-ace7-f588a8181d84","ios":"levelo://app?vid=566c7291-85cb-414c-ace7-f588a8181d84"},"vehicle_type_id":"4","last_reported":1749762608,"current_range_meters":14800,"station_id":"ce4bhnp2rcd13ifvqgvg","pricing_plan_id":"cebpf4jnsgd1na2vs0mg"},{"bike_id":"d98b9f09-92b6-489e-acab-5c383ee5b54d","system_id":"levelo_inurba_marseille","lat":43.27944,"lon":5.41032,"is_reserved":false,"is_disabled":false,"rental_uris":{"android":"levelo://app?vid=d98b9f09-92b6-489e-acab-5c383ee5b54d","ios":"levelo://app?vid=d98b9f09-92b6-489e-acab-5c383ee5b54d"},"vehicle_type_id":"4","last_reported":1749762608,"current_range_meters":14800,"station_id":"ce4bhnp2rcd13ifvqh0g","pricing_plan_id":"cebpf4jnsgd1na2vs0mg"},{"bike_id":"41902e46-3363-402b-89a9-77321257c96b","system_id":"levelo_inurba_marseille","lat":43.32366,"lon":5.36749,"is_reserved":false,"is_disabled":false,"rental_uris":{"android":"levelo://app?vid=41902e46-3363-402b-89a9-77321257c96b","ios":"levelo://app?vid=41902e46-3363-402b-89a9-77321257c96b"},"vehicle_type_id":"4","last_reported":1749762608,"current_range_meters":14800,"station_id":"ce4bhsh2rcd13ifvqi2g","pricing_plan_id":"cebpf4jnsgd1na2vs0mg"},{"bike_id":"e0b035df-615f-4bab-9596-39da68e53fd2","system_id":"levelo_inurba_marseille","lat":43.26182,"lon":5.4207,"is_reserved":false,"is_disabled":false,"rental_uris":{"android":"levelo://app?vid=e0b035df-615f-4bab-9596-39da68e53fd2","ios":"levelo://app?vid=e0b035df-615f-4bab-9596-39da68e53fd2"},"vehicle_type_id":"4","last_reported":1749762608,"current_range_meters":15200,"station_id":"","pricing_plan_id":"cebpf4jnsgd1na2vs0mg"},{"bike_id":"b542b81f-4a1a-4ba9-8f74-e02266d8c139","system_id":"levelo_inurba_marseille","lat":43.26573,"lon":5.39001,"is_reserved":false,"is_disabled":false,"rental_uris":{"android":"levelo://app?vid=b542b81f-4a1a-4ba9-8f74-e02266d8c139","ios":"levelo://app?vid=b542b81f-4a1a-4ba9-8f74-e02266d8c139"},"vehicle_type_id":"4","last_reported":1749762608,"current_range_meters":15200,"station_id":"ce4bhe12rcd13ifvqf30","pricing_plan_id":"cebpf4jnsgd1na2vs0mg"},{"bike_id":"a47e5cc8-1f16-471b-af4b-f3f183f00bf7","system_id":"levelo_inurba_marseille","lat":43.262,"lon":5.37932,"is_reserved":false,"is_disabled":false,"rental_uris":{"android":"levelo://app?vid=a47e5cc8-1f16-471b-af4b-f3f183f00bf7","ios":"levelo://app?vid=a47e5cc8-1f16-471b-af4b-f3f183f00bf7"},"vehicle_type_id":"4","last_reported":1749762608,"current_range_meters":15200,"station_id":"ce4bhjp2rcd13ifvqg90","pricing_plan_id":"cebpf4jnsgd1na2vs0mg"},{"bike_id":"680de6a0-642c-485b-8349-3bfed0ae404b","system_id":"levelo_inurba_marseille","lat":43.27823,"lon":5.39208,"is_reserved":false,"is_disabled":false,"rental_uris":{"android":"levelo://app?vid=680de6a0-642c-485b-8349-3bfed0ae404b","ios":"levelo://app?vid=680de6a0-642c-485b-8349-3bfed0ae404b"},"vehicle_type_id":"4","last_reported":1749762608,"current_range_meters":15200,"station_id":"ce4bhjp2rcd13ifvqga0","pricing_plan_id":"cebpf4jnsgd1na2vs0mg"},{"bike_id":"28481905-b5a8-47c2-a2e9-a8a2d015c9fd","system_id":"levelo_inurba_marseille","lat":43.28149,"lon":5.42651,"is_reserved":false,"is_disabled":false,"rental_uris":{"android":"levelo://app?vid=28481905-b5a8-47c2-a2e9-a8a2d015c9fd","ios":"levelo://app?vid=28481905-b5a8-47c2-a2e9-a8a2d015c9fd"},"vehicle_type_id":"4","last_reported":1749762608,"current_range_meters":15200,"station_id":"ce4bhnh2rcd13ifvqgug","pricing_plan_id":"cebpf4jnsgd1na2vs0mg"},{"bike_id":"346f3f80-6b15-4406-b905-bb78596f5bac","system_id":"levelo_inurba_marseille","lat":43.3236,"lon":5.3676,"is_reserved":false,"is_disabled":false,"rental_uris":{"android":"levelo://app?vid=346f3f80-6b15-4406-b905-bb78596f5bac","ios":"levelo://app?vid=346f3f80-6b15-4406-b905-bb78596f5bac"},"vehicle_type_id":"4","last_reported":1749762608,"current_range_meters":15200,"station_id":"ce4bhsh2rcd13ifvqi2g","pricing_plan_id":"cebpf4jnsgd1na2vs0mg"},{"bike_id":"0e496414-0a37-42cd-a276-30509f7961c2","system_id":"levelo_inurba_marseille","lat":43.294622,"lon":5.386542,"is_reserved":false,"is_disabled":false,"rental_uris":{"android":"levelo://app?vid=0e496414-0a37-42cd-a276-30509f7961c2","ios":"levelo://app?vid=0e496414-0a37-42cd-a276-30509f7961c2"},"vehicle_type_id":"4","last_reported":1749762608,"current_range_meters":16000,"station_id":"","pricing_plan_id":"cebpf4jnsgd1na2vs0mg"},{"bike_id":"dfe86e4d-732f-444a-affa-bc91e3d641f2","system_id":"levelo_inurba_marseille","lat":43.31704,"lon":5.40434,"is_reserved":false,"is_disabled":false,"rental_uris":{"android":"levelo://app?vid=dfe86e4d-732f-444a-affa-bc91e3d641f2","ios":"levelo://app?vid=dfe86e4d-732f-444a-affa-bc91e3d641f2"},"vehicle_type_id":"4","last_reported":1749762608,"current_range_meters":16000,"station_id":"ce4bh012rcd13ifvqd00","pricing_plan_id":"cebpf4jnsgd1na2vs0mg"},{"bike_id":"0fd2a8b3-45a1-4909-a7a5-195f9cdf2de3","system_id":"levelo_inurba_marseille","lat":43.30591,"lon":5.39355,"is_reserved":false,"is_disabled":false,"rental_uris":{"android":"levelo://app?vid=0fd2a8b3-45a1-4909-a7a5-195f9cdf2de3","ios":"levelo://app?vid=0fd2a8b3-45a1-4909-a7a5-195f9cdf2de3"},"vehicle_type_id":"4","last_reported":1749762608,"current_range_meters":16000,"station_id":"ce4bh0p2rcd13ifvqd80","pricing_plan_id":"cebpf4jnsgd1na2vs0mg"},{"bike_id":"3722f342-aa71-4289-bd8c-743207dc1c4b","system_id":"levelo_inurba_marseille","lat":43.30648,"lon":5.40085,"is_reserved":false,"is_disabled":false,"rental_uris":{"android":"levelo://app?vid=3722f342-aa71-4289-bd8c-743207dc1c4b","ios":"levelo://app?vid=3722f342-aa71-4289-bd8c-743207dc1c4b"},"vehicle_type_id":"4","last_reported":1749762608,"current_range_meters":16000,"station_id":"ce4bh112rcd13ifvqda0","pricing_plan_id":"cebpf4jnsgd1na2vs0mg"},{"bike_id":"3182494d-6536-4d99-9dc5-4847a91482ec","system_id":"levelo_inurba_marseille","lat":43.295146,"lon":5.390169,"is_reserved":false,"is_disabled":false,"rental_uris":{"android":"levelo://app?vid=3182494d-6536-4d99-9dc5-4847a91482ec","ios":"levelo://app?vid=3182494d-6536-4d99-9dc5-4847a91482ec"},"vehicle_type_id":"4","last_reported":1749762608,"current_range_meters":16000,"station_id":"ce4bh3p2rcd13ifvqdp0","pricing_plan_id":"cebpf4jnsgd1na2vs0mg"},{"bike_id":"9d33a538-1692-4348-b5d2-e4908c6287f5","system_id":"levelo_inurba_marseille","lat":43.28097,"lon":5.37836,"is_reserved":false,"is_disabled":false,"rental_uris":{"android":"levelo://app?vid=9d33a538-1692-4348-b5d2-e4908c6287f5","ios":"levelo://app?vid=9d33a538-1692-4348-b5d2-e4908c6287f5"},"vehicle_type_id":"4","last_reported":1749762608,"current_range_meters":16000,"station_id":"ce4bha12rcd13ifvqee0","pricing_plan_id":"cebpf4jnsgd1na2vs0mg"},{"bike_id":"600da287-0374-4ee0-bea4-ba6902340b5e","system_id":"levelo_inurba_marseille","lat":43.27467,"lon":5.36015,"is_reserved":false,"is_disabled":false,"rental_uris":{"android":"levelo://app?vid=600da287-0374-4ee0-bea4-ba6902340b5e","ios":"levelo://app?vid=600da287-0374-4ee0-bea4-ba6902340b5e"},"vehicle_type_id":"4","last_reported":1749762608,"current_range_meters":16400,"station_id":"","pricing_plan_id":"cebpf4jnsgd1na2vs0mg"},{"bike_id":"713f94e3-c67e-4836-bdd5-cfe7bb1b1281","system_id":"levelo_inurba_marseille","lat":43.225,"lon":5.34782,"is_reserved":false,"is_disabled":false,"rental_uris":{"android":"levelo://app?vid=713f94e3-c67e-4836-bdd5-cfe7bb1b1281","ios":"levelo://app?vid=713f94e3-c67e-4836-bdd5-cfe7bb1b1281"},"vehicle_type_id":"4","last_reported":1749762608,"current_range_meters":16400,"station_id":"","pricing_plan_id":"cebpf4jnsgd1na2vs0mg"},{"bike_id":"f979f8c5-2f58-4571-b086-8b1beef1e214","system_id":"levelo_inurba_marseille","lat":43.29603,"lon":5.38091,"is_reserved":false,"is_disabled":false,"rental_uris":{"android":"levelo://app?vid=f979f8c5-2f58-4571-b086-8b1beef1e214","ios":"levelo://app?vid=f979f8c5-2f58-4571-b086-8b1beef1e214"},"vehicle_type_id":"4","last_reported":1749762608,"current_range_meters":16400,"station_id":"ce4bgl12rcd13ifvqbo0","pricing_plan_id":"cebpf4jnsgd1na2vs0mg"},{"bike_id":"7deb89be-b397-4671-97ae-b5c430e1002c","system_id":"levelo_inurba_marseille","lat":43.31186,"lon":5.38699,"is_reserved":false,"is_disabled":false,"rental_uris":{"android":"levelo://app?vid=7deb89be-b397-4671-97ae-b5c430e1002c","ios":"levelo://app?vid=7deb89be-b397-4671-97ae-b5c430e1002c"},"vehicle_type_id":"4","last_reported":1749762608,"current_range_meters":16400,"station_id":"ce4bgv12rcd13ifvqcp0","pricing_plan_id":"cebpf4jnsgd1na2vs0mg"},{"bike_id":"2e1c7177-03ca-4238-ae87-aa45449f6415","system_id":"levelo_inurba_marseille","lat":43.3133,"lon":5.39695,"is_reserved":false,"is_disabled":false,"rental_uris":{"android":"levelo://app?vid=2e1c7177-03ca-4238-ae87-aa45449f6415","ios":"levelo://app?vid=2e1c7177-03ca-4238-ae87-aa45449f6415"},"vehicle_type_id":"4","last_reported":1749762608,"current_range_meters":16400,"station_id":"ce4bgvp2rcd13ifvqcu0","pricing_plan_id":"cebpf4jnsgd1na2vs0mg"},{"bike_id":"b09c5743-ef93-43e1-bf67-94b8f1293da4","system_id":"levelo_inurba_marseille","lat":43.29201,"lon":5.39325,"is_reserved":false,"is_disabled":false,"rental_uris":{"android":"levelo://app?vid=b09c5743-ef93-43e1-bf67-94b8f1293da4","ios":"levelo://app?vid=b09c5743-ef93-43e1-bf67-94b8f1293da4"},"vehicle_type_id":"4","last_reported":1749762608,"current_range_meters":16400,"station_id":"ce4bh192rcd13ifvqdd0","pricing_plan_id":"cebpf4jnsgd1na2vs0mg"},{"bike_id":"37a64c8b-230f-4d36-94de-7db209419664","system_id":"levelo_inurba_marseille","lat":43.29287,"lon":5.40138,"is_reserved":false,"is_disabled":false,"rental_uris":{"android":"levelo://app?vid=37a64c8b-230f-4d36-94de-7db209419664","ios":"levelo://app?vid=37a64c8b-230f-4d36-94de-7db209419664"},"vehicle_type_id":"4","last_reported":1749762608,"current_range_meters":16400,"station_id":"ce4bh312rcd13ifvqdk0","pricing_plan_id":"cebpf4jnsgd1na2vs0mg"},{"bike_id":"6c80c3da-e113-4651-8579-ae4d211fc1f3","system_id":"levelo_inurba_marseille","lat":43.29261,"lon":5.38429,"is_reserved":false,"is_disabled":false,"rental_uris":{"android":"levelo://app?vid=6c80c3da-e113-4651-8579-ae4d211fc1f3","ios":"levelo://app?vid=6c80c3da-e113-4651-8579-ae4d211fc1f3"},"vehicle_type_id":"4","last_reported":1749762608,"current_range_meters":16400,"station_id":"ce4bh692rcd13ifvqea0","pricing_plan_id":"cebpf4jnsgd1na2vs0mg"},{"bike_id":"dc8d791b-973d-4f6b-9b6b-43529331e2de","system_id":"levelo_inurba_marseille","lat":43.265616,"lon":5.372822,"is_reserved":false,"is_disabled":false,"rental_uris":{"android":"levelo://app?vid=dc8d791b-973d-4f6b-9b6b-43529331e2de","ios":"levelo://app?vid=dc8d791b-973d-4f6b-9b6b-43529331e2de"},"vehicle_type_id":"4","last_reported":1749762608,"current_range_meters":16400,"station_id":"ce4bhg12rcd13ifvqf70","pricing_plan_id":"cebpf4jnsgd1na2vs0mg"},{"bike_id":"05427079-ca3c-4e1e-bda4-969cbc120a04","system_id":"levelo_inurba_marseille","lat":43.262087,"lon":5.374447,"is_reserved":false,"is_disabled":false,"rental_uris":{"android":"levelo://app?vid=05427079-ca3c-4e1e-bda4-969cbc120a04","ios":"levelo://app?vid=05427079-ca3c-4e1e-bda4-969cbc120a04"},"vehicle_type_id":"4","last_reported":1749762608,"current_range_meters":16400,"station_id":"ce4bhgp2rcd13ifvqfc0","pricing_plan_id":"cebpf4jnsgd1na2vs0mg"},{"bike_id":"cd943811-84e5-4f36-9fb1-e1f938d66891","system_id":"levelo_inurba_marseille","lat":43.33608,"lon":5.41035,"is_reserved":false,"is_disabled":false,"rental_uris":{"android":"levelo://app?vid=cd943811-84e5-4f36-9fb1-e1f938d66891","ios":"levelo://app?vid=cd943811-84e5-4f36-9fb1-e1f938d66891"},"vehicle_type_id":"4","last_reported":1749762608,"current_range_meters":16400,"station_id":"ce4bhqh2rcd13ifvqhmg","pricing_plan_id":"cebpf4jnsgd1na2vs0mg"},{"bike_id":"bdc5c892-bc23-4f61-8485-73d9a99066d9","system_id":"levelo_inurba_marseille","lat":43.32299,"lon":5.38273,"is_reserved":false,"is_disabled":false,"rental_uris":{"android":"levelo://app?vid=bdc5c892-bc23-4f61-8485-73d9a99066d9","ios":"levelo://app?vid=bdc5c892-bc23-4f61-8485-73d9a99066d9"},"vehicle_type_id":"4","last_reported":1749762608,"current_range_meters":16400,"station_id":"ce4bhr12rcd13ifvqhqg","pricing_plan_id":"cebpf4jnsgd1na2vs0mg"},{"bike_id":"c2a4f56b-8da0-4770-923f-b3d620b42530","system_id":"levelo_inurba_marseille","lat":43.30748,"lon":5.42447,"is_reserved":false,"is_disabled":false,"rental_uris":{"android":"levelo://app?vid=c2a4f56b-8da0-4770-923f-b3d620b42530","ios":"levelo://app?vid=c2a4f56b-8da0-4770-923f-b3d620b42530"},"vehicle_type_id":"4","last_reported":1749762608,"current_range_meters":16400,"station_id":"st_cvj6ca6bvosntc0bfgr0","pricing_plan_id":"cebpf4jnsgd1na2vs0mg"},{"bike_id":"de1186ff-a9c5-4109-b90c-6ffd77d1b169","system_id":"levelo_inurba_marseille","lat":43.30734,"lon":5.42464,"is_reserved":false,"is_disabled":false,"rental_uris":{"android":"levelo://app?vid=de1186ff-a9c5-4109-b90c-6ffd77d1b169","ios":"levelo://app?vid=de1186ff-a9c5-4109-b90c-6ffd77d1b169"},"vehicle_type_id":"4","last_reported":1749762608,"current_range_meters":16400,"station_id":"st_cvj6ca6bvosntc0bfgr0","pricing_plan_id":"cebpf4jnsgd1na2vs0mg"},{"bike_id":"6facbc0d-f1b5-4dc3-86d4-5c1204834925","system_id":"levelo_inurba_marseille","lat":43.28037,"lon":5.34825,"is_reserved":false,"is_disabled":false,"rental_uris":{"android":"levelo://app?vid=6facbc0d-f1b5-4dc3-86d4-5c1204834925","ios":"levelo://app?vid=6facbc0d-f1b5-4dc3-86d4-5c1204834925"},"vehicle_type_id":"4","last_reported":1749762608,"current_range_meters":16800,"station_id":"","pricing_plan_id":"cebpf4jnsgd1na2vs0mg"},{"bike_id":"422e5856-8d19-43a7-9106-47af646adcc2","system_id":"levelo_inurba_marseille","lat":43.29531,"lon":5.38517,"is_reserved":false,"is_disabled":false,"rental_uris":{"android":"levelo://app?vid=422e5856-8d19-43a7-9106-47af646adcc2","ios":"levelo://app?vid=422e5856-8d19-43a7-9106-47af646adcc2"},"vehicle_type_id":"4","last_reported":1749762608,"current_range_meters":16800,"station_id":"ce4bgih2rcd13ifvqba0","pricing_plan_id":"cebpf4jnsgd1na2vs0mg"},{"bike_id":"935c2a71-5efe-4a94-ae56-6e068b21911d","system_id":"levelo_inurba_marseille","lat":43.29633,"lon":5.40596,"is_reserved":false,"is_disabled":false,"rental_uris":{"android":"levelo://app?vid=935c2a71-5efe-4a94-ae56-6e068b21911d","ios":"levelo://app?vid=935c2a71-5efe-4a94-ae56-6e068b21911d"},"vehicle_type_id":"4","last_reported":1749762608,"current_range_meters":16800,"station_id":"ce4bh0h2rcd13ifvqd60","pricing_plan_id":"cebpf4jnsgd1na2vs0mg"},{"bike_id":"f0d1dfc4-3b2b-4864-abd6-d6636f6389fa","system_id":"levelo_inurba_marseille","lat":43.28703,"lon":5.37334,"is_reserved":false,"is_disabled":false,"rental_uris":{"android":"levelo://app?vid=f0d1dfc4-3b2b-4864-abd6-d6636f6389fa","ios":"levelo://app?vid=f0d1dfc4-3b2b-4864-abd6-d6636f6389fa"},"vehicle_type_id":"4","last_reported":1749762608,"current_range_meters":16800,"station_id":"ce4bh3p2rcd13ifvqdq0","pricing_plan_id":"cebpf4jnsgd1na2vs0mg"},{"bike_id":"a3d8ed61-ad96-4794-9377-3745ebafc863","system_id":"levelo_inurba_marseille","lat":43.29097,"lon":5.38128,"is_reserved":false,"is_disabled":false,"rental_uris":{"android":"levelo://app?vid=a3d8ed61-ad96-4794-9377-3745ebafc863","ios":"levelo://app?vid=a3d8ed61-ad96-4794-9377-3745ebafc863"},"vehicle_type_id":"4","last_reported":1749762608,"current_range_meters":16800,"station_id":"ce4bh512rcd13ifvqe2g","pricing_plan_id":"cebpf4jnsgd1na2vs0mg"},{"bike_id":"a35c7cee-97de-48bc-b410-8cce0652dd4b","system_id":"levelo_inurba_marseille","lat":43.25579,"lon":5.38236,"is_reserved":false,"is_disabled":false,"rental_uris":{"android":"levelo://app?vid=a35c7cee-97de-48bc-b410-8cce0652dd4b","ios":"levelo://app?vid=a35c7cee-97de-48bc-b410-8cce0652dd4b"},"vehicle_type_id":"4","last_reported":1749762608,"current_range_meters":16800,"station_id":"ce4bhih2rcd13ifvqfs0","pricing_plan_id":"cebpf4jnsgd1na2vs0mg"},{"bike_id":"9f90a87d-1238-4eb8-aa94-0ecc62cf4a40","system_id":"levelo_inurba_marseille","lat":43.29536,"lon":5.38544,"is_reserved":false,"is_disabled":false,"rental_uris":{"android":"levelo://app?vid=9f90a87d-1238-4eb8-aa94-0ecc62cf4a40","ios":"levelo://app?vid=9f90a87d-1238-4eb8-aa94-0ecc62cf4a40"},"vehicle_type_id":"4","last_reported":1749762608,"current_range_meters":17200,"station_id":"ce4bgih2rcd13ifvqba0","pricing_plan_id":"cebpf4jnsgd1na2vs0mg"},{"bike_id":"aa95b471-8256-4955-8b0c-b9b2e1b2e466","system_id":"levelo_inurba_marseille","lat":43.31078,"lon":5.38359,"is_reserved":false,"is_disabled":false,"rental_uris":{"android":"levelo://app?vid=aa95b471-8256-4955-8b0c-b9b2e1b2e466","ios":"levelo://app?vid=aa95b471-8256-4955-8b0c-b9b2e1b2e466"},"vehicle_type_id":"4","last_reported":1749762608,"current_range_meters":17200,"station_id":"ce4bgv92rcd13ifvqcr0","pricing_plan_id":"cebpf4jnsgd1na2vs0mg"},{"bike_id":"685506aa-7687-492d-a3ba-42b089876117","system_id":"levelo_inurba_marseille","lat":43.30887,"lon":5.39642,"is_reserved":false,"is_disabled":false,"rental_uris":{"android":"levelo://app?vid=685506aa-7687-492d-a3ba-42b089876117","ios":"levelo://app?vid=685506aa-7687-492d-a3ba-42b089876117"},"vehicle_type_id":"4","last_reported":1749762608,"current_range_meters":17200,"station_id":"ce4bh012rcd13ifvqcv0","pricing_plan_id":"cebpf4jnsgd1na2vs0mg"},{"bike_id":"9de563e8-4d36-4091-b327-157f36dfceaf","system_id":"levelo_inurba_marseille","lat":43.30908,"lon":5.3962,"is_reserved":false,"is_disabled":false,"rental_uris":{"android":"levelo://app?vid=9de563e8-4d36-4091-b327-157f36dfceaf","ios":"levelo://app?vid=9de563e8-4d36-4091-b327-157f36dfceaf"},"vehicle_type_id":"4","last_reported":1749762608,"current_range_meters":17200,"station_id":"ce4bh012rcd13ifvqcv0","pricing_plan_id":"cebpf4jnsgd1na2vs0mg"},{"bike_id":"3073188d-082e-46e4-8436-3c3817f82cfc","system_id":"levelo_inurba_marseille","lat":43.306615,"lon":5.40069,"is_reserved":false,"is_disabled":false,"rental_uris":{"android":"levelo://app?vid=3073188d-082e-46e4-8436-3c3817f82cfc","ios":"levelo://app?vid=3073188d-082e-46e4-8436-3c3817f82cfc"},"vehicle_type_id":"4","last_reported":1749762608,"current_range_meters":17200,"station_id":"ce4bh112rcd13ifvqda0","pricing_plan_id":"cebpf4jnsgd1na2vs0mg"},{"bike_id":"3a10e1a5-9a95-408a-8475-eda475dfdb64","system_id":"levelo_inurba_marseille","lat":43.28703,"lon":5.37398,"is_reserved":false,"is_disabled":false,"rental_uris":{"android":"levelo://app?vid=3a10e1a5-9a95-408a-8475-eda475dfdb64","ios":"levelo://app?vid=3a10e1a5-9a95-408a-8475-eda475dfdb64"},"vehicle_type_id":"4","last_reported":1749762608,"current_range_meters":17200,"station_id":"ce4bh3p2rcd13ifvqdq0","pricing_plan_id":"cebpf4jnsgd1na2vs0mg"},{"bike_id":"35fc06bd-240e-4f1d-bac3-0656f5770d01","system_id":"levelo_inurba_marseille","lat":43.25719,"lon":5.41114,"is_reserved":false,"is_disabled":false,"rental_uris":{"android":"levelo://app?vid=35fc06bd-240e-4f1d-bac3-0656f5770d01","ios":"levelo://app?vid=35fc06bd-240e-4f1d-bac3-0656f5770d01"},"vehicle_type_id":"4","last_reported":1749762608,"current_range_meters":17200,"station_id":"ce4bhkp2rcd13ifvqgd0","pricing_plan_id":"cebpf4jnsgd1na2vs0mg"},{"bike_id":"193365ad-bc01-4a94-969e-560375c0467c","system_id":"levelo_inurba_marseille","lat":43.28699,"lon":5.39987,"is_reserved":false,"is_disabled":false,"rental_uris":{"android":"levelo://app?vid=193365ad-bc01-4a94-969e-560375c0467c","ios":"levelo://app?vid=193365ad-bc01-4a94-969e-560375c0467c"},"vehicle_type_id":"4","last_reported":1749762608,"current_range_meters":17200,"station_id":"ce4bho92rcd13ifvqh3g","pricing_plan_id":"cebpf4jnsgd1na2vs0mg"},{"bike_id":"326cc913-bdbc-48c2-9a88-414846f09512","system_id":"levelo_inurba_marseille","lat":43.32353,"lon":5.36754,"is_reserved":false,"is_disabled":false,"rental_uris":{"android":"levelo://app?vid=326cc913-bdbc-48c2-9a88-414846f09512","ios":"levelo://app?vid=326cc913-bdbc-48c2-9a88-414846f09512"},"vehicle_type_id":"4","last_reported":1749762608,"current_range_meters":17200,"station_id":"ce4bhsh2rcd13ifvqi2g","pricing_plan_id":"cebpf4jnsgd1na2vs0mg"},{"bike_id":"27b3db84-0737-42f1-9f98-7f5cb27a1b2a","system_id":"levelo_inurba_marseille","lat":43.307287,"lon":5.424488,"is_reserved":false,"is_disabled":false,"rental_uris":{"android":"levelo://app?vid=27b3db84-0737-42f1-9f98-7f5cb27a1b2a","ios":"levelo://app?vid=27b3db84-0737-42f1-9f98-7f5cb27a1b2a"},"vehicle_type_id":"4","last_reported":1749762608,"current_range_meters":17200,"station_id":"st_cvj6ca6bvosntc0bfgr0","pricing_plan_id":"cebpf4jnsgd1na2vs0mg"},{"bike_id":"075c05ec-b3c9-44c3-b57f-1083abf2ca61","system_id":"levelo_inurba_marseille","lat":43.27121,"lon":5.42621,"is_reserved":false,"is_disabled":false,"rental_uris":{"android":"levelo://app?vid=075c05ec-b3c9-44c3-b57f-1083abf2ca61","ios":"levelo://app?vid=075c05ec-b3c9-44c3-b57f-1083abf2ca61"},"vehicle_type_id":"4","last_reported":1749762608,"current_range_meters":17600,"station_id":"","pricing_plan_id":"cebpf4jnsgd1na2vs0mg"},{"bike_id":"7835a476-bf82-41b7-87e3-950cf4d733b9","system_id":"levelo_inurba_marseille","lat":43.28094,"lon":5.35655,"is_reserved":false,"is_disabled":false,"rental_uris":{"android":"levelo://app?vid=7835a476-bf82-41b7-87e3-950cf4d733b9","ios":"levelo://app?vid=7835a476-bf82-41b7-87e3-950cf4d733b9"},"vehicle_type_id":"4","last_reported":1749762608,"current_range_meters":17600,"station_id":"","pricing_plan_id":"cebpf4jnsgd1na2vs0mg"},{"bike_id":"48fa8fac-c0a7-4454-bddf-6013ba9b1315","system_id":"levelo_inurba_marseille","lat":43.29251,"lon":5.40912,"is_reserved":false,"is_disabled":false,"rental_uris":{"android":"levelo://app?vid=48fa8fac-c0a7-4454-bddf-6013ba9b1315","ios":"levelo://app?vid=48fa8fac-c0a7-4454-bddf-6013ba9b1315"},"vehicle_type_id":"4","last_reported":1749762608,"current_range_meters":17600,"station_id":"ce4bh192rcd13ifvqdc0","pricing_plan_id":"cebpf4jnsgd1na2vs0mg"},{"bike_id":"238c9c1d-9a15-405c-a5a2-812094de7916","system_id":"levelo_inurba_marseille","lat":43.29276,"lon":5.38434,"is_reserved":false,"is_disabled":false,"rental_uris":{"android":"levelo://app?vid=238c9c1d-9a15-405c-a5a2-812094de7916","ios":"levelo://app?vid=238c9c1d-9a15-405c-a5a2-812094de7916"},"vehicle_type_id":"4","last_reported":1749762608,"current_range_meters":17600,"station_id":"ce4bh692rcd13ifvqea0","pricing_plan_id":"cebpf4jnsgd1na2vs0mg"},{"bike_id":"715c0a8d-055e-4f2a-b3c3-2baa21cd1bce","system_id":"levelo_inurba_marseille","lat":43.28467,"lon":5.35897,"is_reserved":false,"is_disabled":false,"rental_uris":{"android":"levelo://app?vid=715c0a8d-055e-4f2a-b3c3-2baa21cd1bce","ios":"levelo://app?vid=715c0a8d-055e-4f2a-b3c3-2baa21cd1bce"},"vehicle_type_id":"4","last_reported":1749762608,"current_range_meters":17600,"station_id":"ce4bhah2rcd13ifvqei0","pricing_plan_id":"cebpf4jnsgd1na2vs0mg"},{"bike_id":"eb899f24-48ce-4ad4-8b2a-e4b2a6a04390","system_id":"levelo_inurba_marseille","lat":43.28673,"lon":5.36357,"is_reserved":false,"is_disabled":false,"rental_uris":{"android":"levelo://app?vid=eb899f24-48ce-4ad4-8b2a-e4b2a6a04390","ios":"levelo://app?vid=eb899f24-48ce-4ad4-8b2a-e4b2a6a04390"},"vehicle_type_id":"4","last_reported":1749762608,"current_range_meters":17600,"station_id":"ce4bhah2rcd13ifvqej0","pricing_plan_id":"cebpf4jnsgd1na2vs0mg"},{"bike_id":"74820a5c-efa8-4e19-ba76-5ffc2593d31f","system_id":"levelo_inurba_marseille","lat":43.28666,"lon":5.36338,"is_reserved":false,"is_disabled":false,"rental_uris":{"android":"levelo://app?vid=74820a5c-efa8-4e19-ba76-5ffc2593d31f","ios":"levelo://app?vid=74820a5c-efa8-4e19-ba76-5ffc2593d31f"},"vehicle_type_id":"4","last_reported":1749762608,"current_range_meters":17600,"station_id":"ce4bhah2rcd13ifvqej0","pricing_plan_id":"cebpf4jnsgd1na2vs0mg"},{"bike_id":"e8639d85-2d2a-429d-bcfe-f3a304f2fccb","system_id":"levelo_inurba_marseille","lat":43.337388,"lon":5.374939,"is_reserved":false,"is_disabled":false,"rental_uris":{"android":"levelo://app?vid=e8639d85-2d2a-429d-bcfe-f3a304f2fccb","ios":"levelo://app?vid=e8639d85-2d2a-429d-bcfe-f3a304f2fccb"},"vehicle_type_id":"4","last_reported":1749762608,"current_range_meters":18000,"station_id":"","pricing_plan_id":"cebpf4jnsgd1na2vs0mg"},{"bike_id":"3b56422e-35ae-4c09-9e6c-96d239c11e88","system_id":"levelo_inurba_marseille","lat":43.2849,"lon":5.38416,"is_reserved":false,"is_disabled":false,"rental_uris":{"android":"levelo://app?vid=3b56422e-35ae-4c09-9e6c-96d239c11e88","ios":"levelo://app?vid=3b56422e-35ae-4c09-9e6c-96d239c11e88"},"vehicle_type_id":"4","last_reported":1749762608,"current_range_meters":18000,"station_id":"ce4bh512rcd13ifvqe3g","pricing_plan_id":"cebpf4jnsgd1na2vs0mg"},{"bike_id":"2006e253-e508-4f90-be13-57ae2f0fc02f","system_id":"levelo_inurba_marseille","lat":43.28268,"lon":5.35062,"is_reserved":false,"is_disabled":false,"rental_uris":{"android":"levelo://app?vid=2006e253-e508-4f90-be13-57ae2f0fc02f","ios":"levelo://app?vid=2006e253-e508-4f90-be13-57ae2f0fc02f"},"vehicle_type_id":"4","last_reported":1749762608,"current_range_meters":18000,"station_id":"ce4bhbp2rcd13ifvqerg","pricing_plan_id":"cebpf4jnsgd1na2vs0mg"},{"bike_id":"86dc398f-680e-48f1-97b1-49cbd1ed69a4","system_id":"levelo_inurba_marseille","lat":43.30813,"lon":5.43526,"is_reserved":false,"is_disabled":false,"rental_uris":{"android":"levelo://app?vid=86dc398f-680e-48f1-97b1-49cbd1ed69a4","ios":"levelo://app?vid=86dc398f-680e-48f1-97b1-49cbd1ed69a4"},"vehicle_type_id":"4","last_reported":1749762608,"current_range_meters":18000,"station_id":"ce4bhph2rcd13ifvqheg","pricing_plan_id":"cebpf4jnsgd1na2vs0mg"},{"bike_id":"8ca66808-6021-4371-98ac-4084e35746ca","system_id":"levelo_inurba_marseille","lat":43.23199,"lon":5.35543,"is_reserved":false,"is_disabled":false,"rental_uris":{"android":"levelo://app?vid=8ca66808-6021-4371-98ac-4084e35746ca","ios":"levelo://app?vid=8ca66808-6021-4371-98ac-4084e35746ca"},"vehicle_type_id":"4","last_reported":1749762608,"current_range_meters":18000,"station_id":"ce4bhu92rcd13ifvqi70","pricing_plan_id":"cebpf4jnsgd1na2vs0mg"},{"bike_id":"3a11c5a8-e636-4a8e-97c5-5f95a0b7cfbb","system_id":"levelo_inurba_marseille","lat":43.33303,"lon":5.39663,"is_reserved":false,"is_disabled":false,"rental_uris":{"android":"levelo://app?vid=3a11c5a8-e636-4a8e-97c5-5f95a0b7cfbb","ios":"levelo://app?vid=3a11c5a8-e636-4a8e-97c5-5f95a0b7cfbb"},"vehicle_type_id":"4","last_reported":1749762608,"current_range_meters":18800,"station_id":"","pricing_plan_id":"cebpf4jnsgd1na2vs0mg"},{"bike_id":"3b2851dc-cdc3-4c74-bb7a-6b50ea5674bc","system_id":"levelo_inurba_marseille","lat":43.31176,"lon":5.37993,"is_reserved":false,"is_disabled":false,"rental_uris":{"android":"levelo://app?vid=3b2851dc-cdc3-4c74-bb7a-6b50ea5674bc","ios":"levelo://app?vid=3b2851dc-cdc3-4c74-bb7a-6b50ea5674bc"},"vehicle_type_id":"4","last_reported":1749762608,"current_range_meters":18800,"station_id":"","pricing_plan_id":"cebpf4jnsgd1na2vs0mg"},{"bike_id":"320157e3-2c50-4816-a049-49717813f05c","system_id":"levelo_inurba_marseille","lat":43.28351,"lon":5.3809,"is_reserved":false,"is_disabled":false,"rental_uris":{"android":"levelo://app?vid=320157e3-2c50-4816-a049-49717813f05c","ios":"levelo://app?vid=320157e3-2c50-4816-a049-49717813f05c"},"vehicle_type_id":"4","last_reported":1749762608,"current_range_meters":18800,"station_id":"ce4bh412rcd13ifvqdr0","pricing_plan_id":"cebpf4jnsgd1na2vs0mg"},{"bike_id":"8305308e-9ed3-4ef8-a9df-0e116ab100b5","system_id":"levelo_inurba_marseille","lat":43.29263,"lon":5.38437,"is_reserved":false,"is_disabled":false,"rental_uris":{"android":"levelo://app?vid=8305308e-9ed3-4ef8-a9df-0e116ab100b5","ios":"levelo://app?vid=8305308e-9ed3-4ef8-a9df-0e116ab100b5"},"vehicle_type_id":"4","last_reported":1749762608,"current_range_meters":18800,"station_id":"ce4bh692rcd13ifvqea0","pricing_plan_id":"cebpf4jnsgd1na2vs0mg"},{"bike_id":"2c9dc922-971e-4e03-a2f5-593e32aba0f2","system_id":"levelo_inurba_marseille","lat":43.29262,"lon":5.38432,"is_reserved":false,"is_disabled":false,"rental_uris":{"android":"levelo://app?vid=2c9dc922-971e-4e03-a2f5-593e32aba0f2","ios":"levelo://app?vid=2c9dc922-971e-4e03-a2f5-593e32aba0f2"},"vehicle_type_id":"4","last_reported":1749762608,"current_range_meters":18800,"station_id":"ce4bh692rcd13ifvqea0","pricing_plan_id":"cebpf4jnsgd1na2vs0mg"},{"bike_id":"377c69ec-f225-4880-b093-470cc753c105","system_id":"levelo_inurba_marseille","lat":43.28464,"lon":5.35893,"is_reserved":false,"is_disabled":false,"rental_uris":{"android":"levelo://app?vid=377c69ec-f225-4880-b093-470cc753c105","ios":"levelo://app?vid=377c69ec-f225-4880-b093-470cc753c105"},"vehicle_type_id":"4","last_reported":1749762608,"current_range_meters":18800,"station_id":"ce4bhah2rcd13ifvqei0","pricing_plan_id":"cebpf4jnsgd1na2vs0mg"},{"bike_id":"1de15502-f401-47e8-9c0b-9729edfa42b9","system_id":"levelo_inurba_marseille","lat":43.28855,"lon":5.35854,"is_reserved":false,"is_disabled":false,"rental_uris":{"android":"levelo://app?vid=1de15502-f401-47e8-9c0b-9729edfa42b9","ios":"levelo://app?vid=1de15502-f401-47e8-9c0b-9729edfa42b9"},"vehicle_type_id":"4","last_reported":1749762608,"current_range_meters":18800,"station_id":"ce4bhb12rcd13ifvqem0","pricing_plan_id":"cebpf4jnsgd1na2vs0mg"},{"bike_id":"1a01fe06-adf7-4212-af80-77c0f38b2cd4","system_id":"levelo_inurba_marseille","lat":43.24808,"lon":5.37453,"is_reserved":false,"is_disabled":false,"rental_uris":{"android":"levelo://app?vid=1a01fe06-adf7-4212-af80-77c0f38b2cd4","ios":"levelo://app?vid=1a01fe06-adf7-4212-af80-77c0f38b2cd4"},"vehicle_type_id":"4","last_reported":1749762608,"current_range_meters":18800,"station_id":"ce4bhgh2rcd13ifvqfb0","pricing_plan_id":"cebpf4jnsgd1na2vs0mg"},{"bike_id":"7c8a4700-26bb-4546-b2d6-b475cd383b55","system_id":"levelo_inurba_marseille","lat":43.27176,"lon":5.41002,"is_reserved":false,"is_disabled":false,"rental_uris":{"android":"levelo://app?vid=7c8a4700-26bb-4546-b2d6-b475cd383b55","ios":"levelo://app?vid=7c8a4700-26bb-4546-b2d6-b475cd383b55"},"vehicle_type_id":"4","last_reported":1749762608,"current_range_meters":18800,"station_id":"ce4bhl12rcd13ifvqgf0","pricing_plan_id":"cebpf4jnsgd1na2vs0mg"},{"bike_id":"7e5ccfc0-88b8-4248-9d6e-c317d1435257","system_id":"levelo_inurba_marseille","lat":43.27812,"lon":5.40716,"is_reserved":false,"is_disabled":false,"rental_uris":{"android":"levelo://app?vid=7e5ccfc0-88b8-4248-9d6e-c317d1435257","ios":"levelo://app?vid=7e5ccfc0-88b8-4248-9d6e-c317d1435257"},"vehicle_type_id":"4","last_reported":1749762608,"current_range_meters":18800,"station_id":"ce4bhnh2rcd13ifvqgtg","pricing_plan_id":"cebpf4jnsgd1na2vs0mg"},{"bike_id":"370797df-7a54-4279-83d7-5eca14579627","system_id":"levelo_inurba_marseille","lat":43.30373,"lon":5.42482,"is_reserved":false,"is_disabled":false,"rental_uris":{"android":"levelo://app?vid=370797df-7a54-4279-83d7-5eca14579627","ios":"levelo://app?vid=370797df-7a54-4279-83d7-5eca14579627"},"vehicle_type_id":"4","last_reported":1749762608,"current_range_meters":18800,"station_id":"ce4bhoh2rcd13ifvqh6g","pricing_plan_id":"cebpf4jnsgd1na2vs0mg"},{"bike_id":"09ec4267-66b8-4c3d-a5a3-55e65164d948","system_id":"levelo_inurba_marseille","lat":43.3154,"lon":5.38028,"is_reserved":false,"is_disabled":false,"rental_uris":{"android":"levelo://app?vid=09ec4267-66b8-4c3d-a5a3-55e65164d948","ios":"levelo://app?vid=09ec4267-66b8-4c3d-a5a3-55e65164d948"},"vehicle_type_id":"4","last_reported":1749762608,"current_range_meters":18800,"station_id":"ce4bhsp2rcd13ifvqi50","pricing_plan_id":"cebpf4jnsgd1na2vs0mg"},{"bike_id":"2d9eb491-ef60-4c87-8fa5-c0a977f848da","system_id":"levelo_inurba_marseille","lat":43.21186,"lon":5.35081,"is_reserved":false,"is_disabled":false,"rental_uris":{"android":"levelo://app?vid=2d9eb491-ef60-4c87-8fa5-c0a977f848da","ios":"levelo://app?vid=2d9eb491-ef60-4c87-8fa5-c0a977f848da"},"vehicle_type_id":"4","last_reported":1749762608,"current_range_meters":18800,"station_id":"st_cvj6sg6p6f1abm77japg","pricing_plan_id":"cebpf4jnsgd1na2vs0mg"},{"bike_id":"01e352fc-2a4e-4402-ba07-c86f8b8d82b6","system_id":"levelo_inurba_marseille","lat":43.262047,"lon":5.379297,"is_reserved":false,"is_disabled":false,"rental_uris":{"android":"levelo://app?vid=01e352fc-2a4e-4402-ba07-c86f8b8d82b6","ios":"levelo://app?vid=01e352fc-2a4e-4402-ba07-c86f8b8d82b6"},"vehicle_type_id":"4","last_reported":1749762608,"current_range_meters":19200,"station_id":"","pricing_plan_id":"cebpf4jnsgd1na2vs0mg"},