{"last_updated":1717611010,"ttl":30,"version":"2.2","data":{"bikes":[{"bike_id":"9d20ce5f-f5e7-412b-adaa-a3239b24d60f","system_id":"levelo_inurba_marseille","lat":43.312239,"lon":5.368562,"is_reserved":false,"is_disabled":false,"rental_uris":{"android":"levelo://app?vid=9d20ce5f-f5e7-412b-adaa-a3239b24d60f","ios":"levelo://app?vid=9d20ce5f-f5e7-412b-adaa-a3239b24d60f"},"vehicle_type_id":"4","last_reported":1717611010,"current_range_meters":0,"station_id":"ce4bgl92rcd13ifvqbq0","pricing_plan_id":"cebpf4jnsgd1na2vs0mg"},{"bike_id":"01dba75d-d6f6-44a7-8a8e-c81bc2ab1c69","system_id":"levelo_inurba_marseille","lat":43.314811,"lon":5.373103,"is_reserved":false,"is_disabled":false,"rental_uris":{"android":"levelo://app?vid=01dba75d-d6f6-44a7-8a8e-c81bc2ab1c69","ios":"levelo://app?vid=01dba75d-d6f6-44a7-8a8e-c81bc2ab1c69"},"vehicle_type_id":"4","last_reported":1717611010,"current_range_meters":12800,"station_id":"ce4bgt12rcd13ifvqcd0","pricing_plan_id":"cebpf4jnsgd1na2vs0mg"},{"bike_id":"52c0478f-94fa-431d-9abe-686a75ac49f7","system_id":"levelo_inurba_marseille","lat":43.314811,"lon":5.373104,"is_reserved":false,"is_disabled":false,"rental_uris":{"android":"levelo://app?vid=52c0478f-94fa-431d-9abe-686a75ac49f7","ios":"levelo://app?vid=52c0478f-94fa-431d-9abe-686a75ac49f7"},"vehicle_type_id":"4","last_reported":1717611010,"current_range_meters":2800,"station_id":"ce4bgt12rcd13ifvqcd0","pricing_plan_id":"cebpf4jnsgd1na2vs0mg"},{"bike_id":"bac96751-9319-4c74-8c45-333571f3f614","system_id":"levelo_inurba_marseille","lat":43.308848,"lon":5.37198,"is_reserved":false,"is_disabled":false,"rental_uris":{"android":"levelo://app?vid=bac96751-9319-4c74-8c45-333571f3f614","ios":"levelo://app?vid=bac96751-9319-4c74-8c45-333571f3f614"},"vehicle_type_id":"4","last_reported":1717611010,"current_range_meters":0,"station_id":"ce4bguh2rcd13ifvqckg","pricing_plan_id":"cebpf4jnsgd1na2vs0mg"},{"bike_id":"848e3ae5-05f1-48be-bcc0-e1ba9e13f9da","system_id":"levelo_inurba_marseille","lat":43.30537,"lon":5.367345,"is_reserved":false,"is_disabled":false,"rental_uris":{"android":"levelo://app?vid=848e3ae5-05f1-48be-bcc0-e1ba9e13f9da","ios":"levelo://app?vid=848e3ae5-05f1-48be-bcc0-e1ba9e13f9da"},"vehicle_type_id":"4","last_reported":1717611010,"current_range_meters":0,"station_id":"ce4bgrp2rcd13ifvqc9g","pricing_plan_id":"cebpf4jnsgd1na2vs0mg"},{"bike_id":"78594ad1-36e5-47bb-b181-79227e78ec3b","system_id":"levelo_inurba_marseille","lat":43.305989,"lon":5.37225,"is_reserved":false,"is_disabled":false,"rental_uris":{"android":"levelo://app?vid=78594ad1-36e5-47bb-b181-79227e78ec3b","ios":"levelo://app?vid=78594ad1-36e5-47bb-b181-79227e78ec3b"},"vehicle_type_id":"4","last_reported":1717611010,"current_range_meters":18800,"station_id":"ce4bgqh2rcd13ifvqc4g","pricing_plan_id":"cebpf4jnsgd1na2vs0mg"},{"bike_id":"b7a29c93-b19f-42d1-892f-0a5ecd147803","system_id":"levelo_inurba_marseille","lat":43.311131,"lon":5.377651,"is_reserved":false,"is_disabled":false,"rental_uris":{"android":"levelo://app?vid=b7a29c93-b19f-42d1-892f-0a5ecd147803","ios":"levelo://app?vid=b7a29c93-b19f-42d1-892f-0a5ecd147803"},"vehicle_type_id":"4","last_reported":1717611010,"current_range_meters":28400,"station_id":"ce4bgt92rcd13ifvqcg0","pricing_plan_id":"cebpf4jnsgd1na2vs0mg"},{"bike_id":"ca3ea081-93f4-4f9a-bc17-469caa14c85d","system_id":"levelo_inurba_marseille","lat":43.30531,"lon":5.37319,"is_reserved":false,"is_disabled":false,"rental_uris":{"android":"levelo://app?vid=ca3ea081-93f4-4f9a-bc17-469caa14c85d","ios":"levelo://app?vid=ca3ea081-93f4-4f9a-bc17-469caa14c85d"},"vehicle_type_id":"4","last_reported":1717611010,"current_range_meters":0,"station_id":"","pricing_plan_id":"cebpf4jnsgd1na2vs0mg"},{"bike_id":"f8d5543c-0909-47b0-a952-610983aaec29","system_id":"levelo_inurba_marseille","lat":43.308012,"lon":5.381511,"is_reserved":false,"is_disabled":false,"rental_uris":{"android":"levelo://app?vid=f8d5543c-0909-47b0-a952-610983aaec29","ios":"levelo://app?vid=f8d5543c-0909-47b0-a952-610983aaec29"},"vehicle_type_id":"4","last_reported":1717611010,"current_range_meters":16000,"station_id":"ce4bgt12rcd13ifvqce0","pricing_plan_id":"cebpf4jnsgd1na2vs0mg"},{"bike_id":"2b17ee5f-957f-412a-8df7-98c904592a7c","system_id":"levelo_inurba_marseille","lat":43.30282,"lon":5.37691,"is_reserved":false,"is_disabled":false,"rental_uris":{"android":"levelo://app?vid=2b17ee5f-957f-412a-8df7-98c904592a7c","ios":"levelo://app?vid=2b17ee5f-957f-412a-8df7-98c904592a7c"},"vehicle_type_id":"4","last_reported":1717611010,"current_range_meters":0,"station_id":"ce4bguh2rcd13ifvqcj0","pricing_plan_id":"cebpf4jnsgd1na2vs0mg"},{"bike_id":"d3353ce1-a68e-403c-b23d-22c20c8e94a0","system_id":"levelo_inurba_marseille","lat":43.3136,"lon":5.38499,"is_reserved":false,"is_disabled":false,"rental_uris":{"android":"levelo://app?vid=d3353ce1-a68e-403c-b23d-22c20c8e94a0","ios":"levelo://app?vid=d3353ce1-a68e-403c-b23d-22c20c8e94a0"},"vehicle_type_id":"4","last_reported":1717611010,"current_range_meters":0,"station_id":"ce4bgt92rcd13ifvqcf0","pricing_plan_id":"cebpf4jnsgd1na2vs0mg"},{"bike_id":"dc526592-2e22-4a77-80bc-fac0da590d6a","system_id":"levelo_inurba_marseille","lat":43.299222,"lon":5.365554,"is_reserved":false,"is_disabled":false,"rental_uris":{"android":"levelo://app?vid=dc526592-2e22-4a77-80bc-fac0da590d6a","ios":"levelo://app?vid=dc526592-2e22-4a77-80bc-fac0da590d6a"},"vehicle_type_id":"4","last_reported":1717611010,"current_range_meters":20800,"station_id":"ce4bgm92rcd13ifvqbr0","pricing_plan_id":"cebpf4jnsgd1na2vs0mg"},{"bike_id":"e5c260a0-b0c0-429f-9846-e15c61918861","system_id":"levelo_inurba_marseille","lat":43.29853,"lon":5.36283,"is_reserved":false,"is_disabled":false,"rental_uris":{"android":"levelo://app?vid=e5c260a0-b0c0-429f-9846-e15c61918861","ios":"levelo://app?vid=e5c260a0-b0c0-429f-9846-e15c61918861"},"vehicle_type_id":"4","last_reported":1717611010,"current_range_meters":0,"station_id":"ce4bgpp2rcd13ifvqc3g","pricing_plan_id":"cebpf4jnsgd1na2vs0mg"},{"bike_id":"0abebcd0-637f-47e1-b642-16389aedccaa","system_id":"levelo_inurba_marseille","lat":43.297794,"lon":5.370888,"is_reserved":false,"is_disabled":false,"rental_uris":{"android":"levelo://app?vid=0abebcd0-637f-47e1-b642-16389aedccaa","ios":"levelo://app?vid=0abebcd0-637f-47e1-b642-16389aedccaa"},"vehicle_type_id":"4","last_reported":1717611010,"current_range_meters":0,"station_id":"ce4bgop2rcd13ifvqc1g","pricing_plan_id":"cebpf4jnsgd1na2vs0mg"},{"bike_id":"b6caa9d8-127c-4a44-b63d-4c9ac5931fcc","system_id":"levelo_inurba_marseille","lat":43.298433,"lon":5.362774,"is_reserved":false,"is_disabled":false,"rental_uris":{"android":"levelo://app?vid=b6caa9d8-127c-4a44-b63d-4c9ac5931fcc","ios":"levelo://app?vid=b6caa9d8-127c-4a44-b63d-4c9ac5931fcc"},"vehicle_type_id":"4","last_reported":1717611010,"current_range_meters":28000,"station_id":"ce4bgpp2rcd13ifvqc3g","pricing_plan_id":"cebpf4jnsgd1na2vs0mg"},{"bike_id":"df923b83-6824-4377-8306-bdc5dd8ca10c","system_id":"levelo_inurba_marseille","lat":43.298433,"lon":5.362774,"is_reserved":false,"is_disabled":false,"rental_uris":{"android":"levelo://app?vid=df923b83-6824-4377-8306-bdc5dd8ca10c","ios":"levelo://app?vid=df923b83-6824-4377-8306-bdc5dd8ca10c"},"vehicle_type_id":"4","last_reported":1717611010,"current_range_meters":23600,"station_id":"ce4bgpp2rcd13ifvqc3g","pricing_plan_id":"cebpf4jnsgd1na2vs0mg"},{"bike_id":"5de506ca-7cb9-4a7e-8898-73e6359e8be1","system_id":"levelo_inurba_marseille","lat":43.298433,"lon":5.362774,"is_reserved":false,"is_disabled":false,"rental_uris":{"android":"levelo://app?vid=5de506ca-7cb9-4a7e-8898-73e6359e8be1","ios":"levelo://app?vid=5de506ca-7cb9-4a7e-8898-73e6359e8be1"},"vehicle_type_id":"4","last_reported":1717611010,"current_range_meters":11200,"station_id":"ce4bgpp2rcd13ifvqc3g","pricing_plan_id":"cebpf4jnsgd1na2vs0mg"},{"bike_id":"b05e8ecb-9d91-4c1e-8249-518240461dd0","system_id":"levelo_inurba_marseille","lat":43.298433,"lon":5.362774,"is_reserved":false,"is_disabled":false,"rental_uris":{"android":"levelo://app?vid=b05e8ecb-9d91-4c1e-8249-518240461dd0","ios":"levelo://app?vid=b05e8ecb-9d91-4c1e-8249-518240461dd0"},"vehicle_type_id":"4","last_reported":1717611010,"current_range_meters":27200,"station_id":"ce4bgpp2rcd13ifvqc3g","pricing_plan_id":"cebpf4jnsgd1na2vs0mg"},{"bike_id":"1f743ae9-6425-41ef-abc4-2eef755b2394","system_id":"levelo_inurba_marseille","lat":43.298433,"lon":5.362774,"is_reserved":false,"is_disabled":false,"rental_uris":{"android":"levelo://app?vid=1f743ae9-6425-41ef-abc4-2eef755b2394","ios":"levelo://app?vid=1f743ae9-6425-41ef-abc4-2eef755b2394"},"vehicle_type_id":"4","last_reported":1717611010,"current_range_meters":8000,"station_id":"ce4bgpp2rcd13ifvqc3g","pricing_plan_id":"cebpf4jnsgd1na2vs0mg"},{"bike_id":"a9fddae9-f849-45ea-85f6-61d4b4494ce7","system_id":"levelo_inurba_marseille","lat":43.311651,"lon":5.387179,"is_reserved":false,"is_disabled":false,"rental_uris":{"android":"levelo://app?vid=a9fddae9-f849-45ea-85f6-61d4b4494ce7","ios":"levelo://app?vid=a9fddae9-f849-45ea-85f6-61d4b4494ce7"},"vehicle_type_id":"4","last_reported":1717611010,"current_range_meters":0,"station_id":"ce4bgv12rcd13ifvqcp0","pricing_plan_id":"cebpf4jnsgd1na2vs0mg"},{"bike_id":"ebbe1b0f-1a70-45d5-a850-cacca5bb4fe7","system_id":"levelo_inurba_marseille","lat":43.30148,"lon":5.38015,"is_reserved":false,"is_disabled":false,"rental_uris":{"android":"levelo://app?vid=ebbe1b0f-1a70-45d5-a850-cacca5bb4fe7","ios":"levelo://app?vid=ebbe1b0f-1a70-45d5-a850-cacca5bb4fe7"},"vehicle_type_id":"4","last_reported":1717611010,"current_range_meters":11600,"station_id":"","pricing_plan_id":"cebpf4jnsgd1na2vs0mg"},{"bike_id":"bafbd8c0-683e-419e-8d26-a9c491cee823","system_id":"levelo_inurba_marseille","lat":43.298433,"lon":5.362774,"is_reserved":false,"is_disabled":false,"rental_uris":{"android":"levelo://app?vid=bafbd8c0-683e-419e-8d26-a9c491cee823","ios":"levelo://app?vid=bafbd8c0-683e-419e-8d26-a9c491cee823"},"vehicle_type_id":"4","last_reported":1717611010,"current_range_meters":400,"station_id":"ce4bgpp2rcd13ifvqc3g","pricing_plan_id":"cebpf4jnsgd1na2vs0mg"},{"bike_id":"967731c2-b580-4644-a4ed-61c3382566c5","system_id":"levelo_inurba_marseille","lat":43.322983,"lon":5.382607,"is_reserved":false,"is_disabled":false,"rental_uris":{"android":"levelo://app?vid=967731c2-b580-4644-a4ed-61c3382566c5","ios":"levelo://app?vid=967731c2-b580-4644-a4ed-61c3382566c5"},"vehicle_type_id":"4","last_reported":1717611010,"current_range_meters":2000,"station_id":"ce4bhr12rcd13ifvqhqg","pricing_plan_id":"cebpf4jnsgd1na2vs0mg"},{"bike_id":"edcc7d75-4749-4755-9684-6ad6130043c0","system_id":"levelo_inurba_marseille","lat":43.322872,"lon":5.382756,"is_reserved":false,"is_disabled":false,"rental_uris":{"android":"levelo://app?vid=edcc7d75-4749-4755-9684-6ad6130043c0","ios":"levelo://app?vid=edcc7d75-4749-4755-9684-6ad6130043c0"},"vehicle_type_id":"4","last_reported":1717611010,"current_range_meters":6800,"station_id":"ce4bhr12rcd13ifvqhqg","pricing_plan_id":"cebpf4jnsgd1na2vs0mg"},{"bike_id":"445b2ca4-ee76-4af7-bbd0-e6e4de6258a3","system_id":"levelo_inurba_marseille","lat":43.322872,"lon":5.382756,"is_reserved":false,"is_disabled":false,"rental_uris":{"android":"levelo://app?vid=445b2ca4-ee76-4af7-bbd0-e6e4de6258a3","ios":"levelo://app?vid=445b2ca4-ee76-4af7-bbd0-e6e4de6258a3"},"vehicle_type_id":"4","last_reported":1717611010,"current_range_meters":20000,"station_id":"ce4bhr12rcd13ifvqhqg","pricing_plan_id":"cebpf4jnsgd1na2vs0mg"},{"bike_id":"b872c82b-d408-4690-b2d0-9ee8a6f55c32","system_id":"levelo_inurba_marseille","lat":43.29705,"lon":5.36623,"is_reserved":false,"is_disabled":false,"rental_uris":{"android":"levelo://app?vid=b872c82b-d408-4690-b2d0-9ee8a6f55c32","ios":"levelo://app?vid=b872c82b-d408-4690-b2d0-9ee8a6f55c32"},"vehicle_type_id":"4","last_reported":1717611010,"current_range_meters":0,"station_id":"ce4bgn12rcd13ifvqbt0","pricing_plan_id":"cebpf4jnsgd1na2vs0mg"},{"bike_id":"ab78dcc5-efe2-4547-948a-27c59b59b506","system_id":"levelo_inurba_marseille","lat":43.296131,"lon":5.370791,"is_reserved":false,"is_disabled":false,"rental_uris":{"android":"levelo://app?vid=ab78dcc5-efe2-4547-948a-27c59b59b506","ios":"levelo://app?vid=ab78dcc5-efe2-4547-948a-27c59b59b506"},"vehicle_type_id":"4","last_reported":1717611010,"current_range_meters":25600,"station_id":"ce4bgnh2rcd13ifvqc0g","pricing_plan_id":"cebpf4jnsgd1na2vs0mg"},{"bike_id":"2c70e93a-a36d-4787-a2a3-89d414c5d51f","system_id":"levelo_inurba_marseille","lat":43.29573,"lon":5.367355,"is_reserved":false,"is_disabled":false,"rental_uris":{"android":"levelo://app?vid=2c70e93a-a36d-4787-a2a3-89d414c5d51f","ios":"levelo://app?vid=2c70e93a-a36d-4787-a2a3-89d414c5d51f"},"vehicle_type_id":"4","last_reported":1717611010,"current_range_meters":17600,"station_id":"ce4bgph2rcd13ifvqc2g","pricing_plan_id":"cebpf4jnsgd1na2vs0mg"},{"bike_id":"b289f0a9-3837-4593-a707-a85a9f3c68af","system_id":"levelo_inurba_marseille","lat":43.296131,"lon":5.370791,"is_reserved":false,"is_disabled":false,"rental_uris":{"android":"levelo://app?vid=b289f0a9-3837-4593-a707-a85a9f3c68af","ios":"levelo://app?vid=b289f0a9-3837-4593-a707-a85a9f3c68af"},"vehicle_type_id":"4","last_reported":1717611010,"current_range_meters":16400,"station_id":"ce4bgnh2rcd13ifvqc0g","pricing_plan_id":"cebpf4jnsgd1na2vs0mg"},{"bike_id":"f5540f7a-3091-4d2e-b3f8-cebbcb516b18","system_id":"levelo_inurba_marseille","lat":43.29573,"lon":5.367355,"is_reserved":false,"is_disabled":false,"rental_uris":{"android":"levelo://app?vid=f5540f7a-3091-4d2e-b3f8-cebbcb516b18","ios":"levelo://app?vid=f5540f7a-3091-4d2e-b3f8-cebbcb516b18"},"vehicle_type_id":"4","last_reported":1717611010,"current_range_meters":10000,"station_id":"ce4bgph2rcd13ifvqc2g","pricing_plan_id":"cebpf4jnsgd1na2vs0mg"},{"bike_id":"0630808b-b6d9-4138-8f3d-e0a6375eb3c1","system_id":"levelo_inurba_marseille","lat":43.321308,"lon":5.387368,"is_reserved":false,"is_disabled":false,"rental_uris":{"android":"levelo://app?vid=0630808b-b6d9-4138-8f3d-e0a6375eb3c1","ios":"levelo://app?vid=0630808b-b6d9-4138-8f3d-e0a6375eb3c1"},"vehicle_type_id":"4","last_reported":1717611010,"current_range_meters":6800,"station_id":"","pricing_plan_id":"cebpf4jnsgd1na2vs0mg"},{"bike_id":"ac72d8c6-e83e-4e4a-b17d-b04f24707ef1","system_id":"levelo_inurba_marseille","lat":43.30947,"lon":5.39011,"is_reserved":false,"is_disabled":false,"rental_uris":{"android":"levelo://app?vid=ac72d8c6-e83e-4e4a-b17d-b04f24707ef1","ios":"levelo://app?vid=ac72d8c6-e83e-4e4a-b17d-b04f24707ef1"},"vehicle_type_id":"4","last_reported":1717611010,"current_range_meters":2000,"station_id":"ce4bgup2rcd13ifvqco0","pricing_plan_id":"cebpf4jnsgd1na2vs0mg"},{"bike_id":"ad430bd5-8df7-4677-8b19-2c920911580b","system_id":"levelo_inurba_marseille","lat":43.30941,"lon":5.39015,"is_reserved":false,"is_disabled":false,"rental_uris":{"android":"levelo://app?vid=ad430bd5-8df7-4677-8b19-2c920911580b","ios":"levelo://app?vid=ad430bd5-8df7-4677-8b19-2c920911580b"},"vehicle_type_id":"4","last_reported":1717611010,"current_range_meters":0,"station_id":"ce4bgup2rcd13ifvqco0","pricing_plan_id":"cebpf4jnsgd1na2vs0mg"},{"bike_id":"b57e0553-fcfb-4374-8118-9d9b25f0c8c9","system_id":"levelo_inurba_marseille","lat":43.296935,"lon":5.376544,"is_reserved":false,"is_disabled":false,"rental_uris":{"android":"levelo://app?vid=b57e0553-fcfb-4374-8118-9d9b25f0c8c9","ios":"levelo://app?vid=b57e0553-fcfb-4374-8118-9d9b25f0c8c9"},"vehicle_type_id":"4","last_reported":1717611010,"current_range_meters":0,"station_id":"ce4bgkh2rcd13ifvqbl0","pricing_plan_id":"cebpf4jnsgd1na2vs0mg"},{"bike_id":"9fd2a33f-5d35-4c2c-ba58-8c94274e73ea","system_id":"levelo_inurba_marseille","lat":43.296935,"lon":5.376544,"is_reserved":false,"is_disabled":false,"rental_uris":{"android":"levelo://app?vid=9fd2a33f-5d35-4c2c-ba58-8c94274e73ea","ios":"levelo://app?vid=9fd2a33f-5d35-4c2c-ba58-8c94274e73ea"},"vehicle_type_id":"4","last_reported":1717611010,"current_range_meters":19600,"station_id":"ce4bgkh2rcd13ifvqbl0","pricing_plan_id":"cebpf4jnsgd1na2vs0mg"},{"bike_id":"fe8ae142-21c8-4fa0-885d-73b60a00bff4","system_id":"levelo_inurba_marseille","lat":43.317557,"lon":5.390173,"is_reserved":false,"is_disabled":false,"rental_uris":{"android":"levelo://app?vid=fe8ae142-21c8-4fa0-885d-73b60a00bff4","ios":"levelo://app?vid=fe8ae142-21c8-4fa0-885d-73b60a00bff4"},"vehicle_type_id":"4","last_reported":1717611010,"current_range_meters":2400,"station_id":"ce4bhqp2rcd13ifvqhng","pricing_plan_id":"cebpf4jnsgd1na2vs0mg"},{"bike_id":"a4a4a983-b0e5-48a0-8acc-54ece886e588","system_id":"levelo_inurba_marseille","lat":43.317557,"lon":5.390173,"is_reserved":false,"is_disabled":false,"rental_uris":{"android":"levelo://app?vid=a4a4a983-b0e5-48a0-8acc-54ece886e588","ios":"levelo://app?vid=a4a4a983-b0e5-48a0-8acc-54ece886e588"},"vehicle_type_id":"4","last_reported":1717611010,"current_range_meters":11600,"station_id":"ce4bhqp2rcd13ifvqhng","pricing_plan_id":"cebpf4jnsgd1na2vs0mg"},{"bike_id":"1303649a-b9d0-480b-9d23-869200162d11","system_id":"levelo_inurba_marseille","lat":43.296964,"lon":5.377655,"is_reserved":false,"is_disabled":false,"rental_uris":{"android":"levelo://app?vid=1303649a-b9d0-480b-9d23-869200162d11","ios":"levelo://app?vid=1303649a-b9d0-480b-9d23-869200162d11"},"vehicle_type_id":"4","last_reported":1717611010,"current_range_meters":0,"station_id":"","pricing_plan_id":"cebpf4jnsgd1na2vs0mg"},{"bike_id":"362401ba-eb65-42fd-aee5-4a28fdee9421","system_id":"levelo_inurba_marseille","lat":43.304278,"lon":5.388868,"is_reserved":false,"is_disabled":false,"rental_uris":{"android":"levelo://app?vid=362401ba-eb65-42fd-aee5-4a28fdee9421","ios":"levelo://app?vid=362401ba-eb65-42fd-aee5-4a28fdee9421"},"vehicle_type_id":"4","last_reported":1717611010,"current_range_meters":19200,"station_id":"ce4bgk12rcd13ifvqbi0","pricing_plan_id":"cebpf4jnsgd1na2vs0mg"},{"bike_id":"37ab338d-c25d-4e32-ba51-17e9708a9156","system_id":"levelo_inurba_marseille","lat":43.29543,"lon":5.37497,"is_reserved":false,"is_disabled":false,"rental_uris":{"android":"levelo://app?vid=37ab338d-c25d-4e32-ba51-17e9708a9156","ios":"levelo://app?vid=37ab338d-c25d-4e32-ba51-17e9708a9156"},"vehicle_type_id":"4","last_reported":1717611010,"current_range_meters":2000,"station_id":"","pricing_plan_id":"cebpf4jnsgd1na2vs0mg"},{"bike_id":"1cc5cf65-252e-4ef8-a6c2-0549417ee86e","system_id":"levelo_inurba_marseille","lat":43.296277,"lon":5.377108,"is_reserved":false,"is_disabled":false,"rental_uris":{"android":"levelo://app?vid=1cc5cf65-252e-4ef8-a6c2-0549417ee86e","ios":"levelo://app?vid=1cc5cf65-252e-4ef8-a6c2-0549417ee86e"},"vehicle_type_id":"4","last_reported":1717611010,"current_range_meters":31600,"station_id":"ce4bgi92rcd13ifvqb90","pricing_plan_id":"cebpf4jnsgd1na2vs0mg"},{"bike_id":"38fcf5d3-f0f0-4fdf-9745-a7270eec6e4a","system_id":"levelo_inurba_marseille","lat":43.296263,"lon":5.377094,"is_reserved":false,"is_disabled":false,"rental_uris":{"android":"levelo://app?vid=38fcf5d3-f0f0-4fdf-9745-a7270eec6e4a","ios":"levelo://app?vid=38fcf5d3-f0f0-4fdf-9745-a7270eec6e4a"},"vehicle_type_id":"4","last_reported":1717611010,"current_range_meters":800,"station_id":"ce4bgi92rcd13ifvqb90","pricing_plan_id":"cebpf4jnsgd1na2vs0mg"},{"bike_id":"5163c4fe-7ec8-407d-b188-67cf63240acd","system_id":"levelo_inurba_marseille","lat":43.2936,"lon":5.37835,"is_reserved":false,"is_disabled":false,"rental_uris":{"android":"levelo://app?vid=5163c4fe-7ec8-407d-b188-67cf63240acd","ios":"levelo://app?vid=5163c4fe-7ec8-407d-b188-67cf63240acd"},"vehicle_type_id":"4","last_reported":1717611010,"current_range_meters":23600,"station_id":"ce4bgjh2rcd13ifvqbf0","pricing_plan_id":"cebpf4jnsgd1na2vs0mg"},{"bike_id":"19ba0ddb-f0be-4362-b242-fe0fca987830","system_id":"levelo_inurba_marseille","lat":43.29602,"lon":5.37728,"is_reserved":false,"is_disabled":false,"rental_uris":{"android":"levelo://app?vid=19ba0ddb-f0be-4362-b242-fe0fca987830","ios":"levelo://app?vid=19ba0ddb-f0be-4362-b242-fe0fca987830"},"vehicle_type_id":"4","last_reported":1717611010,"current_range_meters":30000,"station_id":"","pricing_plan_id":"cebpf4jnsgd1na2vs0mg"},{"bike_id":"b13abeaf-b622-46a7-8ad3-36177b9a4764","system_id":"levelo_inurba_marseille","lat":43.296277,"lon":5.377108,"is_reserved":false,"is_disabled":false,"rental_uris":{"android":"levelo://app?vid=b13abeaf-b622-46a7-8ad3-36177b9a4764","ios":"levelo://app?vid=b13abeaf-b622-46a7-8ad3-36177b9a4764"},"vehicle_type_id":"4","last_reported":1717611010,"current_range_meters":0,"station_id":"ce4bgi92rcd13ifvqb90","pricing_plan_id":"cebpf4jnsgd1na2vs0mg"},{"bike_id":"a1e6b023-173e-4a39-8118-19f9a772cd98","system_id":"levelo_inurba_marseille","lat":43.295279,"lon":5.375048,"is_reserved":false,"is_disabled":false,"rental_uris":{"android":"levelo://app?vid=a1e6b023-173e-4a39-8118-19f9a772cd98","ios":"levelo://app?vid=a1e6b023-173e-4a39-8118-19f9a772cd98"},"vehicle_type_id":"4","last_reported":1717611010,"current_range_meters":0,"station_id":"ce4bgkp2rcd13ifvqbmg","pricing_plan_id":"cebpf4jnsgd1na2vs0mg"},{"bike_id":"a978aeb5-e38c-4317-80c1-54ee9f75eed4","system_id":"levelo_inurba_marseille","lat":43.29612,"lon":5.37783,"is_reserved":false,"is_disabled":false,"rental_uris":{"android":"levelo://app?vid=a978aeb5-e38c-4317-80c1-54ee9f75eed4","ios":"levelo://app?vid=a978aeb5-e38c-4317-80c1-54ee9f75eed4"},"vehicle_type_id":"4","last_reported":1717611010,"current_range_meters":5200,"station_id":"","pricing_plan_id":"cebpf4jnsgd1na2vs0mg"},{"bike_id":"8c267988-da12-4c45-b916-01da23d07194","system_id":"levelo_inurba_marseille","lat":43.29975,"lon":5.38488,"is_reserved":false,"is_disabled":false,"rental_uris":{"android":"levelo://app?vid=8c267988-da12-4c45-b916-01da23d07194","ios":"levelo://app?vid=8c267988-da12-4c45-b916-01da23d07194"},"vehicle_type_id":"4","last_reported":1717611010,"current_range_meters":0,"station_id":"ce4bgj92rcd13ifvqbd0","pricing_plan_id":"cebpf4jnsgd1na2vs0mg"},{"bike_id":"2aa62617-7ce9-466c-adfe-2674fef27d71","system_id":"levelo_inurba_marseille","lat":43.29983,"lon":5.38502,"is_reserved":false,"is_disabled":false,"rental_uris":{"android":"levelo://app?vid=2aa62617-7ce9-466c-adfe-2674fef27d71","ios":"levelo://app?vid=2aa62617-7ce9-466c-adfe-2674fef27d71"},"vehicle_type_id":"4","last_reported":1717611010,"current_range_meters":4400,"station_id":"ce4bgj92rcd13ifvqbd0","pricing_plan_id":"cebpf4jnsgd1na2vs0mg"},{"bike_id":"508195e3-b8d8-4a44-9191-38f678639faf","system_id":"levelo_inurba_marseille","lat":43.295279,"lon":5.375048,"is_reserved":false,"is_disabled":false,"rental_uris":{"android":"levelo://app?vid=508195e3-b8d8-4a44-9191-38f678639faf","ios":"levelo://app?vid=508195e3-b8d8-4a44-9191-38f678639faf"},"vehicle_type_id":"4","last_reported":1717611010,"current_range_meters":0,"station_id":"ce4bgkp2rcd13ifvqbmg","pricing_plan_id":"cebpf4jnsgd1na2vs0mg"},{"bike_id":"33b21059-c519-4958-b1d4-e0ac0607b590","system_id":"levelo_inurba_marseille","lat":43.299717,"lon":5.384845,"is_reserved":false,"is_disabled":false,"rental_uris":{"android":"levelo://app?vid=33b21059-c519-4958-b1d4-e0ac0607b590","ios":"levelo://app?vid=33b21059-c519-4958-b1d4-e0ac0607b590"},"vehicle_type_id":"4","last_reported":1717611010,"current_range_meters":0,"station_id":"ce4bgj92rcd13ifvqbd0","pricing_plan_id":"cebpf4jnsgd1na2vs0mg"},{"bike_id":"2e245d62-bc97-48ea-a360-c3c531e24b2a","system_id":"levelo_inurba_marseille","lat":43.299717,"lon":5.384845,"is_reserved":false,"is_disabled":false,"rental_uris":{"android":"levelo://app?vid=2e245d62-bc97-48ea-a360-c3c531e24b2a","ios":"levelo://app?vid=2e245d62-bc97-48ea-a360-c3c531e24b2a"},"vehicle_type_id":"4","last_reported":1717611010,"current_range_meters":0,"station_id":"ce4bgj92rcd13ifvqbd0","pricing_plan_id":"cebpf4jnsgd1na2vs0mg"},{"bike_id":"e7953e9d-6b59-4444-884e-95d7a487a80d","system_id":"levelo_inurba_marseille","lat":43.295279,"lon":5.375048,"is_reserved":false,"is_disabled":false,"rental_uris":{"android":"levelo://app?vid=e7953e9d-6b59-4444-884e-95d7a487a80d","ios":"levelo://app?vid=e7953e9d-6b59-4444-884e-95d7a487a80d"},"vehicle_type_id":"4","last_reported":1717611010,"current_range_meters":10000,"station_id":"ce4bgkp2rcd13ifvqbmg","pricing_plan_id":"cebpf4jnsgd1na2vs0mg"},{"bike_id":"f0ff3c74-fecf-40f8-8ab3-b6593c5fbbeb","system_id":"levelo_inurba_marseille","lat":43.29644,"lon":5.37944,"is_reserved":false,"is_disabled":false,"rental_uris":{"android":"levelo://app?vid=f0ff3c74-fecf-40f8-8ab3-b6593c5fbbeb","ios":"levelo://app?vid=f0ff3c74-fecf-40f8-8ab3-b6593c5fbbeb"},"vehicle_type_id":"4","last_reported":1717611010,"current_range_meters":0,"station_id":"","pricing_plan_id":"cebpf4jnsgd1na2vs0mg"},{"bike_id":"b798f043-be19-47db-beee-c0056f1b199c","system_id":"levelo_inurba_marseille","lat":43.323698,"lon":5.388794,"is_reserved":false,"is_disabled":false,"rental_uris":{"android":"levelo://app?vid=b798f043-be19-47db-beee-c0056f1b199c","ios":"levelo://app?vid=b798f043-be19-47db-beee-c0056f1b199c"},"vehicle_type_id":"4","last_reported":1717611010,"current_range_meters":1600,"station_id":"ce4bhqp2rcd13ifvqhog","pricing_plan_id":"cebpf4jnsgd1na2vs0mg"},{"bike_id":"0e433371-3254-4785-abc7-55670a074d1f","system_id":"levelo_inurba_marseille","lat":43.32367,"lon":5.388836,"is_reserved":false,"is_disabled":false,"rental_uris":{"android":"levelo://app?vid=0e433371-3254-4785-abc7-55670a074d1f","ios":"levelo://app?vid=0e433371-3254-4785-abc7-55670a074d1f"},"vehicle_type_id":"4","last_reported":1717611010,"current_range_meters":7200,"station_id":"ce4bhqp2rcd13ifvqhog","pricing_plan_id":"cebpf4jnsgd1na2vs0mg"},{"bike_id":"cd4f2c30-6a3e-445d-ad60-9c4115ab446a","system_id":"levelo_inurba_marseille","lat":43.32365,"lon":5.38886,"is_reserved":false,"is_disabled":false,"rental_uris":{"android":"levelo://app?vid=cd4f2c30-6a3e-445d-ad60-9c4115ab446a","ios":"levelo://app?vid=cd4f2c30-6a3e-445d-ad60-9c4115ab446a"},"vehicle_type_id":"4","last_reported":1717611010,"current_range_meters":0,"station_id":"ce4bhqp2rcd13ifvqhog","pricing_plan_id":"cebpf4jnsgd1na2vs0mg"},{"bike_id":"dc8bb193-dbdd-4558-ae6d-a5b7bffd9c2f","system_id":"levelo_inurba_marseille","lat":43.29601,"lon":5.381084,"is_reserved":false,"is_disabled":false,"rental_uris":{"android":"levelo://app?vid=dc8bb193-dbdd-4558-ae6d-a5b7bffd9c2f","ios":"levelo://app?vid=dc8bb193-dbdd-4558-ae6d-a5b7bffd9c2f"},"vehicle_type_id":"4","last_reported":1717611010,"current_range_meters":3600,"station_id":"ce4bgl12rcd13ifvqbo0","pricing_plan_id":"cebpf4jnsgd1na2vs0mg"},{"bike_id":"ade68a43-b5be-4e1a-94e2-1f256a9e65b8","system_id":"levelo_inurba_marseille","lat":43.29602,"lon":5.381084,"is_reserved":false,"is_disabled":false,"rental_uris":{"android":"levelo://app?vid=ade68a43-b5be-4e1a-94e2-1f256a9e65b8","ios":"levelo://app?vid=ade68a43-b5be-4e1a-94e2-1f256a9e65b8"},"vehicle_type_id":"4","last_reported":1717611010,"current_range_meters":0,"station_id":"ce4bgl12rcd13ifvqbo0","pricing_plan_id":"cebpf4jnsgd1na2vs0mg"},{"bike_id":"81d422ee-3faa-4187-9452-1cbae625518d","system_id":"levelo_inurba_marseille","lat":43.293249,"lon":5.371578,"is_reserved":false,"is_disabled":false,"rental_uris":{"android":"levelo://app?vid=81d422ee-3faa-4187-9452-1cbae625518d","ios":"levelo://app?vid=81d422ee-3faa-4187-9452-1cbae625518d"},"vehicle_type_id":"4","last_reported":1717611010,"current_range_meters":31200,"station_id":"ce4bgh92rcd13ifvqb40","pricing_plan_id":"cebpf4jnsgd1na2vs0mg"},{"bike_id":"da471334-d0a7-4350-a763-de89b8e35807","system_id":"levelo_inurba_marseille","lat":43.292763,"lon":5.368697,"is_reserved":false,"is_disabled":false,"rental_uris":{"android":"levelo://app?vid=da471334-d0a7-4350-a763-de89b8e35807","ios":"levelo://app?vid=da471334-d0a7-4350-a763-de89b8e35807"},"vehicle_type_id":"4","last_reported":1717611010,"current_range_meters":0,"station_id":"ce4bhbp2rcd13ifvqesg","pricing_plan_id":"cebpf4jnsgd1na2vs0mg"},{"bike_id":"d766cdad-ef4e-408c-8578-633d242ba390","system_id":"levelo_inurba_marseille","lat":43.293249,"lon":5.371578,"is_reserved":false,"is_disabled":false,"rental_uris":{"android":"levelo://app?vid=d766cdad-ef4e-408c-8578-633d242ba390","ios":"levelo://app?vid=d766cdad-ef4e-408c-8578-633d242ba390"},"vehicle_type_id":"4","last_reported":1717611010,"current_range_meters":0,"station_id":"ce4bgh92rcd13ifvqb40","pricing_plan_id":"cebpf4jnsgd1na2vs0mg"},{"bike_id":"1bc08bbc-625e-4441-96e2-5bd464e47b77","system_id":"levelo_inurba_marseille","lat":43.32367,"lon":5.388836,"is_reserved":false,"is_disabled":false,"rental_uris":{"android":"levelo://app?vid=1bc08bbc-625e-4441-96e2-5bd464e47b77","ios":"levelo://app?vid=1bc08bbc-625e-4441-96e2-5bd464e47b77"},"vehicle_type_id":"4","last_reported":1717611010,"current_range_meters":2400,"station_id":"ce4bhqp2rcd13ifvqhog","pricing_plan_id":"cebpf4jnsgd1na2vs0mg"},{"bike_id":"2575e31a-ae67-4c2d-a930-312582b3774e","system_id":"levelo_inurba_marseille","lat":43.293009,"lon":5.374584,"is_reserved":false,"is_disabled":false,"rental_uris":{"android":"levelo://app?vid=2575e31a-ae67-4c2d-a930-312582b3774e","ios":"levelo://app?vid=2575e31a-ae67-4c2d-a930-312582b3774e"},"vehicle_type_id":"4","last_reported":1717611010,"current_range_meters":28800,"station_id":"ce4bgi12rcd13ifvqb70","pricing_plan_id":"cebpf4jnsgd1na2vs0mg"},{"bike_id":"0c3960b2-26a1-4f24-ad43-6960f1802382","system_id":"levelo_inurba_marseille","lat":43.30594,"lon":5.39348,"is_reserved":false,"is_disabled":false,"rental_uris":{"android":"levelo://app?vid=0c3960b2-26a1-4f24-ad43-6960f1802382","ios":"levelo://app?vid=0c3960b2-26a1-4f24-ad43-6960f1802382"},"vehicle_type_id":"4","last_reported":1717611010,"current_range_meters":0,"station_id":"ce4bh0p2rcd13ifvqd80","pricing_plan_id":"cebpf4jnsgd1na2vs0mg"},{"bike_id":"26e01108-80dc-46b7-b3a5-41de505f8a93","system_id":"levelo_inurba_marseille","lat":43.30602,"lon":5.39358,"is_reserved":false,"is_disabled":false,"rental_uris":{"android":"levelo://app?vid=26e01108-80dc-46b7-b3a5-41de505f8a93","ios":"levelo://app?vid=26e01108-80dc-46b7-b3a5-41de505f8a93"},"vehicle_type_id":"4","last_reported":1717611010,"current_range_meters":1600,"station_id":"ce4bh0p2rcd13ifvqd80","pricing_plan_id":"cebpf4jnsgd1na2vs0mg"},{"bike_id":"e61c7142-abc0-456c-9fb8-b754521bf759","system_id":"levelo_inurba_marseille","lat":43.303002,"lon":5.392142,"is_reserved":false,"is_disabled":false,"rental_uris":{"android":"levelo://app?vid=e61c7142-abc0-456c-9fb8-b754521bf759","ios":"levelo://app?vid=e61c7142-abc0-456c-9fb8-b754521bf759"},"vehicle_type_id":"4","last_reported":1717611010,"current_range_meters":6400,"station_id":"ce4bgkh2rcd13ifvqbk0","pricing_plan_id":"cebpf4jnsgd1na2vs0mg"},{"bike_id":"f1253edc-eb13-408a-bd62-db7aa434cf1d","system_id":"levelo_inurba_marseille","lat":43.30299,"lon":5.3921,"is_reserved":false,"is_disabled":false,"rental_uris":{"android":"levelo://app?vid=f1253edc-eb13-408a-bd62-db7aa434cf1d","ios":"levelo://app?vid=f1253edc-eb13-408a-bd62-db7aa434cf1d"},"vehicle_type_id":"4","last_reported":1717611010,"current_range_meters":0,"station_id":"ce4bgkh2rcd13ifvqbk0","pricing_plan_id":"cebpf4jnsgd1na2vs0mg"},{"bike_id":"178e053a-3e32-4b78-b395-e1670e121f6c","system_id":"levelo_inurba_marseille","lat":43.2936,"lon":5.37835,"is_reserved":false,"is_disabled":false,"rental_uris":{"android":"levelo://app?vid=178e053a-3e32-4b78-b395-e1670e121f6c","ios":"levelo://app?vid=178e053a-3e32-4b78-b395-e1670e121f6c"},"vehicle_type_id":"4","last_reported":1717611010,"current_range_meters":0,"station_id":"ce4bgjh2rcd13ifvqbf0","pricing_plan_id":"cebpf4jnsgd1na2vs0mg"},{"bike_id":"05b04199-3772-4b1a-8484-e37eaefc8651","system_id":"levelo_inurba_marseille","lat":43.302992,"lon":5.392136,"is_reserved":false,"is_disabled":false,"rental_uris":{"android":"levelo://app?vid=05b04199-3772-4b1a-8484-e37eaefc8651","ios":"levelo://app?vid=05b04199-3772-4b1a-8484-e37eaefc8651"},"vehicle_type_id":"4","last_reported":1717611010,"current_range_meters":0,"station_id":"ce4bgkh2rcd13ifvqbk0","pricing_plan_id":"cebpf4jnsgd1na2vs0mg"},{"bike_id":"84489e72-85e8-47cd-8767-bfd3ce74f872","system_id":"levelo_inurba_marseille","lat":43.30337,"lon":5.39252,"is_reserved":false,"is_disabled":false,"rental_uris":{"android":"levelo://app?vid=84489e72-85e8-47cd-8767-bfd3ce74f872","ios":"levelo://app?vid=84489e72-85e8-47cd-8767-bfd3ce74f872"},"vehicle_type_id":"4","last_reported":1717611010,"current_range_meters":800,"station_id":"","pricing_plan_id":"cebpf4jnsgd1na2vs0mg"},{"bike_id":"9b3cc1b0-f102-4872-978c-d010c8010d7d","system_id":"levelo_inurba_marseille","lat":43.29226,"lon":5.361408,"is_reserved":false,"is_disabled":false,"rental_uris":{"android":"levelo://app?vid=9b3cc1b0-f102-4872-978c-d010c8010d7d","ios":"levelo://app?vid=9b3cc1b0-f102-4872-978c-d010c8010d7d"},"vehicle_type_id":"4","last_reported":1717611010,"current_range_meters":10400,"station_id":"","pricing_plan_id":"cebpf4jnsgd1na2vs0mg"},{"bike_id":"ba7f69fd-774f-42b7-8648-cb4593a0bab2","system_id":"levelo_inurba_marseille","lat":43.2936,"lon":5.37835,"is_reserved":false,"is_disabled":false,"rental_uris":{"android":"levelo://app?vid=ba7f69fd-774f-42b7-8648-cb4593a0bab2","ios":"levelo://app?vid=ba7f69fd-774f-42b7-8648-cb4593a0bab2"},"vehicle_type_id":"4","last_reported":1717611010,"current_range_meters":19200,"station_id":"ce4bgjh2rcd13ifvqbf0","pricing_plan_id":"cebpf4jnsgd1na2vs0mg"},{"bike_id":"f939df42-2b99-480c-b9ec-f634b5a21a03","system_id":"levelo_inurba_marseille","lat":43.292311,"lon":5.360731,"is_reserved":false,"is_disabled":false,"rental_uris":{"android":"levelo://app?vid=f939df42-2b99-480c-b9ec-f634b5a21a03","ios":"levelo://app?vid=f939df42-2b99-480c-b9ec-f634b5a21a03"},"vehicle_type_id":"4","last_reported":1717611010,"current_range_meters":30400,"station_id":"ce4bhbh2rcd13ifvqeqg","pricing_plan_id":"cebpf4jnsgd1na2vs0mg"},{"bike_id":"55cbef4b-2f63-4efc-8eec-a7c35ed8bb29","system_id":"levelo_inurba_marseille","lat":43.29227,"lon":5.36059,"is_reserved":false,"is_disabled":false,"rental_uris":{"android":"levelo://app?vid=55cbef4b-2f63-4efc-8eec-a7c35ed8bb29","ios":"levelo://app?vid=55cbef4b-2f63-4efc-8eec-a7c35ed8bb29"},"vehicle_type_id":"4","last_reported":1717611010,"current_range_meters":0,"station_id":"ce4bhbh2rcd13ifvqeqg","pricing_plan_id":"cebpf4jnsgd1na2vs0mg"},{"bike_id":"2c2b1055-3f3c-4c5c-89e8-21d3251f778f","system_id":"levelo_inurba_marseille","lat":43.292311,"lon":5.360731,"is_reserved":false,"is_disabled":false,"rental_uris":{"android":"levelo://app?vid=2c2b1055-3f3c-4c5c-89e8-21d3251f778f","ios":"levelo://app?vid=2c2b1055-3f3c-4c5c-89e8-21d3251f778f"},"vehicle_type_id":"4","last_reported":1717611010,"current_range_meters":12800,"station_id":"ce4bhbh2rcd13ifvqeqg","pricing_plan_id":"cebpf4jnsgd1na2vs0mg"},{"bike_id":"13adedf6-be2c-430e-9f8d-066dbffc2bc8","system_id":"levelo_inurba_marseille","lat":43.292311,"lon":5.360731,"is_reserved":false,"is_disabled":false,"rental_uris":{"android":"levelo://app?vid=13adedf6-be2c-430e-9f8d-066dbffc2bc8","ios":"levelo://app?vid=13adedf6-be2c-430e-9f8d-066dbffc2bc8"},"vehicle_type_id":"4","last_reported":1717611010,"current_range_meters":23200,"station_id":"ce4bhbh2rcd13ifvqeqg","pricing_plan_id":"cebpf4jnsgd1na2vs0mg"},{"bike_id":"0b8ed867-297a-4896-bf01-3893c6d29bfa","system_id":"levelo_inurba_marseille","lat":43.300852,"lon":5.390859,"is_reserved":false,"is_disabled":false,"rental_uris":{"android":"levelo://app?vid=0b8ed867-297a-4896-bf01-3893c6d29bfa","ios":"levelo://app?vid=0b8ed867-297a-4896-bf01-3893c6d29bfa"},"vehicle_type_id":"4","last_reported":1717611010,"current_range_meters":2400,"station_id":"ce4bh192rcd13ifvqdb0","pricing_plan_id":"cebpf4jnsgd1na2vs0mg"},{"bike_id":"984dd890-7cfd-4253-9567-13570bea3f84","system_id":"levelo_inurba_marseille","lat":43.292311,"lon":5.360731,"is_reserved":false,"is_disabled":false,"rental_uris":{"android":"levelo://app?vid=984dd890-7cfd-4253-9567-13570bea3f84","ios":"levelo://app?vid=984dd890-7cfd-4253-9567-13570bea3f84"},"vehicle_type_id":"4","last_reported":1717611010,"current_range_meters":2800,"station_id":"ce4bhbh2rcd13ifvqeqg","pricing_plan_id":"cebpf4jnsgd1na2vs0mg"},{"bike_id":"65ad641c-bc0a-47c0-b9d0-d47b9de28dc3","system_id":"levelo_inurba_marseille","lat":43.30085,"lon":5.390856,"is_reserved":false,"is_disabled":false,"rental_uris":{"android":"levelo://app?vid=65ad641c-bc0a-47c0-b9d0-d47b9de28dc3","ios":"levelo://app?vid=65ad641c-bc0a-47c0-b9d0-d47b9de28dc3"},"vehicle_type_id":"4","last_reported":1717611010,"current_range_meters":6800,"station_id":"ce4bh192rcd13ifvqdb0","pricing_plan_id":"cebpf4jnsgd1na2vs0mg"},{"bike_id":"29bccfaf-5814-4383-8221-d0ba4ede9706","system_id":"levelo_inurba_marseille","lat":43.29271,"lon":5.37632,"is_reserved":false,"is_disabled":false,"rental_uris":{"android":"levelo://app?vid=29bccfaf-5814-4383-8221-d0ba4ede9706","ios":"levelo://app?vid=29bccfaf-5814-4383-8221-d0ba4ede9706"},"vehicle_type_id":"4","last_reported":1717611010,"current_range_meters":4800,"station_id":"","pricing_plan_id":"cebpf4jnsgd1na2vs0mg"},{"bike_id":"17f5130f-41f8-4586-af5d-45922bbff8f1","system_id":"levelo_inurba_marseille","lat":43.30085,"lon":5.390856,"is_reserved":false,"is_disabled":false,"rental_uris":{"android":"levelo://app?vid=17f5130f-41f8-4586-af5d-45922bbff8f1","ios":"levelo://app?vid=17f5130f-41f8-4586-af5d-45922bbff8f1"},"vehicle_type_id":"4","last_reported":1717611010,"current_range_meters":0,"station_id":"ce4bh192rcd13ifvqdb0","pricing_plan_id":"cebpf4jnsgd1na2vs0mg"},{"bike_id":"8b690dbe-84eb-4612-91f4-c947d7e2a9fb","system_id":"levelo_inurba_marseille","lat":43.3007,"lon":5.39103,"is_reserved":false,"is_disabled":false,"rental_uris":{"android":"levelo://app?vid=8b690dbe-84eb-4612-91f4-c947d7e2a9fb","ios":"levelo://app?vid=8b690dbe-84eb-4612-91f4-c947d7e2a9fb"},"vehicle_type_id":"4","last_reported":1717611010,"current_range_meters":0,"station_id":"ce4bh192rcd13ifvqdb0","pricing_plan_id":"cebpf4jnsgd1na2vs0mg"},{"bike_id":"7afe599d-2b20-49d6-b3af-f392d301fa82","system_id":"levelo_inurba_marseille","lat":43.298764,"lon":5.388973,"is_reserved":false,"is_disabled":false,"rental_uris":{"android":"levelo://app?vid=7afe599d-2b20-49d6-b3af-f392d301fa82","ios":"levelo://app?vid=7afe599d-2b20-49d6-b3af-f392d301fa82"},"vehicle_type_id":"4","last_reported":1717611010,"current_range_meters":0,"station_id":"ce4bh392rcd13ifvqdl0","pricing_plan_id":"cebpf4jnsgd1na2vs0mg"},{"bike_id":"2dd54160-ae6d-48a7-8018-e530bb7c3193","system_id":"levelo_inurba_marseille","lat":43.298764,"lon":5.388973,"is_reserved":false,"is_disabled":false,"rental_uris":{"android":"levelo://app?vid=2dd54160-ae6d-48a7-8018-e530bb7c3193","ios":"levelo://app?vid=2dd54160-ae6d-48a7-8018-e530bb7c3193"},"vehicle_type_id":"4","last_reported":1717611010,"current_range_meters":400,"station_id":"ce4bh392rcd13ifvqdl0","pricing_plan_id":"cebpf4jnsgd1na2vs0mg"},{"bike_id":"f8938e2f-12aa-4836-8a08-69ab88c44885","system_id":"levelo_inurba_marseille","lat":43.291671,"lon":5.371575,"is_reserved":false,"is_disabled":false,"rental_uris":{"android":"levelo://app?vid=f8938e2f-12aa-4836-8a08-69ab88c44885","ios":"levelo://app?vid=f8938e2f-12aa-4836-8a08-69ab88c44885"},"vehicle_type_id":"4","last_reported":1717611010,"current_range_meters":0,"station_id":"ce4bha92rcd13ifvqeh0","pricing_plan_id":"cebpf4jnsgd1na2vs0mg"},{"bike_id":"02687933-f36a-400b-94f0-e183789667d2","system_id":"levelo_inurba_marseille","lat":43.309038,"lon":5.396546,"is_reserved":false,"is_disabled":false,"rental_uris":{"android":"levelo://app?vid=02687933-f36a-400b-94f0-e183789667d2","ios":"levelo://app?vid=02687933-f36a-400b-94f0-e183789667d2"},"vehicle_type_id":"4","last_reported":1717611010,"current_range_meters":12800,"station_id":"ce4bh012rcd13ifvqcv0","pricing_plan_id":"cebpf4jnsgd1na2vs0mg"},{"bike_id":"8519fce8-cb52-43ff-8bd6-f591f19909f3","system_id":"levelo_inurba_marseille","lat":43.309047,"lon":5.396551,"is_reserved":false,"is_disabled":false,"rental_uris":{"android":"levelo://app?vid=8519fce8-cb52-43ff-8bd6-f591f19909f3","ios":"levelo://app?vid=8519fce8-cb52-43ff-8bd6-f591f19909f3"},"vehicle_type_id":"4","last_reported":1717611010,"current_range_meters":400,"station_id":"ce4bh012rcd13ifvqcv0","pricing_plan_id":"cebpf4jnsgd1na2vs0mg"},{"bike_id":"691b453a-811d-43b2-a6b7-0dee6e0fb198","system_id":"levelo_inurba_marseille","lat":43.292005,"lon":5.357875,"is_reserved":false,"is_disabled":false,"rental_uris":{"android":"levelo://app?vid=691b453a-811d-43b2-a6b7-0dee6e0fb198","ios":"levelo://app?vid=691b453a-811d-43b2-a6b7-0dee6e0fb198"},"vehicle_type_id":"4","last_reported":1717611010,"current_range_meters":16800,"station_id":"ce4bhb12rcd13ifvqel0","pricing_plan_id":"cebpf4jnsgd1na2vs0mg"},{"bike_id":"832b065e-7a37-4b56-926d-12ece093a763","system_id":"levelo_inurba_marseille","lat":43.30882,"lon":5.39628,"is_reserved":false,"is_disabled":false,"rental_uris":{"android":"levelo://app?vid=832b065e-7a37-4b56-926d-12ece093a763","ios":"levelo://app?vid=832b065e-7a37-4b56-926d-12ece093a763"},"vehicle_type_id":"4","last_reported":1717611010,"current_range_meters":0,"station_id":"ce4bh012rcd13ifvqcv0","pricing_plan_id":"cebpf4jnsgd1na2vs0mg"},{"bike_id":"1b080163-0b2a-487e-96d6-dd3878c525c3","system_id":"levelo_inurba_marseille","lat":43.309047,"lon":5.396551,"is_reserved":false,"is_disabled":false,"rental_uris":{"android":"levelo://app?vid=1b080163-0b2a-487e-96d6-dd3878c525c3","ios":"levelo://app?vid=1b080163-0b2a-487e-96d6-dd3878c525c3"},"vehicle_type_id":"4","last_reported":1717611010,"current_range_meters":4400,"station_id":"ce4bh012rcd13ifvqcv0","pricing_plan_id":"cebpf4jnsgd1na2vs0mg"},{"bike_id":"18bdd474-446f-498d-8435-35588de5812d","system_id":"levelo_inurba_marseille","lat":43.291994,"lon":5.357886,"is_reserved":false,"is_disabled":false,"rental_uris":{"android":"levelo://app?vid=18bdd474-446f-498d-8435-35588de5812d","ios":"levelo://app?vid=18bdd474-446f-498d-8435-35588de5812d"},"vehicle_type_id":"4","last_reported":1717611010,"current_range_meters":16000,"station_id":"ce4bhb12rcd13ifvqel0","pricing_plan_id":"cebpf4jnsgd1na2vs0mg"},{"bike_id":"b4bc8c07-4d27-4765-bd64-1c60a20ff2a8","system_id":"levelo_inurba_marseille","lat":43.291994,"lon":5.357886,"is_reserved":false,"is_disabled":false,"rental_uris":{"android":"levelo://app?vid=b4bc8c07-4d27-4765-bd64-1c60a20ff2a8","ios":"levelo://app?vid=b4bc8c07-4d27-4765-bd64-1c60a20ff2a8"},"vehicle_type_id":"4","last_reported":1717611010,"current_range_meters":0,"station_id":"ce4bhb12rcd13ifvqel0","pricing_plan_id":"cebpf4jnsgd1na2vs0mg"},{"bike_id":"714bec18-0734-491c-8bb6-b83b441eba49","system_id":"levelo_inurba_marseille","lat":43.309047,"lon":5.396551,"is_reserved":false,"is_disabled":false,"rental_uris":{"android":"levelo://app?vid=714bec18-0734-491c-8bb6-b83b441eba49","ios":"levelo://app?vid=714bec18-0734-491c-8bb6-b83b441eba49"},"vehicle_type_id":"4","last_reported":1717611010,"current_range_meters":0,"station_id":"ce4bh012rcd13ifvqcv0","pricing_plan_id":"cebpf4jnsgd1na2vs0mg"},{"bike_id":"8f1f2612-e8e4-4b9b-81fa-efc4488882c1","system_id":"levelo_inurba_marseille","lat":43.313291,"lon":5.396838,"is_reserved":false,"is_disabled":false,"rental_uris":{"android":"levelo://app?vid=8f1f2612-e8e4-4b9b-81fa-efc4488882c1","ios":"levelo://app?vid=8f1f2612-e8e4-4b9b-81fa-efc4488882c1"},"vehicle_type_id":"4","last_reported":1717611010,"current_range_meters":14000,"station_id":"ce4bgvp2rcd13ifvqcu0","pricing_plan_id":"cebpf4jnsgd1na2vs0mg"},{"bike_id":"ba1db10e-d401-4e8c-be1d-ce4a2fb46e42","system_id":"levelo_inurba_marseille","lat":43.313291,"lon":5.396838,"is_reserved":false,"is_disabled":false,"rental_uris":{"android":"levelo://app?vid=ba1db10e-d401-4e8c-be1d-ce4a2fb46e42","ios":"levelo://app?vid=ba1db10e-d401-4e8c-be1d-ce4a2fb46e42"},"vehicle_type_id":"4","last_reported":1717611010,"current_range_meters":24400,"station_id":"ce4bgvp2rcd13ifvqcu0","pricing_plan_id":"cebpf4jnsgd1na2vs0mg"},{"bike_id":"29cbc531-a099-4a72-8bef-b99c1f6692a8","system_id":"levelo_inurba_marseille","lat":43.313291,"lon":5.396838,"is_reserved":false,"is_disabled":false,"rental_uris":{"android":"levelo://app?vid=29cbc531-a099-4a72-8bef-b99c1f6692a8","ios":"levelo://app?vid=29cbc531-a099-4a72-8bef-b99c1f6692a8"},"vehicle_type_id":"4","last_reported":1717611010,"current_range_meters":8000,"station_id":"ce4bgvp2rcd13ifvqcu0","pricing_plan_id":"cebpf4jnsgd1na2vs0mg"},{"bike_id":"c712651c-872d-4468-a180-fe94131b6c7b","system_id":"levelo_inurba_marseille","lat":43.309038,"lon":5.396546,"is_reserved":false,"is_disabled":false,"rental_uris":{"android":"levelo://app?vid=c712651c-872d-4468-a180-fe94131b6c7b","ios":"levelo://app?vid=c712651c-872d-4468-a180-fe94131b6c7b"},"vehicle_type_id":"4","last_reported":1717611010,"current_range_meters":10000,"station_id":"ce4bh012rcd13ifvqcv0","pricing_plan_id":"cebpf4jnsgd1na2vs0mg"},{"bike_id":"4d3c82a3-c6c6-4d5c-a61a-301f82f9bcdc","system_id":"levelo_inurba_marseille","lat":43.313291,"lon":5.396838,"is_reserved":false,"is_disabled":false,"rental_uris":{"android":"levelo://app?vid=4d3c82a3-c6c6-4d5c-a61a-301f82f9bcdc","ios":"levelo://app?vid=4d3c82a3-c6c6-4d5c-a61a-301f82f9bcdc"},"vehicle_type_id":"4","last_reported":1717611010,"current_range_meters":28000,"station_id":"ce4bgvp2rcd13ifvqcu0","pricing_plan_id":"cebpf4jnsgd1na2vs0mg"},{"bike_id":"912787c5-05e1-419e-8dcf-306fd42fef98","system_id":"levelo_inurba_marseille","lat":43.29529,"lon":5.385581,"is_reserved":false,"is_disabled":false,"rental_uris":{"android":"levelo://app?vid=912787c5-05e1-419e-8dcf-306fd42fef98","ios":"levelo://app?vid=912787c5-05e1-419e-8dcf-306fd42fef98"},"vehicle_type_id":"4","last_reported":1717611010,"current_range_meters":14400,"station_id":"ce4bgih2rcd13ifvqba0","pricing_plan_id":"cebpf4jnsgd1na2vs0mg"},{"bike_id":"84d0d800-c5e0-4a64-887a-1643c31a5254","system_id":"levelo_inurba_marseille","lat":43.313291,"lon":5.396838,"is_reserved":false,"is_disabled":false,"rental_uris":{"android":"levelo://app?vid=84d0d800-c5e0-4a64-887a-1643c31a5254","ios":"levelo://app?vid=84d0d800-c5e0-4a64-887a-1643c31a5254"},"vehicle_type_id":"4","last_reported":1717611010,"current_range_meters":2000,"station_id":"ce4bgvp2rcd13ifvqcu0","pricing_plan_id":"cebpf4jnsgd1na2vs0mg"},{"bike_id":"9621565c-2518-4877-8929-fb9fdce33842","system_id":"levelo_inurba_marseille","lat":43.291847,"lon":5.358066,"is_reserved":false,"is_disabled":false,"rental_uris":{"android":"levelo://app?vid=9621565c-2518-4877-8929-fb9fdce33842","ios":"levelo://app?vid=9621565c-2518-4877-8929-fb9fdce33842"},"vehicle_type_id":"4","last_reported":1717611010,"current_range_meters":29600,"station_id":"ce4bhb12rcd13ifvqel0","pricing_plan_id":"cebpf4jnsgd1na2vs0mg"},{"bike_id":"0b504bf2-6dea-4f65-86a3-8a3eabb69ca0","system_id":"levelo_inurba_marseille","lat":43.31325,"lon":5.39698,"is_reserved":false,"is_disabled":false,"rental_uris":{"android":"levelo://app?vid=0b504bf2-6dea-4f65-86a3-8a3eabb69ca0","ios":"levelo://app?vid=0b504bf2-6dea-4f65-86a3-8a3eabb69ca0"},"vehicle_type_id":"4","last_reported":1717611010,"current_range_meters":0,"station_id":"ce4bgvp2rcd13ifvqcu0","pricing_plan_id":"cebpf4jnsgd1na2vs0mg"},{"bike_id":"ae314c5a-4fa1-4e58-855c-a81da2fcbd5c","system_id":"levelo_inurba_marseille","lat":43.313291,"lon":5.396838,"is_reserved":false,"is_disabled":false,"rental_uris":{"android":"levelo://app?vid=ae314c5a-4fa1-4e58-855c-a81da2fcbd5c","ios":"levelo://app?vid=ae314c5a-4fa1-4e58-855c-a81da2fcbd5c"},"vehicle_type_id":"4","last_reported":1717611010,"current_range_meters":28400,"station_id":"ce4bgvp2rcd13ifvqcu0","pricing_plan_id":"cebpf4jnsgd1na2vs0mg"},{"bike_id":"e50217af-ac97-4a95-9c37-5a1e541ec80d","system_id":"levelo_inurba_marseille","lat":43.291843,"lon":5.357961,"is_reserved":false,"is_disabled":false,"rental_uris":{"android":"levelo://app?vid=e50217af-ac97-4a95-9c37-5a1e541ec80d","ios":"levelo://app?vid=e50217af-ac97-4a95-9c37-5a1e541ec80d"},"vehicle_type_id":"4","last_reported":1717611010,"current_range_meters":0,"station_id":"ce4bhb12rcd13ifvqel0","pricing_plan_id":"cebpf4jnsgd1na2vs0mg"},{"bike_id":"453040e3-c3f6-4b77-9121-158f6fa9d946","system_id":"levelo_inurba_marseille","lat":43.309038,"lon":5.396546,"is_reserved":false,"is_disabled":false,"rental_uris":{"android":"levelo://app?vid=453040e3-c3f6-4b77-9121-158f6fa9d946","ios":"levelo://app?vid=453040e3-c3f6-4b77-9121-158f6fa9d946"},"vehicle_type_id":"4","last_reported":1717611010,"current_range_meters":6800,"station_id":"ce4bh012rcd13ifvqcv0","pricing_plan_id":"cebpf4jnsgd1na2vs0mg"},{"bike_id":"5563bb06-f2c8-48f8-8535-4f5822c0e75f","system_id":"levelo_inurba_marseille","lat":43.292005,"lon":5.357875,"is_reserved":false,"is_disabled":false,"rental_uris":{"android":"levelo://app?vid=5563bb06-f2c8-48f8-8535-4f5822c0e75f","ios":"levelo://app?vid=5563bb06-f2c8-48f8-8535-4f5822c0e75f"},"vehicle_type_id":"4","last_reported":1717611010,"current_range_meters":17600,"station_id":"ce4bhb12rcd13ifvqel0","pricing_plan_id":"cebpf4jnsgd1na2vs0mg"},{"bike_id":"5ef9cb1e-017c-4051-88ac-e5497d49a848","system_id":"levelo_inurba_marseille","lat":43.290779,"lon":5.371482,"is_reserved":false,"is_disabled":false,"rental_uris":{"android":"levelo://app?vid=5ef9cb1e-017c-4051-88ac-e5497d49a848","ios":"levelo://app?vid=5ef9cb1e-017c-4051-88ac-e5497d49a848"},"vehicle_type_id":"4","last_reported":1717611010,"current_range_meters":7600,"station_id":"ce4bh5p2rcd13ifvqe4g","pricing_plan_id":"cebpf4jnsgd1na2vs0mg"},{"bike_id":"99d2b11b-04d8-4841-88fb-b3082afb8f36","system_id":"levelo_inurba_marseille","lat":43.290779,"lon":5.371482,"is_reserved":false,"is_disabled":false,"rental_uris":{"android":"levelo://app?vid=99d2b11b-04d8-4841-88fb-b3082afb8f36","ios":"levelo://app?vid=99d2b11b-04d8-4841-88fb-b3082afb8f36"},"vehicle_type_id":"4","last_reported":1717611010,"current_range_meters":18400,"station_id":"ce4bh5p2rcd13ifvqe4g","pricing_plan_id":"cebpf4jnsgd1na2vs0mg"},{"bike_id":"39cd1d7d-d74f-42f9-b15b-1d14afa38a9b","system_id":"levelo_inurba_marseille","lat":43.302103,"lon":5.39463,"is_reserved":false,"is_disabled":false,"rental_uris":{"android":"levelo://app?vid=39cd1d7d-d74f-42f9-b15b-1d14afa38a9b","ios":"levelo://app?vid=39cd1d7d-d74f-42f9-b15b-1d14afa38a9b"},"vehicle_type_id":"4","last_reported":1717611010,"current_range_meters":0,"station_id":"ce4bh0p2rcd13ifvqd70","pricing_plan_id":"cebpf4jnsgd1na2vs0mg"},{"bike_id":"c84f7173-feb1-4c7d-89c0-f193b52eb033","system_id":"levelo_inurba_marseille","lat":43.294162,"lon":5.386292,"is_reserved":false,"is_disabled":false,"rental_uris":{"android":"levelo://app?vid=c84f7173-feb1-4c7d-89c0-f193b52eb033","ios":"levelo://app?vid=c84f7173-feb1-4c7d-89c0-f193b52eb033"},"vehicle_type_id":"4","last_reported":1717611010,"current_range_meters":23600,"station_id":"ce4bh2h2rcd13ifvqdh0","pricing_plan_id":"cebpf4jnsgd1na2vs0mg"},{"bike_id":"5348bf8e-35f5-47ef-8ec7-6bd6aad680aa","system_id":"levelo_inurba_marseille","lat":43.289184,"lon":5.366408,"is_reserved":false,"is_disabled":false,"rental_uris":{"android":"levelo://app?vid=5348bf8e-35f5-47ef-8ec7-6bd6aad680aa","ios":"levelo://app?vid=5348bf8e-35f5-47ef-8ec7-6bd6aad680aa"},"vehicle_type_id":"4","last_reported":1717611010,"current_range_meters":1600,"station_id":"ce4bhap2rcd13ifvqek0","pricing_plan_id":"cebpf4jnsgd1na2vs0mg"},{"bike_id":"39596863-f292-46cf-a3b2-a60172992cff","system_id":"levelo_inurba_marseille","lat":43.294241,"lon":5.386141,"is_reserved":false,"is_disabled":false,"rental_uris":{"android":"levelo://app?vid=39596863-f292-46cf-a3b2-a60172992cff","ios":"levelo://app?vid=39596863-f292-46cf-a3b2-a60172992cff"},"vehicle_type_id":"4","last_reported":1717611010,"current_range_meters":0,"station_id":"ce4bh2h2rcd13ifvqdh0","pricing_plan_id":"cebpf4jnsgd1na2vs0mg"},{"bike_id":"7396a45f-f797-4e92-9f4c-597ca60633c1","system_id":"levelo_inurba_marseille","lat":43.289184,"lon":5.366408,"is_reserved":false,"is_disabled":false,"rental_uris":{"android":"levelo://app?vid=7396a45f-f797-4e92-9f4c-597ca60633c1","ios":"levelo://app?vid=7396a45f-f797-4e92-9f4c-597ca60633c1"},"vehicle_type_id":"4","last_reported":1717611010,"current_range_meters":18000,"station_id":"ce4bhap2rcd13ifvqek0","pricing_plan_id":"cebpf4jnsgd1na2vs0mg"},{"bike_id":"3a9217ea-454c-41c5-8ca2-0eb534e95994","system_id":"levelo_inurba_marseille","lat":43.290327,"lon":5.375711,"is_reserved":false,"is_disabled":false,"rental_uris":{"android":"levelo://app?vid=3a9217ea-454c-41c5-8ca2-0eb534e95994","ios":"levelo://app?vid=3a9217ea-454c-41c5-8ca2-0eb534e95994"},"vehicle_type_id":"4","last_reported":1717611010,"current_range_meters":2800,"station_id":"ce4bh692rcd13ifvqe90","pricing_plan_id":"cebpf4jnsgd1na2vs0mg"},{"bike_id":"00ed0a33-b632-47b3-acb6-c182896e0601","system_id":"levelo_inurba_marseille","lat":43.294162,"lon":5.386292,"is_reserved":false,"is_disabled":false,"rental_uris":{"android":"levelo://app?vid=00ed0a33-b632-47b3-acb6-c182896e0601","ios":"levelo://app?vid=00ed0a33-b632-47b3-acb6-c182896e0601"},"vehicle_type_id":"4","last_reported":1717611010,"current_range_meters":400,"station_id":"ce4bh2h2rcd13ifvqdh0","pricing_plan_id":"cebpf4jnsgd1na2vs0mg"},{"bike_id":"02723fa7-e884-4f2f-8ef0-22f52aa8381b","system_id":"levelo_inurba_marseille","lat":43.294162,"lon":5.386292,"is_reserved":false,"is_disabled":false,"rental_uris":{"android":"levelo://app?vid=02723fa7-e884-4f2f-8ef0-22f52aa8381b","ios":"levelo://app?vid=02723fa7-e884-4f2f-8ef0-22f52aa8381b"},"vehicle_type_id":"4","last_reported":1717611010,"current_range_meters":26000,"station_id":"ce4bh2h2rcd13ifvqdh0","pricing_plan_id":"cebpf4jnsgd1na2vs0mg"},{"bike_id":"e2b96b90-8e3b-4dea-a03a-f4a97c135366","system_id":"levelo_inurba_marseille","lat":43.29418,"lon":5.38623,"is_reserved":false,"is_disabled":false,"rental_uris":{"android":"levelo://app?vid=e2b96b90-8e3b-4dea-a03a-f4a97c135366","ios":"levelo://app?vid=e2b96b90-8e3b-4dea-a03a-f4a97c135366"},"vehicle_type_id":"4","last_reported":1717611010,"current_range_meters":0,"station_id":"ce4bh2h2rcd13ifvqdh0","pricing_plan_id":"cebpf4jnsgd1na2vs0mg"},{"bike_id":"acfe0f1f-a100-44d2-a54d-ff9479b0cf45","system_id":"levelo_inurba_marseille","lat":43.294153,"lon":5.386305,"is_reserved":false,"is_disabled":false,"rental_uris":{"android":"levelo://app?vid=acfe0f1f-a100-44d2-a54d-ff9479b0cf45","ios":"levelo://app?vid=acfe0f1f-a100-44d2-a54d-ff9479b0cf45"},"vehicle_type_id":"4","last_reported":1717611010,"current_range_meters":400,"station_id":"ce4bh2h2rcd13ifvqdh0","pricing_plan_id":"cebpf4jnsgd1na2vs0mg"},{"bike_id":"7593d9db-0824-40ab-9551-42d8103196c5","system_id":"levelo_inurba_marseille","lat":43.289184,"lon":5.366408,"is_reserved":false,"is_disabled":false,"rental_uris":{"android":"levelo://app?vid=7593d9db-0824-40ab-9551-42d8103196c5","ios":"levelo://app?vid=7593d9db-0824-40ab-9551-42d8103196c5"},"vehicle_type_id":"4","last_reported":1717611010,"current_range_meters":5200,"station_id":"ce4bhap2rcd13ifvqek0","pricing_plan_id":"cebpf4jnsgd1na2vs0mg"},{"bike_id":"5cd5edfe-7234-4e0c-9eb8-0982350d4f93","system_id":"levelo_inurba_marseille","lat":43.289184,"lon":5.366408,"is_reserved":false,"is_disabled":false,"rental_uris":{"android":"levelo://app?vid=5cd5edfe-7234-4e0c-9eb8-0982350d4f93","ios":"levelo://app?vid=5cd5edfe-7234-4e0c-9eb8-0982350d4f93"},"vehicle_type_id":"4","last_reported":1717611010,"current_range_meters":4800,"station_id":"ce4bhap2rcd13ifvqek0","pricing_plan_id":"cebpf4jnsgd1na2vs0mg"},{"bike_id":"6fd3a8fb-2e4f-4547-8258-173552a89b88","system_id":"levelo_inurba_marseille","lat":43.289184,"lon":5.366408,"is_reserved":false,"is_disabled":false,"rental_uris":{"android":"levelo://app?vid=6fd3a8fb-2e4f-4547-8258-173552a89b88","ios":"levelo://app?vid=6fd3a8fb-2e4f-4547-8258-173552a89b88"},"vehicle_type_id":"4","last_reported":1717611010,"current_range_meters":10800,"station_id":"ce4bhap2rcd13ifvqek0","pricing_plan_id":"cebpf4jnsgd1na2vs0mg"},{"bike_id":"dbc48891-ca6c-4114-9e4c-e1f41b8a1229","system_id":"levelo_inurba_marseille","lat":43.289184,"lon":5.366408,"is_reserved":false,"is_disabled":false,"rental_uris":{"android":"levelo://app?vid=dbc48891-ca6c-4114-9e4c-e1f41b8a1229","ios":"levelo://app?vid=dbc48891-ca6c-4114-9e4c-e1f41b8a1229"},"vehicle_type_id":"4","last_reported":1717611010,"current_range_meters":23600,"station_id":"ce4bhap2rcd13ifvqek0","pricing_plan_id":"cebpf4jnsgd1na2vs0mg"},{"bike_id":"589b8267-dd89-4356-89c7-097b59279923","system_id":"levelo_inurba_marseille","lat":43.289184,"lon":5.366408,"is_reserved":false,"is_disabled":false,"rental_uris":{"android":"levelo://app?vid=589b8267-dd89-4356-89c7-097b59279923","ios":"levelo://app?vid=589b8267-dd89-4356-89c7-097b59279923"},"vehicle_type_id":"4","last_reported":1717611010,"current_range_meters":3600,"station_id":"ce4bhap2rcd13ifvqek0","pricing_plan_id":"cebpf4jnsgd1na2vs0mg"},{"bike_id":"eb252734-e9ea-4980-8fb5-6169215b1aa9","system_id":"levelo_inurba_marseille","lat":43.29409,"lon":5.38623,"is_reserved":false,"is_disabled":false,"rental_uris":{"android":"levelo://app?vid=eb252734-e9ea-4980-8fb5-6169215b1aa9","ios":"levelo://app?vid=eb252734-e9ea-4980-8fb5-6169215b1aa9"},"vehicle_type_id":"4","last_reported":1717611010,"current_range_meters":30000,"station_id":"ce4bh2h2rcd13ifvqdh0","pricing_plan_id":"cebpf4jnsgd1na2vs0mg"},{"bike_id":"1a8f6341-469a-4ec7-b82b-8c8c4a093eb6","system_id":"levelo_inurba_marseille","lat":43.28938,"lon":5.36639,"is_reserved":false,"is_disabled":false,"rental_uris":{"android":"levelo://app?vid=1a8f6341-469a-4ec7-b82b-8c8c4a093eb6","ios":"levelo://app?vid=1a8f6341-469a-4ec7-b82b-8c8c4a093eb6"},"vehicle_type_id":"4","last_reported":1717611010,"current_range_meters":0,"station_id":"ce4bhap2rcd13ifvqek0","pricing_plan_id":"cebpf4jnsgd1na2vs0mg"},{"bike_id":"31095617-82b9-42ed-a4e1-87f35054a44e","system_id":"levelo_inurba_marseille","lat":43.28937,"lon":5.36635,"is_reserved":false,"is_disabled":false,"rental_uris":{"android":"levelo://app?vid=31095617-82b9-42ed-a4e1-87f35054a44e","ios":"levelo://app?vid=31095617-82b9-42ed-a4e1-87f35054a44e"},"vehicle_type_id":"4","last_reported":1717611010,"current_range_meters":10400,"station_id":"ce4bhap2rcd13ifvqek0","pricing_plan_id":"cebpf4jnsgd1na2vs0mg"},{"bike_id":"53cdd9e6-1fd7-4919-8828-46d6ab7799b2","system_id":"levelo_inurba_marseille","lat":43.289184,"lon":5.366408,"is_reserved":false,"is_disabled":false,"rental_uris":{"android":"levelo://app?vid=53cdd9e6-1fd7-4919-8828-46d6ab7799b2","ios":"levelo://app?vid=53cdd9e6-1fd7-4919-8828-46d6ab7799b2"},"vehicle_type_id":"4","last_reported":1717611010,"current_range_meters":28800,"station_id":"ce4bhap2rcd13ifvqek0","pricing_plan_id":"cebpf4jnsgd1na2vs0mg"},{"bike_id":"02877769-3768-4283-9b02-dae364c11292","system_id":"levelo_inurba_marseille","lat":43.290319,"lon":5.375732,"is_reserved":false,"is_disabled":false,"rental_uris":{"android":"levelo://app?vid=02877769-3768-4283-9b02-dae364c11292","ios":"levelo://app?vid=02877769-3768-4283-9b02-dae364c11292"},"vehicle_type_id":"4","last_reported":1717611010,"current_range_meters":0,"station_id":"ce4bh692rcd13ifvqe90","pricing_plan_id":"cebpf4jnsgd1na2vs0mg"},{"bike_id":"8097273f-a5ff-4625-8478-f4e4f1d7cf04","system_id":"levelo_inurba_marseille","lat":43.28933,"lon":5.36635,"is_reserved":false,"is_disabled":false,"rental_uris":{"android":"levelo://app?vid=8097273f-a5ff-4625-8478-f4e4f1d7cf04","ios":"levelo://app?vid=8097273f-a5ff-4625-8478-f4e4f1d7cf04"},"vehicle_type_id":"4","last_reported":1717611010,"current_range_meters":0,"station_id":"ce4bhap2rcd13ifvqek0","pricing_plan_id":"cebpf4jnsgd1na2vs0mg"},{"bike_id":"5216ecb3-e466-4f1a-bf93-bb2f16a4e908","system_id":"levelo_inurba_marseille","lat":43.28934,"lon":5.36391,"is_reserved":false,"is_disabled":false,"rental_uris":{"android":"levelo://app?vid=5216ecb3-e466-4f1a-bf93-bb2f16a4e908","ios":"levelo://app?vid=5216ecb3-e466-4f1a-bf93-bb2f16a4e908"},"vehicle_type_id":"4","last_reported":1717611010,"current_range_meters":2800,"station_id":"ce4bhc92rcd13ifvqetg","pricing_plan_id":"cebpf4jnsgd1na2vs0mg"},{"bike_id":"52c0fa84-9789-4cf4-a602-ec2aea117c15","system_id":"levelo_inurba_marseille","lat":43.29271,"lon":5.38439,"is_reserved":false,"is_disabled":false,"rental_uris":{"android":"levelo://app?vid=52c0fa84-9789-4cf4-a602-ec2aea117c15","ios":"levelo://app?vid=52c0fa84-9789-4cf4-a602-ec2aea117c15"},"vehicle_type_id":"4","last_reported":1717611010,"current_range_meters":28800,"station_id":"ce4bh692rcd13ifvqea0","pricing_plan_id":"cebpf4jnsgd1na2vs0mg"},{"bike_id":"ba339408-5c53-4336-a0ec-b798afe62f19","system_id":"levelo_inurba_marseille","lat":43.29123,"lon":5.38078,"is_reserved":false,"is_disabled":false,"rental_uris":{"android":"levelo://app?vid=ba339408-5c53-4336-a0ec-b798afe62f19","ios":"levelo://app?vid=ba339408-5c53-4336-a0ec-b798afe62f19"},"vehicle_type_id":"4","last_reported":1717611010,"current_range_meters":0,"station_id":"","pricing_plan_id":"cebpf4jnsgd1na2vs0mg"},{"bike_id":"38c741f5-6743-4dfc-8cac-749ef8330639","system_id":"levelo_inurba_marseille","lat":43.292642,"lon":5.384254,"is_reserved":false,"is_disabled":false,"rental_uris":{"android":"levelo://app?vid=38c741f5-6743-4dfc-8cac-749ef8330639","ios":"levelo://app?vid=38c741f5-6743-4dfc-8cac-749ef8330639"},"vehicle_type_id":"4","last_reported":1717611010,"current_range_meters":0,"station_id":"ce4bh692rcd13ifvqea0","pricing_plan_id":"cebpf4jnsgd1na2vs0mg"},{"bike_id":"db0851a6-de7b-4f08-ae36-bc18b0dd6dd7","system_id":"levelo_inurba_marseille","lat":43.29257,"lon":5.38446,"is_reserved":false,"is_disabled":false,"rental_uris":{"android":"levelo://app?vid=db0851a6-de7b-4f08-ae36-bc18b0dd6dd7","ios":"levelo://app?vid=db0851a6-de7b-4f08-ae36-bc18b0dd6dd7"},"vehicle_type_id":"4","last_reported":1717611010,"current_range_meters":0,"station_id":"ce4bh692rcd13ifvqea0","pricing_plan_id":"cebpf4jnsgd1na2vs0mg"},{"bike_id":"490cda95-b340-40ca-8850-838b52d7a380","system_id":"levelo_inurba_marseille","lat":43.29251,"lon":5.38437,"is_reserved":false,"is_disabled":false,"rental_uris":{"android":"levelo://app?vid=490cda95-b340-40ca-8850-838b52d7a380","ios":"levelo://app?vid=490cda95-b340-40ca-8850-838b52d7a380"},"vehicle_type_id":"4","last_reported":1717611010,"current_range_meters":29600,"station_id":"ce4bh692rcd13ifvqea0","pricing_plan_id":"cebpf4jnsgd1na2vs0mg"},{"bike_id":"34340ec6-d00b-4294-bf01-58d7df221cd7","system_id":"levelo_inurba_marseille","lat":43.29255,"lon":5.38447,"is_reserved":false,"is_disabled":false,"rental_uris":{"android":"levelo://app?vid=34340ec6-d00b-4294-bf01-58d7df221cd7","ios":"levelo://app?vid=34340ec6-d00b-4294-bf01-58d7df221cd7"},"vehicle_type_id":"4","last_reported":1717611010,"current_range_meters":0,"station_id":"ce4bh692rcd13ifvqea0","pricing_plan_id":"cebpf4jnsgd1na2vs0mg"},{"bike_id":"1cb50814-faff-4e76-9846-61cd5311f81e","system_id":"levelo_inurba_marseille","lat":43.29256,"lon":5.38454,"is_reserved":false,"is_disabled":false,"rental_uris":{"android":"levelo://app?vid=1cb50814-faff-4e76-9846-61cd5311f81e","ios":"levelo://app?vid=1cb50814-faff-4e76-9846-61cd5311f81e"},"vehicle_type_id":"4","last_reported":1717611010,"current_range_meters":30400,"station_id":"ce4bh692rcd13ifvqea0","pricing_plan_id":"cebpf4jnsgd1na2vs0mg"},{"bike_id":"50093937-bf7c-46be-8f01-0d3856e277b5","system_id":"levelo_inurba_marseille","lat":43.2901,"lon":5.381269,"is_reserved":false,"is_disabled":false,"rental_uris":{"android":"levelo://app?vid=50093937-bf7c-46be-8f01-0d3856e277b5","ios":"levelo://app?vid=50093937-bf7c-46be-8f01-0d3856e277b5"},"vehicle_type_id":"4","last_reported":1717611010,"current_range_meters":23600,"station_id":"ce4bh4p2rcd13ifvqe1g","pricing_plan_id":"cebpf4jnsgd1na2vs0mg"},{"bike_id":"29998c27-56c6-46b4-a53b-27f21958197e","system_id":"levelo_inurba_marseille","lat":43.290103,"lon":5.356114,"is_reserved":false,"is_disabled":false,"rental_uris":{"android":"levelo://app?vid=29998c27-56c6-46b4-a53b-27f21958197e","ios":"levelo://app?vid=29998c27-56c6-46b4-a53b-27f21958197e"},"vehicle_type_id":"4","last_reported":1717611010,"current_range_meters":4400,"station_id":"ce4bhb92rcd13ifvqen0","pricing_plan_id":"cebpf4jnsgd1na2vs0mg"},{"bike_id":"2f695a8d-df52-494b-9f28-7aae615b4034","system_id":"levelo_inurba_marseille","lat":43.292642,"lon":5.384254,"is_reserved":false,"is_disabled":false,"rental_uris":{"android":"levelo://app?vid=2f695a8d-df52-494b-9f28-7aae615b4034","ios":"levelo://app?vid=2f695a8d-df52-494b-9f28-7aae615b4034"},"vehicle_type_id":"4","last_reported":1717611010,"current_range_meters":400,"station_id":"ce4bh692rcd13ifvqea0","pricing_plan_id":"cebpf4jnsgd1na2vs0mg"},{"bike_id":"d7deef3d-b4c0-4fc2-915f-a45035c24449","system_id":"levelo_inurba_marseille","lat":43.29004,"lon":5.35608,"is_reserved":false,"is_disabled":false,"rental_uris":{"android":"levelo://app?vid=d7deef3d-b4c0-4fc2-915f-a45035c24449","ios":"levelo://app?vid=d7deef3d-b4c0-4fc2-915f-a45035c24449"},"vehicle_type_id":"4","last_reported":1717611010,"current_range_meters":31200,"station_id":"ce4bhb92rcd13ifvqen0","pricing_plan_id":"cebpf4jnsgd1na2vs0mg"},{"bike_id":"579a3171-aebd-47b5-8da6-d95ece460888","system_id":"levelo_inurba_marseille","lat":43.29001,"lon":5.35619,"is_reserved":false,"is_disabled":false,"rental_uris":{"android":"levelo://app?vid=579a3171-aebd-47b5-8da6-d95ece460888","ios":"levelo://app?vid=579a3171-aebd-47b5-8da6-d95ece460888"},"vehicle_type_id":"4","last_reported":1717611010,"current_range_meters":24400,"station_id":"ce4bhb92rcd13ifvqen0","pricing_plan_id":"cebpf4jnsgd1na2vs0mg"},{"bike_id":"7013bdd7-5612-49f5-aa18-968f7bd24767","system_id":"levelo_inurba_marseille","lat":43.28999,"lon":5.35612,"is_reserved":false,"is_disabled":false,"rental_uris":{"android":"levelo://app?vid=7013bdd7-5612-49f5-aa18-968f7bd24767","ios":"levelo://app?vid=7013bdd7-5612-49f5-aa18-968f7bd24767"},"vehicle_type_id":"4","last_reported":1717611010,"current_range_meters":31200,"station_id":"ce4bhb92rcd13ifvqen0","pricing_plan_id":"cebpf4jnsgd1na2vs0mg"},{"bike_id":"07d7e84d-87a3-4461-9193-9114c038a7cb","system_id":"levelo_inurba_marseille","lat":43.289743,"lon":5.378304,"is_reserved":false,"is_disabled":false,"rental_uris":{"android":"levelo://app?vid=07d7e84d-87a3-4461-9193-9114c038a7cb","ios":"levelo://app?vid=07d7e84d-87a3-4461-9193-9114c038a7cb"},"vehicle_type_id":"4","last_reported":1717611010,"current_range_meters":4400,"station_id":"ce4bh9p2rcd13ifvqed0","pricing_plan_id":"cebpf4jnsgd1na2vs0mg"},{"bike_id":"e86ddd49-58db-40ad-8a33-533abe7a0068","system_id":"levelo_inurba_marseille","lat":43.289743,"lon":5.378304,"is_reserved":false,"is_disabled":false,"rental_uris":{"android":"levelo://app?vid=e86ddd49-58db-40ad-8a33-533abe7a0068","ios":"levelo://app?vid=e86ddd49-58db-40ad-8a33-533abe7a0068"},"vehicle_type_id":"4","last_reported":1717611010,"current_range_meters":4400,"station_id":"ce4bh9p2rcd13ifvqed0","pricing_plan_id":"cebpf4jnsgd1na2vs0mg"},{"bike_id":"5d39a9a7-9b2b-46e5-bb25-ef44b04c8d22","system_id":"levelo_inurba_marseille","lat":43.295169,"lon":5.390426,"is_reserved":false,"is_disabled":false,"rental_uris":{"android":"levelo://app?vid=5d39a9a7-9b2b-46e5-bb25-ef44b04c8d22","ios":"levelo://app?vid=5d39a9a7-9b2b-46e5-bb25-ef44b04c8d22"},"vehicle_type_id":"4","last_reported":1717611010,"current_range_meters":0,"station_id":"ce4bh3p2rcd13ifvqdp0","pricing_plan_id":"cebpf4jnsgd1na2vs0mg"},{"bike_id":"15ccb0af-7302-4652-9b33-819321395ba1","system_id":"levelo_inurba_marseille","lat":43.289743,"lon":5.378304,"is_reserved":false,"is_disabled":false,"rental_uris":{"android":"levelo://app?vid=15ccb0af-7302-4652-9b33-819321395ba1","ios":"levelo://app?vid=15ccb0af-7302-4652-9b33-819321395ba1"},"vehicle_type_id":"4","last_reported":1717611010,"current_range_meters":5600,"station_id":"ce4bh9p2rcd13ifvqed0","pricing_plan_id":"cebpf4jnsgd1na2vs0mg"},{"bike_id":"38ed73d8-9003-4f96-b4ee-88649899b0bd","system_id":"levelo_inurba_marseille","lat":43.33025,"lon":5.39038,"is_reserved":false,"is_disabled":false,"rental_uris":{"android":"levelo://app?vid=38ed73d8-9003-4f96-b4ee-88649899b0bd","ios":"levelo://app?vid=38ed73d8-9003-4f96-b4ee-88649899b0bd"},"vehicle_type_id":"4","last_reported":1717611010,"current_range_meters":21600,"station_id":"ce4bhr92rcd13ifvqhrg","pricing_plan_id":"cebpf4jnsgd1na2vs0mg"},{"bike_id":"7b8b63db-e69a-491b-860d-19990b5c8244","system_id":"levelo_inurba_marseille","lat":43.295169,"lon":5.390426,"is_reserved":false,"is_disabled":false,"rental_uris":{"android":"levelo://app?vid=7b8b63db-e69a-491b-860d-19990b5c8244","ios":"levelo://app?vid=7b8b63db-e69a-491b-860d-19990b5c8244"},"vehicle_type_id":"4","last_reported":1717611010,"current_range_meters":0,"station_id":"ce4bh3p2rcd13ifvqdp0","pricing_plan_id":"cebpf4jnsgd1na2vs0mg"},{"bike_id":"cc89a354-f255-470b-9559-e6337e9389a5","system_id":"levelo_inurba_marseille","lat":43.33027,"lon":5.39043,"is_reserved":false,"is_disabled":false,"rental_uris":{"android":"levelo://app?vid=cc89a354-f255-470b-9559-e6337e9389a5","ios":"levelo://app?vid=cc89a354-f255-470b-9559-e6337e9389a5"},"vehicle_type_id":"4","last_reported":1717611010,"current_range_meters":11200,"station_id":"ce4bhr92rcd13ifvqhrg","pricing_plan_id":"cebpf4jnsgd1na2vs0mg"},{"bike_id":"4eb95726-f99d-4dc2-bfb0-7cedbb7acc2f","system_id":"levelo_inurba_marseille","lat":43.295169,"lon":5.390426,"is_reserved":false,"is_disabled":false,"rental_uris":{"android":"levelo://app?vid=4eb95726-f99d-4dc2-bfb0-7cedbb7acc2f","ios":"levelo://app?vid=4eb95726-f99d-4dc2-bfb0-7cedbb7acc2f"},"vehicle_type_id":"4","last_reported":1717611010,"current_range_meters":5200,"station_id":"ce4bh3p2rcd13ifvqdp0","pricing_plan_id":"cebpf4jnsgd1na2vs0mg"},{"bike_id":"46cd2ce3-d68b-49dd-aa13-ddb836999377","system_id":"levelo_inurba_marseille","lat":43.2978,"lon":5.39361,"is_reserved":false,"is_disabled":false,"rental_uris":{"android":"levelo://app?vid=46cd2ce3-d68b-49dd-aa13-ddb836999377","ios":"levelo://app?vid=46cd2ce3-d68b-49dd-aa13-ddb836999377"},"vehicle_type_id":"4","last_reported":1717611010,"current_range_meters":0,"station_id":"chh1huq6cuj3fo74tm60","pricing_plan_id":"cebpf4jnsgd1na2vs0mg"},{"bike_id":"8cda2e6e-0754-4c11-899d-3b349293ba92","system_id":"levelo_inurba_marseille","lat":43.295169,"lon":5.390426,"is_reserved":false,"is_disabled":false,"rental_uris":{"android":"levelo://app?vid=8cda2e6e-0754-4c11-899d-3b349293ba92","ios":"levelo://app?vid=8cda2e6e-0754-4c11-899d-3b349293ba92"},"vehicle_type_id":"4","last_reported":1717611010,"current_range_meters":16400,"station_id":"ce4bh3p2rcd13ifvqdp0","pricing_plan_id":"cebpf4jnsgd1na2vs0mg"},{"bike_id":"7bd5057b-45b7-45c2-a28d-43d11b391d69","system_id":"levelo_inurba_marseille","lat":43.295169,"lon":5.390426,"is_reserved":false,"is_disabled":false,"rental_uris":{"android":"levelo://app?vid=7bd5057b-45b7-45c2-a28d-43d11b391d69","ios":"levelo://app?vid=7bd5057b-45b7-45c2-a28d-43d11b391d69"},"vehicle_type_id":"4","last_reported":1717611010,"current_range_meters":0,"station_id":"ce4bh3p2rcd13ifvqdp0","pricing_plan_id":"cebpf4jnsgd1na2vs0mg"},{"bike_id":"3d275d3b-7916-4680-a864-8b5629c80984","system_id":"levelo_inurba_marseille","lat":43.289741,"lon":5.378306,"is_reserved":false,"is_disabled":false,"rental_uris":{"android":"levelo://app?vid=3d275d3b-7916-4680-a864-8b5629c80984","ios":"levelo://app?vid=3d275d3b-7916-4680-a864-8b5629c80984"},"vehicle_type_id":"4","last_reported":1717611010,"current_range_meters":5200,"station_id":"ce4bh9p2rcd13ifvqed0","pricing_plan_id":"cebpf4jnsgd1na2vs0mg"},{"bike_id":"abab8b9c-0ec7-4534-9c4c-3ab005b0aded","system_id":"levelo_inurba_marseille","lat":43.2897,"lon":5.35485,"is_reserved":false,"is_disabled":false,"rental_uris":{"android":"levelo://app?vid=abab8b9c-0ec7-4534-9c4c-3ab005b0aded","ios":"levelo://app?vid=abab8b9c-0ec7-4534-9c4c-3ab005b0aded"},"vehicle_type_id":"4","last_reported":1717611010,"current_range_meters":30000,"station_id":"","pricing_plan_id":"cebpf4jnsgd1na2vs0mg"},{"bike_id":"4a33c4c4-30c3-41a7-9808-99ca741194d5","system_id":"levelo_inurba_marseille","lat":43.28856,"lon":5.358371,"is_reserved":false,"is_disabled":false,"rental_uris":{"android":"levelo://app?vid=4a33c4c4-30c3-41a7-9808-99ca741194d5","ios":"levelo://app?vid=4a33c4c4-30c3-41a7-9808-99ca741194d5"},"vehicle_type_id":"4","last_reported":1717611010,"current_range_meters":13200,"station_id":"ce4bhb12rcd13ifvqem0","pricing_plan_id":"cebpf4jnsgd1na2vs0mg"},{"bike_id":"4cd27647-95fd-4d97-97db-e27078cf49e9","system_id":"levelo_inurba_marseille","lat":43.303678,"lon":5.398898,"is_reserved":false,"is_disabled":false,"rental_uris":{"android":"levelo://app?vid=4cd27647-95fd-4d97-97db-e27078cf49e9","ios":"levelo://app?vid=4cd27647-95fd-4d97-97db-e27078cf49e9"},"vehicle_type_id":"4","last_reported":1717611010,"current_range_meters":12000,"station_id":"","pricing_plan_id":"cebpf4jnsgd1na2vs0mg"},{"bike_id":"5e6fecb0-40ef-4774-a829-e807711b04c6","system_id":"levelo_inurba_marseille","lat":43.2884,"lon":5.35846,"is_reserved":false,"is_disabled":false,"rental_uris":{"android":"levelo://app?vid=5e6fecb0-40ef-4774-a829-e807711b04c6","ios":"levelo://app?vid=5e6fecb0-40ef-4774-a829-e807711b04c6"},"vehicle_type_id":"4","last_reported":1717611010,"current_range_meters":0,"station_id":"ce4bhb12rcd13ifvqem0","pricing_plan_id":"cebpf4jnsgd1na2vs0mg"},{"bike_id":"4737ceb4-e491-4898-afba-89da1fd8ec29","system_id":"levelo_inurba_marseille","lat":43.337338,"lon":5.374599,"is_reserved":false,"is_disabled":false,"rental_uris":{"android":"levelo://app?vid=4737ceb4-e491-4898-afba-89da1fd8ec29","ios":"levelo://app?vid=4737ceb4-e491-4898-afba-89da1fd8ec29"},"vehicle_type_id":"4","last_reported":1717611010,"current_range_meters":18800,"station_id":"","pricing_plan_id":"cebpf4jnsgd1na2vs0mg"},{"bike_id":"ed10c4e4-d3ba-48d3-9097-538e65a623f5","system_id":"levelo_inurba_marseille","lat":43.33731,"lon":5.37482,"is_reserved":false,"is_disabled":false,"rental_uris":{"android":"levelo://app?vid=ed10c4e4-d3ba-48d3-9097-538e65a623f5","ios":"levelo://app?vid=ed10c4e4-d3ba-48d3-9097-538e65a623f5"},"vehicle_type_id":"4","last_reported":1717611010,"current_range_meters":28800,"station_id":"","pricing_plan_id":"cebpf4jnsgd1na2vs0mg"},{"bike_id":"8fa5a9b8-2cc5-4ab5-9126-4106e10e01d4","system_id":"levelo_inurba_marseille","lat":43.312609,"lon":5.401662,"is_reserved":false,"is_disabled":false,"rental_uris":{"android":"levelo://app?vid=8fa5a9b8-2cc5-4ab5-9126-4106e10e01d4","ios":"levelo://app?vid=8fa5a9b8-2cc5-4ab5-9126-4106e10e01d4"},"vehicle_type_id":"4","last_reported":1717611010,"current_range_meters":0,"station_id":"ce4bh092rcd13ifvqd30","pricing_plan_id":"cebpf4jnsgd1na2vs0mg"},{"bike_id":"481189d6-6da8-454c-baa2-f0351d56678f","system_id":"levelo_inurba_marseille","lat":43.312691,"lon":5.401709,"is_reserved":false,"is_disabled":false,"rental_uris":{"android":"levelo://app?vid=481189d6-6da8-454c-baa2-f0351d56678f","ios":"levelo://app?vid=481189d6-6da8-454c-baa2-f0351d56678f"},"vehicle_type_id":"4","last_reported":1717611010,"current_range_meters":6000,"station_id":"ce4bh092rcd13ifvqd30","pricing_plan_id":"cebpf4jnsgd1na2vs0mg"},{"bike_id":"472bf191-d295-4388-8607-d6f8058bd035","system_id":"levelo_inurba_marseille","lat":43.33746,"lon":5.37443,"is_reserved":false,"is_disabled":false,"rental_uris":{"android":"levelo://app?vid=472bf191-d295-4388-8607-d6f8058bd035","ios":"levelo://app?vid=472bf191-d295-4388-8607-d6f8058bd035"},"vehicle_type_id":"4","last_reported":1717611010,"current_range_meters":29200,"station_id":"","pricing_plan_id":"cebpf4jnsgd1na2vs0mg"},{"bike_id":"da59b7fc-15de-4c08-8922-89b0727c57d8","system_id":"levelo_inurba_marseille","lat":43.30939,"lon":5.40142,"is_reserved":false,"is_disabled":false,"rental_uris":{"android":"levelo://app?vid=da59b7fc-15de-4c08-8922-89b0727c57d8","ios":"levelo://app?vid=da59b7fc-15de-4c08-8922-89b0727c57d8"},"vehicle_type_id":"4","last_reported":1717611010,"current_range_meters":0,"station_id":"ce4bgvp2rcd13ifvqct0","pricing_plan_id":"cebpf4jnsgd1na2vs0mg"},{"bike_id":"a091b1cf-c147-4628-bc2c-98c7ca5cd442","system_id":"levelo_inurba_marseille","lat":43.309371,"lon":5.401449,"is_reserved":false,"is_disabled":false,"rental_uris":{"android":"levelo://app?vid=a091b1cf-c147-4628-bc2c-98c7ca5cd442","ios":"levelo://app?vid=a091b1cf-c147-4628-bc2c-98c7ca5cd442"},"vehicle_type_id":"4","last_reported":1717611010,"current_range_meters":0,"station_id":"ce4bgvp2rcd13ifvqct0","pricing_plan_id":"cebpf4jnsgd1na2vs0mg"},{"bike_id":"e779f2fd-b29b-42f2-b4b4-1989168150a6","system_id":"levelo_inurba_marseille","lat":43.312609,"lon":5.401662,"is_reserved":false,"is_disabled":false,"rental_uris":{"android":"levelo://app?vid=e779f2fd-b29b-42f2-b4b4-1989168150a6","ios":"levelo://app?vid=e779f2fd-b29b-42f2-b4b4-1989168150a6"},"vehicle_type_id":"4","last_reported":1717611010,"current_range_meters":24000,"station_id":"ce4bh092rcd13ifvqd30","pricing_plan_id":"cebpf4jnsgd1na2vs0mg"},{"bike_id":"cd8bdc9c-f6d4-41a1-821d-e7fbf105804e","system_id":"levelo_inurba_marseille","lat":43.30642,"lon":5.401031,"is_reserved":false,"is_disabled":false,"rental_uris":{"android":"levelo://app?vid=cd8bdc9c-f6d4-41a1-821d-e7fbf105804e","ios":"levelo://app?vid=cd8bdc9c-f6d4-41a1-821d-e7fbf105804e"},"vehicle_type_id":"4","last_reported":1717611010,"current_range_meters":2800,"station_id":"ce4bh112rcd13ifvqda0","pricing_plan_id":"cebpf4jnsgd1na2vs0mg"},{"bike_id":"98bc3743-7f5c-44b7-b61b-d904e167f120","system_id":"levelo_inurba_marseille","lat":43.306412,"lon":5.401035,"is_reserved":false,"is_disabled":false,"rental_uris":{"android":"levelo://app?vid=98bc3743-7f5c-44b7-b61b-d904e167f120","ios":"levelo://app?vid=98bc3743-7f5c-44b7-b61b-d904e167f120"},"vehicle_type_id":"4","last_reported":1717611010,"current_range_meters":800,"station_id":"ce4bh112rcd13ifvqda0","pricing_plan_id":"cebpf4jnsgd1na2vs0mg"},{"bike_id":"2c7b6b28-c029-4170-9dd2-4d16d50d5ecc","system_id":"levelo_inurba_marseille","lat":43.33762,"lon":5.3745,"is_reserved":false,"is_disabled":false,"rental_uris":{"android":"levelo://app?vid=2c7b6b28-c029-4170-9dd2-4d16d50d5ecc","ios":"levelo://app?vid=2c7b6b28-c029-4170-9dd2-4d16d50d5ecc"},"vehicle_type_id":"4","last_reported":1717611010,"current_range_meters":18800,"station_id":"","pricing_plan_id":"cebpf4jnsgd1na2vs0mg"},{"bike_id":"30031872-ab76-43cc-b8b6-57028929d2c4","system_id":"levelo_inurba_marseille","lat":43.309343,"lon":5.401641,"is_reserved":false,"is_disabled":false,"rental_uris":{"android":"levelo://app?vid=30031872-ab76-43cc-b8b6-57028929d2c4","ios":"levelo://app?vid=30031872-ab76-43cc-b8b6-57028929d2c4"},"vehicle_type_id":"4","last_reported":1717611010,"current_range_meters":0,"station_id":"ce4bgvp2rcd13ifvqct0","pricing_plan_id":"cebpf4jnsgd1na2vs0mg"},{"bike_id":"83f8f24e-3fe8-4d6b-a693-f88b51bc518c","system_id":"levelo_inurba_marseille","lat":43.287266,"lon":5.364834,"is_reserved":false,"is_disabled":false,"rental_uris":{"android":"levelo://app?vid=83f8f24e-3fe8-4d6b-a693-f88b51bc518c","ios":"levelo://app?vid=83f8f24e-3fe8-4d6b-a693-f88b51bc518c"},"vehicle_type_id":"4","last_reported":1717611010,"current_range_meters":4000,"station_id":"ce4bh412rcd13ifvqds0","pricing_plan_id":"cebpf4jnsgd1na2vs0mg"},{"bike_id":"fbeaaaef-f52a-483f-940d-e05fae7e7943","system_id":"levelo_inurba_marseille","lat":43.28727,"lon":5.36078,"is_reserved":false,"is_disabled":false,"rental_uris":{"android":"levelo://app?vid=fbeaaaef-f52a-483f-940d-e05fae7e7943","ios":"levelo://app?vid=fbeaaaef-f52a-483f-940d-e05fae7e7943"},"vehicle_type_id":"4","last_reported":1717611010,"current_range_meters":12000,"station_id":"cki0cbj6b192h4jlfktg","pricing_plan_id":"cebpf4jnsgd1na2vs0mg"},{"bike_id":"9b978aad-3c24-4dba-9fa0-ed8326d1cb71","system_id":"levelo_inurba_marseille","lat":43.28727,"lon":5.36078,"is_reserved":false,"is_disabled":false,"rental_uris":{"android":"levelo://app?vid=9b978aad-3c24-4dba-9fa0-ed8326d1cb71","ios":"levelo://app?vid=9b978aad-3c24-4dba-9fa0-ed8326d1cb71"},"vehicle_type_id":"4","last_reported":1717611010,"current_range_meters":23600,"station_id":"cki0cbj6b192h4jlfktg","pricing_plan_id":"cebpf4jnsgd1na2vs0mg"},{"bike_id":"e7a75aac-e6d5-443c-97a7-a0a255da88f4","system_id":"levelo_inurba_marseille","lat":43.28727,"lon":5.36078,"is_reserved":false,"is_disabled":false,"rental_uris":{"android":"levelo://app?vid=e7a75aac-e6d5-443c-97a7-a0a255da88f4","ios":"levelo://app?vid=e7a75aac-e6d5-443c-97a7-a0a255da88f4"},"vehicle_type_id":"4","last_reported":1717611010,"current_range_meters":1200,"station_id":"cki0cbj6b192h4jlfktg","pricing_plan_id":"cebpf4jnsgd1na2vs0mg"},{"bike_id":"55617a00-0851-4591-8b5b-9331be419b7e","system_id":"levelo_inurba_marseille","lat":43.286961,"lon":5.373785,"is_reserved":false,"is_disabled":false,"rental_uris":{"android":"levelo://app?vid=55617a00-0851-4591-8b5b-9331be419b7e","ios":"levelo://app?vid=55617a00-0851-4591-8b5b-9331be419b7e"},"vehicle_type_id":"4","last_reported":1717611010,"current_range_meters":24000,"station_id":"ce4bh3p2rcd13ifvqdq0","pricing_plan_id":"cebpf4jnsgd1na2vs0mg"},{"bike_id":"82f5cee6-4686-48d7-b5d5-1173a3017b28","system_id":"levelo_inurba_marseille","lat":43.286591,"lon":5.363346,"is_reserved":false,"is_disabled":false,"rental_uris":{"android":"levelo://app?vid=82f5cee6-4686-48d7-b5d5-1173a3017b28","ios":"levelo://app?vid=82f5cee6-4686-48d7-b5d5-1173a3017b28"},"vehicle_type_id":"4","last_reported":1717611010,"current_range_meters":27200,"station_id":"ce4bhah2rcd13ifvqej0","pricing_plan_id":"cebpf4jnsgd1na2vs0mg"},{"bike_id":"4659de30-306f-467c-90e5-6f04fa32ade0","system_id":"levelo_inurba_marseille","lat":43.28668,"lon":5.36346,"is_reserved":false,"is_disabled":false,"rental_uris":{"android":"levelo://app?vid=4659de30-306f-467c-90e5-6f04fa32ade0","ios":"levelo://app?vid=4659de30-306f-467c-90e5-6f04fa32ade0"},"vehicle_type_id":"4","last_reported":1717611010,"current_range_meters":0,"station_id":"ce4bhah2rcd13ifvqej0","pricing_plan_id":"cebpf4jnsgd1na2vs0mg"},{"bike_id":"a8b3629b-28c5-4ddf-987c-2adf324a85ff","system_id":"levelo_inurba_marseille","lat":43.28664,"lon":5.36355,"is_reserved":false,"is_disabled":false,"rental_uris":{"android":"levelo://app?vid=a8b3629b-28c5-4ddf-987c-2adf324a85ff","ios":"levelo://app?vid=a8b3629b-28c5-4ddf-987c-2adf324a85ff"},"vehicle_type_id":"4","last_reported":1717611010,"current_range_meters":0,"station_id":"ce4bhah2rcd13ifvqej0","pricing_plan_id":"cebpf4jnsgd1na2vs0mg"},{"bike_id":"6d185b3d-deff-46d5-a096-cff230e056a8","system_id":"levelo_inurba_marseille","lat":43.287006,"lon":5.373899,"is_reserved":false,"is_disabled":false,"rental_uris":{"android":"levelo://app?vid=6d185b3d-deff-46d5-a096-cff230e056a8","ios":"levelo://app?vid=6d185b3d-deff-46d5-a096-cff230e056a8"},"vehicle_type_id":"4","last_reported":1717611010,"current_range_meters":0,"station_id":"ce4bh3p2rcd13ifvqdq0","pricing_plan_id":"cebpf4jnsgd1na2vs0mg"},{"bike_id":"af663369-d31b-498a-8a70-60c068294beb","system_id":"levelo_inurba_marseille","lat":43.2866,"lon":5.36352,"is_reserved":false,"is_disabled":false,"rental_uris":{"android":"levelo://app?vid=af663369-d31b-498a-8a70-60c068294beb","ios":"levelo://app?vid=af663369-d31b-498a-8a70-60c068294beb"},"vehicle_type_id":"4","last_reported":1717611010,"current_range_meters":0,"station_id":"ce4bhah2rcd13ifvqej0","pricing_plan_id":"cebpf4jnsgd1na2vs0mg"},{"bike_id":"ea9b0759-364e-4f18-b6e5-2b9b617ed9c3","system_id":"levelo_inurba_marseille","lat":43.28659,"lon":5.36351,"is_reserved":false,"is_disabled":false,"rental_uris":{"android":"levelo://app?vid=ea9b0759-364e-4f18-b6e5-2b9b617ed9c3","ios":"levelo://app?vid=ea9b0759-364e-4f18-b6e5-2b9b617ed9c3"},"vehicle_type_id":"4","last_reported":1717611010,"current_range_meters":0,"station_id":"ce4bhah2rcd13ifvqej0","pricing_plan_id":"cebpf4jnsgd1na2vs0mg"},{"bike_id":"179bc2d5-a846-44ce-a4cf-fbcdbb20efcf","system_id":"levelo_inurba_marseille","lat":43.28656,"lon":5.36356,"is_reserved":false,"is_disabled":false,"rental_uris":{"android":"levelo://app?vid=179bc2d5-a846-44ce-a4cf-fbcdbb20efcf","ios":"levelo://app?vid=179bc2d5-a846-44ce-a4cf-fbcdbb20efcf"},"vehicle_type_id":"4","last_reported":1717611010,"current_range_meters":0,"station_id":"ce4bhah2rcd13ifvqej0","pricing_plan_id":"cebpf4jnsgd1na2vs0mg"},{"bike_id":"52146299-4ef0-4744-866a-bec5def170a1","system_id":"levelo_inurba_marseille","lat":43.286961,"lon":5.373785,"is_reserved":false,"is_disabled":false,"rental_uris":{"android":"levelo://app?vid=52146299-4ef0-4744-866a-bec5def170a1","ios":"levelo://app?vid=52146299-4ef0-4744-866a-bec5def170a1"},"vehicle_type_id":"4","last_reported":1717611010,"current_range_meters":0,"station_id":"ce4bh3p2rcd13ifvqdq0","pricing_plan_id":"cebpf4jnsgd1na2vs0mg"},{"bike_id":"963021b5-f493-460c-9094-a4a2dbd74a19","system_id":"levelo_inurba_marseille","lat":43.290345,"lon":5.38646,"is_reserved":false,"is_disabled":false,"rental_uris":{"android":"levelo://app?vid=963021b5-f493-460c-9094-a4a2dbd74a19","ios":"levelo://app?vid=963021b5-f493-460c-9094-a4a2dbd74a19"},"vehicle_type_id":"4","last_reported":1717611010,"current_range_meters":0,"station_id":"ce4bh4p2rcd13ifvqe0g","pricing_plan_id":"cebpf4jnsgd1na2vs0mg"},{"bike_id":"7cc7d381-7481-4037-bef5-6d38f40eec61","system_id":"levelo_inurba_marseille","lat":43.290336,"lon":5.386425,"is_reserved":false,"is_disabled":false,"rental_uris":{"android":"levelo://app?vid=7cc7d381-7481-4037-bef5-6d38f40eec61","ios":"levelo://app?vid=7cc7d381-7481-4037-bef5-6d38f40eec61"},"vehicle_type_id":"4","last_reported":1717611010,"current_range_meters":25600,"station_id":"ce4bh4p2rcd13ifvqe0g","pricing_plan_id":"cebpf4jnsgd1na2vs0mg"},{"bike_id":"c71c9db8-10dc-44fb-a492-b7152adcb44a","system_id":"levelo_inurba_marseille","lat":43.29032,"lon":5.38622,"is_reserved":false,"is_disabled":false,"rental_uris":{"android":"levelo://app?vid=c71c9db8-10dc-44fb-a492-b7152adcb44a","ios":"levelo://app?vid=c71c9db8-10dc-44fb-a492-b7152adcb44a"},"vehicle_type_id":"4","last_reported":1717611010,"current_range_meters":28000,"station_id":"ce4bh4p2rcd13ifvqe0g","pricing_plan_id":"cebpf4jnsgd1na2vs0mg"},{"bike_id":"c2144615-f08d-4150-a461-b3fbe73a1f85","system_id":"levelo_inurba_marseille","lat":43.2951,"lon":5.394071,"is_reserved":false,"is_disabled":false,"rental_uris":{"android":"levelo://app?vid=c2144615-f08d-4150-a461-b3fbe73a1f85","ios":"levelo://app?vid=c2144615-f08d-4150-a461-b3fbe73a1f85"},"vehicle_type_id":"4","last_reported":1717611010,"current_range_meters":0,"station_id":"ce4bh292rcd13ifvqdf0","pricing_plan_id":"cebpf4jnsgd1na2vs0mg"},{"bike_id":"74a1aa6d-b8d6-4874-b435-4d8676ba84f5","system_id":"levelo_inurba_marseille","lat":43.29035,"lon":5.386544,"is_reserved":false,"is_disabled":false,"rental_uris":{"android":"levelo://app?vid=74a1aa6d-b8d6-4874-b435-4d8676ba84f5","ios":"levelo://app?vid=74a1aa6d-b8d6-4874-b435-4d8676ba84f5"},"vehicle_type_id":"4","last_reported":1717611010,"current_range_meters":28400,"station_id":"ce4bh4p2rcd13ifvqe0g","pricing_plan_id":"cebpf4jnsgd1na2vs0mg"},{"bike_id":"c4e78533-5cd0-4218-89c6-a198e07701df","system_id":"levelo_inurba_marseille","lat":43.302759,"lon":5.400793,"is_reserved":false,"is_disabled":false,"rental_uris":{"android":"levelo://app?vid=c4e78533-5cd0-4218-89c6-a198e07701df","ios":"levelo://app?vid=c4e78533-5cd0-4218-89c6-a198e07701df"},"vehicle_type_id":"4","last_reported":1717611010,"current_range_meters":400,"station_id":"ce4bgvh2rcd13ifvqcs0","pricing_plan_id":"cebpf4jnsgd1na2vs0mg"},{"bike_id":"047fe8e1-7f67-4e98-8081-639d87d73570","system_id":"levelo_inurba_marseille","lat":43.302759,"lon":5.400793,"is_reserved":false,"is_disabled":false,"rental_uris":{"android":"levelo://app?vid=047fe8e1-7f67-4e98-8081-639d87d73570","ios":"levelo://app?vid=047fe8e1-7f67-4e98-8081-639d87d73570"},"vehicle_type_id":"4","last_reported":1717611010,"current_range_meters":13200,"station_id":"ce4bgvh2rcd13ifvqcs0","pricing_plan_id":"cebpf4jnsgd1na2vs0mg"},{"bike_id":"d7590a39-3e7d-4841-b9d5-b330fa481262","system_id":"levelo_inurba_marseille","lat":43.289307,"lon":5.38406,"is_reserved":false,"is_disabled":false,"rental_uris":{"android":"levelo://app?vid=d7590a39-3e7d-4841-b9d5-b330fa481262","ios":"levelo://app?vid=d7590a39-3e7d-4841-b9d5-b330fa481262"},"vehicle_type_id":"4","last_reported":1717611010,"current_range_meters":10800,"station_id":"ce4bh612rcd13ifvqe6g","pricing_plan_id":"cebpf4jnsgd1na2vs0mg"},{"bike_id":"43e77e55-977e-4084-9865-0286a16c43f5","system_id":"levelo_inurba_marseille","lat":43.286039,"lon":5.370681,"is_reserved":false,"is_disabled":false,"rental_uris":{"android":"levelo://app?vid=43e77e55-977e-4084-9865-0286a16c43f5","ios":"levelo://app?vid=43e77e55-977e-4084-9865-0286a16c43f5"},"vehicle_type_id":"4","last_reported":1717611010,"current_range_meters":0,"station_id":"ce4bht12rcd13ifvqi60","pricing_plan_id":"cebpf4jnsgd1na2vs0mg"},{"bike_id":"9fbc70cd-1baa-412a-b4a3-370360f68312","system_id":"levelo_inurba_marseille","lat":43.286039,"lon":5.370681,"is_reserved":false,"is_disabled":false,"rental_uris":{"android":"levelo://app?vid=9fbc70cd-1baa-412a-b4a3-370360f68312","ios":"levelo://app?vid=9fbc70cd-1baa-412a-b4a3-370360f68312"},"vehicle_type_id":"4","last_reported":1717611010,"current_range_meters":10400,"station_id":"ce4bht12rcd13ifvqi60","pricing_plan_id":"cebpf4jnsgd1na2vs0mg"},{"bike_id":"6688bb72-5b5f-45a5-a1a4-9fd886e5a9d0","system_id":"levelo_inurba_marseille","lat":43.323464,"lon":5.406297,"is_reserved":false,"is_disabled":false,"rental_uris":{"android":"levelo://app?vid=6688bb72-5b5f-45a5-a1a4-9fd886e5a9d0","ios":"levelo://app?vid=6688bb72-5b5f-45a5-a1a4-9fd886e5a9d0"},"vehicle_type_id":"4","last_reported":1717611010,"current_range_meters":1200,"station_id":"ce4bhq92rcd13ifvqhjg","pricing_plan_id":"cebpf4jnsgd1na2vs0mg"},{"bike_id":"126d271a-f86a-4031-866c-ae73e0a038f2","system_id":"levelo_inurba_marseille","lat":43.29194,"lon":5.39323,"is_reserved":false,"is_disabled":false,"rental_uris":{"android":"levelo://app?vid=126d271a-f86a-4031-866c-ae73e0a038f2","ios":"levelo://app?vid=126d271a-f86a-4031-866c-ae73e0a038f2"},"vehicle_type_id":"4","last_reported":1717611010,"current_range_meters":0,"station_id":"ce4bh2h2rcd13ifvqdh0","pricing_plan_id":"cebpf4jnsgd1na2vs0mg"},{"bike_id":"3705ff19-d6ce-450c-afe7-d868b41fef4d","system_id":"levelo_inurba_marseille","lat":43.29193,"lon":5.39331,"is_reserved":false,"is_disabled":false,"rental_uris":{"android":"levelo://app?vid=3705ff19-d6ce-450c-afe7-d868b41fef4d","ios":"levelo://app?vid=3705ff19-d6ce-450c-afe7-d868b41fef4d"},"vehicle_type_id":"4","last_reported":1717611010,"current_range_meters":5200,"station_id":"ce4bh192rcd13ifvqdd0","pricing_plan_id":"cebpf4jnsgd1na2vs0mg"},{"bike_id":"19d91229-05e7-4e02-ace4-7c7621ecc49c","system_id":"levelo_inurba_marseille","lat":43.313559,"lon":5.405919,"is_reserved":false,"is_disabled":false,"rental_uris":{"android":"levelo://app?vid=19d91229-05e7-4e02-ace4-7c7621ecc49c","ios":"levelo://app?vid=19d91229-05e7-4e02-ace4-7c7621ecc49c"},"vehicle_type_id":"4","last_reported":1717611010,"current_range_meters":6000,"station_id":"","pricing_plan_id":"cebpf4jnsgd1na2vs0mg"},{"bike_id":"89999ac7-0e9f-44ba-9990-6c5e37f41584","system_id":"levelo_inurba_marseille","lat":43.291994,"lon":5.392907,"is_reserved":false,"is_disabled":false,"rental_uris":{"android":"levelo://app?vid=89999ac7-0e9f-44ba-9990-6c5e37f41584","ios":"levelo://app?vid=89999ac7-0e9f-44ba-9990-6c5e37f41584"},"vehicle_type_id":"4","last_reported":1717611010,"current_range_meters":20000,"station_id":"ce4bh192rcd13ifvqdd0","pricing_plan_id":"cebpf4jnsgd1na2vs0mg"},{"bike_id":"b41cebe4-9b86-42fc-81f9-6495f0275d8d","system_id":"levelo_inurba_marseille","lat":43.284534,"lon":5.358662,"is_reserved":false,"is_disabled":false,"rental_uris":{"android":"levelo://app?vid=b41cebe4-9b86-42fc-81f9-6495f0275d8d","ios":"levelo://app?vid=b41cebe4-9b86-42fc-81f9-6495f0275d8d"},"vehicle_type_id":"4","last_reported":1717611010,"current_range_meters":10000,"station_id":"ce4bhah2rcd13ifvqei0","pricing_plan_id":"cebpf4jnsgd1na2vs0mg"},{"bike_id":"8dc0f9f8-a0e5-41fd-a75c-7ca6557ad4c3","system_id":"levelo_inurba_marseille","lat":43.284538,"lon":5.358657,"is_reserved":false,"is_disabled":false,"rental_uris":{"android":"levelo://app?vid=8dc0f9f8-a0e5-41fd-a75c-7ca6557ad4c3","ios":"levelo://app?vid=8dc0f9f8-a0e5-41fd-a75c-7ca6557ad4c3"},"vehicle_type_id":"4","last_reported":1717611010,"current_range_meters":25200,"station_id":"ce4bhah2rcd13ifvqei0","pricing_plan_id":"cebpf4jnsgd1na2vs0mg"},{"bike_id":"8bf42750-0f58-416b-a55d-13d972306505","system_id":"levelo_inurba_marseille","lat":43.284538,"lon":5.358657,"is_reserved":false,"is_disabled":false,"rental_uris":{"android":"levelo://app?vid=8bf42750-0f58-416b-a55d-13d972306505","ios":"levelo://app?vid=8bf42750-0f58-416b-a55d-13d972306505"},"vehicle_type_id":"4","last_reported":1717611010,"current_range_meters":1200,"station_id":"ce4bhah2rcd13ifvqei0","pricing_plan_id":"cebpf4jnsgd1na2vs0mg"},{"bike_id":"9cfe766d-2c41-4521-8304-5d0d062c8b9b","system_id":"levelo_inurba_marseille","lat":43.284538,"lon":5.358657,"is_reserved":false,"is_disabled":false,"rental_uris":{"android":"levelo://app?vid=9cfe766d-2c41-4521-8304-5d0d062c8b9b","ios":"levelo://app?vid=9cfe766d-2c41-4521-8304-5d0d062c8b9b"},"vehicle_type_id":"4","last_reported":1717611010,"current_range_meters":0,"station_id":"ce4bhah2rcd13ifvqei0","pricing_plan_id":"cebpf4jnsgd1na2vs0mg"},{"bike_id":"df66da15-127f-4bc3-88bc-1c12a7f4f348","system_id":"levelo_inurba_marseille","lat":43.284534,"lon":5.358662,"is_reserved":false,"is_disabled":false,"rental_uris":{"android":"levelo://app?vid=df66da15-127f-4bc3-88bc-1c12a7f4f348","ios":"levelo://app?vid=df66da15-127f-4bc3-88bc-1c12a7f4f348"},"vehicle_type_id":"4","last_reported":1717611010,"current_range_meters":22000,"station_id":"ce4bhah2rcd13ifvqei0","pricing_plan_id":"cebpf4jnsgd1na2vs0mg"},{"bike_id":"e2ad97a8-5d13-4013-a2f8-640893526649","system_id":"levelo_inurba_marseille","lat":43.284534,"lon":5.358662,"is_reserved":false,"is_disabled":false,"rental_uris":{"android":"levelo://app?vid=e2ad97a8-5d13-4013-a2f8-640893526649","ios":"levelo://app?vid=e2ad97a8-5d13-4013-a2f8-640893526649"},"vehicle_type_id":"4","last_reported":1717611010,"current_range_meters":12400,"station_id":"ce4bhah2rcd13ifvqei0","pricing_plan_id":"cebpf4jnsgd1na2vs0mg"},{"bike_id":"4dd81d28-d5d6-4324-b33c-72a5bdd5cca3","system_id":"levelo_inurba_marseille","lat":43.284538,"lon":5.358657,"is_reserved":false,"is_disabled":false,"rental_uris":{"android":"levelo://app?vid=4dd81d28-d5d6-4324-b33c-72a5bdd5cca3","ios":"levelo://app?vid=4dd81d28-d5d6-4324-b33c-72a5bdd5cca3"},"vehicle_type_id":"4","last_reported":1717611010,"current_range_meters":18800,"station_id":"ce4bhah2rcd13ifvqei0","pricing_plan_id":"cebpf4jnsgd1na2vs0mg"},{"bike_id":"2bb280c8-ac82-45a9-a8af-18362d2d353b","system_id":"levelo_inurba_marseille","lat":43.28454,"lon":5.35883,"is_reserved":false,"is_disabled":false,"rental_uris":{"android":"levelo://app?vid=2bb280c8-ac82-45a9-a8af-18362d2d353b","ios":"levelo://app?vid=2bb280c8-ac82-45a9-a8af-18362d2d353b"},"vehicle_type_id":"4","last_reported":1717611010,"current_range_meters":0,"station_id":"ce4bhah2rcd13ifvqei0","pricing_plan_id":"cebpf4jnsgd1na2vs0mg"},{"bike_id":"de20549f-46a0-4516-ac79-a0aa20fbb8c3","system_id":"levelo_inurba_marseille","lat":43.284538,"lon":5.358657,"is_reserved":false,"is_disabled":false,"rental_uris":{"android":"levelo://app?vid=de20549f-46a0-4516-ac79-a0aa20fbb8c3","ios":"levelo://app?vid=de20549f-46a0-4516-ac79-a0aa20fbb8c3"},"vehicle_type_id":"4","last_reported":1717611010,"current_range_meters":0,"station_id":"ce4bhah2rcd13ifvqei0","pricing_plan_id":"cebpf4jnsgd1na2vs0mg"},{"bike_id":"ec84c759-c301-47e1-b3a7-97d0fd7fb641","system_id":"levelo_inurba_marseille","lat":43.284534,"lon":5.358662,"is_reserved":false,"is_disabled":false,"rental_uris":{"android":"levelo://app?vid=ec84c759-c301-47e1-b3a7-97d0fd7fb641","ios":"levelo://app?vid=ec84c759-c301-47e1-b3a7-97d0fd7fb641"},"vehicle_type_id":"4","last_reported":1717611010,"current_range_meters":800,"station_id":"ce4bhah2rcd13ifvqei0","pricing_plan_id":"cebpf4jnsgd1na2vs0mg"},{"bike_id":"9a2b0a75-f9bc-40a4-8f0a-ce1db1027382","system_id":"levelo_inurba_marseille","lat":43.283998,"lon":5.375062,"is_reserved":false,"is_disabled":false,"rental_uris":{"android":"levelo://app?vid=9a2b0a75-f9bc-40a4-8f0a-ce1db1027382","ios":"levelo://app?vid=9a2b0a75-f9bc-40a4-8f0a-ce1db1027382"},"vehicle_type_id":"4","last_reported":1717611010,"current_range_meters":13600,"station_id":"ce4bh412rcd13ifvqds0","pricing_plan_id":"cebpf4jnsgd1na2vs0mg"},{"bike_id":"ec7947ec-57e7-4873-a6f8-a96826b1675c","system_id":"levelo_inurba_marseille","lat":43.283998,"lon":5.375062,"is_reserved":false,"is_disabled":false,"rental_uris":{"android":"levelo://app?vid=ec7947ec-57e7-4873-a6f8-a96826b1675c","ios":"levelo://app?vid=ec7947ec-57e7-4873-a6f8-a96826b1675c"},"vehicle_type_id":"4","last_reported":1717611010,"current_range_meters":0,"station_id":"ce4bh412rcd13ifvqds0","pricing_plan_id":"cebpf4jnsgd1na2vs0mg"},{"bike_id":"14ad29f4-7d4f-444c-b3fc-849d4af5c644","system_id":"levelo_inurba_marseille","lat":43.283998,"lon":5.375062,"is_reserved":false,"is_disabled":false,"rental_uris":{"android":"levelo://app?vid=14ad29f4-7d4f-444c-b3fc-849d4af5c644","ios":"levelo://app?vid=14ad29f4-7d4f-444c-b3fc-849d4af5c644"},"vehicle_type_id":"4","last_reported":1717611010,"current_range_meters":4400,"station_id":"ce4bh412rcd13ifvqds0","pricing_plan_id":"cebpf4jnsgd1na2vs0mg"},{"bike_id":"68b3d390-00b9-4c30-8ae9-f8a33dd7a482","system_id":"levelo_inurba_marseille","lat":43.295713,"lon":5.399639,"is_reserved":false,"is_disabled":false,"rental_uris":{"android":"levelo://app?vid=68b3d390-00b9-4c30-8ae9-f8a33dd7a482","ios":"levelo://app?vid=68b3d390-00b9-4c30-8ae9-f8a33dd7a482"},"vehicle_type_id":"4","last_reported":1717611010,"current_range_meters":22000,"station_id":"ce4bh312rcd13ifvqdj0","pricing_plan_id":"cebpf4jnsgd1na2vs0mg"},{"bike_id":"99b9a69d-9892-42f0-b188-0afe2a36b8eb","system_id":"levelo_inurba_marseille","lat":43.295713,"lon":5.399639,"is_reserved":false,"is_disabled":false,"rental_uris":{"android":"levelo://app?vid=99b9a69d-9892-42f0-b188-0afe2a36b8eb","ios":"levelo://app?vid=99b9a69d-9892-42f0-b188-0afe2a36b8eb"},"vehicle_type_id":"4","last_reported":1717611010,"current_range_meters":0,"station_id":"ce4bh312rcd13ifvqdj0","pricing_plan_id":"cebpf4jnsgd1na2vs0mg"},{"bike_id":"6c55c3be-c99e-4ca3-bddb-219b92001164","system_id":"levelo_inurba_marseille","lat":43.296263,"lon":5.40601,"is_reserved":false,"is_disabled":false,"rental_uris":{"android":"levelo://app?vid=6c55c3be-c99e-4ca3-bddb-219b92001164","ios":"levelo://app?vid=6c55c3be-c99e-4ca3-bddb-219b92001164"},"vehicle_type_id":"4","last_reported":1717611010,"current_range_meters":1200,"station_id":"ce4bh0h2rcd13ifvqd60","pricing_plan_id":"cebpf4jnsgd1na2vs0mg"},{"bike_id":"93bf9cd1-4c58-4625-a6bd-f262e27a8c18","system_id":"levelo_inurba_marseille","lat":43.31888,"lon":5.40738,"is_reserved":false,"is_disabled":false,"rental_uris":{"android":"levelo://app?vid=93bf9cd1-4c58-4625-a6bd-f262e27a8c18","ios":"levelo://app?vid=93bf9cd1-4c58-4625-a6bd-f262e27a8c18"},"vehicle_type_id":"4","last_reported":1717611010,"current_range_meters":0,"station_id":"ce4bhq12rcd13ifvqhig","pricing_plan_id":"cebpf4jnsgd1na2vs0mg"},{"bike_id":"6a38ec7f-2305-4aba-a944-26734761b0a1","system_id":"levelo_inurba_marseille","lat":43.28472,"lon":5.3841,"is_reserved":false,"is_disabled":false,"rental_uris":{"android":"levelo://app?vid=6a38ec7f-2305-4aba-a944-26734761b0a1","ios":"levelo://app?vid=6a38ec7f-2305-4aba-a944-26734761b0a1"},"vehicle_type_id":"4","last_reported":1717611010,"current_range_meters":0,"station_id":"ce4bh512rcd13ifvqe3g","pricing_plan_id":"cebpf4jnsgd1na2vs0mg"},{"bike_id":"391803ca-d834-4227-b39d-1aec98988c18","system_id":"levelo_inurba_marseille","lat":43.264958,"lon":5.395433,"is_reserved":false,"is_disabled":false,"rental_uris":{"android":"levelo://app?vid=391803ca-d834-4227-b39d-1aec98988c18","ios":"levelo://app?vid=391803ca-d834-4227-b39d-1aec98988c18"},"vehicle_type_id":"4","last_reported":1717611010,"current_range_meters":0,"station_id":"ce4bhi12rcd13ifvqfq0","pricing_plan_id":"cebpf4jnsgd1na2vs0mg"},{"bike_id":"71c0e48b-a1c5-4c09-846e-3dcfcd453ea6","system_id":"levelo_inurba_marseille","lat":43.288497,"lon":5.393089,"is_reserved":false,"is_disabled":false,"rental_uris":{"android":"levelo://app?vid=71c0e48b-a1c5-4c09-846e-3dcfcd453ea6","ios":"levelo://app?vid=71c0e48b-a1c5-4c09-846e-3dcfcd453ea6"},