{"last_updated":1743696740,"ttl":60,"version":"2.2","data":{"bikes":[{"bike_id":"473661ac-fff1-4483-89ec-89d5eced05ef","system_id":"levelo_inurba_marseille","lat":43.299788,"lon":5.384875,"is_reserved":false,"is_disabled":false,"rental_uris":{"android":"levelo://app?vid=473661ac-fff1-4483-89ec-89d5eced05ef","ios":"levelo://app?vid=473661ac-fff1-4483-89ec-89d5eced05ef"},"vehicle_type_id":"4","last_reported":1743696741,"current_range_meters":2800,"station_id":"ce4bgj92rcd13ifvqbd0","pricing_plan_id":"cebpf4jnsgd1na2vs0mg"},{"bike_id":"cc601f3a-5a61-4a28-be7b-4c9624a2101d","system_id":"levelo_inurba_marseille","lat":43.33723,"lon":5.39192,"is_reserved":false,"is_disabled":false,"rental_uris":{"android":"levelo://app?vid=cc601f3a-5a61-4a28-be7b-4c9624a2101d","ios":"levelo://app?vid=cc601f3a-5a61-4a28-be7b-4c9624a2101d"},"vehicle_type_id":"4","last_reported":1743696741,"current_range_meters":2800,"station_id":"ce4bhr92rcd13ifvqhsg","pricing_plan_id":"cebpf4jnsgd1na2vs0mg"},{"bike_id":"31609e9e-7538-4209-bb11-28375ac300aa","system_id":"levelo_inurba_marseille","lat":43.30228,"lon":5.39477,"is_reserved":false,"is_disabled":false,"rental_uris":{"android":"levelo://app?vid=31609e9e-7538-4209-bb11-28375ac300aa","ios":"levelo://app?vid=31609e9e-7538-4209-bb11-28375ac300aa"},"vehicle_type_id":"4","last_reported":1743696741,"current_range_meters":2000,"station_id":"ce4bh0p2rcd13ifvqd70","pricing_plan_id":"cebpf4jnsgd1na2vs0mg"},{"bike_id":"39f53e67-4159-4153-9e86-d51aabb4f3ea","system_id":"levelo_inurba_marseille","lat":43.33093,"lon":5.39633,"is_reserved":false,"is_disabled":false,"rental_uris":{"android":"levelo://app?vid=39f53e67-4159-4153-9e86-d51aabb4f3ea","ios":"levelo://app?vid=39f53e67-4159-4153-9e86-d51aabb4f3ea"},"vehicle_type_id":"4","last_reported":1743696741,"current_range_meters":2800,"station_id":"","pricing_plan_id":"cebpf4jnsgd1na2vs0mg"},{"bike_id":"2b22398e-2d8d-47aa-95e2-507bc1cb401c","system_id":"levelo_inurba_marseille","lat":43.288605,"lon":5.35846,"is_reserved":false,"is_disabled":false,"rental_uris":{"android":"levelo://app?vid=2b22398e-2d8d-47aa-95e2-507bc1cb401c","ios":"levelo://app?vid=2b22398e-2d8d-47aa-95e2-507bc1cb401c"},"vehicle_type_id":"4","last_reported":1743696741,"current_range_meters":2800,"station_id":"ce4bhb12rcd13ifvqem0","pricing_plan_id":"cebpf4jnsgd1na2vs0mg"},{"bike_id":"21e637fc-9c17-4996-bb28-96bb16acfa81","system_id":"levelo_inurba_marseille","lat":43.28352,"lon":5.38637,"is_reserved":false,"is_disabled":false,"rental_uris":{"android":"levelo://app?vid=21e637fc-9c17-4996-bb28-96bb16acfa81","ios":"levelo://app?vid=21e637fc-9c17-4996-bb28-96bb16acfa81"},"vehicle_type_id":"4","last_reported":1743696741,"current_range_meters":2800,"station_id":"ce4bh492rcd13ifvqdvg","pricing_plan_id":"cebpf4jnsgd1na2vs0mg"},{"bike_id":"6e0ac892-eb5a-4e58-b40d-44ea2a6de718","system_id":"levelo_inurba_marseille","lat":43.23196,"lon":5.35554,"is_reserved":false,"is_disabled":false,"rental_uris":{"android":"levelo://app?vid=6e0ac892-eb5a-4e58-b40d-44ea2a6de718","ios":"levelo://app?vid=6e0ac892-eb5a-4e58-b40d-44ea2a6de718"},"vehicle_type_id":"4","last_reported":1743696741,"current_range_meters":2800,"station_id":"ce4bhu92rcd13ifvqi70","pricing_plan_id":"cebpf4jnsgd1na2vs0mg"},{"bike_id":"417055bb-1114-49ae-bcd1-7323bfdc3aa6","system_id":"levelo_inurba_marseille","lat":43.292591,"lon":5.384171,"is_reserved":false,"is_disabled":false,"rental_uris":{"android":"levelo://app?vid=417055bb-1114-49ae-bcd1-7323bfdc3aa6","ios":"levelo://app?vid=417055bb-1114-49ae-bcd1-7323bfdc3aa6"},"vehicle_type_id":"4","last_reported":1743696741,"current_range_meters":2000,"station_id":"ce4bh692rcd13ifvqea0","pricing_plan_id":"cebpf4jnsgd1na2vs0mg"},{"bike_id":"defa0bf0-f877-45f1-b8e4-4bb24d812208","system_id":"levelo_inurba_marseille","lat":43.26558,"lon":5.37285,"is_reserved":false,"is_disabled":false,"rental_uris":{"android":"levelo://app?vid=defa0bf0-f877-45f1-b8e4-4bb24d812208","ios":"levelo://app?vid=defa0bf0-f877-45f1-b8e4-4bb24d812208"},"vehicle_type_id":"4","last_reported":1743696741,"current_range_meters":3200,"station_id":"ce4bhg12rcd13ifvqf70","pricing_plan_id":"cebpf4jnsgd1na2vs0mg"},{"bike_id":"1e41463f-c19e-4172-9dc9-08ae7944c082","system_id":"levelo_inurba_marseille","lat":43.255,"lon":5.37656,"is_reserved":false,"is_disabled":false,"rental_uris":{"android":"levelo://app?vid=1e41463f-c19e-4172-9dc9-08ae7944c082","ios":"levelo://app?vid=1e41463f-c19e-4172-9dc9-08ae7944c082"},"vehicle_type_id":"4","last_reported":1743696741,"current_range_meters":3200,"station_id":"ce4bhh12rcd13ifvqff0","pricing_plan_id":"cebpf4jnsgd1na2vs0mg"},{"bike_id":"85a8fdf5-44c0-4b16-a37d-e7d282237c80","system_id":"levelo_inurba_marseille","lat":43.30532,"lon":5.38421,"is_reserved":false,"is_disabled":false,"rental_uris":{"android":"levelo://app?vid=85a8fdf5-44c0-4b16-a37d-e7d282237c80","ios":"levelo://app?vid=85a8fdf5-44c0-4b16-a37d-e7d282237c80"},"vehicle_type_id":"4","last_reported":1743696741,"current_range_meters":3200,"station_id":"ce4bgg92rcd13ifvqb30","pricing_plan_id":"cebpf4jnsgd1na2vs0mg"},{"bike_id":"e6b69cd2-f965-4a12-9e02-6f28a269f9f9","system_id":"levelo_inurba_marseille","lat":43.23058,"lon":5.35478,"is_reserved":false,"is_disabled":true,"rental_uris":{"android":"levelo://app?vid=e6b69cd2-f965-4a12-9e02-6f28a269f9f9","ios":"levelo://app?vid=e6b69cd2-f965-4a12-9e02-6f28a269f9f9"},"vehicle_type_id":"4","last_reported":1743696741,"current_range_meters":3600,"station_id":"cpo3342slgdg3j2ifvpg","pricing_plan_id":"cebpf4jnsgd1na2vs0mg"},{"bike_id":"c5fc958b-8964-44bb-8c5d-4560409a3ce8","system_id":"levelo_inurba_marseille","lat":43.266687,"lon":5.38983,"is_reserved":false,"is_disabled":false,"rental_uris":{"android":"levelo://app?vid=c5fc958b-8964-44bb-8c5d-4560409a3ce8","ios":"levelo://app?vid=c5fc958b-8964-44bb-8c5d-4560409a3ce8"},"vehicle_type_id":"4","last_reported":1743696741,"current_range_meters":3600,"station_id":"ce4bhe12rcd13ifvqf30","pricing_plan_id":"cebpf4jnsgd1na2vs0mg"},{"bike_id":"3e5329f3-c0cd-422c-afb1-2f46242590da","system_id":"levelo_inurba_marseille","lat":43.31919,"lon":5.37554,"is_reserved":false,"is_disabled":false,"rental_uris":{"android":"levelo://app?vid=3e5329f3-c0cd-422c-afb1-2f46242590da","ios":"levelo://app?vid=3e5329f3-c0cd-422c-afb1-2f46242590da"},"vehicle_type_id":"4","last_reported":1743696741,"current_range_meters":3600,"station_id":"","pricing_plan_id":"cebpf4jnsgd1na2vs0mg"},{"bike_id":"1ee5d15d-9374-45e6-a35e-f2b2f0346a7e","system_id":"levelo_inurba_marseille","lat":43.28269,"lon":5.35063,"is_reserved":false,"is_disabled":false,"rental_uris":{"android":"levelo://app?vid=1ee5d15d-9374-45e6-a35e-f2b2f0346a7e","ios":"levelo://app?vid=1ee5d15d-9374-45e6-a35e-f2b2f0346a7e"},"vehicle_type_id":"4","last_reported":1743696741,"current_range_meters":4000,"station_id":"ce4bhbp2rcd13ifvqerg","pricing_plan_id":"cebpf4jnsgd1na2vs0mg"},{"bike_id":"1b4c16ab-f373-4a1b-bec1-48ffc6059a95","system_id":"levelo_inurba_marseille","lat":43.256331,"lon":5.382579,"is_reserved":false,"is_disabled":false,"rental_uris":{"android":"levelo://app?vid=1b4c16ab-f373-4a1b-bec1-48ffc6059a95","ios":"levelo://app?vid=1b4c16ab-f373-4a1b-bec1-48ffc6059a95"},"vehicle_type_id":"4","last_reported":1743696741,"current_range_meters":4000,"station_id":"ce4bhih2rcd13ifvqfs0","pricing_plan_id":"cebpf4jnsgd1na2vs0mg"},{"bike_id":"d157a8ac-f1ea-480a-a1ee-9ac00962bb01","system_id":"levelo_inurba_marseille","lat":43.29553,"lon":5.42295,"is_reserved":false,"is_disabled":false,"rental_uris":{"android":"levelo://app?vid=d157a8ac-f1ea-480a-a1ee-9ac00962bb01","ios":"levelo://app?vid=d157a8ac-f1ea-480a-a1ee-9ac00962bb01"},"vehicle_type_id":"4","last_reported":1743696741,"current_range_meters":4000,"station_id":"ce4bhph2rcd13ifvqhdg","pricing_plan_id":"cebpf4jnsgd1na2vs0mg"},{"bike_id":"bd686bf5-2619-4996-b940-ccca24d9a658","system_id":"levelo_inurba_marseille","lat":43.28613,"lon":5.35103,"is_reserved":false,"is_disabled":false,"rental_uris":{"android":"levelo://app?vid=bd686bf5-2619-4996-b940-ccca24d9a658","ios":"levelo://app?vid=bd686bf5-2619-4996-b940-ccca24d9a658"},"vehicle_type_id":"4","last_reported":1743696741,"current_range_meters":4000,"station_id":"ce4bhch2rcd13ifvqeug","pricing_plan_id":"cebpf4jnsgd1na2vs0mg"},{"bike_id":"21dc8bbe-cc62-4b91-a137-ae61ce7b5eaf","system_id":"levelo_inurba_marseille","lat":43.246192,"lon":5.392266,"is_reserved":false,"is_disabled":false,"rental_uris":{"android":"levelo://app?vid=21dc8bbe-cc62-4b91-a137-ae61ce7b5eaf","ios":"levelo://app?vid=21dc8bbe-cc62-4b91-a137-ae61ce7b5eaf"},"vehicle_type_id":"4","last_reported":1743696741,"current_range_meters":4000,"station_id":"ce4bhn12rcd13ifvqgpg","pricing_plan_id":"cebpf4jnsgd1na2vs0mg"},{"bike_id":"c236ed43-c909-4098-881f-a84011863d53","system_id":"levelo_inurba_marseille","lat":43.287,"lon":5.39992,"is_reserved":false,"is_disabled":false,"rental_uris":{"android":"levelo://app?vid=c236ed43-c909-4098-881f-a84011863d53","ios":"levelo://app?vid=c236ed43-c909-4098-881f-a84011863d53"},"vehicle_type_id":"4","last_reported":1743696741,"current_range_meters":4400,"station_id":"ce4bho92rcd13ifvqh3g","pricing_plan_id":"cebpf4jnsgd1na2vs0mg"},{"bike_id":"744db143-f0a0-4306-b4c1-9941562a8571","system_id":"levelo_inurba_marseille","lat":43.22932,"lon":5.35379,"is_reserved":false,"is_disabled":false,"rental_uris":{"android":"levelo://app?vid=744db143-f0a0-4306-b4c1-9941562a8571","ios":"levelo://app?vid=744db143-f0a0-4306-b4c1-9941562a8571"},"vehicle_type_id":"4","last_reported":1743696741,"current_range_meters":4400,"station_id":"cpo3532slgdg3j2ikp40","pricing_plan_id":"cebpf4jnsgd1na2vs0mg"},{"bike_id":"85734ba5-518a-4d3f-8236-02b2f1ccc74b","system_id":"levelo_inurba_marseille","lat":43.29941,"lon":5.36553,"is_reserved":false,"is_disabled":false,"rental_uris":{"android":"levelo://app?vid=85734ba5-518a-4d3f-8236-02b2f1ccc74b","ios":"levelo://app?vid=85734ba5-518a-4d3f-8236-02b2f1ccc74b"},"vehicle_type_id":"4","last_reported":1743696741,"current_range_meters":4400,"station_id":"ce4bgm92rcd13ifvqbr0","pricing_plan_id":"cebpf4jnsgd1na2vs0mg"},{"bike_id":"4b4a6d88-da31-47ac-ac98-9882efef7dde","system_id":"levelo_inurba_marseille","lat":43.25581,"lon":5.38243,"is_reserved":false,"is_disabled":false,"rental_uris":{"android":"levelo://app?vid=4b4a6d88-da31-47ac-ac98-9882efef7dde","ios":"levelo://app?vid=4b4a6d88-da31-47ac-ac98-9882efef7dde"},"vehicle_type_id":"4","last_reported":1743696741,"current_range_meters":4400,"station_id":"ce4bhih2rcd13ifvqfs0","pricing_plan_id":"cebpf4jnsgd1na2vs0mg"},{"bike_id":"4dc48c4a-33a4-42bf-b1a5-cb756495e1ad","system_id":"levelo_inurba_marseille","lat":43.28478,"lon":5.38563,"is_reserved":false,"is_disabled":false,"rental_uris":{"android":"levelo://app?vid=4dc48c4a-33a4-42bf-b1a5-cb756495e1ad","ios":"levelo://app?vid=4dc48c4a-33a4-42bf-b1a5-cb756495e1ad"},"vehicle_type_id":"4","last_reported":1743696741,"current_range_meters":4400,"station_id":"ce4bh8p2rcd13ifvqeb0","pricing_plan_id":"cebpf4jnsgd1na2vs0mg"},{"bike_id":"6ae3a20c-0309-4d34-9043-48636c9f02a0","system_id":"levelo_inurba_marseille","lat":43.26199,"lon":5.37932,"is_reserved":false,"is_disabled":false,"rental_uris":{"android":"levelo://app?vid=6ae3a20c-0309-4d34-9043-48636c9f02a0","ios":"levelo://app?vid=6ae3a20c-0309-4d34-9043-48636c9f02a0"},"vehicle_type_id":"4","last_reported":1743696741,"current_range_meters":4400,"station_id":"ce4bhjp2rcd13ifvqg90","pricing_plan_id":"cebpf4jnsgd1na2vs0mg"},{"bike_id":"e1d5586a-3564-43c7-b835-9a6429546410","system_id":"levelo_inurba_marseille","lat":43.29784,"lon":5.38101,"is_reserved":false,"is_disabled":false,"rental_uris":{"android":"levelo://app?vid=e1d5586a-3564-43c7-b835-9a6429546410","ios":"levelo://app?vid=e1d5586a-3564-43c7-b835-9a6429546410"},"vehicle_type_id":"4","last_reported":1743696741,"current_range_meters":5600,"station_id":"ce4bgip2rcd13ifvqbb0","pricing_plan_id":"cebpf4jnsgd1na2vs0mg"},{"bike_id":"7bc507c4-187b-4cb2-a5ef-07322f924baf","system_id":"levelo_inurba_marseille","lat":43.22942,"lon":5.35385,"is_reserved":false,"is_disabled":false,"rental_uris":{"android":"levelo://app?vid=7bc507c4-187b-4cb2-a5ef-07322f924baf","ios":"levelo://app?vid=7bc507c4-187b-4cb2-a5ef-07322f924baf"},"vehicle_type_id":"4","last_reported":1743696741,"current_range_meters":5600,"station_id":"cpo3532slgdg3j2ikp40","pricing_plan_id":"cebpf4jnsgd1na2vs0mg"},{"bike_id":"10c5ac97-0d4b-41d6-b23d-ad84bac335d1","system_id":"levelo_inurba_marseille","lat":43.28089,"lon":5.39652,"is_reserved":false,"is_disabled":false,"rental_uris":{"android":"levelo://app?vid=10c5ac97-0d4b-41d6-b23d-ad84bac335d1","ios":"levelo://app?vid=10c5ac97-0d4b-41d6-b23d-ad84bac335d1"},"vehicle_type_id":"4","last_reported":1743696741,"current_range_meters":5600,"station_id":"ce4bho12rcd13ifvqh2g","pricing_plan_id":"cebpf4jnsgd1na2vs0mg"},{"bike_id":"65a3f961-b5ba-40ff-b34a-b97a275118e1","system_id":"levelo_inurba_marseille","lat":43.331,"lon":5.39257,"is_reserved":false,"is_disabled":false,"rental_uris":{"android":"levelo://app?vid=65a3f961-b5ba-40ff-b34a-b97a275118e1","ios":"levelo://app?vid=65a3f961-b5ba-40ff-b34a-b97a275118e1"},"vehicle_type_id":"4","last_reported":1743696741,"current_range_meters":5600,"station_id":"","pricing_plan_id":"cebpf4jnsgd1na2vs0mg"},{"bike_id":"96363155-51f6-42dd-85dd-65501678c148","system_id":"levelo_inurba_marseille","lat":43.28035,"lon":5.36946,"is_reserved":false,"is_disabled":false,"rental_uris":{"android":"levelo://app?vid=96363155-51f6-42dd-85dd-65501678c148","ios":"levelo://app?vid=96363155-51f6-42dd-85dd-65501678c148"},"vehicle_type_id":"4","last_reported":1743696741,"current_range_meters":6000,"station_id":"ce4bha12rcd13ifvqef0","pricing_plan_id":"cebpf4jnsgd1na2vs0mg"},{"bike_id":"ffe5089a-1124-4a00-a962-f46e7898ed00","system_id":"levelo_inurba_marseille","lat":43.29766,"lon":5.40399,"is_reserved":false,"is_disabled":false,"rental_uris":{"android":"levelo://app?vid=ffe5089a-1124-4a00-a962-f46e7898ed00","ios":"levelo://app?vid=ffe5089a-1124-4a00-a962-f46e7898ed00"},"vehicle_type_id":"4","last_reported":1743696741,"current_range_meters":6000,"station_id":"ce4bh112rcd13ifvqd90","pricing_plan_id":"cebpf4jnsgd1na2vs0mg"},{"bike_id":"b897c27e-214b-4186-ad40-32de7a116971","system_id":"levelo_inurba_marseille","lat":43.29933,"lon":5.36539,"is_reserved":false,"is_disabled":false,"rental_uris":{"android":"levelo://app?vid=b897c27e-214b-4186-ad40-32de7a116971","ios":"levelo://app?vid=b897c27e-214b-4186-ad40-32de7a116971"},"vehicle_type_id":"4","last_reported":1743696741,"current_range_meters":6000,"station_id":"ce4bgm92rcd13ifvqbr0","pricing_plan_id":"cebpf4jnsgd1na2vs0mg"},{"bike_id":"93a2d3c1-ee01-44b1-bd95-87ab9c4f6e29","system_id":"levelo_inurba_marseille","lat":43.2656,"lon":5.37283,"is_reserved":false,"is_disabled":false,"rental_uris":{"android":"levelo://app?vid=93a2d3c1-ee01-44b1-bd95-87ab9c4f6e29","ios":"levelo://app?vid=93a2d3c1-ee01-44b1-bd95-87ab9c4f6e29"},"vehicle_type_id":"4","last_reported":1743696741,"current_range_meters":6000,"station_id":"ce4bhg12rcd13ifvqf70","pricing_plan_id":"cebpf4jnsgd1na2vs0mg"},{"bike_id":"120db003-43ad-4d2a-ae6a-7e5cb01e4ac3","system_id":"levelo_inurba_marseille","lat":43.32045,"lon":5.41549,"is_reserved":false,"is_disabled":false,"rental_uris":{"android":"levelo://app?vid=120db003-43ad-4d2a-ae6a-7e5cb01e4ac3","ios":"levelo://app?vid=120db003-43ad-4d2a-ae6a-7e5cb01e4ac3"},"vehicle_type_id":"4","last_reported":1743696741,"current_range_meters":5600,"station_id":"ce4bhq92rcd13ifvqhkg","pricing_plan_id":"cebpf4jnsgd1na2vs0mg"},{"bike_id":"04556df8-715f-45d8-b288-9c8fd51282f9","system_id":"levelo_inurba_marseille","lat":43.23197,"lon":5.35557,"is_reserved":false,"is_disabled":false,"rental_uris":{"android":"levelo://app?vid=04556df8-715f-45d8-b288-9c8fd51282f9","ios":"levelo://app?vid=04556df8-715f-45d8-b288-9c8fd51282f9"},"vehicle_type_id":"4","last_reported":1743696741,"current_range_meters":6400,"station_id":"ce4bhu92rcd13ifvqi70","pricing_plan_id":"cebpf4jnsgd1na2vs0mg"},{"bike_id":"126e6819-1eaf-4c5e-b051-b8c008034168","system_id":"levelo_inurba_marseille","lat":43.29448,"lon":5.39745,"is_reserved":false,"is_disabled":false,"rental_uris":{"android":"levelo://app?vid=126e6819-1eaf-4c5e-b051-b8c008034168","ios":"levelo://app?vid=126e6819-1eaf-4c5e-b051-b8c008034168"},"vehicle_type_id":"4","last_reported":1743696741,"current_range_meters":6400,"station_id":"ce4bh3h2rcd13ifvqdo0","pricing_plan_id":"cebpf4jnsgd1na2vs0mg"},{"bike_id":"988a4b2a-1fca-4561-9342-57ad8b6adb1c","system_id":"levelo_inurba_marseille","lat":43.22928,"lon":5.35404,"is_reserved":false,"is_disabled":false,"rental_uris":{"android":"levelo://app?vid=988a4b2a-1fca-4561-9342-57ad8b6adb1c","ios":"levelo://app?vid=988a4b2a-1fca-4561-9342-57ad8b6adb1c"},"vehicle_type_id":"4","last_reported":1743696741,"current_range_meters":6400,"station_id":"cpo3532slgdg3j2ikp40","pricing_plan_id":"cebpf4jnsgd1na2vs0mg"},{"bike_id":"f87e996c-206a-47d9-8697-84a2d463fdc3","system_id":"levelo_inurba_marseille","lat":43.23191,"lon":5.35571,"is_reserved":false,"is_disabled":false,"rental_uris":{"android":"levelo://app?vid=f87e996c-206a-47d9-8697-84a2d463fdc3","ios":"levelo://app?vid=f87e996c-206a-47d9-8697-84a2d463fdc3"},"vehicle_type_id":"4","last_reported":1743696741,"current_range_meters":6400,"station_id":"ce4bhu92rcd13ifvqi70","pricing_plan_id":"cebpf4jnsgd1na2vs0mg"},{"bike_id":"4f34a557-fab2-4286-b669-c444526085b5","system_id":"levelo_inurba_marseille","lat":43.32358,"lon":5.40651,"is_reserved":false,"is_disabled":false,"rental_uris":{"android":"levelo://app?vid=4f34a557-fab2-4286-b669-c444526085b5","ios":"levelo://app?vid=4f34a557-fab2-4286-b669-c444526085b5"},"vehicle_type_id":"4","last_reported":1743696741,"current_range_meters":6400,"station_id":"ce4bhq92rcd13ifvqhjg","pricing_plan_id":"cebpf4jnsgd1na2vs0mg"},{"bike_id":"709bb359-3eab-4863-8345-35c62be9aca8","system_id":"levelo_inurba_marseille","lat":43.28692,"lon":5.37394,"is_reserved":false,"is_disabled":false,"rental_uris":{"android":"levelo://app?vid=709bb359-3eab-4863-8345-35c62be9aca8","ios":"levelo://app?vid=709bb359-3eab-4863-8345-35c62be9aca8"},"vehicle_type_id":"4","last_reported":1743696741,"current_range_meters":6400,"station_id":"ce4bh3p2rcd13ifvqdq0","pricing_plan_id":"cebpf4jnsgd1na2vs0mg"},{"bike_id":"546380d0-0813-4737-817f-a21e056e8d2e","system_id":"levelo_inurba_marseille","lat":43.32367,"lon":5.36761,"is_reserved":false,"is_disabled":false,"rental_uris":{"android":"levelo://app?vid=546380d0-0813-4737-817f-a21e056e8d2e","ios":"levelo://app?vid=546380d0-0813-4737-817f-a21e056e8d2e"},"vehicle_type_id":"4","last_reported":1743696741,"current_range_meters":6400,"station_id":"ce4bhsh2rcd13ifvqi2g","pricing_plan_id":"cebpf4jnsgd1na2vs0mg"},{"bike_id":"de7d94d5-5d9e-4115-9af0-14c81da09d9c","system_id":"levelo_inurba_marseille","lat":43.27382,"lon":5.36258,"is_reserved":false,"is_disabled":false,"rental_uris":{"android":"levelo://app?vid=de7d94d5-5d9e-4115-9af0-14c81da09d9c","ios":"levelo://app?vid=de7d94d5-5d9e-4115-9af0-14c81da09d9c"},"vehicle_type_id":"4","last_reported":1743696741,"current_range_meters":5600,"station_id":"ce4bhbh2rcd13ifvqeo0","pricing_plan_id":"cebpf4jnsgd1na2vs0mg"},{"bike_id":"9d13c440-da3b-4535-b70d-8105619f88bd","system_id":"levelo_inurba_marseille","lat":43.32367,"lon":5.38907,"is_reserved":false,"is_disabled":true,"rental_uris":{"android":"levelo://app?vid=9d13c440-da3b-4535-b70d-8105619f88bd","ios":"levelo://app?vid=9d13c440-da3b-4535-b70d-8105619f88bd"},"vehicle_type_id":"4","last_reported":1743696741,"current_range_meters":6800,"station_id":"ce4bhqp2rcd13ifvqhog","pricing_plan_id":"cebpf4jnsgd1na2vs0mg"},{"bike_id":"e7b08b20-c470-41af-87e0-31d1b887a443","system_id":"levelo_inurba_marseille","lat":43.29706,"lon":5.36609,"is_reserved":false,"is_disabled":false,"rental_uris":{"android":"levelo://app?vid=e7b08b20-c470-41af-87e0-31d1b887a443","ios":"levelo://app?vid=e7b08b20-c470-41af-87e0-31d1b887a443"},"vehicle_type_id":"4","last_reported":1743696741,"current_range_meters":6800,"station_id":"ce4bgn12rcd13ifvqbt0","pricing_plan_id":"cebpf4jnsgd1na2vs0mg"},{"bike_id":"6c472baa-e04c-483f-8f1b-6730dc80300d","system_id":"levelo_inurba_marseille","lat":43.29008,"lon":5.35617,"is_reserved":false,"is_disabled":false,"rental_uris":{"android":"levelo://app?vid=6c472baa-e04c-483f-8f1b-6730dc80300d","ios":"levelo://app?vid=6c472baa-e04c-483f-8f1b-6730dc80300d"},"vehicle_type_id":"4","last_reported":1743696741,"current_range_meters":6800,"station_id":"ce4bhb92rcd13ifvqen0","pricing_plan_id":"cebpf4jnsgd1na2vs0mg"},{"bike_id":"db253690-85f7-4eae-9a99-76df6b4cfdb6","system_id":"levelo_inurba_marseille","lat":43.2794,"lon":5.4105,"is_reserved":false,"is_disabled":false,"rental_uris":{"android":"levelo://app?vid=db253690-85f7-4eae-9a99-76df6b4cfdb6","ios":"levelo://app?vid=db253690-85f7-4eae-9a99-76df6b4cfdb6"},"vehicle_type_id":"4","last_reported":1743696741,"current_range_meters":6800,"station_id":"ce4bhnp2rcd13ifvqh0g","pricing_plan_id":"cebpf4jnsgd1na2vs0mg"},{"bike_id":"8d67194f-d9af-468b-bfc1-0fb420f0bffe","system_id":"levelo_inurba_marseille","lat":43.31227,"lon":5.36818,"is_reserved":false,"is_disabled":false,"rental_uris":{"android":"levelo://app?vid=8d67194f-d9af-468b-bfc1-0fb420f0bffe","ios":"levelo://app?vid=8d67194f-d9af-468b-bfc1-0fb420f0bffe"},"vehicle_type_id":"4","last_reported":1743696741,"current_range_meters":6800,"station_id":"ce4bgl92rcd13ifvqbq0","pricing_plan_id":"cebpf4jnsgd1na2vs0mg"},{"bike_id":"7f4f0a5b-bfc5-41b1-9ca8-7b777a0aeb4f","system_id":"levelo_inurba_marseille","lat":43.23076,"lon":5.35536,"is_reserved":false,"is_disabled":false,"rental_uris":{"android":"levelo://app?vid=7f4f0a5b-bfc5-41b1-9ca8-7b777a0aeb4f","ios":"levelo://app?vid=7f4f0a5b-bfc5-41b1-9ca8-7b777a0aeb4f"},"vehicle_type_id":"4","last_reported":1743696741,"current_range_meters":6800,"station_id":"cpo3342slgdg3j2ifvpg","pricing_plan_id":"cebpf4jnsgd1na2vs0mg"},{"bike_id":"9df8bdf9-793b-4831-9b44-9d932440da19","system_id":"levelo_inurba_marseille","lat":43.2886,"lon":5.35874,"is_reserved":false,"is_disabled":false,"rental_uris":{"android":"levelo://app?vid=9df8bdf9-793b-4831-9b44-9d932440da19","ios":"levelo://app?vid=9df8bdf9-793b-4831-9b44-9d932440da19"},"vehicle_type_id":"4","last_reported":1743696741,"current_range_meters":6800,"station_id":"ce4bhb12rcd13ifvqem0","pricing_plan_id":"cebpf4jnsgd1na2vs0mg"},{"bike_id":"f4c55a8b-b9f0-4f0e-bcdf-26e633a9a644","system_id":"levelo_inurba_marseille","lat":43.26506,"lon":5.39526,"is_reserved":false,"is_disabled":false,"rental_uris":{"android":"levelo://app?vid=f4c55a8b-b9f0-4f0e-bcdf-26e633a9a644","ios":"levelo://app?vid=f4c55a8b-b9f0-4f0e-bcdf-26e633a9a644"},"vehicle_type_id":"4","last_reported":1743696741,"current_range_meters":6800,"station_id":"ce4bhi12rcd13ifvqfq0","pricing_plan_id":"cebpf4jnsgd1na2vs0mg"},{"bike_id":"2e1d0491-8046-4a1c-910c-6d230f4ca468","system_id":"levelo_inurba_marseille","lat":43.30695,"lon":5.37277,"is_reserved":false,"is_disabled":false,"rental_uris":{"android":"levelo://app?vid=2e1d0491-8046-4a1c-910c-6d230f4ca468","ios":"levelo://app?vid=2e1d0491-8046-4a1c-910c-6d230f4ca468"},"vehicle_type_id":"4","last_reported":1743696741,"current_range_meters":6800,"station_id":"","pricing_plan_id":"cebpf4jnsgd1na2vs0mg"},{"bike_id":"2836bca7-51f4-4c2b-bea6-edd644268623","system_id":"levelo_inurba_marseille","lat":43.28611,"lon":5.35102,"is_reserved":false,"is_disabled":false,"rental_uris":{"android":"levelo://app?vid=2836bca7-51f4-4c2b-bea6-edd644268623","ios":"levelo://app?vid=2836bca7-51f4-4c2b-bea6-edd644268623"},"vehicle_type_id":"4","last_reported":1743696741,"current_range_meters":8000,"station_id":"ce4bhch2rcd13ifvqeug","pricing_plan_id":"cebpf4jnsgd1na2vs0mg"},{"bike_id":"78d6b7cd-ac07-453b-bc94-98692716d8c6","system_id":"levelo_inurba_marseille","lat":43.23198,"lon":5.35574,"is_reserved":false,"is_disabled":false,"rental_uris":{"android":"levelo://app?vid=78d6b7cd-ac07-453b-bc94-98692716d8c6","ios":"levelo://app?vid=78d6b7cd-ac07-453b-bc94-98692716d8c6"},"vehicle_type_id":"4","last_reported":1743696741,"current_range_meters":7200,"station_id":"ce4bhu92rcd13ifvqi70","pricing_plan_id":"cebpf4jnsgd1na2vs0mg"},{"bike_id":"bc7296d4-40e5-4e42-961e-a7893d7bed4d","system_id":"levelo_inurba_marseille","lat":43.29942,"lon":5.36512,"is_reserved":false,"is_disabled":false,"rental_uris":{"android":"levelo://app?vid=bc7296d4-40e5-4e42-961e-a7893d7bed4d","ios":"levelo://app?vid=bc7296d4-40e5-4e42-961e-a7893d7bed4d"},"vehicle_type_id":"4","last_reported":1743696741,"current_range_meters":7200,"station_id":"ce4bgm92rcd13ifvqbr0","pricing_plan_id":"cebpf4jnsgd1na2vs0mg"},{"bike_id":"c86ea9b3-1365-490c-86bb-48c20e64364a","system_id":"levelo_inurba_marseille","lat":43.29173,"lon":5.37162,"is_reserved":false,"is_disabled":false,"rental_uris":{"android":"levelo://app?vid=c86ea9b3-1365-490c-86bb-48c20e64364a","ios":"levelo://app?vid=c86ea9b3-1365-490c-86bb-48c20e64364a"},"vehicle_type_id":"4","last_reported":1743696741,"current_range_meters":7200,"station_id":"ce4bha92rcd13ifvqeh0","pricing_plan_id":"cebpf4jnsgd1na2vs0mg"},{"bike_id":"348059da-4422-4779-9da7-0f8749ec3e1a","system_id":"levelo_inurba_marseille","lat":43.27375,"lon":5.36253,"is_reserved":false,"is_disabled":false,"rental_uris":{"android":"levelo://app?vid=348059da-4422-4779-9da7-0f8749ec3e1a","ios":"levelo://app?vid=348059da-4422-4779-9da7-0f8749ec3e1a"},"vehicle_type_id":"4","last_reported":1743696741,"current_range_meters":7200,"station_id":"ce4bhbh2rcd13ifvqeo0","pricing_plan_id":"cebpf4jnsgd1na2vs0mg"},{"bike_id":"46ff7531-2e96-4aea-9815-9c75d159f246","system_id":"levelo_inurba_marseille","lat":43.25868,"lon":5.39897,"is_reserved":false,"is_disabled":false,"rental_uris":{"android":"levelo://app?vid=46ff7531-2e96-4aea-9815-9c75d159f246","ios":"levelo://app?vid=46ff7531-2e96-4aea-9815-9c75d159f246"},"vehicle_type_id":"4","last_reported":1743696741,"current_range_meters":7200,"station_id":"ce4bhl92rcd13ifvqghg","pricing_plan_id":"cebpf4jnsgd1na2vs0mg"},{"bike_id":"d468de67-52a4-498f-bf58-e587bd634c04","system_id":"levelo_inurba_marseille","lat":43.304352,"lon":5.388932,"is_reserved":false,"is_disabled":false,"rental_uris":{"android":"levelo://app?vid=d468de67-52a4-498f-bf58-e587bd634c04","ios":"levelo://app?vid=d468de67-52a4-498f-bf58-e587bd634c04"},"vehicle_type_id":"4","last_reported":1743696741,"current_range_meters":8400,"station_id":"ce4bgk12rcd13ifvqbi0","pricing_plan_id":"cebpf4jnsgd1na2vs0mg"},{"bike_id":"defcd827-8990-4fa1-b1d9-7e7e26b61fdd","system_id":"levelo_inurba_marseille","lat":43.27618,"lon":5.36115,"is_reserved":false,"is_disabled":false,"rental_uris":{"android":"levelo://app?vid=defcd827-8990-4fa1-b1d9-7e7e26b61fdd","ios":"levelo://app?vid=defcd827-8990-4fa1-b1d9-7e7e26b61fdd"},"vehicle_type_id":"4","last_reported":1743696741,"current_range_meters":8000,"station_id":"ce4bgj92rcd13ifvqbe0","pricing_plan_id":"cebpf4jnsgd1na2vs0mg"},{"bike_id":"32a978e0-d0c2-43d4-9b03-19a5c41c27de","system_id":"levelo_inurba_marseille","lat":43.31074,"lon":5.38348,"is_reserved":false,"is_disabled":true,"rental_uris":{"android":"levelo://app?vid=32a978e0-d0c2-43d4-9b03-19a5c41c27de","ios":"levelo://app?vid=32a978e0-d0c2-43d4-9b03-19a5c41c27de"},"vehicle_type_id":"4","last_reported":1743696741,"current_range_meters":8000,"station_id":"ce4bgv92rcd13ifvqcr0","pricing_plan_id":"cebpf4jnsgd1na2vs0mg"},{"bike_id":"85c87ee0-c2cb-4310-b2b8-ca805373309d","system_id":"levelo_inurba_marseille","lat":43.312365,"lon":5.401399,"is_reserved":false,"is_disabled":false,"rental_uris":{"android":"levelo://app?vid=85c87ee0-c2cb-4310-b2b8-ca805373309d","ios":"levelo://app?vid=85c87ee0-c2cb-4310-b2b8-ca805373309d"},"vehicle_type_id":"4","last_reported":1743696741,"current_range_meters":8000,"station_id":"ce4bh2p2rcd13ifvqdi0","pricing_plan_id":"cebpf4jnsgd1na2vs0mg"},{"bike_id":"6b901243-5970-4d41-950d-b84f98e2f80e","system_id":"levelo_inurba_marseille","lat":43.29258,"lon":5.37615,"is_reserved":false,"is_disabled":false,"rental_uris":{"android":"levelo://app?vid=6b901243-5970-4d41-950d-b84f98e2f80e","ios":"levelo://app?vid=6b901243-5970-4d41-950d-b84f98e2f80e"},"vehicle_type_id":"4","last_reported":1743696741,"current_range_meters":8000,"station_id":"ce4bgi12rcd13ifvqb80","pricing_plan_id":"cebpf4jnsgd1na2vs0mg"},{"bike_id":"e1bcd518-a3a1-4a25-9b9e-794fbd0bdf0a","system_id":"levelo_inurba_marseille","lat":43.23958,"lon":5.36645,"is_reserved":false,"is_disabled":false,"rental_uris":{"android":"levelo://app?vid=e1bcd518-a3a1-4a25-9b9e-794fbd0bdf0a","ios":"levelo://app?vid=e1bcd518-a3a1-4a25-9b9e-794fbd0bdf0a"},"vehicle_type_id":"4","last_reported":1743696741,"current_range_meters":8000,"station_id":"ce4bhi12rcd13ifvqfp0","pricing_plan_id":"cebpf4jnsgd1na2vs0mg"},{"bike_id":"89821b83-a7ed-42d0-be7b-af62a20b9b5f","system_id":"levelo_inurba_marseille","lat":43.28259,"lon":5.35067,"is_reserved":false,"is_disabled":false,"rental_uris":{"android":"levelo://app?vid=89821b83-a7ed-42d0-be7b-af62a20b9b5f","ios":"levelo://app?vid=89821b83-a7ed-42d0-be7b-af62a20b9b5f"},"vehicle_type_id":"4","last_reported":1743696741,"current_range_meters":8000,"station_id":"ce4bhbp2rcd13ifvqerg","pricing_plan_id":"cebpf4jnsgd1na2vs0mg"},{"bike_id":"4efe08bc-3ed4-4dd1-ad00-43917e8a6048","system_id":"levelo_inurba_marseille","lat":43.2813,"lon":5.37838,"is_reserved":false,"is_disabled":false,"rental_uris":{"android":"levelo://app?vid=4efe08bc-3ed4-4dd1-ad00-43917e8a6048","ios":"levelo://app?vid=4efe08bc-3ed4-4dd1-ad00-43917e8a6048"},"vehicle_type_id":"4","last_reported":1743696741,"current_range_meters":8000,"station_id":"ce4bha12rcd13ifvqee0","pricing_plan_id":"cebpf4jnsgd1na2vs0mg"},{"bike_id":"c9fb25a7-e723-41fe-abac-05d32f3d4f9d","system_id":"levelo_inurba_marseille","lat":43.26016,"lon":5.41741,"is_reserved":false,"is_disabled":false,"rental_uris":{"android":"levelo://app?vid=c9fb25a7-e723-41fe-abac-05d32f3d4f9d","ios":"levelo://app?vid=c9fb25a7-e723-41fe-abac-05d32f3d4f9d"},"vehicle_type_id":"4","last_reported":1743696741,"current_range_meters":8000,"station_id":"","pricing_plan_id":"cebpf4jnsgd1na2vs0mg"},{"bike_id":"15ea3e20-e3c1-434f-8b50-88d1ebba3f71","system_id":"levelo_inurba_marseille","lat":43.23195,"lon":5.35557,"is_reserved":false,"is_disabled":false,"rental_uris":{"android":"levelo://app?vid=15ea3e20-e3c1-434f-8b50-88d1ebba3f71","ios":"levelo://app?vid=15ea3e20-e3c1-434f-8b50-88d1ebba3f71"},"vehicle_type_id":"4","last_reported":1743696741,"current_range_meters":8000,"station_id":"ce4bhu92rcd13ifvqi70","pricing_plan_id":"cebpf4jnsgd1na2vs0mg"},{"bike_id":"75dae32f-059a-4b5b-a5e8-963c6eda2f66","system_id":"levelo_inurba_marseille","lat":43.27525,"lon":5.41017,"is_reserved":false,"is_disabled":false,"rental_uris":{"android":"levelo://app?vid=75dae32f-059a-4b5b-a5e8-963c6eda2f66","ios":"levelo://app?vid=75dae32f-059a-4b5b-a5e8-963c6eda2f66"},"vehicle_type_id":"4","last_reported":1743696741,"current_range_meters":8000,"station_id":"","pricing_plan_id":"cebpf4jnsgd1na2vs0mg"},{"bike_id":"ea76618a-05fe-4445-ba6c-47723a43bf48","system_id":"levelo_inurba_marseille","lat":43.270446,"lon":5.403091,"is_reserved":false,"is_disabled":false,"rental_uris":{"android":"levelo://app?vid=ea76618a-05fe-4445-ba6c-47723a43bf48","ios":"levelo://app?vid=ea76618a-05fe-4445-ba6c-47723a43bf48"},"vehicle_type_id":"4","last_reported":1743696741,"current_range_meters":8400,"station_id":"ce4bhk92rcd13ifvqgc0","pricing_plan_id":"cebpf4jnsgd1na2vs0mg"},{"bike_id":"3374421a-949f-40b6-870f-59a2d8ba0de4","system_id":"levelo_inurba_marseille","lat":43.24177,"lon":5.36416,"is_reserved":false,"is_disabled":false,"rental_uris":{"android":"levelo://app?vid=3374421a-949f-40b6-870f-59a2d8ba0de4","ios":"levelo://app?vid=3374421a-949f-40b6-870f-59a2d8ba0de4"},"vehicle_type_id":"4","last_reported":1743696741,"current_range_meters":8400,"station_id":"cpo36qri1sfpv3e86is0","pricing_plan_id":"cebpf4jnsgd1na2vs0mg"},{"bike_id":"c2e6881a-04a3-4a38-9cc0-75cacf165e78","system_id":"levelo_inurba_marseille","lat":43.28832,"lon":5.364645,"is_reserved":false,"is_disabled":false,"rental_uris":{"android":"levelo://app?vid=c2e6881a-04a3-4a38-9cc0-75cacf165e78","ios":"levelo://app?vid=c2e6881a-04a3-4a38-9cc0-75cacf165e78"},"vehicle_type_id":"4","last_reported":1743696741,"current_range_meters":8400,"station_id":"","pricing_plan_id":"cebpf4jnsgd1na2vs0mg"},{"bike_id":"0890fa60-049f-44ea-96c8-ca3ae6292ced","system_id":"levelo_inurba_marseille","lat":43.24829,"lon":5.37456,"is_reserved":false,"is_disabled":false,"rental_uris":{"android":"levelo://app?vid=0890fa60-049f-44ea-96c8-ca3ae6292ced","ios":"levelo://app?vid=0890fa60-049f-44ea-96c8-ca3ae6292ced"},"vehicle_type_id":"4","last_reported":1743696741,"current_range_meters":8400,"station_id":"ce4bhgh2rcd13ifvqfb0","pricing_plan_id":"cebpf4jnsgd1na2vs0mg"},{"bike_id":"b42e30f3-e4b2-4766-a2e5-dfd7324e86a1","system_id":"levelo_inurba_marseille","lat":43.23196,"lon":5.35555,"is_reserved":false,"is_disabled":false,"rental_uris":{"android":"levelo://app?vid=b42e30f3-e4b2-4766-a2e5-dfd7324e86a1","ios":"levelo://app?vid=b42e30f3-e4b2-4766-a2e5-dfd7324e86a1"},"vehicle_type_id":"4","last_reported":1743696741,"current_range_meters":8400,"station_id":"ce4bhu92rcd13ifvqi70","pricing_plan_id":"cebpf4jnsgd1na2vs0mg"},{"bike_id":"4c4b2540-b7dd-456a-a65d-c90b9791d7fb","system_id":"levelo_inurba_marseille","lat":43.27931,"lon":5.38275,"is_reserved":false,"is_disabled":false,"rental_uris":{"android":"levelo://app?vid=4c4b2540-b7dd-456a-a65d-c90b9791d7fb","ios":"levelo://app?vid=4c4b2540-b7dd-456a-a65d-c90b9791d7fb"},"vehicle_type_id":"4","last_reported":1743696741,"current_range_meters":8400,"station_id":"ce4bhh92rcd13ifvqfi0","pricing_plan_id":"cebpf4jnsgd1na2vs0mg"},{"bike_id":"3eac8174-2816-45b8-a26e-a2bac3e3f9cf","system_id":"levelo_inurba_marseille","lat":43.298701,"lon":5.397268,"is_reserved":false,"is_disabled":false,"rental_uris":{"android":"levelo://app?vid=3eac8174-2816-45b8-a26e-a2bac3e3f9cf","ios":"levelo://app?vid=3eac8174-2816-45b8-a26e-a2bac3e3f9cf"},"vehicle_type_id":"4","last_reported":1743696741,"current_range_meters":8000,"station_id":"ce4bgih2rcd13ifvqba0","pricing_plan_id":"cebpf4jnsgd1na2vs0mg"},{"bike_id":"92c7594a-5727-462e-a23a-d3d432898ee2","system_id":"levelo_inurba_marseille","lat":43.243835,"lon":5.39661,"is_reserved":false,"is_disabled":false,"rental_uris":{"android":"levelo://app?vid=92c7594a-5727-462e-a23a-d3d432898ee2","ios":"levelo://app?vid=92c7594a-5727-462e-a23a-d3d432898ee2"},"vehicle_type_id":"4","last_reported":1743696741,"current_range_meters":8000,"station_id":"ce4bhhh2rcd13ifvqfl0","pricing_plan_id":"cebpf4jnsgd1na2vs0mg"},{"bike_id":"2d852c82-ae6a-4739-92da-48a433ac3774","system_id":"levelo_inurba_marseille","lat":43.28432,"lon":5.39183,"is_reserved":false,"is_disabled":false,"rental_uris":{"android":"levelo://app?vid=2d852c82-ae6a-4739-92da-48a433ac3774","ios":"levelo://app?vid=2d852c82-ae6a-4739-92da-48a433ac3774"},"vehicle_type_id":"4","last_reported":1743696741,"current_range_meters":8400,"station_id":"ce4bhoh2rcd13ifvqh5g","pricing_plan_id":"cebpf4jnsgd1na2vs0mg"},{"bike_id":"4a8d215f-728c-4424-bfbf-5faa62888e2d","system_id":"levelo_inurba_marseille","lat":43.295101,"lon":5.394076,"is_reserved":false,"is_disabled":true,"rental_uris":{"android":"levelo://app?vid=4a8d215f-728c-4424-bfbf-5faa62888e2d","ios":"levelo://app?vid=4a8d215f-728c-4424-bfbf-5faa62888e2d"},"vehicle_type_id":"4","last_reported":1743696741,"current_range_meters":8400,"station_id":"ce4bh292rcd13ifvqdf0","pricing_plan_id":"cebpf4jnsgd1na2vs0mg"},{"bike_id":"3076f34b-8a53-4a15-9c82-c3c1aea0cb56","system_id":"levelo_inurba_marseille","lat":43.27997,"lon":5.40012,"is_reserved":false,"is_disabled":false,"rental_uris":{"android":"levelo://app?vid=3076f34b-8a53-4a15-9c82-c3c1aea0cb56","ios":"levelo://app?vid=3076f34b-8a53-4a15-9c82-c3c1aea0cb56"},"vehicle_type_id":"4","last_reported":1743696741,"current_range_meters":8800,"station_id":"ce4bho92rcd13ifvqh4g","pricing_plan_id":"cebpf4jnsgd1na2vs0mg"},{"bike_id":"cd83c8ac-ed09-4369-9279-b6f36f2bbd3c","system_id":"levelo_inurba_marseille","lat":43.30794,"lon":5.38244,"is_reserved":false,"is_disabled":false,"rental_uris":{"android":"levelo://app?vid=cd83c8ac-ed09-4369-9279-b6f36f2bbd3c","ios":"levelo://app?vid=cd83c8ac-ed09-4369-9279-b6f36f2bbd3c"},"vehicle_type_id":"4","last_reported":1743696741,"current_range_meters":8800,"station_id":"","pricing_plan_id":"cebpf4jnsgd1na2vs0mg"},{"bike_id":"8b7299a5-b0b1-4158-a7a6-f1fc226c3808","system_id":"levelo_inurba_marseille","lat":43.31364,"lon":5.38499,"is_reserved":false,"is_disabled":false,"rental_uris":{"android":"levelo://app?vid=8b7299a5-b0b1-4158-a7a6-f1fc226c3808","ios":"levelo://app?vid=8b7299a5-b0b1-4158-a7a6-f1fc226c3808"},"vehicle_type_id":"4","last_reported":1743696741,"current_range_meters":8800,"station_id":"ce4bgt92rcd13ifvqcf0","pricing_plan_id":"cebpf4jnsgd1na2vs0mg"},{"bike_id":"5bfb4624-68f7-4a14-81b2-69ab562895b5","system_id":"levelo_inurba_marseille","lat":43.28616,"lon":5.35101,"is_reserved":false,"is_disabled":false,"rental_uris":{"android":"levelo://app?vid=5bfb4624-68f7-4a14-81b2-69ab562895b5","ios":"levelo://app?vid=5bfb4624-68f7-4a14-81b2-69ab562895b5"},"vehicle_type_id":"4","last_reported":1743696741,"current_range_meters":9600,"station_id":"ce4bhch2rcd13ifvqeug","pricing_plan_id":"cebpf4jnsgd1na2vs0mg"},{"bike_id":"1ba311fe-92a4-4181-8b51-1f7a22d19910","system_id":"levelo_inurba_marseille","lat":43.29531,"lon":5.38555,"is_reserved":false,"is_disabled":false,"rental_uris":{"android":"levelo://app?vid=1ba311fe-92a4-4181-8b51-1f7a22d19910","ios":"levelo://app?vid=1ba311fe-92a4-4181-8b51-1f7a22d19910"},"vehicle_type_id":"4","last_reported":1743696741,"current_range_meters":8800,"station_id":"ce4bgih2rcd13ifvqba0","pricing_plan_id":"cebpf4jnsgd1na2vs0mg"},{"bike_id":"e590fe23-e0aa-4322-a597-417c816f1dd9","system_id":"levelo_inurba_marseille","lat":43.27946,"lon":5.41051,"is_reserved":false,"is_disabled":false,"rental_uris":{"android":"levelo://app?vid=e590fe23-e0aa-4322-a597-417c816f1dd9","ios":"levelo://app?vid=e590fe23-e0aa-4322-a597-417c816f1dd9"},"vehicle_type_id":"4","last_reported":1743696741,"current_range_meters":8800,"station_id":"ce4bhnp2rcd13ifvqh0g","pricing_plan_id":"cebpf4jnsgd1na2vs0mg"},{"bike_id":"7d49898d-4c6e-4131-9fdb-37de62f2c79c","system_id":"levelo_inurba_marseille","lat":43.289,"lon":5.37131,"is_reserved":false,"is_disabled":false,"rental_uris":{"android":"levelo://app?vid=7d49898d-4c6e-4131-9fdb-37de62f2c79c","ios":"levelo://app?vid=7d49898d-4c6e-4131-9fdb-37de62f2c79c"},"vehicle_type_id":"4","last_reported":1743696741,"current_range_meters":8800,"station_id":"","pricing_plan_id":"cebpf4jnsgd1na2vs0mg"},{"bike_id":"5f563832-0c5f-4621-a78b-3b237daceaa6","system_id":"levelo_inurba_marseille","lat":43.29581,"lon":5.3674,"is_reserved":false,"is_disabled":false,"rental_uris":{"android":"levelo://app?vid=5f563832-0c5f-4621-a78b-3b237daceaa6","ios":"levelo://app?vid=5f563832-0c5f-4621-a78b-3b237daceaa6"},"vehicle_type_id":"4","last_reported":1743696741,"current_range_meters":8800,"station_id":"ce4bgph2rcd13ifvqc2g","pricing_plan_id":"cebpf4jnsgd1na2vs0mg"},{"bike_id":"26e6031e-85b8-4757-a5ee-662ea5ed2026","system_id":"levelo_inurba_marseille","lat":43.260624,"lon":5.394113,"is_reserved":false,"is_disabled":false,"rental_uris":{"android":"levelo://app?vid=26e6031e-85b8-4757-a5ee-662ea5ed2026","ios":"levelo://app?vid=26e6031e-85b8-4757-a5ee-662ea5ed2026"},"vehicle_type_id":"4","last_reported":1743696741,"current_range_meters":9200,"station_id":"ce4bhh92rcd13ifvqfj0","pricing_plan_id":"cebpf4jnsgd1na2vs0mg"},{"bike_id":"512f19b3-8ab1-4ba7-9822-c9d73fd5ce86","system_id":"levelo_inurba_marseille","lat":43.269257,"lon":5.389189,"is_reserved":false,"is_disabled":false,"rental_uris":{"android":"levelo://app?vid=512f19b3-8ab1-4ba7-9822-c9d73fd5ce86","ios":"levelo://app?vid=512f19b3-8ab1-4ba7-9822-c9d73fd5ce86"},"vehicle_type_id":"4","last_reported":1743696741,"current_range_meters":8800,"station_id":"ce4bhn12rcd13ifvqgqg","pricing_plan_id":"cebpf4jnsgd1na2vs0mg"},{"bike_id":"ad131577-af22-4f36-ba9a-a9adc8b77afc","system_id":"levelo_inurba_marseille","lat":43.26564,"lon":5.39015,"is_reserved":false,"is_disabled":false,"rental_uris":{"android":"levelo://app?vid=ad131577-af22-4f36-ba9a-a9adc8b77afc","ios":"levelo://app?vid=ad131577-af22-4f36-ba9a-a9adc8b77afc"},"vehicle_type_id":"4","last_reported":1743696741,"current_range_meters":9200,"station_id":"ce4bhe12rcd13ifvqf30","pricing_plan_id":"cebpf4jnsgd1na2vs0mg"},{"bike_id":"33433097-89c0-439e-bc0d-aa3d0d891a60","system_id":"levelo_inurba_marseille","lat":43.27378,"lon":5.36256,"is_reserved":false,"is_disabled":false,"rental_uris":{"android":"levelo://app?vid=33433097-89c0-439e-bc0d-aa3d0d891a60","ios":"levelo://app?vid=33433097-89c0-439e-bc0d-aa3d0d891a60"},"vehicle_type_id":"4","last_reported":1743696741,"current_range_meters":9200,"station_id":"ce4bhbh2rcd13ifvqeo0","pricing_plan_id":"cebpf4jnsgd1na2vs0mg"},{"bike_id":"b3c729a9-630e-4d04-9142-b9aec87c294c","system_id":"levelo_inurba_marseille","lat":43.27377,"lon":5.36259,"is_reserved":false,"is_disabled":false,"rental_uris":{"android":"levelo://app?vid=b3c729a9-630e-4d04-9142-b9aec87c294c","ios":"levelo://app?vid=b3c729a9-630e-4d04-9142-b9aec87c294c"},"vehicle_type_id":"4","last_reported":1743696741,"current_range_meters":9200,"station_id":"ce4bhbh2rcd13ifvqeo0","pricing_plan_id":"cebpf4jnsgd1na2vs0mg"},{"bike_id":"6fd4f16a-ffb7-469c-bc6c-428eadc7157b","system_id":"levelo_inurba_marseille","lat":43.29438,"lon":5.3975,"is_reserved":false,"is_disabled":false,"rental_uris":{"android":"levelo://app?vid=6fd4f16a-ffb7-469c-bc6c-428eadc7157b","ios":"levelo://app?vid=6fd4f16a-ffb7-469c-bc6c-428eadc7157b"},"vehicle_type_id":"4","last_reported":1743696741,"current_range_meters":9200,"station_id":"ce4bh3h2rcd13ifvqdo0","pricing_plan_id":"cebpf4jnsgd1na2vs0mg"},{"bike_id":"a117db19-3a63-4c66-99c1-48243cdea383","system_id":"levelo_inurba_marseille","lat":43.32343,"lon":5.40617,"is_reserved":false,"is_disabled":false,"rental_uris":{"android":"levelo://app?vid=a117db19-3a63-4c66-99c1-48243cdea383","ios":"levelo://app?vid=a117db19-3a63-4c66-99c1-48243cdea383"},"vehicle_type_id":"4","last_reported":1743696741,"current_range_meters":9200,"station_id":"ce4bhq92rcd13ifvqhjg","pricing_plan_id":"cebpf4jnsgd1na2vs0mg"},{"bike_id":"73d854ad-9eb6-4d68-8878-e9b2295ae65a","system_id":"levelo_inurba_marseille","lat":43.230634,"lon":5.35492,"is_reserved":false,"is_disabled":false,"rental_uris":{"android":"levelo://app?vid=73d854ad-9eb6-4d68-8878-e9b2295ae65a","ios":"levelo://app?vid=73d854ad-9eb6-4d68-8878-e9b2295ae65a"},"vehicle_type_id":"4","last_reported":1743696741,"current_range_meters":9600,"station_id":"cpo3342slgdg3j2ifvpg","pricing_plan_id":"cebpf4jnsgd1na2vs0mg"},{"bike_id":"5ee4070f-5e9e-4062-a7d9-b9699a97ebe0","system_id":"levelo_inurba_marseille","lat":43.29277,"lon":5.36849,"is_reserved":false,"is_disabled":false,"rental_uris":{"android":"levelo://app?vid=5ee4070f-5e9e-4062-a7d9-b9699a97ebe0","ios":"levelo://app?vid=5ee4070f-5e9e-4062-a7d9-b9699a97ebe0"},"vehicle_type_id":"4","last_reported":1743696741,"current_range_meters":9600,"station_id":"ce4bhbp2rcd13ifvqesg","pricing_plan_id":"cebpf4jnsgd1na2vs0mg"},{"bike_id":"037ce040-c063-4a68-bbe0-b80d725e9606","system_id":"levelo_inurba_marseille","lat":43.30314,"lon":5.368971,"is_reserved":false,"is_disabled":false,"rental_uris":{"android":"levelo://app?vid=037ce040-c063-4a68-bbe0-b80d725e9606","ios":"levelo://app?vid=037ce040-c063-4a68-bbe0-b80d725e9606"},"vehicle_type_id":"4","last_reported":1743696741,"current_range_meters":9600,"station_id":"ce4bgqh2rcd13ifvqc5g","pricing_plan_id":"cebpf4jnsgd1na2vs0mg"},{"bike_id":"42167447-03b0-4a37-b7b5-708a0ac40bc6","system_id":"levelo_inurba_marseille","lat":43.26487,"lon":5.39548,"is_reserved":false,"is_disabled":false,"rental_uris":{"android":"levelo://app?vid=42167447-03b0-4a37-b7b5-708a0ac40bc6","ios":"levelo://app?vid=42167447-03b0-4a37-b7b5-708a0ac40bc6"},"vehicle_type_id":"4","last_reported":1743696741,"current_range_meters":9200,"station_id":"ce4bhi12rcd13ifvqfq0","pricing_plan_id":"cebpf4jnsgd1na2vs0mg"},{"bike_id":"e59c1a3b-50fa-4b5f-a51b-bde5dc8f275d","system_id":"levelo_inurba_marseille","lat":43.2827,"lon":5.35067,"is_reserved":false,"is_disabled":false,"rental_uris":{"android":"levelo://app?vid=e59c1a3b-50fa-4b5f-a51b-bde5dc8f275d","ios":"levelo://app?vid=e59c1a3b-50fa-4b5f-a51b-bde5dc8f275d"},"vehicle_type_id":"4","last_reported":1743696741,"current_range_meters":10000,"station_id":"ce4bhbp2rcd13ifvqerg","pricing_plan_id":"cebpf4jnsgd1na2vs0mg"},{"bike_id":"f96b18ed-5453-47f8-8e0b-e9708d7f8c91","system_id":"levelo_inurba_marseille","lat":43.27979,"lon":5.41671,"is_reserved":false,"is_disabled":false,"rental_uris":{"android":"levelo://app?vid=f96b18ed-5453-47f8-8e0b-e9708d7f8c91","ios":"levelo://app?vid=f96b18ed-5453-47f8-8e0b-e9708d7f8c91"},"vehicle_type_id":"4","last_reported":1743696741,"current_range_meters":10000,"station_id":"ce4bho12rcd13ifvqh1g","pricing_plan_id":"cebpf4jnsgd1na2vs0mg"},{"bike_id":"26f5d302-b7d6-4eba-aa8a-5068ad6cdf17","system_id":"levelo_inurba_marseille","lat":43.30271,"lon":5.40076,"is_reserved":false,"is_disabled":false,"rental_uris":{"android":"levelo://app?vid=26f5d302-b7d6-4eba-aa8a-5068ad6cdf17","ios":"levelo://app?vid=26f5d302-b7d6-4eba-aa8a-5068ad6cdf17"},"vehicle_type_id":"4","last_reported":1743696741,"current_range_meters":10000,"station_id":"ce4bgvh2rcd13ifvqcs0","pricing_plan_id":"cebpf4jnsgd1na2vs0mg"},{"bike_id":"a6ea1aec-0341-4f8a-aa57-8751baa05364","system_id":"levelo_inurba_marseille","lat":43.31729,"lon":5.37631,"is_reserved":false,"is_disabled":false,"rental_uris":{"android":"levelo://app?vid=a6ea1aec-0341-4f8a-aa57-8751baa05364","ios":"levelo://app?vid=a6ea1aec-0341-4f8a-aa57-8751baa05364"},"vehicle_type_id":"4","last_reported":1743696741,"current_range_meters":10000,"station_id":"","pricing_plan_id":"cebpf4jnsgd1na2vs0mg"},{"bike_id":"2635283e-ffd4-4c1f-b9e8-1b146ac4c8cc","system_id":"levelo_inurba_marseille","lat":43.30209,"lon":5.41934,"is_reserved":false,"is_disabled":false,"rental_uris":{"android":"levelo://app?vid=2635283e-ffd4-4c1f-b9e8-1b146ac4c8cc","ios":"levelo://app?vid=2635283e-ffd4-4c1f-b9e8-1b146ac4c8cc"},"vehicle_type_id":"4","last_reported":1743696741,"current_range_meters":10000,"station_id":"","pricing_plan_id":"cebpf4jnsgd1na2vs0mg"},{"bike_id":"0dac6cbf-70aa-4c5b-9bd6-89ce0f38fbc3","system_id":"levelo_inurba_marseille","lat":43.31308,"lon":5.37332,"is_reserved":false,"is_disabled":false,"rental_uris":{"android":"levelo://app?vid=0dac6cbf-70aa-4c5b-9bd6-89ce0f38fbc3","ios":"levelo://app?vid=0dac6cbf-70aa-4c5b-9bd6-89ce0f38fbc3"},"vehicle_type_id":"4","last_reported":1743696741,"current_range_meters":8000,"station_id":"","pricing_plan_id":"cebpf4jnsgd1na2vs0mg"},{"bike_id":"c13336a2-47ce-488c-b5b6-77c01a3ac1d1","system_id":"levelo_inurba_marseille","lat":43.3192,"lon":5.40731,"is_reserved":false,"is_disabled":true,"rental_uris":{"android":"levelo://app?vid=c13336a2-47ce-488c-b5b6-77c01a3ac1d1","ios":"levelo://app?vid=c13336a2-47ce-488c-b5b6-77c01a3ac1d1"},"vehicle_type_id":"4","last_reported":1743696741,"current_range_meters":10000,"station_id":"ce4bhq12rcd13ifvqhig","pricing_plan_id":"cebpf4jnsgd1na2vs0mg"},{"bike_id":"e7631e38-e5d5-4f94-a121-8c369a92bfff","system_id":"levelo_inurba_marseille","lat":43.28707,"lon":5.39989,"is_reserved":false,"is_disabled":false,"rental_uris":{"android":"levelo://app?vid=e7631e38-e5d5-4f94-a121-8c369a92bfff","ios":"levelo://app?vid=e7631e38-e5d5-4f94-a121-8c369a92bfff"},"vehicle_type_id":"4","last_reported":1743696741,"current_range_meters":10000,"station_id":"ce4bho92rcd13ifvqh3g","pricing_plan_id":"cebpf4jnsgd1na2vs0mg"},{"bike_id":"70e5b39f-29e3-4ea9-aa83-5a60a8eec6f8","system_id":"levelo_inurba_marseille","lat":43.25048,"lon":5.41721,"is_reserved":false,"is_disabled":false,"rental_uris":{"android":"levelo://app?vid=70e5b39f-29e3-4ea9-aa83-5a60a8eec6f8","ios":"levelo://app?vid=70e5b39f-29e3-4ea9-aa83-5a60a8eec6f8"},"vehicle_type_id":"4","last_reported":1743696741,"current_range_meters":10000,"station_id":"","pricing_plan_id":"cebpf4jnsgd1na2vs0mg"},{"bike_id":"245ecaf1-c4c2-42a1-b02d-3b67e4cb0823","system_id":"levelo_inurba_marseille","lat":43.27378,"lon":5.36255,"is_reserved":false,"is_disabled":false,"rental_uris":{"android":"levelo://app?vid=245ecaf1-c4c2-42a1-b02d-3b67e4cb0823","ios":"levelo://app?vid=245ecaf1-c4c2-42a1-b02d-3b67e4cb0823"},"vehicle_type_id":"4","last_reported":1743696741,"current_range_meters":9600,"station_id":"ce4bhbh2rcd13ifvqeo0","pricing_plan_id":"cebpf4jnsgd1na2vs0mg"},{"bike_id":"6c51a2a4-1207-41d6-8962-c4f070bd2bd2","system_id":"levelo_inurba_marseille","lat":43.27072,"lon":5.42284,"is_reserved":false,"is_disabled":false,"rental_uris":{"android":"levelo://app?vid=6c51a2a4-1207-41d6-8962-c4f070bd2bd2","ios":"levelo://app?vid=6c51a2a4-1207-41d6-8962-c4f070bd2bd2"},"vehicle_type_id":"4","last_reported":1743696741,"current_range_meters":9600,"station_id":"ce4bhk92rcd13ifvqgb0","pricing_plan_id":"cebpf4jnsgd1na2vs0mg"},{"bike_id":"85d52ac0-4bee-4257-89a0-86469614f9c1","system_id":"levelo_inurba_marseille","lat":43.28069,"lon":5.39606,"is_reserved":false,"is_disabled":false,"rental_uris":{"android":"levelo://app?vid=85d52ac0-4bee-4257-89a0-86469614f9c1","ios":"levelo://app?vid=85d52ac0-4bee-4257-89a0-86469614f9c1"},"vehicle_type_id":"4","last_reported":1743696741,"current_range_meters":10800,"station_id":"ce4bho12rcd13ifvqh2g","pricing_plan_id":"cebpf4jnsgd1na2vs0mg"},{"bike_id":"3cf22d29-90b6-4c79-a643-886bc3743ca7","system_id":"levelo_inurba_marseille","lat":43.33413,"lon":5.40051,"is_reserved":false,"is_disabled":false,"rental_uris":{"android":"levelo://app?vid=3cf22d29-90b6-4c79-a643-886bc3743ca7","ios":"levelo://app?vid=3cf22d29-90b6-4c79-a643-886bc3743ca7"},"vehicle_type_id":"4","last_reported":1743696741,"current_range_meters":10800,"station_id":"","pricing_plan_id":"cebpf4jnsgd1na2vs0mg"},{"bike_id":"8fb6ad4a-8e84-48af-bf2e-30aa03533907","system_id":"levelo_inurba_marseille","lat":43.25088,"lon":5.3952,"is_reserved":false,"is_disabled":false,"rental_uris":{"android":"levelo://app?vid=8fb6ad4a-8e84-48af-bf2e-30aa03533907","ios":"levelo://app?vid=8fb6ad4a-8e84-48af-bf2e-30aa03533907"},"vehicle_type_id":"4","last_reported":1743696741,"current_range_meters":10800,"station_id":"ce4bhm12rcd13ifvqgkg","pricing_plan_id":"cebpf4jnsgd1na2vs0mg"},{"bike_id":"5c540eab-ece5-4a70-bad9-8ff578f521cb","system_id":"levelo_inurba_marseille","lat":43.2841,"lon":5.37515,"is_reserved":false,"is_disabled":false,"rental_uris":{"android":"levelo://app?vid=5c540eab-ece5-4a70-bad9-8ff578f521cb","ios":"levelo://app?vid=5c540eab-ece5-4a70-bad9-8ff578f521cb"},"vehicle_type_id":"4","last_reported":1743696741,"current_range_meters":10800,"station_id":"ce4bh412rcd13ifvqds0","pricing_plan_id":"cebpf4jnsgd1na2vs0mg"},{"bike_id":"e3a29d38-a611-4b12-87ef-2fb8a21c41d5","system_id":"levelo_inurba_marseille","lat":43.22945,"lon":5.35402,"is_reserved":false,"is_disabled":false,"rental_uris":{"android":"levelo://app?vid=e3a29d38-a611-4b12-87ef-2fb8a21c41d5","ios":"levelo://app?vid=e3a29d38-a611-4b12-87ef-2fb8a21c41d5"},"vehicle_type_id":"4","last_reported":1743696741,"current_range_meters":10800,"station_id":"cpo3532slgdg3j2ikp40","pricing_plan_id":"cebpf4jnsgd1na2vs0mg"},{"bike_id":"efddeda7-6eb2-4c14-868d-fa0ce0b35ef3","system_id":"levelo_inurba_marseille","lat":43.31266,"lon":5.38238,"is_reserved":false,"is_disabled":false,"rental_uris":{"android":"levelo://app?vid=efddeda7-6eb2-4c14-868d-fa0ce0b35ef3","ios":"levelo://app?vid=efddeda7-6eb2-4c14-868d-fa0ce0b35ef3"},"vehicle_type_id":"4","last_reported":1743696741,"current_range_meters":10800,"station_id":"","pricing_plan_id":"cebpf4jnsgd1na2vs0mg"},{"bike_id":"6d99fdc3-2450-4280-801d-115677f4a5da","system_id":"levelo_inurba_marseille","lat":43.29899,"lon":5.43666,"is_reserved":false,"is_disabled":false,"rental_uris":{"android":"levelo://app?vid=6d99fdc3-2450-4280-801d-115677f4a5da","ios":"levelo://app?vid=6d99fdc3-2450-4280-801d-115677f4a5da"},"vehicle_type_id":"4","last_reported":1743696741,"current_range_meters":10000,"station_id":"ce4bhpp2rcd13ifvqhfg","pricing_plan_id":"cebpf4jnsgd1na2vs0mg"},{"bike_id":"72a7836d-6759-4694-8705-1484e8fcbcd8","system_id":"levelo_inurba_marseille","lat":43.26193,"lon":5.37452,"is_reserved":false,"is_disabled":false,"rental_uris":{"android":"levelo://app?vid=72a7836d-6759-4694-8705-1484e8fcbcd8","ios":"levelo://app?vid=72a7836d-6759-4694-8705-1484e8fcbcd8"},"vehicle_type_id":"4","last_reported":1743696741,"current_range_meters":10800,"station_id":"ce4bhgp2rcd13ifvqfc0","pricing_plan_id":"cebpf4jnsgd1na2vs0mg"},{"bike_id":"63c19073-a7de-46ed-a396-8639743b910e","system_id":"levelo_inurba_marseille","lat":43.23196,"lon":5.35559,"is_reserved":false,"is_disabled":false,"rental_uris":{"android":"levelo://app?vid=63c19073-a7de-46ed-a396-8639743b910e","ios":"levelo://app?vid=63c19073-a7de-46ed-a396-8639743b910e"},"vehicle_type_id":"4","last_reported":1743696741,"current_range_meters":10800,"station_id":"ce4bhu92rcd13ifvqi70","pricing_plan_id":"cebpf4jnsgd1na2vs0mg"},{"bike_id":"a3bbc07b-3590-4667-b4c8-1b79820aeb6c","system_id":"levelo_inurba_marseille","lat":43.2904,"lon":5.35907,"is_reserved":false,"is_disabled":false,"rental_uris":{"android":"levelo://app?vid=a3bbc07b-3590-4667-b4c8-1b79820aeb6c","ios":"levelo://app?vid=a3bbc07b-3590-4667-b4c8-1b79820aeb6c"},"vehicle_type_id":"4","last_reported":1743696741,"current_range_meters":10800,"station_id":"ce4bha92rcd13ifvqeg0","pricing_plan_id":"cebpf4jnsgd1na2vs0mg"},{"bike_id":"ff43d462-4954-4856-8d8a-9deffc54f63c","system_id":"levelo_inurba_marseille","lat":43.30891,"lon":5.37186,"is_reserved":false,"is_disabled":false,"rental_uris":{"android":"levelo://app?vid=ff43d462-4954-4856-8d8a-9deffc54f63c","ios":"levelo://app?vid=ff43d462-4954-4856-8d8a-9deffc54f63c"},"vehicle_type_id":"4","last_reported":1743696741,"current_range_meters":11200,"station_id":"ce4bguh2rcd13ifvqckg","pricing_plan_id":"cebpf4jnsgd1na2vs0mg"},{"bike_id":"ffb2393d-9e33-4291-8868-10421cddb118","system_id":"levelo_inurba_marseille","lat":43.29793,"lon":5.37104,"is_reserved":false,"is_disabled":false,"rental_uris":{"android":"levelo://app?vid=ffb2393d-9e33-4291-8868-10421cddb118","ios":"levelo://app?vid=ffb2393d-9e33-4291-8868-10421cddb118"},"vehicle_type_id":"4","last_reported":1743696741,"current_range_meters":10800,"station_id":"ce4bgop2rcd13ifvqc1g","pricing_plan_id":"cebpf4jnsgd1na2vs0mg"},{"bike_id":"3bac7094-b84a-4253-8a96-d29b228b1395","system_id":"levelo_inurba_marseille","lat":43.28942,"lon":5.36635,"is_reserved":false,"is_disabled":false,"rental_uris":{"android":"levelo://app?vid=3bac7094-b84a-4253-8a96-d29b228b1395","ios":"levelo://app?vid=3bac7094-b84a-4253-8a96-d29b228b1395"},"vehicle_type_id":"4","last_reported":1743696741,"current_range_meters":11200,"station_id":"ce4bhap2rcd13ifvqek0","pricing_plan_id":"cebpf4jnsgd1na2vs0mg"},{"bike_id":"b37c1931-ecc0-4cb6-8200-a2582bfda51c","system_id":"levelo_inurba_marseille","lat":43.25497,"lon":5.37656,"is_reserved":false,"is_disabled":false,"rental_uris":{"android":"levelo://app?vid=b37c1931-ecc0-4cb6-8200-a2582bfda51c","ios":"levelo://app?vid=b37c1931-ecc0-4cb6-8200-a2582bfda51c"},"vehicle_type_id":"4","last_reported":1743696741,"current_range_meters":11200,"station_id":"ce4bhh12rcd13ifvqff0","pricing_plan_id":"cebpf4jnsgd1na2vs0mg"},{"bike_id":"7d7a23d9-ff69-4e40-a456-93206d949a08","system_id":"levelo_inurba_marseille","lat":43.26497,"lon":5.39556,"is_reserved":false,"is_disabled":false,"rental_uris":{"android":"levelo://app?vid=7d7a23d9-ff69-4e40-a456-93206d949a08","ios":"levelo://app?vid=7d7a23d9-ff69-4e40-a456-93206d949a08"},"vehicle_type_id":"4","last_reported":1743696741,"current_range_meters":10800,"station_id":"ce4bhi12rcd13ifvqfq0","pricing_plan_id":"cebpf4jnsgd1na2vs0mg"},{"bike_id":"7c8aa83d-7691-4e3b-9fdd-777e0d678d2a","system_id":"levelo_inurba_marseille","lat":43.24177,"lon":5.39729,"is_reserved":false,"is_disabled":false,"rental_uris":{"android":"levelo://app?vid=7c8aa83d-7691-4e3b-9fdd-777e0d678d2a","ios":"levelo://app?vid=7c8aa83d-7691-4e3b-9fdd-777e0d678d2a"},"vehicle_type_id":"4","last_reported":1743696741,"current_range_meters":11200,"station_id":"ce4bhn12rcd13ifvqgpg","pricing_plan_id":"cebpf4jnsgd1na2vs0mg"},{"bike_id":"28b94d1a-b6c9-479a-a644-597bc6e4a9eb","system_id":"levelo_inurba_marseille","lat":43.28435,"lon":5.39198,"is_reserved":false,"is_disabled":false,"rental_uris":{"android":"levelo://app?vid=28b94d1a-b6c9-479a-a644-597bc6e4a9eb","ios":"levelo://app?vid=28b94d1a-b6c9-479a-a644-597bc6e4a9eb"},"vehicle_type_id":"4","last_reported":1743696741,"current_range_meters":11600,"station_id":"ce4bhoh2rcd13ifvqh5g","pricing_plan_id":"cebpf4jnsgd1na2vs0mg"},{"bike_id":"947c54db-d670-439d-b410-416e7ea2d8a3","system_id":"levelo_inurba_marseille","lat":43.30214,"lon":5.39473,"is_reserved":false,"is_disabled":false,"rental_uris":{"android":"levelo://app?vid=947c54db-d670-439d-b410-416e7ea2d8a3","ios":"levelo://app?vid=947c54db-d670-439d-b410-416e7ea2d8a3"},"vehicle_type_id":"4","last_reported":1743696741,"current_range_meters":11600,"station_id":"ce4bh0p2rcd13ifvqd70","pricing_plan_id":"cebpf4jnsgd1na2vs0mg"},{"bike_id":"d1611b97-a77a-4b3d-8727-fba464aac646","system_id":"levelo_inurba_marseille","lat":43.28682,"lon":5.37404,"is_reserved":false,"is_disabled":false,"rental_uris":{"android":"levelo://app?vid=d1611b97-a77a-4b3d-8727-fba464aac646","ios":"levelo://app?vid=d1611b97-a77a-4b3d-8727-fba464aac646"},"vehicle_type_id":"4","last_reported":1743696741,"current_range_meters":11600,"station_id":"ce4bh3p2rcd13ifvqdq0","pricing_plan_id":"cebpf4jnsgd1na2vs0mg"},{"bike_id":"be420728-541e-44f3-b4bc-f671bab1e862","system_id":"levelo_inurba_marseille","lat":43.26499,"lon":5.39546,"is_reserved":false,"is_disabled":false,"rental_uris":{"android":"levelo://app?vid=be420728-541e-44f3-b4bc-f671bab1e862","ios":"levelo://app?vid=be420728-541e-44f3-b4bc-f671bab1e862"},"vehicle_type_id":"4","last_reported":1743696741,"current_range_meters":11600,"station_id":"ce4bhi12rcd13ifvqfq0","pricing_plan_id":"cebpf4jnsgd1na2vs0mg"},{"bike_id":"26bfbb98-54cd-4e2c-bbfd-3cfa1608f24e","system_id":"levelo_inurba_marseille","lat":43.287,"lon":5.39964,"is_reserved":false,"is_disabled":false,"rental_uris":{"android":"levelo://app?vid=26bfbb98-54cd-4e2c-bbfd-3cfa1608f24e","ios":"levelo://app?vid=26bfbb98-54cd-4e2c-bbfd-3cfa1608f24e"},"vehicle_type_id":"4","last_reported":1743696741,"current_range_meters":12000,"station_id":"ce4bho92rcd13ifvqh3g","pricing_plan_id":"cebpf4jnsgd1na2vs0mg"},{"bike_id":"301156b7-e9e2-4fbc-88ce-e2edf0d34844","system_id":"levelo_inurba_marseille","lat":43.28995,"lon":5.3812,"is_reserved":false,"is_disabled":true,"rental_uris":{"android":"levelo://app?vid=301156b7-e9e2-4fbc-88ce-e2edf0d34844","ios":"levelo://app?vid=301156b7-e9e2-4fbc-88ce-e2edf0d34844"},"vehicle_type_id":"4","last_reported":1743696741,"current_range_meters":12000,"station_id":"ce4bh4p2rcd13ifvqe1g","pricing_plan_id":"cebpf4jnsgd1na2vs0mg"},{"bike_id":"0cccc282-3349-4eaf-81e0-1a9fda89aba5","system_id":"levelo_inurba_marseille","lat":43.282644,"lon":5.350605,"is_reserved":false,"is_disabled":false,"rental_uris":{"android":"levelo://app?vid=0cccc282-3349-4eaf-81e0-1a9fda89aba5","ios":"levelo://app?vid=0cccc282-3349-4eaf-81e0-1a9fda89aba5"},"vehicle_type_id":"4","last_reported":1743696741,"current_range_meters":12000,"station_id":"ce4bhh92rcd13ifvqfj0","pricing_plan_id":"cebpf4jnsgd1na2vs0mg"},{"bike_id":"d7234cf2-84f0-4edf-b581-5db7d2d76b9c","system_id":"levelo_inurba_marseille","lat":43.284581,"lon":5.358966,"is_reserved":false,"is_disabled":false,"rental_uris":{"android":"levelo://app?vid=d7234cf2-84f0-4edf-b581-5db7d2d76b9c","ios":"levelo://app?vid=d7234cf2-84f0-4edf-b581-5db7d2d76b9c"},"vehicle_type_id":"4","last_reported":1743696741,"current_range_meters":11600,"station_id":"ce4bhah2rcd13ifvqei0","pricing_plan_id":"cebpf4jnsgd1na2vs0mg"},{"bike_id":"39b8e13a-9343-4410-a917-f8b594c445b6","system_id":"levelo_inurba_marseille","lat":43.287,"lon":5.39991,"is_reserved":false,"is_disabled":false,"rental_uris":{"android":"levelo://app?vid=39b8e13a-9343-4410-a917-f8b594c445b6","ios":"levelo://app?vid=39b8e13a-9343-4410-a917-f8b594c445b6"},"vehicle_type_id":"4","last_reported":1743696741,"current_range_meters":12000,"station_id":"ce4bho92rcd13ifvqh3g","pricing_plan_id":"cebpf4jnsgd1na2vs0mg"},{"bike_id":"57a27ac4-a3c6-4053-86ec-45699790a38d","system_id":"levelo_inurba_marseille","lat":43.2558,"lon":5.38245,"is_reserved":false,"is_disabled":false,"rental_uris":{"android":"levelo://app?vid=57a27ac4-a3c6-4053-86ec-45699790a38d","ios":"levelo://app?vid=57a27ac4-a3c6-4053-86ec-45699790a38d"},"vehicle_type_id":"4","last_reported":1743696741,"current_range_meters":12000,"station_id":"ce4bhih2rcd13ifvqfs0","pricing_plan_id":"cebpf4jnsgd1na2vs0mg"},{"bike_id":"3b16af78-34db-46c0-a0e5-c5739a5d4b68","system_id":"levelo_inurba_marseille","lat":43.29041,"lon":5.3757,"is_reserved":false,"is_disabled":false,"rental_uris":{"android":"levelo://app?vid=3b16af78-34db-46c0-a0e5-c5739a5d4b68","ios":"levelo://app?vid=3b16af78-34db-46c0-a0e5-c5739a5d4b68"},"vehicle_type_id":"4","last_reported":1743696741,"current_range_meters":12000,"station_id":"ce4bh692rcd13ifvqe90","pricing_plan_id":"cebpf4jnsgd1na2vs0mg"},{"bike_id":"c6dbfbad-c5e4-4444-9b15-94527aba01a5","system_id":"levelo_inurba_marseille","lat":43.30553,"lon":5.36522,"is_reserved":false,"is_disabled":true,"rental_uris":{"android":"levelo://app?vid=c6dbfbad-c5e4-4444-9b15-94527aba01a5","ios":"levelo://app?vid=c6dbfbad-c5e4-4444-9b15-94527aba01a5"},"vehicle_type_id":"4","last_reported":1743696741,"current_range_meters":12000,"station_id":"ce4bgs12rcd13ifvqcag","pricing_plan_id":"cebpf4jnsgd1na2vs0mg"},{"bike_id":"2d49d568-6b9e-41a1-b7aa-5d0f4846213f","system_id":"levelo_inurba_marseille","lat":43.28098,"lon":5.37839,"is_reserved":false,"is_disabled":false,"rental_uris":{"android":"levelo://app?vid=2d49d568-6b9e-41a1-b7aa-5d0f4846213f","ios":"levelo://app?vid=2d49d568-6b9e-41a1-b7aa-5d0f4846213f"},"vehicle_type_id":"4","last_reported":1743696741,"current_range_meters":12000,"station_id":"ce4bha12rcd13ifvqee0","pricing_plan_id":"cebpf4jnsgd1na2vs0mg"},{"bike_id":"a20a8b09-48eb-4501-964a-c2b97d969e0e","system_id":"levelo_inurba_marseille","lat":43.31687,"lon":5.40472,"is_reserved":false,"is_disabled":false,"rental_uris":{"android":"levelo://app?vid=a20a8b09-48eb-4501-964a-c2b97d969e0e","ios":"levelo://app?vid=a20a8b09-48eb-4501-964a-c2b97d969e0e"},"vehicle_type_id":"4","last_reported":1743696741,"current_range_meters":12400,"station_id":"ce4bh012rcd13ifvqd00","pricing_plan_id":"cebpf4jnsgd1na2vs0mg"},{"bike_id":"05ca290d-6fce-40b0-9ef6-ea159bb95488","system_id":"levelo_inurba_marseille","lat":43.29852,"lon":5.36264,"is_reserved":false,"is_disabled":false,"rental_uris":{"android":"levelo://app?vid=05ca290d-6fce-40b0-9ef6-ea159bb95488","ios":"levelo://app?vid=05ca290d-6fce-40b0-9ef6-ea159bb95488"},"vehicle_type_id":"4","last_reported":1743696741,"current_range_meters":12000,"station_id":"ce4bgpp2rcd13ifvqc3g","pricing_plan_id":"cebpf4jnsgd1na2vs0mg"},{"bike_id":"6828a273-3385-4362-823d-d4c2d47ece88","system_id":"levelo_inurba_marseille","lat":43.30881,"lon":5.36856,"is_reserved":false,"is_disabled":false,"rental_uris":{"android":"levelo://app?vid=6828a273-3385-4362-823d-d4c2d47ece88","ios":"levelo://app?vid=6828a273-3385-4362-823d-d4c2d47ece88"},"vehicle_type_id":"4","last_reported":1743696741,"current_range_meters":12400,"station_id":"ce4bgn92rcd13ifvqbvg","pricing_plan_id":"cebpf4jnsgd1na2vs0mg"},{"bike_id":"63139285-137c-4e8d-8e95-6c2a275f8333","system_id":"levelo_inurba_marseille","lat":43.32117,"lon":5.36824,"is_reserved":false,"is_disabled":false,"rental_uris":{"android":"levelo://app?vid=63139285-137c-4e8d-8e95-6c2a275f8333","ios":"levelo://app?vid=63139285-137c-4e8d-8e95-6c2a275f8333"},"vehicle_type_id":"4","last_reported":1743696741,"current_range_meters":12400,"station_id":"ce4bhrh2rcd13ifvqhug","pricing_plan_id":"cebpf4jnsgd1na2vs0mg"},{"bike_id":"f14cae1e-8b0a-45bb-a607-7b4c76fc367d","system_id":"levelo_inurba_marseille","lat":43.28949,"lon":5.36414,"is_reserved":false,"is_disabled":false,"rental_uris":{"android":"levelo://app?vid=f14cae1e-8b0a-45bb-a607-7b4c76fc367d","ios":"levelo://app?vid=f14cae1e-8b0a-45bb-a607-7b4c76fc367d"},"vehicle_type_id":"4","last_reported":1743696741,"current_range_meters":12400,"station_id":"ce4bhc92rcd13ifvqetg","pricing_plan_id":"cebpf4jnsgd1na2vs0mg"},{"bike_id":"98a5e9fa-c4e4-4c83-9c30-71c4f20f6f37","system_id":"levelo_inurba_marseille","lat":43.23179,"lon":5.3999,"is_reserved":false,"is_disabled":false,"rental_uris":{"android":"levelo://app?vid=98a5e9fa-c4e4-4c83-9c30-71c4f20f6f37","ios":"levelo://app?vid=98a5e9fa-c4e4-4c83-9c30-71c4f20f6f37"},"vehicle_type_id":"4","last_reported":1743696741,"current_range_meters":12400,"station_id":"ce4bhn12rcd13ifvqgqg","pricing_plan_id":"cebpf4jnsgd1na2vs0mg"},{"bike_id":"5f46717b-05d1-4f34-a220-8087932d755b","system_id":"levelo_inurba_marseille","lat":43.30103,"lon":5.36934,"is_reserved":false,"is_disabled":false,"rental_uris":{"android":"levelo://app?vid=5f46717b-05d1-4f34-a220-8087932d755b","ios":"levelo://app?vid=5f46717b-05d1-4f34-a220-8087932d755b"},"vehicle_type_id":"4","last_reported":1743696741,"current_range_meters":12400,"station_id":"","pricing_plan_id":"cebpf4jnsgd1na2vs0mg"},{"bike_id":"6bae748d-6031-41ef-83a6-0e495485c08e","system_id":"levelo_inurba_marseille","lat":43.28871,"lon":5.35857,"is_reserved":false,"is_disabled":false,"rental_uris":{"android":"levelo://app?vid=6bae748d-6031-41ef-83a6-0e495485c08e","ios":"levelo://app?vid=6bae748d-6031-41ef-83a6-0e495485c08e"},"vehicle_type_id":"4","last_reported":1743696741,"current_range_meters":12400,"station_id":"ce4bhb12rcd13ifvqem0","pricing_plan_id":"cebpf4jnsgd1na2vs0mg"},{"bike_id":"c2157e0e-0921-4a69-9e3a-fb5736c1b9b5","system_id":"levelo_inurba_marseille","lat":43.29609,"lon":5.37715,"is_reserved":false,"is_disabled":false,"rental_uris":{"android":"levelo://app?vid=c2157e0e-0921-4a69-9e3a-fb5736c1b9b5","ios":"levelo://app?vid=c2157e0e-0921-4a69-9e3a-fb5736c1b9b5"},"vehicle_type_id":"4","last_reported":1743696741,"current_range_meters":12400,"station_id":"ce4bgi92rcd13ifvqb90","pricing_plan_id":"cebpf4jnsgd1na2vs0mg"},{"bike_id":"3c1dac7b-7af4-4fd5-bae4-a2765a9781fa","system_id":"levelo_inurba_marseille","lat":43.27316,"lon":5.39089,"is_reserved":false,"is_disabled":false,"rental_uris":{"android":"levelo://app?vid=3c1dac7b-7af4-4fd5-bae4-a2765a9781fa","ios":"levelo://app?vid=3c1dac7b-7af4-4fd5-bae4-a2765a9781fa"},"vehicle_type_id":"4","last_reported":1743696741,"current_range_meters":12800,"station_id":"ce4bhgp2rcd13ifvqfe0","pricing_plan_id":"cebpf4jnsgd1na2vs0mg"},{"bike_id":"a6303451-5b45-435c-bf0e-748f94cc010d","system_id":"levelo_inurba_marseille","lat":43.23197,"lon":5.35547,"is_reserved":false,"is_disabled":false,"rental_uris":{"android":"levelo://app?vid=a6303451-5b45-435c-bf0e-748f94cc010d","ios":"levelo://app?vid=a6303451-5b45-435c-bf0e-748f94cc010d"},"vehicle_type_id":"4","last_reported":1743696741,"current_range_meters":12800,"station_id":"ce4bhu92rcd13ifvqi70","pricing_plan_id":"cebpf4jnsgd1na2vs0mg"},{"bike_id":"1d90d0b2-7759-40db-8678-65deabff497c","system_id":"levelo_inurba_marseille","lat":43.28701,"lon":5.36088,"is_reserved":false,"is_disabled":false,"rental_uris":{"android":"levelo://app?vid=1d90d0b2-7759-40db-8678-65deabff497c","ios":"levelo://app?vid=1d90d0b2-7759-40db-8678-65deabff497c"},"vehicle_type_id":"4","last_reported":1743696741,"current_range_meters":12800,"station_id":"cki0cbj6b192h4jlfktg","pricing_plan_id":"cebpf4jnsgd1na2vs0mg"},{"bike_id":"69c0db05-6ded-4dc6-9720-2452c83c1020","system_id":"levelo_inurba_marseille","lat":43.22943,"lon":5.35397,"is_reserved":false,"is_disabled":false,"rental_uris":{"android":"levelo://app?vid=69c0db05-6ded-4dc6-9720-2452c83c1020","ios":"levelo://app?vid=69c0db05-6ded-4dc6-9720-2452c83c1020"},"vehicle_type_id":"4","last_reported":1743696741,"current_range_meters":12800,"station_id":"cpo3532slgdg3j2ikp40","pricing_plan_id":"cebpf4jnsgd1na2vs0mg"},{"bike_id":"d8bed46d-f446-4aa0-9133-d00a0d66cd15","system_id":"levelo_inurba_marseille","lat":43.23193,"lon":5.39984,"is_reserved":false,"is_disabled":false,"rental_uris":{"android":"levelo://app?vid=d8bed46d-f446-4aa0-9133-d00a0d66cd15","ios":"levelo://app?vid=d8bed46d-f446-4aa0-9133-d00a0d66cd15"},"vehicle_type_id":"4","last_reported":1743696741,"current_range_meters":12800,"station_id":"ce4bhn12rcd13ifvqgqg","pricing_plan_id":"cebpf4jnsgd1na2vs0mg"},{"bike_id":"a4748133-141a-4215-9549-5eb0f6d6285c","system_id":"levelo_inurba_marseille","lat":43.28347,"lon":5.38096,"is_reserved":false,"is_disabled":false,"rental_uris":{"android":"levelo://app?vid=a4748133-141a-4215-9549-5eb0f6d6285c","ios":"levelo://app?vid=a4748133-141a-4215-9549-5eb0f6d6285c"},"vehicle_type_id":"4","last_reported":1743696741,"current_range_meters":13600,"station_id":"ce4bh412rcd13ifvqdr0","pricing_plan_id":"cebpf4jnsgd1na2vs0mg"},{"bike_id":"28e1781b-c5c0-45c2-b91a-0f255e2ac514","system_id":"levelo_inurba_marseille","lat":43.28272,"lon":5.35058,"is_reserved":false,"is_disabled":false,"rental_uris":{"android":"levelo://app?vid=28e1781b-c5c0-45c2-b91a-0f255e2ac514","ios":"levelo://app?vid=28e1781b-c5c0-45c2-b91a-0f255e2ac514"},"vehicle_type_id":"4","last_reported":1743696741,"current_range_meters":12800,"station_id":"ce4bhbp2rcd13ifvqerg","pricing_plan_id":"cebpf4jnsgd1na2vs0mg"},{"bike_id":"c611372a-1bd7-4682-a269-9a02ba50eeab","system_id":"levelo_inurba_marseille","lat":43.29985,"lon":5.38501,"is_reserved":false,"is_disabled":true,"rental_uris":{"android":"levelo://app?vid=c611372a-1bd7-4682-a269-9a02ba50eeab","ios":"levelo://app?vid=c611372a-1bd7-4682-a269-9a02ba50eeab"},"vehicle_type_id":"4","last_reported":1743696741,"current_range_meters":13600,"station_id":"ce4bgj92rcd13ifvqbd0","pricing_plan_id":"cebpf4jnsgd1na2vs0mg"},{"bike_id":"f1e5f20d-e5bb-4349-9a72-f7ab8a004414","system_id":"levelo_inurba_marseille","lat":43.30326,"lon":5.40439,"is_reserved":false,"is_disabled":true,"rental_uris":{"android":"levelo://app?vid=f1e5f20d-e5bb-4349-9a72-f7ab8a004414","ios":"levelo://app?vid=f1e5f20d-e5bb-4349-9a72-f7ab8a004414"},"vehicle_type_id":"4","last_reported":1743696741,"current_range_meters":13600,"station_id":"ce4bh012rcd13ifvqd10","pricing_plan_id":"cebpf4jnsgd1na2vs0mg"},{"bike_id":"ddece980-9bf4-4cd1-87d5-3d4126bbcba8","system_id":"levelo_inurba_marseille","lat":43.231912,"lon":5.355543,"is_reserved":false,"is_disabled":false,"rental_uris":{"android":"levelo://app?vid=ddece980-9bf4-4cd1-87d5-3d4126bbcba8","ios":"levelo://app?vid=ddece980-9bf4-4cd1-87d5-3d4126bbcba8"},"vehicle_type_id":"4","last_reported":1743696741,"current_range_meters":14000,"station_id":"ce4bhu92rcd13ifvqi70","pricing_plan_id":"cebpf4jnsgd1na2vs0mg"},{"bike_id":"c613b8a4-69e9-4495-b428-f71696e960b4","system_id":"levelo_inurba_marseille","lat":43.27384,"lon":5.36268,"is_reserved":false,"is_disabled":false,"rental_uris":{"android":"levelo://app?vid=c613b8a4-69e9-4495-b428-f71696e960b4","ios":"levelo://app?vid=c613b8a4-69e9-4495-b428-f71696e960b4"},"vehicle_type_id":"4","last_reported":1743696741,"current_range_meters":13600,"station_id":"ce4bhbh2rcd13ifvqeo0","pricing_plan_id":"cebpf4jnsgd1na2vs0mg"},{"bike_id":"01bd51c7-d822-4330-9e3f-4af26ddcb7f0","system_id":"levelo_inurba_marseille","lat":43.29543,"lon":5.38555,"is_reserved":false,"is_disabled":false,"rental_uris":{"android":"levelo://app?vid=01bd51c7-d822-4330-9e3f-4af26ddcb7f0","ios":"levelo://app?vid=01bd51c7-d822-4330-9e3f-4af26ddcb7f0"},"vehicle_type_id":"4","last_reported":1743696741,"current_range_meters":14000,"station_id":"ce4bgih2rcd13ifvqba0","pricing_plan_id":"cebpf4jnsgd1na2vs0mg"},{"bike_id":"d126d5b7-9b80-4545-ada9-e50bec254514","system_id":"levelo_inurba_marseille","lat":43.32316,"lon":5.40619,"is_reserved":false,"is_disabled":false,"rental_uris":{"android":"levelo://app?vid=d126d5b7-9b80-4545-ada9-e50bec254514","ios":"levelo://app?vid=d126d5b7-9b80-4545-ada9-e50bec254514"},"vehicle_type_id":"4","last_reported":1743696741,"current_range_meters":14000,"station_id":"ce4bhq92rcd13ifvqhjg","pricing_plan_id":"cebpf4jnsgd1na2vs0mg"},{"bike_id":"0da307f0-a737-4f3f-8786-4dd451d57e79","system_id":"levelo_inurba_marseille","lat":43.30828,"lon":5.36763,"is_reserved":false,"is_disabled":false,"rental_uris":{"android":"levelo://app?vid=0da307f0-a737-4f3f-8786-4dd451d57e79","ios":"levelo://app?vid=0da307f0-a737-4f3f-8786-4dd451d57e79"},"vehicle_type_id":"4","last_reported":1743696741,"current_range_meters":14400,"station_id":"","pricing_plan_id":"cebpf4jnsgd1na2vs0mg"},{"bike_id":"d1ca5861-03ca-4d1c-ad7c-aca4fa04a5b0","system_id":"levelo_inurba_marseille","lat":43.29843,"lon":5.36266,"is_reserved":false,"is_disabled":false,"rental_uris":{"android":"levelo://app?vid=d1ca5861-03ca-4d1c-ad7c-aca4fa04a5b0","ios":"levelo://app?vid=d1ca5861-03ca-4d1c-ad7c-aca4fa04a5b0"},"vehicle_type_id":"4","last_reported":1743696741,"current_range_meters":14000,"station_id":"ce4bgpp2rcd13ifvqc3g","pricing_plan_id":"cebpf4jnsgd1na2vs0mg"},{"bike_id":"ed034283-1492-4da7-9409-35bdead80f30","system_id":"levelo_inurba_marseille","lat":43.30128,"lon":5.38785,"is_reserved":false,"is_disabled":true,"rental_uris":{"android":"levelo://app?vid=ed034283-1492-4da7-9409-35bdead80f30","ios":"levelo://app?vid=ed034283-1492-4da7-9409-35bdead80f30"},"vehicle_type_id":"4","last_reported":1743696741,"current_range_meters":14400,"station_id":"ce4bghh2rcd13ifvqb60","pricing_plan_id":"cebpf4jnsgd1na2vs0mg"},{"bike_id":"65c86302-8ef0-46f4-ab6e-bac7149a2865","system_id":"levelo_inurba_marseille","lat":43.32098,"lon":5.36805,"is_reserved":false,"is_disabled":false,"rental_uris":{"android":"levelo://app?vid=65c86302-8ef0-46f4-ab6e-bac7149a2865","ios":"levelo://app?vid=65c86302-8ef0-46f4-ab6e-bac7149a2865"},"vehicle_type_id":"4","last_reported":1743696741,"current_range_meters":14400,"station_id":"ce4bhrh2rcd13ifvqhug","pricing_plan_id":"cebpf4jnsgd1na2vs0mg"},{"bike_id":"74a13a18-430a-4f50-ba26-e7dfbad23482","system_id":"levelo_inurba_marseille","lat":43.23067,"lon":5.35496,"is_reserved":false,"is_disabled":false,"rental_uris":{"android":"levelo://app?vid=74a13a18-430a-4f50-ba26-e7dfbad23482","ios":"levelo://app?vid=74a13a18-430a-4f50-ba26-e7dfbad23482"},"vehicle_type_id":"4","last_reported":1743696741,"current_range_meters":14400,"station_id":"cpo3342slgdg3j2ifvpg","pricing_plan_id":"cebpf4jnsgd1na2vs0mg"},{"bike_id":"e7748ee3-ba2b-433a-876c-bf9b9d8933f6","system_id":"levelo_inurba_marseille","lat":43.2892,"lon":5.38406,"is_reserved":false,"is_disabled":false,"rental_uris":{"android":"levelo://app?vid=e7748ee3-ba2b-433a-876c-bf9b9d8933f6","ios":"levelo://app?vid=e7748ee3-ba2b-433a-876c-bf9b9d8933f6"},"vehicle_type_id":"4","last_reported":1743696741,"current_range_meters":14800,"station_id":"ce4bh612rcd13ifvqe6g","pricing_plan_id":"cebpf4jnsgd1na2vs0mg"},{"bike_id":"df915f97-d858-4010-8c12-1ec6b6ad0723","system_id":"levelo_inurba_marseille","lat":43.29019,"lon":5.38651,"is_reserved":false,"is_disabled":false,"rental_uris":{"android":"levelo://app?vid=df915f97-d858-4010-8c12-1ec6b6ad0723","ios":"levelo://app?vid=df915f97-d858-4010-8c12-1ec6b6ad0723"},"vehicle_type_id":"4","last_reported":1743696741,"current_range_meters":14800,"station_id":"ce4bh4p2rcd13ifvqe0g","pricing_plan_id":"cebpf4jnsgd1na2vs0mg"},{"bike_id":"1f962412-902d-4aa7-afbb-f3190a07a0ab","system_id":"levelo_inurba_marseille","lat":43.29791,"lon":5.37094,"is_reserved":false,"is_disabled":false,"rental_uris":{"android":"levelo://app?vid=1f962412-902d-4aa7-afbb-f3190a07a0ab","ios":"levelo://app?vid=1f962412-902d-4aa7-afbb-f3190a07a0ab"},"vehicle_type_id":"4","last_reported":1743696741,"current_range_meters":14800,"station_id":"ce4bgop2rcd13ifvqc1g","pricing_plan_id":"cebpf4jnsgd1na2vs0mg"},{"bike_id":"047f646d-6862-44bd-ba1b-104cd7b5b831","system_id":"levelo_inurba_marseille","lat":43.28001,"lon":5.4002,"is_reserved":false,"is_disabled":false,"rental_uris":{"android":"levelo://app?vid=047f646d-6862-44bd-ba1b-104cd7b5b831","ios":"levelo://app?vid=047f646d-6862-44bd-ba1b-104cd7b5b831"},"vehicle_type_id":"4","last_reported":1743696741,"current_range_meters":14800,"station_id":"ce4bho92rcd13ifvqh4g","pricing_plan_id":"cebpf4jnsgd1na2vs0mg"},{"bike_id":"139fdb67-e415-4494-b163-dd0e0fab82d7","system_id":"levelo_inurba_marseille","lat":43.27824,"lon":5.40729,"is_reserved":false,"is_disabled":false,"rental_uris":{"android":"levelo://app?vid=139fdb67-e415-4494-b163-dd0e0fab82d7","ios":"levelo://app?vid=139fdb67-e415-4494-b163-dd0e0fab82d7"},"vehicle_type_id":"4","last_reported":1743696741,"current_range_meters":14400,"station_id":"ce4bhnh2rcd13ifvqgtg","pricing_plan_id":"cebpf4jnsgd1na2vs0mg"},{"bike_id":"99aa1392-df90-409b-960f-26301008de6f","system_id":"levelo_inurba_marseille","lat":43.287,"lon":5.39992,"is_reserved":false,"is_disabled":false,"rental_uris":{"android":"levelo://app?vid=99aa1392-df90-409b-960f-26301008de6f","ios":"levelo://app?vid=99aa1392-df90-409b-960f-26301008de6f"},"vehicle_type_id":"4","last_reported":1743696741,"current_range_meters":15200,"station_id":"ce4bho92rcd13ifvqh3g","pricing_plan_id":"cebpf4jnsgd1na2vs0mg"},{"bike_id":"f7738ded-4dff-47df-8279-10315457eb1e","system_id":"levelo_inurba_marseille","lat":43.29889,"lon":5.38911,"is_reserved":false,"is_disabled":false,"rental_uris":{"android":"levelo://app?vid=f7738ded-4dff-47df-8279-10315457eb1e","ios":"levelo://app?vid=f7738ded-4dff-47df-8279-10315457eb1e"},"vehicle_type_id":"4","last_reported":1743696741,"current_range_meters":15200,"station_id":"ce4bh392rcd13ifvqdl0","pricing_plan_id":"cebpf4jnsgd1na2vs0mg"},{"bike_id":"758c2355-846a-4f3d-bcd8-eac4b3145cd6","system_id":"levelo_inurba_marseille","lat":43.231943,"lon":5.355543,"is_reserved":false,"is_disabled":false,"rental_uris":{"android":"levelo://app?vid=758c2355-846a-4f3d-bcd8-eac4b3145cd6","ios":"levelo://app?vid=758c2355-846a-4f3d-bcd8-eac4b3145cd6"},"vehicle_type_id":"4","last_reported":1743696741,"current_range_meters":15200,"station_id":"ce4bhu92rcd13ifvqi70","pricing_plan_id":"cebpf4jnsgd1na2vs0mg"},{"bike_id":"f9bb36cb-3a2c-4053-aa40-47525a72d3ce","system_id":"levelo_inurba_marseille","lat":43.29935,"lon":5.36552,"is_reserved":false,"is_disabled":false,"rental_uris":{"android":"levelo://app?vid=f9bb36cb-3a2c-4053-aa40-47525a72d3ce","ios":"levelo://app?vid=f9bb36cb-3a2c-4053-aa40-47525a72d3ce"},"vehicle_type_id":"4","last_reported":1743696741,"current_range_meters":15200,"station_id":"ce4bgm92rcd13ifvqbr0","pricing_plan_id":"cebpf4jnsgd1na2vs0mg"},{"bike_id":"a0835c34-3f9c-45d1-86da-fa9f8ee9fb6c","system_id":"levelo_inurba_marseille","lat":43.29307,"lon":5.37177,"is_reserved":false,"is_disabled":false,"rental_uris":{"android":"levelo://app?vid=a0835c34-3f9c-45d1-86da-fa9f8ee9fb6c","ios":"levelo://app?vid=a0835c34-3f9c-45d1-86da-fa9f8ee9fb6c"},"vehicle_type_id":"4","last_reported":1743696741,"current_range_meters":14800,"station_id":"ce4bgh92rcd13ifvqb40","pricing_plan_id":"cebpf4jnsgd1na2vs0mg"},{"bike_id":"19224d95-e048-4cbb-8884-43e0e6b3db9b","system_id":"levelo_inurba_marseille","lat":43.29889,"lon":5.39742,"is_reserved":false,"is_disabled":true,"rental_uris":{"android":"levelo://app?vid=19224d95-e048-4cbb-8884-43e0e6b3db9b","ios":"levelo://app?vid=19224d95-e048-4cbb-8884-43e0e6b3db9b"},"vehicle_type_id":"4","last_reported":1743696741,"current_range_meters":16000,"station_id":"ce4bh0h2rcd13ifvqd50","pricing_plan_id":"cebpf4jnsgd1na2vs0mg"},{"bike_id":"633a976e-a43e-44e6-bb53-03f4f4b8e495","system_id":"levelo_inurba_marseille","lat":43.27998,"lon":5.40007,"is_reserved":false,"is_disabled":false,"rental_uris":{"android":"levelo://app?vid=633a976e-a43e-44e6-bb53-03f4f4b8e495","ios":"levelo://app?vid=633a976e-a43e-44e6-bb53-03f4f4b8e495"},"vehicle_type_id":"4","last_reported":1743696741,"current_range_meters":16000,"station_id":"ce4bho92rcd13ifvqh4g","pricing_plan_id":"cebpf4jnsgd1na2vs0mg"},{"bike_id":"fb348b09-6abb-47a4-a266-91f2eeaee291","system_id":"levelo_inurba_marseille","lat":43.32114,"lon":5.36796,"is_reserved":false,"is_disabled":false,"rental_uris":{"android":"levelo://app?vid=fb348b09-6abb-47a4-a266-91f2eeaee291","ios":"levelo://app?vid=fb348b09-6abb-47a4-a266-91f2eeaee291"},"vehicle_type_id":"4","last_reported":1743696741,"current_range_meters":16000,"station_id":"ce4bhrh2rcd13ifvqhug","pricing_plan_id":"cebpf4jnsgd1na2vs0mg"},{"bike_id":"0df0e7a9-81b2-41f8-8fc9-9278b36af5a7","system_id":"levelo_inurba_marseille","lat":43.25126,"lon":5.39552,"is_reserved":false,"is_disabled":false,"rental_uris":{"android":"levelo://app?vid=0df0e7a9-81b2-41f8-8fc9-9278b36af5a7","ios":"levelo://app?vid=0df0e7a9-81b2-41f8-8fc9-9278b36af5a7"},"vehicle_type_id":"4","last_reported":1743696741,"current_range_meters":16000,"station_id":"ce4bhm12rcd13ifvqgkg","pricing_plan_id":"cebpf4jnsgd1na2vs0mg"},{"bike_id":"b2f4490f-edf0-49ca-9d34-1b76be892ddc","system_id":"levelo_inurba_marseille","lat":43.26241,"lon":5.40491,"is_reserved":false,"is_disabled":false,"rental_uris":{"android":"levelo://app?vid=b2f4490f-edf0-49ca-9d34-1b76be892ddc","ios":"levelo://app?vid=b2f4490f-edf0-49ca-9d34-1b76be892ddc"},"vehicle_type_id":"4","last_reported":1743696741,"current_range_meters":16000,"station_id":"ce4bhmh2rcd13ifvqgmg","pricing_plan_id":"cebpf4jnsgd1na2vs0mg"},{"bike_id":"bd1c6b46-4ab6-49fb-9282-e990dea0e8f6","system_id":"levelo_inurba_marseille","lat":43.31757,"lon":5.39016,"is_reserved":false,"is_disabled":false,"rental_uris":{"android":"levelo://app?vid=bd1c6b46-4ab6-49fb-9282-e990dea0e8f6","ios":"levelo://app?vid=bd1c6b46-4ab6-49fb-9282-e990dea0e8f6"},"vehicle_type_id":"4","last_reported":1743696741,"current_range_meters":16000,"station_id":"ce4bhqp2rcd13ifvqhng","pricing_plan_id":"cebpf4jnsgd1na2vs0mg"},{"bike_id":"ec978ab7-f6de-42cb-8058-82efe6901718","system_id":"levelo_inurba_marseille","lat":43.29582,"lon":5.3674,"is_reserved":false,"is_disabled":false,"rental_uris":{"android":"levelo://app?vid=ec978ab7-f6de-42cb-8058-82efe6901718","ios":"levelo://app?vid=ec978ab7-f6de-42cb-8058-82efe6901718"},"vehicle_type_id":"4","last_reported":1743696741,"current_range_meters":16000,"station_id":"ce4bgph2rcd13ifvqc2g","pricing_plan_id":"cebpf4jnsgd1na2vs0mg"},{"bike_id":"a4281d54-2f8b-4924-ba5c-c51b86ac7e73","system_id":"levelo_inurba_marseille","lat":43.2668,"lon":5.38268,"is_reserved":false,"is_disabled":false,"rental_uris":{"android":"levelo://app?vid=a4281d54-2f8b-4924-ba5c-c51b86ac7e73","ios":"levelo://app?vid=a4281d54-2f8b-4924-ba5c-c51b86ac7e73"},"vehicle_type_id":"4","last_reported":1743696741,"current_range_meters":15200,"station_id":"ce4bhg92rcd13ifvqf90","pricing_plan_id":"cebpf4jnsgd1na2vs0mg"},{"bike_id":"c1317d54-4116-4b9b-9b71-dfe96db65f12","system_id":"levelo_inurba_marseille","lat":43.30096,"lon":5.39082,"is_reserved":false,"is_disabled":false,"rental_uris":{"android":"levelo://app?vid=c1317d54-4116-4b9b-9b71-dfe96db65f12","ios":"levelo://app?vid=c1317d54-4116-4b9b-9b71-dfe96db65f12"},"vehicle_type_id":"4","last_reported":1743696741,"current_range_meters":16000,"station_id":"ce4bh192rcd13ifvqdb0","pricing_plan_id":"cebpf4jnsgd1na2vs0mg"},{"bike_id":"cb309e78-61dd-4cbd-b8f2-da644b8c34b6","system_id":"levelo_inurba_marseille","lat":43.25584,"lon":5.38241,"is_reserved":false,"is_disabled":false,"rental_uris":{"android":"levelo://app?vid=cb309e78-61dd-4cbd-b8f2-da644b8c34b6","ios":"levelo://app?vid=cb309e78-61dd-4cbd-b8f2-da644b8c34b6"},"vehicle_type_id":"4","last_reported":1743696741,"current_range_meters":16000,"station_id":"ce4bhih2rcd13ifvqfs0","pricing_plan_id":"cebpf4jnsgd1na2vs0mg"},{"bike_id":"077cfcc4-37c2-43bd-b552-98975767dce3","system_id":"levelo_inurba_marseille","lat":43.29317,"lon":5.37174,"is_reserved":false,"is_disabled":false,"rental_uris":{"android":"levelo://app?vid=077cfcc4-37c2-43bd-b552-98975767dce3","ios":"levelo://app?vid=077cfcc4-37c2-43bd-b552-98975767dce3"},"vehicle_type_id":"4","last_reported":1743696741,"current_range_meters":16000,"station_id":"ce4bgh92rcd13ifvqb40","pricing_plan_id":"cebpf4jnsgd1na2vs0mg"},{"bike_id":"80c278e4-0592-4695-acf1-cc2399b262f7","system_id":"levelo_inurba_marseille","lat":43.269723,"lon":5.36664,"is_reserved":false,"is_disabled":false,"rental_uris":{"android":"levelo://app?vid=80c278e4-0592-4695-acf1-cc2399b262f7","ios":"levelo://app?vid=80c278e4-0592-4695-acf1-cc2399b262f7"},"vehicle_type_id":"4","last_reported":1743696741,"current_range_meters":16000,"station_id":"ce4bhbp2rcd13ifvqerg","pricing_plan_id":"cebpf4jnsgd1na2vs0mg"},{"bike_id":"71178357-52ea-4831-8874-e0f73eb10477","system_id":"levelo_inurba_marseille","lat":43.23196,"lon":5.4001,"is_reserved":false,"is_disabled":false,"rental_uris":{"android":"levelo://app?vid=71178357-52ea-4831-8874-e0f73eb10477","ios":"levelo://app?vid=71178357-52ea-4831-8874-e0f73eb10477"},"vehicle_type_id":"4","last_reported":1743696741,"current_range_meters":16000,"station_id":"ce4bhn12rcd13ifvqgqg","pricing_plan_id":"cebpf4jnsgd1na2vs0mg"},{"bike_id":"be6a57ee-e199-4ca7-b7e1-6dba8a887866","system_id":"levelo_inurba_marseille","lat":43.28867,"lon":5.373098,"is_reserved":false,"is_disabled":false,"rental_uris":{"android":"levelo://app?vid=be6a57ee-e199-4ca7-b7e1-6dba8a887866","ios":"levelo://app?vid=be6a57ee-e199-4ca7-b7e1-6dba8a887866"},"vehicle_type_id":"4","last_reported":1743696741,"current_range_meters":16400,"station_id":"ce4bh192rcd13ifvqdd0","pricing_plan_id":"cebpf4jnsgd1na2vs0mg"},{"bike_id":"35e7a710-72f1-421d-9dab-af7379bb9994","system_id":"levelo_inurba_marseille","lat":43.31328,"lon":5.39697,"is_reserved":false,"is_disabled":false,"rental_uris":{"android":"levelo://app?vid=35e7a710-72f1-421d-9dab-af7379bb9994","ios":"levelo://app?vid=35e7a710-72f1-421d-9dab-af7379bb9994"},"vehicle_type_id":"4","last_reported":1743696741,"current_range_meters":16400,"station_id":"ce4bgvp2rcd13ifvqcu0","pricing_plan_id":"cebpf4jnsgd1na2vs0mg"},{"bike_id":"23cfe91d-5a2e-48e1-9f45-86b673c220ae","system_id":"levelo_inurba_marseille","lat":43.28948,"lon":5.36407,"is_reserved":false,"is_disabled":false,"rental_uris":{"android":"levelo://app?vid=23cfe91d-5a2e-48e1-9f45-86b673c220ae","ios":"levelo://app?vid=23cfe91d-5a2e-48e1-9f45-86b673c220ae"},"vehicle_type_id":"4","last_reported":1743696741,"current_range_meters":16400,"station_id":"ce4bhc92rcd13ifvqetg","pricing_plan_id":"cebpf4jnsgd1na2vs0mg"},{"bike_id":"46e40aa5-72ae-444f-9358-a676d369a477","system_id":"levelo_inurba_marseille","lat":43.33011,"lon":5.43818,"is_reserved":false,"is_disabled":false,"rental_uris":{"android":"levelo://app?vid=46e40aa5-72ae-444f-9358-a676d369a477","ios":"levelo://app?vid=46e40aa5-72ae-444f-9358-a676d369a477"},"vehicle_type_id":"4","last_reported":1743696741,"current_range_meters":16400,"station_id":"","pricing_plan_id":"cebpf4jnsgd1na2vs0mg"},{"bike_id":"279c0b2a-1272-44cb-a8c0-c888b685db82","system_id":"levelo_inurba_marseille","lat":43.295288,"lon":5.383751,"is_reserved":false,"is_disabled":false,"rental_uris":{"android":"levelo://app?vid=279c0b2a-1272-44cb-a8c0-c888b685db82","ios":"levelo://app?vid=279c0b2a-1272-44cb-a8c0-c888b685db82"},"vehicle_type_id":"4","last_reported":1743696741,"current_range_meters":16400,"station_id":"ce4bh2h2rcd13ifvqdh0","pricing_plan_id":"cebpf4jnsgd1na2vs0mg"},{"bike_id":"5b7f3401-e1ae-41db-b655-991a24f7bb92","system_id":"levelo_inurba_marseille","lat":43.266835,"lon":5.382747,"is_reserved":false,"is_disabled":false,"rental_uris":{"android":"levelo://app?vid=5b7f3401-e1ae-41db-b655-991a24f7bb92","ios":"levelo://app?vid=5b7f3401-e1ae-41db-b655-991a24f7bb92"},"vehicle_type_id":"4","last_reported":1743696741,"current_range_meters":16400,"station_id":"ce4bhg92rcd13ifvqf90","pricing_plan_id":"cebpf4jnsgd1na2vs0mg"},{"bike_id":"f5d7baaf-c3b6-4714-ade1-a7553acc3f6e","system_id":"levelo_inurba_marseille","lat":43.30481,"lon":5.41727,"is_reserved":false,"is_disabled":false,"rental_uris":{"android":"levelo://app?vid=f5d7baaf-c3b6-4714-ade1-a7553acc3f6e","ios":"levelo://app?vid=f5d7baaf-c3b6-4714-ade1-a7553acc3f6e"},"vehicle_type_id":"4","last_reported":1743696741,"current_range_meters":16400,"station_id":"","pricing_plan_id":"cebpf4jnsgd1na2vs0mg"},{"bike_id":"4eb83206-1326-4c8b-af4f-c1be2f86a91b","system_id":"levelo_inurba_marseille","lat":43.28937,"lon":5.36641,"is_reserved":false,"is_disabled":false,"rental_uris":{"android":"levelo://app?vid=4eb83206-1326-4c8b-af4f-c1be2f86a91b","ios":"levelo://app?vid=4eb83206-1326-4c8b-af4f-c1be2f86a91b"},"vehicle_type_id":"4","last_reported":1743696741,"current_range_meters":16400,"station_id":"ce4bhap2rcd13ifvqek0","pricing_plan_id":"cebpf4jnsgd1na2vs0mg"},{"bike_id":"c840f108-e8d3-4745-bd03-af83fcc2edd6","system_id":"levelo_inurba_marseille","lat":43.24645,"lon":5.38914,"is_reserved":false,"is_disabled":false,"rental_uris":{"android":"levelo://app?vid=c840f108-e8d3-4745-bd03-af83fcc2edd6","ios":"levelo://app?vid=c840f108-e8d3-4745-bd03-af83fcc2edd6"},"vehicle_type_id":"4","last_reported":1743696741,"current_range_meters":16400,"station_id":"ce4bhg12rcd13ifvqf60","pricing_plan_id":"cebpf4jnsgd1na2vs0mg"},{"bike_id":"4621ad45-29bf-48cb-8077-88f2e1f7279f","system_id":"levelo_inurba_marseille","lat":43.23188,"lon":5.35557,"is_reserved":false,"is_disabled":false,"rental_uris":{"android":"levelo://app?vid=4621ad45-29bf-48cb-8077-88f2e1f7279f","ios":"levelo://app?vid=4621ad45-29bf-48cb-8077-88f2e1f7279f"},"vehicle_type_id":"4","last_reported":1743696741,"current_range_meters":16800,"station_id":"ce4bhu92rcd13ifvqi70","pricing_plan_id":"cebpf4jnsgd1na2vs0mg"},{"bike_id":"4caff8e0-340c-490f-8a5a-b26f15704f76","system_id":"levelo_inurba_marseille","lat":43.28609,"lon":5.38447,"is_reserved":false,"is_disabled":false,"rental_uris":{"android":"levelo://app?vid=4caff8e0-340c-490f-8a5a-b26f15704f76","ios":"levelo://app?vid=4caff8e0-340c-490f-8a5a-b26f15704f76"},"vehicle_type_id":"4","last_reported":1743696741,"current_range_meters":16800,"station_id":"","pricing_plan_id":"cebpf4jnsgd1na2vs0mg"},{"bike_id":"f31e0b6a-8b99-4666-a8bc-b0aaa7b46910","system_id":"levelo_inurba_marseille","lat":43.28488,"lon":5.38406,"is_reserved":false,"is_disabled":false,"rental_uris":{"android":"levelo://app?vid=f31e0b6a-8b99-4666-a8bc-b0aaa7b46910","ios":"levelo://app?vid=f31e0b6a-8b99-4666-a8bc-b0aaa7b46910"},"vehicle_type_id":"4","last_reported":1743696741,"current_range_meters":17200,"station_id":"ce4bh512rcd13ifvqe3g","pricing_plan_id":"cebpf4jnsgd1na2vs0mg"},{"bike_id":"36c462f5-7f5e-4637-ad7f-bb060b0656c1","system_id":"levelo_inurba_marseille","lat":43.30777,"lon":5.37616,"is_reserved":false,"is_disabled":false,"rental_uris":{"android":"levelo://app?vid=36c462f5-7f5e-4637-ad7f-bb060b0656c1","ios":"levelo://app?vid=36c462f5-7f5e-4637-ad7f-bb060b0656c1"},"vehicle_type_id":"4","last_reported":1743696741,"current_range_meters":16400,"station_id":"ce4bgv92rcd13ifvqcq0","pricing_plan_id":"cebpf4jnsgd1na2vs0mg"},{"bike_id":"1bdb3de0-9f3f-40ed-879d-d94d6d0fff29","system_id":"levelo_inurba_marseille","lat":43.28417,"lon":5.34979,"is_reserved":false,"is_disabled":false,"rental_uris":{"android":"levelo://app?vid=1bdb3de0-9f3f-40ed-879d-d94d6d0fff29","ios":"levelo://app?vid=1bdb3de0-9f3f-40ed-879d-d94d6d0fff29"},"vehicle_type_id":"4","last_reported":1743696741,"current_range_meters":16800,"station_id":"ce4bhbh2rcd13ifvqepg","pricing_plan_id":"cebpf4jnsgd1na2vs0mg"},{"bike_id":"a43f4572-7c57-46ee-8d96-a6774c3cba9d","system_id":"levelo_inurba_marseille","lat":43.229303,"lon":5.35374,"is_reserved":false,"is_disabled":false,"rental_uris":{"android":"levelo://app?vid=a43f4572-7c57-46ee-8d96-a6774c3cba9d","ios":"levelo://app?vid=a43f4572-7c57-46ee-8d96-a6774c3cba9d"},"vehicle_type_id":"4","last_reported":1743696741,"current_range_meters":16800,"station_id":"cpo3532slgdg3j2ikp40","pricing_plan_id":"cebpf4jnsgd1na2vs0mg"},{"bike_id":"3ece609e-993a-4870-8981-69b59c25ef1a","system_id":"levelo_inurba_marseille","lat":43.29786,"lon":5.38098,"is_reserved":false,"is_disabled":false,"rental_uris":{"android":"levelo://app?vid=3ece609e-993a-4870-8981-69b59c25ef1a","ios":"levelo://app?vid=3ece609e-993a-4870-8981-69b59c25ef1a"},"vehicle_type_id":"4","last_reported":1743696741,"current_range_meters":16800,"station_id":"ce4bgip2rcd13ifvqbb0","pricing_plan_id":"cebpf4jnsgd1na2vs0mg"},{"bike_id":"2c195078-7361-4ca4-9441-7badcb42992a","system_id":"levelo_inurba_marseille","lat":43.33234,"lon":5.39565,"is_reserved":false,"is_disabled":false,"rental_uris":{"android":"levelo://app?vid=2c195078-7361-4ca4-9441-7badcb42992a","ios":"levelo://app?vid=2c195078-7361-4ca4-9441-7badcb42992a"},"vehicle_type_id":"4","last_reported":1743696741,"current_range_meters":16800,"station_id":"","pricing_plan_id":"cebpf4jnsgd1na2vs0mg"},{"bike_id":"fc4726cd-fa6f-4b4f-bc18-a6fe04d43513","system_id":"levelo_inurba_marseille","lat":43.27059,"lon":5.40265,"is_reserved":false,"is_disabled":false,"rental_uris":{"android":"levelo://app?vid=fc4726cd-fa6f-4b4f-bc18-a6fe04d43513","ios":"levelo://app?vid=fc4726cd-fa6f-4b4f-bc18-a6fe04d43513"},"vehicle_type_id":"4","last_reported":1743696741,"current_range_meters":17200,"station_id":"ce4bhk92rcd13ifvqgc0","pricing_plan_id":"cebpf4jnsgd1na2vs0mg"},{"bike_id":"0034409c-9214-4482-9712-21a55f3b3129","system_id":"levelo_inurba_marseille","lat":43.28939,"lon":5.36637,"is_reserved":false,"is_disabled":false,"rental_uris":{"android":"levelo://app?vid=0034409c-9214-4482-9712-21a55f3b3129","ios":"levelo://app?vid=0034409c-9214-4482-9712-21a55f3b3129"},"vehicle_type_id":"4","last_reported":1743696741,"current_range_meters":17200,"station_id":"ce4bhap2rcd13ifvqek0","pricing_plan_id":"cebpf4jnsgd1na2vs0mg"},{"bike_id":"54897177-f824-44e1-a157-5b0c539ad00d","system_id":"levelo_inurba_marseille","lat":43.29536,"lon":5.38538,"is_reserved":false,"is_disabled":false,"rental_uris":{"android":"levelo://app?vid=54897177-f824-44e1-a157-5b0c539ad00d","ios":"levelo://app?vid=54897177-f824-44e1-a157-5b0c539ad00d"},"vehicle_type_id":"4","last_reported":1743696741,"current_range_meters":17200,"station_id":"ce4bgih2rcd13ifvqba0","pricing_plan_id":"cebpf4jnsgd1na2vs0mg"},{"bike_id":"3f78b475-e62b-422d-b5a0-575a0ac0a04d","system_id":"levelo_inurba_marseille","lat":43.28414,"lon":5.34986,"is_reserved":false,"is_disabled":false,"rental_uris":{"android":"levelo://app?vid=3f78b475-e62b-422d-b5a0-575a0ac0a04d","ios":"levelo://app?vid=3f78b475-e62b-422d-b5a0-575a0ac0a04d"},"vehicle_type_id":"4","last_reported":1743696741,"current_range_meters":17600,"station_id":"ce4bhbh2rcd13ifvqepg","pricing_plan_id":"cebpf4jnsgd1na2vs0mg"},{"bike_id":"12c26714-65b3-42f5-86fb-22c2ad99065d","system_id":"levelo_inurba_marseille","lat":43.29521,"lon":5.39403,"is_reserved":false,"is_disabled":false,"rental_uris":{"android":"levelo://app?vid=12c26714-65b3-42f5-86fb-22c2ad99065d","ios":"levelo://app?vid=12c26714-65b3-42f5-86fb-22c2ad99065d"},"vehicle_type_id":"4","last_reported":1743696741,"current_range_meters":17600,"station_id":"ce4bh292rcd13ifvqdf0","pricing_plan_id":"cebpf4jnsgd1na2vs0mg"},{"bike_id":"3b4ad8c6-6244-4378-90d7-dac703d1508d","system_id":"levelo_inurba_marseille","lat":43.23194,"lon":5.35552,"is_reserved":false,"is_disabled":false,"rental_uris":{"android":"levelo://app?vid=3b4ad8c6-6244-4378-90d7-dac703d1508d","ios":"levelo://app?vid=3b4ad8c6-6244-4378-90d7-dac703d1508d"},"vehicle_type_id":"4","last_reported":1743696741,"current_range_meters":17600,"station_id":"ce4bhu92rcd13ifvqi70","pricing_plan_id":"cebpf4jnsgd1na2vs0mg"},{"bike_id":"0c7859bc-1fe2-4df1-a37b-fa386fcff813","system_id":"levelo_inurba_marseille","lat":43.23192,"lon":5.39982,"is_reserved":false,"is_disabled":false,"rental_uris":{"android":"levelo://app?vid=0c7859bc-1fe2-4df1-a37b-fa386fcff813","ios":"levelo://app?vid=0c7859bc-1fe2-4df1-a37b-fa386fcff813"},"vehicle_type_id":"4","last_reported":1743696741,"current_range_meters":17600,"station_id":"ce4bhn12rcd13ifvqgqg","pricing_plan_id":"cebpf4jnsgd1na2vs0mg"},{"bike_id":"4e3325f0-c3f4-4297-bd4f-ae2367b2648f","system_id":"levelo_inurba_marseille","lat":43.22936,"lon":5.35375,"is_reserved":false,"is_disabled":false,"rental_uris":{"android":"levelo://app?vid=4e3325f0-c3f4-4297-bd4f-ae2367b2648f","ios":"levelo://app?vid=4e3325f0-c3f4-4297-bd4f-ae2367b2648f"},"vehicle_type_id":"4","last_reported":1743696741,"current_range_meters":17600,"station_id":"cpo3532slgdg3j2ikp40","pricing_plan_id":"cebpf4jnsgd1na2vs0mg"},{"bike_id":"4b058c32-98e3-4f0d-9232-322d5d43c9df","system_id":"levelo_inurba_marseille","lat":43.25495,"lon":5.37658,"is_reserved":false,"is_disabled":false,"rental_uris":{"android":"levelo://app?vid=4b058c32-98e3-4f0d-9232-322d5d43c9df","ios":"levelo://app?vid=4b058c32-98e3-4f0d-9232-322d5d43c9df"},"vehicle_type_id":"4","last_reported":1743696741,"current_range_meters":14000,"station_id":"ce4bhh12rcd13ifvqff0","pricing_plan_id":"cebpf4jnsgd1na2vs0mg"},{"bike_id":"c915b572-52b7-4d6b-b8d3-a52688a58395","system_id":"levelo_inurba_marseille","lat":43.28038,"lon":5.3695,"is_reserved":false,"is_disabled":false,"rental_uris":{"android":"levelo://app?vid=c915b572-52b7-4d6b-b8d3-a52688a58395","ios":"levelo://app?vid=c915b572-52b7-4d6b-b8d3-a52688a58395"},"vehicle_type_id":"4","last_reported":1743696741,"current_range_meters":17600,"station_id":"ce4bha12rcd13ifvqef0","pricing_plan_id":"cebpf4jnsgd1na2vs0mg"},{"bike_id":"97077cbd-e185-4b19-b816-b78515cbe491","system_id":"levelo_inurba_marseille","lat":43.28713,"lon":5.39966,"is_reserved":false,"is_disabled":false,"rental_uris":{"android":"levelo://app?vid=97077cbd-e185-4b19-b816-b78515cbe491","ios":"levelo://app?vid=97077cbd-e185-4b19-b816-b78515cbe491"},"vehicle_type_id":"4","last_reported":1743696741,"current_range_meters":17600,"station_id":"ce4bho92rcd13ifvqh3g","pricing_plan_id":"cebpf4jnsgd1na2vs0mg"},{"bike_id":"d286a0a9-9b77-4419-9bc3-103c58072ede","system_id":"levelo_inurba_marseille","lat":43.26194,"lon":5.37447,"is_reserved":false,"is_disabled":false,"rental_uris":{"android":"levelo://app?vid=d286a0a9-9b77-4419-9bc3-103c58072ede","ios":"levelo://app?vid=d286a0a9-9b77-4419-9bc3-103c58072ede"},"vehicle_type_id":"4","last_reported":1743696741,"current_range_meters":17600,"station_id":"ce4bhgp2rcd13ifvqfc0","pricing_plan_id":"cebpf4jnsgd1na2vs0mg"},{"bike_id":"bc464ec0-d626-4787-86fd-8e3b3fef7fc4","system_id":"levelo_inurba_marseille","lat":43.31761,"lon":5.3902,"is_reserved":false,"is_disabled":false,"rental_uris":{"android":"levelo://app?vid=bc464ec0-d626-4787-86fd-8e3b3fef7fc4","ios":"levelo://app?vid=bc464ec0-d626-4787-86fd-8e3b3fef7fc4"},"vehicle_type_id":"4","last_reported":1743696741,"current_range_meters":17200,"station_id":"ce4bhqp2rcd13ifvqhng","pricing_plan_id":"cebpf4jnsgd1na2vs0mg"},{"bike_id":"c2055a2a-1cff-4f19-a52d-9b52baeaa63f","system_id":"levelo_inurba_marseille","lat":43.320002,"lon":5.381402,"is_reserved":false,"is_disabled":true,"rental_uris":{"android":"levelo://app?vid=c2055a2a-1cff-4f19-a52d-9b52baeaa63f","ios":"levelo://app?vid=c2055a2a-1cff-4f19-a52d-9b52baeaa63f"},"vehicle_type_id":"4","last_reported":1743696741,"current_range_meters":17600,"station_id":"ce4bhr12rcd13ifvqhpg","pricing_plan_id":"cebpf4jnsgd1na2vs0mg"},{"bike_id":"ae6ecea5-f015-4699-b852-ef5eb8d96575","system_id":"levelo_inurba_marseille","lat":43.24667,"lon":5.38167,"is_reserved":false,"is_disabled":true,"rental_uris":{"android":"levelo://app?vid=ae6ecea5-f015-4699-b852-ef5eb8d96575","ios":"levelo://app?vid=ae6ecea5-f015-4699-b852-ef5eb8d96575"},"vehicle_type_id":"4","last_reported":1743696741,"current_range_meters":18000,"station_id":"ce4bhih2rcd13ifvqfr0","pricing_plan_id":"cebpf4jnsgd1na2vs0mg"},{"bike_id":"5291391c-6300-492d-a348-bc36baad017c","system_id":"levelo_inurba_marseille","lat":43.29714,"lon":5.36611,"is_reserved":false,"is_disabled":false,"rental_uris":{"android":"levelo://app?vid=5291391c-6300-492d-a348-bc36baad017c","ios":"levelo://app?vid=5291391c-6300-492d-a348-bc36baad017c"},