{"last_updated":1777266854,"ttl":60,"version":"2.2","data":{"bikes":[{"bike_id":"a741ff1a-484b-4d8a-9c06-c4887c117baa","system_id":"levelo_inurba_marseille","lat":43.22537,"lon":5.34836,"is_reserved":false,"is_disabled":false,"rental_uris":{"android":"levelo://app?vid=a741ff1a-484b-4d8a-9c06-c4887c117baa","ios":"levelo://app?vid=a741ff1a-484b-4d8a-9c06-c4887c117baa"},"vehicle_type_id":"4","last_reported":1777266855,"current_range_meters":2800,"station_id":"st_cvj5dfep6f1abm77gieg","pricing_plan_id":"cebpf4jnsgd1na2vs0mg"},{"bike_id":"c35ef435-7351-4292-8bd0-8be9078d3a7d","system_id":"levelo_inurba_marseille","lat":43.30955,"lon":5.39059,"is_reserved":false,"is_disabled":true,"rental_uris":{"android":"levelo://app?vid=c35ef435-7351-4292-8bd0-8be9078d3a7d","ios":"levelo://app?vid=c35ef435-7351-4292-8bd0-8be9078d3a7d"},"vehicle_type_id":"4","last_reported":1777266855,"current_range_meters":2800,"station_id":"ce4bgup2rcd13ifvqco0","pricing_plan_id":"cebpf4jnsgd1na2vs0mg"},{"bike_id":"7f14f307-ed9b-4bde-a995-2c9126a5e681","system_id":"levelo_inurba_marseille","lat":43.30465,"lon":5.37879,"is_reserved":false,"is_disabled":true,"rental_uris":{"android":"levelo://app?vid=7f14f307-ed9b-4bde-a995-2c9126a5e681","ios":"levelo://app?vid=7f14f307-ed9b-4bde-a995-2c9126a5e681"},"vehicle_type_id":"4","last_reported":1777266855,"current_range_meters":2800,"station_id":"ce4bgup2rcd13ifvqcn0","pricing_plan_id":"cebpf4jnsgd1na2vs0mg"},{"bike_id":"833d7be3-421b-4c5f-bc44-1a51dc01aed7","system_id":"levelo_inurba_marseille","lat":43.29692,"lon":5.37291,"is_reserved":false,"is_disabled":true,"rental_uris":{"android":"levelo://app?vid=833d7be3-421b-4c5f-bc44-1a51dc01aed7","ios":"levelo://app?vid=833d7be3-421b-4c5f-bc44-1a51dc01aed7"},"vehicle_type_id":"4","last_reported":1777266855,"current_range_meters":2800,"station_id":"ce4bgk12rcd13ifvqbj0","pricing_plan_id":"cebpf4jnsgd1na2vs0mg"},{"bike_id":"6161ede7-aa25-46de-a043-cdaf0b87397b","system_id":"levelo_inurba_marseille","lat":43.28775,"lon":5.3858,"is_reserved":false,"is_disabled":false,"rental_uris":{"android":"levelo://app?vid=6161ede7-aa25-46de-a043-cdaf0b87397b","ios":"levelo://app?vid=6161ede7-aa25-46de-a043-cdaf0b87397b"},"vehicle_type_id":"4","last_reported":1777266855,"current_range_meters":2800,"station_id":"","pricing_plan_id":"cebpf4jnsgd1na2vs0mg"},{"bike_id":"53f2520c-0119-4c0f-9804-95296d196aea","system_id":"levelo_inurba_marseille","lat":43.30874,"lon":5.40186,"is_reserved":false,"is_disabled":false,"rental_uris":{"android":"levelo://app?vid=53f2520c-0119-4c0f-9804-95296d196aea","ios":"levelo://app?vid=53f2520c-0119-4c0f-9804-95296d196aea"},"vehicle_type_id":"4","last_reported":1777266855,"current_range_meters":2800,"station_id":"","pricing_plan_id":"cebpf4jnsgd1na2vs0mg"},{"bike_id":"35c7ecbe-2b6e-4d53-86f9-2f7937eb4999","system_id":"levelo_inurba_marseille","lat":43.31186,"lon":5.36894,"is_reserved":false,"is_disabled":false,"rental_uris":{"android":"levelo://app?vid=35c7ecbe-2b6e-4d53-86f9-2f7937eb4999","ios":"levelo://app?vid=35c7ecbe-2b6e-4d53-86f9-2f7937eb4999"},"vehicle_type_id":"4","last_reported":1777266855,"current_range_meters":3200,"station_id":"","pricing_plan_id":"cebpf4jnsgd1na2vs0mg"},{"bike_id":"26d26955-b302-4311-88a8-057f7b19117a","system_id":"levelo_inurba_marseille","lat":43.29652,"lon":5.36063,"is_reserved":false,"is_disabled":false,"rental_uris":{"android":"levelo://app?vid=26d26955-b302-4311-88a8-057f7b19117a","ios":"levelo://app?vid=26d26955-b302-4311-88a8-057f7b19117a"},"vehicle_type_id":"4","last_reported":1777266855,"current_range_meters":3200,"station_id":"","pricing_plan_id":"cebpf4jnsgd1na2vs0mg"},{"bike_id":"adfeb2f2-21a5-4adf-a92e-a60a7bb66934","system_id":"levelo_inurba_marseille","lat":43.29001,"lon":5.35626,"is_reserved":false,"is_disabled":true,"rental_uris":{"android":"levelo://app?vid=adfeb2f2-21a5-4adf-a92e-a60a7bb66934","ios":"levelo://app?vid=adfeb2f2-21a5-4adf-a92e-a60a7bb66934"},"vehicle_type_id":"4","last_reported":1777266855,"current_range_meters":3200,"station_id":"ce4bhb92rcd13ifvqen0","pricing_plan_id":"cebpf4jnsgd1na2vs0mg"},{"bike_id":"149148b8-a9d7-4a2f-af8f-79caef5c80f4","system_id":"levelo_inurba_marseille","lat":43.24534,"lon":5.39472,"is_reserved":false,"is_disabled":false,"rental_uris":{"android":"levelo://app?vid=149148b8-a9d7-4a2f-af8f-79caef5c80f4","ios":"levelo://app?vid=149148b8-a9d7-4a2f-af8f-79caef5c80f4"},"vehicle_type_id":"4","last_reported":1777266855,"current_range_meters":3200,"station_id":"ce4bhlp2rcd13ifvqgjg","pricing_plan_id":"cebpf4jnsgd1na2vs0mg"},{"bike_id":"e005198e-4e32-4e98-ade1-015e3f596d9d","system_id":"levelo_inurba_marseille","lat":43.29188,"lon":5.36048,"is_reserved":false,"is_disabled":true,"rental_uris":{"android":"levelo://app?vid=e005198e-4e32-4e98-ade1-015e3f596d9d","ios":"levelo://app?vid=e005198e-4e32-4e98-ade1-015e3f596d9d"},"vehicle_type_id":"4","last_reported":1777266855,"current_range_meters":3200,"station_id":"","pricing_plan_id":"cebpf4jnsgd1na2vs0mg"},{"bike_id":"4af09a2f-7416-418b-917a-4196ed7f2490","system_id":"levelo_inurba_marseille","lat":43.29061,"lon":5.37166,"is_reserved":false,"is_disabled":false,"rental_uris":{"android":"levelo://app?vid=4af09a2f-7416-418b-917a-4196ed7f2490","ios":"levelo://app?vid=4af09a2f-7416-418b-917a-4196ed7f2490"},"vehicle_type_id":"4","last_reported":1777266855,"current_range_meters":3200,"station_id":"ce4bh5p2rcd13ifvqe4g","pricing_plan_id":"cebpf4jnsgd1na2vs0mg"},{"bike_id":"e88509da-9847-4df2-9013-aa2c8089e565","system_id":"levelo_inurba_marseille","lat":43.24687,"lon":5.38159,"is_reserved":false,"is_disabled":false,"rental_uris":{"android":"levelo://app?vid=e88509da-9847-4df2-9013-aa2c8089e565","ios":"levelo://app?vid=e88509da-9847-4df2-9013-aa2c8089e565"},"vehicle_type_id":"4","last_reported":1777266855,"current_range_meters":3200,"station_id":"ce4bhih2rcd13ifvqfr0","pricing_plan_id":"cebpf4jnsgd1na2vs0mg"},{"bike_id":"3a1dde76-eca1-4259-a733-fe668960caa8","system_id":"levelo_inurba_marseille","lat":43.24446,"lon":5.39073,"is_reserved":false,"is_disabled":false,"rental_uris":{"android":"levelo://app?vid=3a1dde76-eca1-4259-a733-fe668960caa8","ios":"levelo://app?vid=3a1dde76-eca1-4259-a733-fe668960caa8"},"vehicle_type_id":"4","last_reported":1777266855,"current_range_meters":3200,"station_id":"","pricing_plan_id":"cebpf4jnsgd1na2vs0mg"},{"bike_id":"ce3befda-7671-4e12-8b47-b0299535f74f","system_id":"levelo_inurba_marseille","lat":43.25117,"lon":5.40319,"is_reserved":false,"is_disabled":true,"rental_uris":{"android":"levelo://app?vid=ce3befda-7671-4e12-8b47-b0299535f74f","ios":"levelo://app?vid=ce3befda-7671-4e12-8b47-b0299535f74f"},"vehicle_type_id":"4","last_reported":1777266855,"current_range_meters":3200,"station_id":"ce4bhlh2rcd13ifvqgig","pricing_plan_id":"cebpf4jnsgd1na2vs0mg"},{"bike_id":"609bdf4a-3601-4570-b4fa-c37eacc0db38","system_id":"levelo_inurba_marseille","lat":43.27195,"lon":5.41006,"is_reserved":false,"is_disabled":false,"rental_uris":{"android":"levelo://app?vid=609bdf4a-3601-4570-b4fa-c37eacc0db38","ios":"levelo://app?vid=609bdf4a-3601-4570-b4fa-c37eacc0db38"},"vehicle_type_id":"4","last_reported":1777266855,"current_range_meters":3200,"station_id":"ce4bhl12rcd13ifvqgf0","pricing_plan_id":"cebpf4jnsgd1na2vs0mg"},{"bike_id":"9a7c39d8-ef30-4694-b180-b6fe0a089530","system_id":"levelo_inurba_marseille","lat":43.3012,"lon":5.43118,"is_reserved":false,"is_disabled":false,"rental_uris":{"android":"levelo://app?vid=9a7c39d8-ef30-4694-b180-b6fe0a089530","ios":"levelo://app?vid=9a7c39d8-ef30-4694-b180-b6fe0a089530"},"vehicle_type_id":"4","last_reported":1777266855,"current_range_meters":3600,"station_id":"st_d3js3co5814s73ftftug","pricing_plan_id":"cebpf4jnsgd1na2vs0mg"},{"bike_id":"b62d7568-dc51-42cc-a6fe-2f91dbbabb67","system_id":"levelo_inurba_marseille","lat":43.28688,"lon":5.37408,"is_reserved":false,"is_disabled":false,"rental_uris":{"android":"levelo://app?vid=b62d7568-dc51-42cc-a6fe-2f91dbbabb67","ios":"levelo://app?vid=b62d7568-dc51-42cc-a6fe-2f91dbbabb67"},"vehicle_type_id":"4","last_reported":1777266855,"current_range_meters":3600,"station_id":"ce4bh3p2rcd13ifvqdq0","pricing_plan_id":"cebpf4jnsgd1na2vs0mg"},{"bike_id":"be3dbaca-317c-43ef-8335-8f03df566046","system_id":"levelo_inurba_marseille","lat":43.28491,"lon":5.48408,"is_reserved":false,"is_disabled":true,"rental_uris":{"android":"levelo://app?vid=be3dbaca-317c-43ef-8335-8f03df566046","ios":"levelo://app?vid=be3dbaca-317c-43ef-8335-8f03df566046"},"vehicle_type_id":"4","last_reported":1777266855,"current_range_meters":3600,"station_id":"st_d3svhcjqgbts73a3dn0g","pricing_plan_id":"cebpf4jnsgd1na2vs0mg"},{"bike_id":"085eefc3-42b6-4e5f-8fa3-5e096f60ac23","system_id":"levelo_inurba_marseille","lat":43.21778,"lon":5.34626,"is_reserved":false,"is_disabled":true,"rental_uris":{"android":"levelo://app?vid=085eefc3-42b6-4e5f-8fa3-5e096f60ac23","ios":"levelo://app?vid=085eefc3-42b6-4e5f-8fa3-5e096f60ac23"},"vehicle_type_id":"4","last_reported":1777266855,"current_range_meters":3600,"station_id":"st_cvj6r9ubvosntc0bgbag","pricing_plan_id":"cebpf4jnsgd1na2vs0mg"},{"bike_id":"fda983b3-301e-40f3-bb07-e5c67ab620e4","system_id":"levelo_inurba_marseille","lat":43.25051,"lon":5.40444,"is_reserved":false,"is_disabled":false,"rental_uris":{"android":"levelo://app?vid=fda983b3-301e-40f3-bb07-e5c67ab620e4","ios":"levelo://app?vid=fda983b3-301e-40f3-bb07-e5c67ab620e4"},"vehicle_type_id":"4","last_reported":1777266855,"current_range_meters":3600,"station_id":"","pricing_plan_id":"cebpf4jnsgd1na2vs0mg"},{"bike_id":"5fdff1d7-b2d7-4e39-ad7f-00ed09411d1d","system_id":"levelo_inurba_marseille","lat":43.28473,"lon":5.48421,"is_reserved":false,"is_disabled":false,"rental_uris":{"android":"levelo://app?vid=5fdff1d7-b2d7-4e39-ad7f-00ed09411d1d","ios":"levelo://app?vid=5fdff1d7-b2d7-4e39-ad7f-00ed09411d1d"},"vehicle_type_id":"4","last_reported":1777266855,"current_range_meters":4000,"station_id":"st_d3svhcjqgbts73a3dn0g","pricing_plan_id":"cebpf4jnsgd1na2vs0mg"},{"bike_id":"6cd61416-dc97-4a30-89cd-d3e20ec9e3b5","system_id":"levelo_inurba_marseille","lat":43.28721,"lon":5.37948,"is_reserved":false,"is_disabled":false,"rental_uris":{"android":"levelo://app?vid=6cd61416-dc97-4a30-89cd-d3e20ec9e3b5","ios":"levelo://app?vid=6cd61416-dc97-4a30-89cd-d3e20ec9e3b5"},"vehicle_type_id":"4","last_reported":1777266855,"current_range_meters":4000,"station_id":"ce4bh9p2rcd13ifvqec0","pricing_plan_id":"cebpf4jnsgd1na2vs0mg"},{"bike_id":"757fdfcb-45d7-4c45-8e18-f9ab346e8260","system_id":"levelo_inurba_marseille","lat":43.25438,"lon":5.38146,"is_reserved":false,"is_disabled":false,"rental_uris":{"android":"levelo://app?vid=757fdfcb-45d7-4c45-8e18-f9ab346e8260","ios":"levelo://app?vid=757fdfcb-45d7-4c45-8e18-f9ab346e8260"},"vehicle_type_id":"4","last_reported":1777266855,"current_range_meters":4000,"station_id":"","pricing_plan_id":"cebpf4jnsgd1na2vs0mg"},{"bike_id":"4d4d7b81-0959-47e3-8042-317edf1ea1fb","system_id":"levelo_inurba_marseille","lat":43.30867,"lon":5.39633,"is_reserved":false,"is_disabled":false,"rental_uris":{"android":"levelo://app?vid=4d4d7b81-0959-47e3-8042-317edf1ea1fb","ios":"levelo://app?vid=4d4d7b81-0959-47e3-8042-317edf1ea1fb"},"vehicle_type_id":"4","last_reported":1777266855,"current_range_meters":4000,"station_id":"ce4bh012rcd13ifvqcv0","pricing_plan_id":"cebpf4jnsgd1na2vs0mg"},{"bike_id":"6cf3a600-b22f-4888-b1ea-a099526102d1","system_id":"levelo_inurba_marseille","lat":43.24657,"lon":5.38156,"is_reserved":false,"is_disabled":false,"rental_uris":{"android":"levelo://app?vid=6cf3a600-b22f-4888-b1ea-a099526102d1","ios":"levelo://app?vid=6cf3a600-b22f-4888-b1ea-a099526102d1"},"vehicle_type_id":"4","last_reported":1777266855,"current_range_meters":4000,"station_id":"ce4bhih2rcd13ifvqfr0","pricing_plan_id":"cebpf4jnsgd1na2vs0mg"},{"bike_id":"3584acc5-c237-44fa-9cef-2e9f3d36ec3e","system_id":"levelo_inurba_marseille","lat":43.29188,"lon":5.37153,"is_reserved":false,"is_disabled":false,"rental_uris":{"android":"levelo://app?vid=3584acc5-c237-44fa-9cef-2e9f3d36ec3e","ios":"levelo://app?vid=3584acc5-c237-44fa-9cef-2e9f3d36ec3e"},"vehicle_type_id":"4","last_reported":1777266855,"current_range_meters":4000,"station_id":"ce4bha92rcd13ifvqeh0","pricing_plan_id":"cebpf4jnsgd1na2vs0mg"},{"bike_id":"da9a40ff-7316-4897-bf86-976efc56a0e6","system_id":"levelo_inurba_marseille","lat":43.24807,"lon":5.37487,"is_reserved":false,"is_disabled":false,"rental_uris":{"android":"levelo://app?vid=da9a40ff-7316-4897-bf86-976efc56a0e6","ios":"levelo://app?vid=da9a40ff-7316-4897-bf86-976efc56a0e6"},"vehicle_type_id":"4","last_reported":1777266855,"current_range_meters":4000,"station_id":"ce4bhgh2rcd13ifvqfb0","pricing_plan_id":"cebpf4jnsgd1na2vs0mg"},{"bike_id":"6b60b3c8-da35-492c-9411-418199a97ad7","system_id":"levelo_inurba_marseille","lat":43.28476,"lon":5.48386,"is_reserved":false,"is_disabled":false,"rental_uris":{"android":"levelo://app?vid=6b60b3c8-da35-492c-9411-418199a97ad7","ios":"levelo://app?vid=6b60b3c8-da35-492c-9411-418199a97ad7"},"vehicle_type_id":"4","last_reported":1777266855,"current_range_meters":4000,"station_id":"","pricing_plan_id":"cebpf4jnsgd1na2vs0mg"},{"bike_id":"bcf63076-a1dc-4e68-b80f-d2f74e0a4ebe","system_id":"levelo_inurba_marseille","lat":43.24788,"lon":5.37461,"is_reserved":false,"is_disabled":false,"rental_uris":{"android":"levelo://app?vid=bcf63076-a1dc-4e68-b80f-d2f74e0a4ebe","ios":"levelo://app?vid=bcf63076-a1dc-4e68-b80f-d2f74e0a4ebe"},"vehicle_type_id":"4","last_reported":1777266855,"current_range_meters":4000,"station_id":"ce4bhgh2rcd13ifvqfb0","pricing_plan_id":"cebpf4jnsgd1na2vs0mg"},{"bike_id":"39c6c4d6-7555-4b53-ad56-337ccc229a3f","system_id":"levelo_inurba_marseille","lat":43.3073,"lon":5.42449,"is_reserved":false,"is_disabled":false,"rental_uris":{"android":"levelo://app?vid=39c6c4d6-7555-4b53-ad56-337ccc229a3f","ios":"levelo://app?vid=39c6c4d6-7555-4b53-ad56-337ccc229a3f"},"vehicle_type_id":"4","last_reported":1777266855,"current_range_meters":4000,"station_id":"st_cvj6ca6bvosntc0bfgr0","pricing_plan_id":"cebpf4jnsgd1na2vs0mg"},{"bike_id":"d7ab8b3a-9cb6-4a2f-bbf2-9e4c05faf2f9","system_id":"levelo_inurba_marseille","lat":43.29195,"lon":5.39341,"is_reserved":false,"is_disabled":false,"rental_uris":{"android":"levelo://app?vid=d7ab8b3a-9cb6-4a2f-bbf2-9e4c05faf2f9","ios":"levelo://app?vid=d7ab8b3a-9cb6-4a2f-bbf2-9e4c05faf2f9"},"vehicle_type_id":"4","last_reported":1777266855,"current_range_meters":4000,"station_id":"ce4bh192rcd13ifvqdd0","pricing_plan_id":"cebpf4jnsgd1na2vs0mg"},{"bike_id":"d054276e-6372-4793-ae37-6281dafb78f8","system_id":"levelo_inurba_marseille","lat":43.3376,"lon":5.37435,"is_reserved":false,"is_disabled":false,"rental_uris":{"android":"levelo://app?vid=d054276e-6372-4793-ae37-6281dafb78f8","ios":"levelo://app?vid=d054276e-6372-4793-ae37-6281dafb78f8"},"vehicle_type_id":"4","last_reported":1777266855,"current_range_meters":4000,"station_id":"","pricing_plan_id":"cebpf4jnsgd1na2vs0mg"},{"bike_id":"4260f12f-7785-4ae6-848f-7e5a2687171e","system_id":"levelo_inurba_marseille","lat":43.29699,"lon":5.37689,"is_reserved":false,"is_disabled":true,"rental_uris":{"android":"levelo://app?vid=4260f12f-7785-4ae6-848f-7e5a2687171e","ios":"levelo://app?vid=4260f12f-7785-4ae6-848f-7e5a2687171e"},"vehicle_type_id":"4","last_reported":1777266855,"current_range_meters":4000,"station_id":"ce4bgkh2rcd13ifvqbl0","pricing_plan_id":"cebpf4jnsgd1na2vs0mg"},{"bike_id":"b608e64c-622e-4396-ba66-cdbfd95d5d09","system_id":"levelo_inurba_marseille","lat":43.30931,"lon":5.4016,"is_reserved":false,"is_disabled":false,"rental_uris":{"android":"levelo://app?vid=b608e64c-622e-4396-ba66-cdbfd95d5d09","ios":"levelo://app?vid=b608e64c-622e-4396-ba66-cdbfd95d5d09"},"vehicle_type_id":"4","last_reported":1777266855,"current_range_meters":4400,"station_id":"ce4bgvp2rcd13ifvqct0","pricing_plan_id":"cebpf4jnsgd1na2vs0mg"},{"bike_id":"1fa7c290-baf4-43ed-aa99-7181dabef99e","system_id":"levelo_inurba_marseille","lat":43.33547,"lon":5.37495,"is_reserved":false,"is_disabled":false,"rental_uris":{"android":"levelo://app?vid=1fa7c290-baf4-43ed-aa99-7181dabef99e","ios":"levelo://app?vid=1fa7c290-baf4-43ed-aa99-7181dabef99e"},"vehicle_type_id":"4","last_reported":1777266855,"current_range_meters":4400,"station_id":"st_d46tts09ee8s73dlu43g","pricing_plan_id":"cebpf4jnsgd1na2vs0mg"},{"bike_id":"a0a413eb-5c9c-40b5-9993-e90271fb718b","system_id":"levelo_inurba_marseille","lat":43.32042,"lon":5.37192,"is_reserved":false,"is_disabled":false,"rental_uris":{"android":"levelo://app?vid=a0a413eb-5c9c-40b5-9993-e90271fb718b","ios":"levelo://app?vid=a0a413eb-5c9c-40b5-9993-e90271fb718b"},"vehicle_type_id":"4","last_reported":1777266855,"current_range_meters":4400,"station_id":"","pricing_plan_id":"cebpf4jnsgd1na2vs0mg"},{"bike_id":"8e41c180-eea9-4988-8ead-9087dde64a48","system_id":"levelo_inurba_marseille","lat":43.25822,"lon":5.39437,"is_reserved":false,"is_disabled":false,"rental_uris":{"android":"levelo://app?vid=8e41c180-eea9-4988-8ead-9087dde64a48","ios":"levelo://app?vid=8e41c180-eea9-4988-8ead-9087dde64a48"},"vehicle_type_id":"4","last_reported":1777266855,"current_range_meters":4400,"station_id":"ce4bhip2rcd13ifvqft0","pricing_plan_id":"cebpf4jnsgd1na2vs0mg"},{"bike_id":"724d0869-017c-4e7e-9911-705be0df09b1","system_id":"levelo_inurba_marseille","lat":43.31449,"lon":5.37403,"is_reserved":false,"is_disabled":false,"rental_uris":{"android":"levelo://app?vid=724d0869-017c-4e7e-9911-705be0df09b1","ios":"levelo://app?vid=724d0869-017c-4e7e-9911-705be0df09b1"},"vehicle_type_id":"4","last_reported":1777266855,"current_range_meters":4400,"station_id":"","pricing_plan_id":"cebpf4jnsgd1na2vs0mg"},{"bike_id":"b7166d00-058e-4f8a-ac08-8d7664362d9a","system_id":"levelo_inurba_marseille","lat":43.26539,"lon":5.37299,"is_reserved":false,"is_disabled":true,"rental_uris":{"android":"levelo://app?vid=b7166d00-058e-4f8a-ac08-8d7664362d9a","ios":"levelo://app?vid=b7166d00-058e-4f8a-ac08-8d7664362d9a"},"vehicle_type_id":"4","last_reported":1777266855,"current_range_meters":4400,"station_id":"ce4bhg12rcd13ifvqf70","pricing_plan_id":"cebpf4jnsgd1na2vs0mg"},{"bike_id":"255c20f0-b853-4271-805d-223631319231","system_id":"levelo_inurba_marseille","lat":43.31358,"lon":5.38502,"is_reserved":false,"is_disabled":false,"rental_uris":{"android":"levelo://app?vid=255c20f0-b853-4271-805d-223631319231","ios":"levelo://app?vid=255c20f0-b853-4271-805d-223631319231"},"vehicle_type_id":"4","last_reported":1777266855,"current_range_meters":4400,"station_id":"ce4bgt92rcd13ifvqcf0","pricing_plan_id":"cebpf4jnsgd1na2vs0mg"},{"bike_id":"24c30735-87b6-4ee7-a106-1213d1549465","system_id":"levelo_inurba_marseille","lat":43.24579,"lon":5.40242,"is_reserved":false,"is_disabled":false,"rental_uris":{"android":"levelo://app?vid=24c30735-87b6-4ee7-a106-1213d1549465","ios":"levelo://app?vid=24c30735-87b6-4ee7-a106-1213d1549465"},"vehicle_type_id":"4","last_reported":1777266855,"current_range_meters":4400,"station_id":"","pricing_plan_id":"cebpf4jnsgd1na2vs0mg"},{"bike_id":"31ce8eff-1c0a-4202-bd1b-24b41234d06b","system_id":"levelo_inurba_marseille","lat":43.28548,"lon":5.39954,"is_reserved":false,"is_disabled":false,"rental_uris":{"android":"levelo://app?vid=31ce8eff-1c0a-4202-bd1b-24b41234d06b","ios":"levelo://app?vid=31ce8eff-1c0a-4202-bd1b-24b41234d06b"},"vehicle_type_id":"4","last_reported":1777266855,"current_range_meters":4400,"station_id":"","pricing_plan_id":"cebpf4jnsgd1na2vs0mg"},{"bike_id":"494fd0fc-3b39-4504-a26b-321afbf22977","system_id":"levelo_inurba_marseille","lat":43.23838,"lon":5.38585,"is_reserved":false,"is_disabled":false,"rental_uris":{"android":"levelo://app?vid=494fd0fc-3b39-4504-a26b-321afbf22977","ios":"levelo://app?vid=494fd0fc-3b39-4504-a26b-321afbf22977"},"vehicle_type_id":"4","last_reported":1777266855,"current_range_meters":4800,"station_id":"","pricing_plan_id":"cebpf4jnsgd1na2vs0mg"},{"bike_id":"274b41c4-8b16-47b0-9c85-d9e012646b67","system_id":"levelo_inurba_marseille","lat":43.22924,"lon":5.35406,"is_reserved":false,"is_disabled":true,"rental_uris":{"android":"levelo://app?vid=274b41c4-8b16-47b0-9c85-d9e012646b67","ios":"levelo://app?vid=274b41c4-8b16-47b0-9c85-d9e012646b67"},"vehicle_type_id":"4","last_reported":1777266855,"current_range_meters":4800,"station_id":"cpo3532slgdg3j2ikp40","pricing_plan_id":"cebpf4jnsgd1na2vs0mg"},{"bike_id":"66abde0c-bd85-424e-ad5d-dcceb22380cb","system_id":"levelo_inurba_marseille","lat":43.30936,"lon":5.40131,"is_reserved":false,"is_disabled":false,"rental_uris":{"android":"levelo://app?vid=66abde0c-bd85-424e-ad5d-dcceb22380cb","ios":"levelo://app?vid=66abde0c-bd85-424e-ad5d-dcceb22380cb"},"vehicle_type_id":"4","last_reported":1777266855,"current_range_meters":4800,"station_id":"ce4bgvp2rcd13ifvqct0","pricing_plan_id":"cebpf4jnsgd1na2vs0mg"},{"bike_id":"a5d1c5f8-e551-41de-b7f3-a52119a1050b","system_id":"levelo_inurba_marseille","lat":43.27811,"lon":5.37441,"is_reserved":false,"is_disabled":false,"rental_uris":{"android":"levelo://app?vid=a5d1c5f8-e551-41de-b7f3-a52119a1050b","ios":"levelo://app?vid=a5d1c5f8-e551-41de-b7f3-a52119a1050b"},"vehicle_type_id":"4","last_reported":1777266855,"current_range_meters":4800,"station_id":"","pricing_plan_id":"cebpf4jnsgd1na2vs0mg"},{"bike_id":"020db429-7c6a-4786-a59b-3eb7a60f4963","system_id":"levelo_inurba_marseille","lat":43.23214,"lon":5.35561,"is_reserved":false,"is_disabled":false,"rental_uris":{"android":"levelo://app?vid=020db429-7c6a-4786-a59b-3eb7a60f4963","ios":"levelo://app?vid=020db429-7c6a-4786-a59b-3eb7a60f4963"},"vehicle_type_id":"4","last_reported":1777266855,"current_range_meters":4800,"station_id":"ce4bhu92rcd13ifvqi70","pricing_plan_id":"cebpf4jnsgd1na2vs0mg"},{"bike_id":"cea31a32-5e3a-46c4-9d32-5011edfbb303","system_id":"levelo_inurba_marseille","lat":43.337444,"lon":5.374475,"is_reserved":false,"is_disabled":true,"rental_uris":{"android":"levelo://app?vid=cea31a32-5e3a-46c4-9d32-5011edfbb303","ios":"levelo://app?vid=cea31a32-5e3a-46c4-9d32-5011edfbb303"},"vehicle_type_id":"4","last_reported":1777266855,"current_range_meters":5600,"station_id":"","pricing_plan_id":"cebpf4jnsgd1na2vs0mg"},{"bike_id":"6c03a756-6268-4631-a1f0-4d7b6ab3b005","system_id":"levelo_inurba_marseille","lat":43.26057,"lon":5.39398,"is_reserved":false,"is_disabled":false,"rental_uris":{"android":"levelo://app?vid=6c03a756-6268-4631-a1f0-4d7b6ab3b005","ios":"levelo://app?vid=6c03a756-6268-4631-a1f0-4d7b6ab3b005"},"vehicle_type_id":"4","last_reported":1777266855,"current_range_meters":5600,"station_id":"ce4bhh92rcd13ifvqfj0","pricing_plan_id":"cebpf4jnsgd1na2vs0mg"},{"bike_id":"fb350924-3b39-4197-a891-8208914eef37","system_id":"levelo_inurba_marseille","lat":43.24805,"lon":5.37458,"is_reserved":false,"is_disabled":false,"rental_uris":{"android":"levelo://app?vid=fb350924-3b39-4197-a891-8208914eef37","ios":"levelo://app?vid=fb350924-3b39-4197-a891-8208914eef37"},"vehicle_type_id":"4","last_reported":1777266855,"current_range_meters":5600,"station_id":"ce4bhgh2rcd13ifvqfb0","pricing_plan_id":"cebpf4jnsgd1na2vs0mg"},{"bike_id":"9bc00225-ca33-4402-9b8d-cb44f961b1bb","system_id":"levelo_inurba_marseille","lat":43.26202,"lon":5.3745,"is_reserved":false,"is_disabled":false,"rental_uris":{"android":"levelo://app?vid=9bc00225-ca33-4402-9b8d-cb44f961b1bb","ios":"levelo://app?vid=9bc00225-ca33-4402-9b8d-cb44f961b1bb"},"vehicle_type_id":"4","last_reported":1777266855,"current_range_meters":5600,"station_id":"ce4bhgp2rcd13ifvqfc0","pricing_plan_id":"cebpf4jnsgd1na2vs0mg"},{"bike_id":"1d104469-b8b2-40cd-a1a9-4fe28f3e9285","system_id":"levelo_inurba_marseille","lat":43.25439,"lon":5.41513,"is_reserved":false,"is_disabled":false,"rental_uris":{"android":"levelo://app?vid=1d104469-b8b2-40cd-a1a9-4fe28f3e9285","ios":"levelo://app?vid=1d104469-b8b2-40cd-a1a9-4fe28f3e9285"},"vehicle_type_id":"4","last_reported":1777266855,"current_range_meters":5600,"station_id":"","pricing_plan_id":"cebpf4jnsgd1na2vs0mg"},{"bike_id":"f7716b3d-5dc6-4c1f-94ea-dd8b69d23a22","system_id":"levelo_inurba_marseille","lat":43.27521,"lon":5.43484,"is_reserved":false,"is_disabled":false,"rental_uris":{"android":"levelo://app?vid=f7716b3d-5dc6-4c1f-94ea-dd8b69d23a22","ios":"levelo://app?vid=f7716b3d-5dc6-4c1f-94ea-dd8b69d23a22"},"vehicle_type_id":"4","last_reported":1777266855,"current_range_meters":5600,"station_id":"","pricing_plan_id":"cebpf4jnsgd1na2vs0mg"},{"bike_id":"5367fafd-42a5-4c52-bd35-5d85953af91c","system_id":"levelo_inurba_marseille","lat":43.30832,"lon":5.37186,"is_reserved":false,"is_disabled":true,"rental_uris":{"android":"levelo://app?vid=5367fafd-42a5-4c52-bd35-5d85953af91c","ios":"levelo://app?vid=5367fafd-42a5-4c52-bd35-5d85953af91c"},"vehicle_type_id":"4","last_reported":1777266855,"current_range_meters":6000,"station_id":"","pricing_plan_id":"cebpf4jnsgd1na2vs0mg"},{"bike_id":"b0ccfe3c-f9fb-44e6-8016-c8ec8f83f909","system_id":"levelo_inurba_marseille","lat":43.3032,"lon":5.4045,"is_reserved":false,"is_disabled":false,"rental_uris":{"android":"levelo://app?vid=b0ccfe3c-f9fb-44e6-8016-c8ec8f83f909","ios":"levelo://app?vid=b0ccfe3c-f9fb-44e6-8016-c8ec8f83f909"},"vehicle_type_id":"4","last_reported":1777266855,"current_range_meters":6000,"station_id":"ce4bh012rcd13ifvqd10","pricing_plan_id":"cebpf4jnsgd1na2vs0mg"},{"bike_id":"d84dad1f-3355-427c-a81e-a3f872caa973","system_id":"levelo_inurba_marseille","lat":43.28707,"lon":5.46687,"is_reserved":false,"is_disabled":false,"rental_uris":{"android":"levelo://app?vid=d84dad1f-3355-427c-a81e-a3f872caa973","ios":"levelo://app?vid=d84dad1f-3355-427c-a81e-a3f872caa973"},"vehicle_type_id":"4","last_reported":1777266855,"current_range_meters":6000,"station_id":"st_d6tc3vkotcvc738tfjhg","pricing_plan_id":"cebpf4jnsgd1na2vs0mg"},{"bike_id":"6cf182ab-af74-4567-a8c2-f4c30f6e6051","system_id":"levelo_inurba_marseille","lat":43.27364,"lon":5.36261,"is_reserved":false,"is_disabled":false,"rental_uris":{"android":"levelo://app?vid=6cf182ab-af74-4567-a8c2-f4c30f6e6051","ios":"levelo://app?vid=6cf182ab-af74-4567-a8c2-f4c30f6e6051"},"vehicle_type_id":"4","last_reported":1777266855,"current_range_meters":6000,"station_id":"ce4bhbh2rcd13ifvqeo0","pricing_plan_id":"cebpf4jnsgd1na2vs0mg"},{"bike_id":"2d56d665-60d6-4515-b646-2119a523b260","system_id":"levelo_inurba_marseille","lat":43.31402,"lon":5.41494,"is_reserved":false,"is_disabled":false,"rental_uris":{"android":"levelo://app?vid=2d56d665-60d6-4515-b646-2119a523b260","ios":"levelo://app?vid=2d56d665-60d6-4515-b646-2119a523b260"},"vehicle_type_id":"4","last_reported":1777266855,"current_range_meters":6000,"station_id":"","pricing_plan_id":"cebpf4jnsgd1na2vs0mg"},{"bike_id":"7917a9d5-4ac9-40bd-8834-5d3047c76c9d","system_id":"levelo_inurba_marseille","lat":43.32497,"lon":5.40755,"is_reserved":false,"is_disabled":false,"rental_uris":{"android":"levelo://app?vid=7917a9d5-4ac9-40bd-8834-5d3047c76c9d","ios":"levelo://app?vid=7917a9d5-4ac9-40bd-8834-5d3047c76c9d"},"vehicle_type_id":"4","last_reported":1777266855,"current_range_meters":6000,"station_id":"","pricing_plan_id":"cebpf4jnsgd1na2vs0mg"},{"bike_id":"3894408b-a103-4200-9dc1-9adb06be77fd","system_id":"levelo_inurba_marseille","lat":43.2815,"lon":5.42636,"is_reserved":false,"is_disabled":false,"rental_uris":{"android":"levelo://app?vid=3894408b-a103-4200-9dc1-9adb06be77fd","ios":"levelo://app?vid=3894408b-a103-4200-9dc1-9adb06be77fd"},"vehicle_type_id":"4","last_reported":1777266855,"current_range_meters":6000,"station_id":"ce4bhnh2rcd13ifvqgug","pricing_plan_id":"cebpf4jnsgd1na2vs0mg"},{"bike_id":"d66ee898-4db4-4ab1-b381-7922e6c7a4fe","system_id":"levelo_inurba_marseille","lat":43.28462,"lon":5.35913,"is_reserved":false,"is_disabled":false,"rental_uris":{"android":"levelo://app?vid=d66ee898-4db4-4ab1-b381-7922e6c7a4fe","ios":"levelo://app?vid=d66ee898-4db4-4ab1-b381-7922e6c7a4fe"},"vehicle_type_id":"4","last_reported":1777266855,"current_range_meters":6000,"station_id":"ce4bhah2rcd13ifvqei0","pricing_plan_id":"cebpf4jnsgd1na2vs0mg"},{"bike_id":"50fcb081-4b05-4355-adf3-07f022c0399c","system_id":"levelo_inurba_marseille","lat":43.30993,"lon":5.37913,"is_reserved":false,"is_disabled":false,"rental_uris":{"android":"levelo://app?vid=50fcb081-4b05-4355-adf3-07f022c0399c","ios":"levelo://app?vid=50fcb081-4b05-4355-adf3-07f022c0399c"},"vehicle_type_id":"4","last_reported":1777266855,"current_range_meters":6000,"station_id":"","pricing_plan_id":"cebpf4jnsgd1na2vs0mg"},{"bike_id":"df75676a-7c3f-4d29-80c0-260795f2c62d","system_id":"levelo_inurba_marseille","lat":43.27978,"lon":5.40806,"is_reserved":false,"is_disabled":false,"rental_uris":{"android":"levelo://app?vid=df75676a-7c3f-4d29-80c0-260795f2c62d","ios":"levelo://app?vid=df75676a-7c3f-4d29-80c0-260795f2c62d"},"vehicle_type_id":"4","last_reported":1777266855,"current_range_meters":6400,"station_id":"","pricing_plan_id":"cebpf4jnsgd1na2vs0mg"},{"bike_id":"35ef112e-98e9-4c5d-b945-e6e7b1469a12","system_id":"levelo_inurba_marseille","lat":43.28153,"lon":5.42655,"is_reserved":false,"is_disabled":false,"rental_uris":{"android":"levelo://app?vid=35ef112e-98e9-4c5d-b945-e6e7b1469a12","ios":"levelo://app?vid=35ef112e-98e9-4c5d-b945-e6e7b1469a12"},"vehicle_type_id":"4","last_reported":1777266855,"current_range_meters":6400,"station_id":"ce4bhnh2rcd13ifvqgug","pricing_plan_id":"cebpf4jnsgd1na2vs0mg"},{"bike_id":"1dbbb389-5931-4d64-b29b-02449b2d67dc","system_id":"levelo_inurba_marseille","lat":43.24468,"lon":5.42543,"is_reserved":false,"is_disabled":false,"rental_uris":{"android":"levelo://app?vid=1dbbb389-5931-4d64-b29b-02449b2d67dc","ios":"levelo://app?vid=1dbbb389-5931-4d64-b29b-02449b2d67dc"},"vehicle_type_id":"4","last_reported":1777266855,"current_range_meters":6400,"station_id":"st_d4a3vfp97mjs738cd8kg","pricing_plan_id":"cebpf4jnsgd1na2vs0mg"},{"bike_id":"9f6b01fb-b757-485b-badf-67602a04eb28","system_id":"levelo_inurba_marseille","lat":43.26182,"lon":5.3793,"is_reserved":false,"is_disabled":true,"rental_uris":{"android":"levelo://app?vid=9f6b01fb-b757-485b-badf-67602a04eb28","ios":"levelo://app?vid=9f6b01fb-b757-485b-badf-67602a04eb28"},"vehicle_type_id":"4","last_reported":1777266855,"current_range_meters":6400,"station_id":"ce4bhjp2rcd13ifvqg90","pricing_plan_id":"cebpf4jnsgd1na2vs0mg"},{"bike_id":"8e2981d0-7056-481f-8585-5b3ecb4b783a","system_id":"levelo_inurba_marseille","lat":43.21759,"lon":5.34609,"is_reserved":false,"is_disabled":false,"rental_uris":{"android":"levelo://app?vid=8e2981d0-7056-481f-8585-5b3ecb4b783a","ios":"levelo://app?vid=8e2981d0-7056-481f-8585-5b3ecb4b783a"},"vehicle_type_id":"4","last_reported":1777266855,"current_range_meters":6400,"station_id":"st_cvj6r9ubvosntc0bgbag","pricing_plan_id":"cebpf4jnsgd1na2vs0mg"},{"bike_id":"1f13452b-ac27-48ca-bbd2-1255b0865067","system_id":"levelo_inurba_marseille","lat":43.27847,"lon":5.37956,"is_reserved":false,"is_disabled":false,"rental_uris":{"android":"levelo://app?vid=1f13452b-ac27-48ca-bbd2-1255b0865067","ios":"levelo://app?vid=1f13452b-ac27-48ca-bbd2-1255b0865067"},"vehicle_type_id":"4","last_reported":1777266855,"current_range_meters":6400,"station_id":"","pricing_plan_id":"cebpf4jnsgd1na2vs0mg"},{"bike_id":"8c684cb2-49c2-42c3-9ddd-cce748a466bb","system_id":"levelo_inurba_marseille","lat":43.28367,"lon":5.38636,"is_reserved":false,"is_disabled":false,"rental_uris":{"android":"levelo://app?vid=8c684cb2-49c2-42c3-9ddd-cce748a466bb","ios":"levelo://app?vid=8c684cb2-49c2-42c3-9ddd-cce748a466bb"},"vehicle_type_id":"4","last_reported":1777266855,"current_range_meters":6400,"station_id":"ce4bh492rcd13ifvqdvg","pricing_plan_id":"cebpf4jnsgd1na2vs0mg"},{"bike_id":"6a995ed4-17a4-4326-8e9c-288a3ce53239","system_id":"levelo_inurba_marseille","lat":43.31183,"lon":5.38728,"is_reserved":false,"is_disabled":false,"rental_uris":{"android":"levelo://app?vid=6a995ed4-17a4-4326-8e9c-288a3ce53239","ios":"levelo://app?vid=6a995ed4-17a4-4326-8e9c-288a3ce53239"},"vehicle_type_id":"4","last_reported":1777266855,"current_range_meters":6400,"station_id":"ce4bgv12rcd13ifvqcp0","pricing_plan_id":"cebpf4jnsgd1na2vs0mg"},{"bike_id":"14f18819-5f8e-493d-8122-9d96b019cf5b","system_id":"levelo_inurba_marseille","lat":43.31337,"lon":5.41625,"is_reserved":false,"is_disabled":false,"rental_uris":{"android":"levelo://app?vid=14f18819-5f8e-493d-8122-9d96b019cf5b","ios":"levelo://app?vid=14f18819-5f8e-493d-8122-9d96b019cf5b"},"vehicle_type_id":"4","last_reported":1777266855,"current_range_meters":6400,"station_id":"","pricing_plan_id":"cebpf4jnsgd1na2vs0mg"},{"bike_id":"38cd81d4-69d1-4fc5-82f9-32b15cca8fe9","system_id":"levelo_inurba_marseille","lat":43.28607,"lon":5.39889,"is_reserved":false,"is_disabled":false,"rental_uris":{"android":"levelo://app?vid=38cd81d4-69d1-4fc5-82f9-32b15cca8fe9","ios":"levelo://app?vid=38cd81d4-69d1-4fc5-82f9-32b15cca8fe9"},"vehicle_type_id":"4","last_reported":1777266855,"current_range_meters":6400,"station_id":"st_d4a7ka997mjs738ck50g","pricing_plan_id":"cebpf4jnsgd1na2vs0mg"},{"bike_id":"53340ec2-c2ab-493f-9bc3-5be0a5679340","system_id":"levelo_inurba_marseille","lat":43.28716,"lon":5.37942,"is_reserved":false,"is_disabled":false,"rental_uris":{"android":"levelo://app?vid=53340ec2-c2ab-493f-9bc3-5be0a5679340","ios":"levelo://app?vid=53340ec2-c2ab-493f-9bc3-5be0a5679340"},"vehicle_type_id":"4","last_reported":1777266855,"current_range_meters":6400,"station_id":"ce4bh9p2rcd13ifvqec0","pricing_plan_id":"cebpf4jnsgd1na2vs0mg"},{"bike_id":"4b43a537-0025-4181-b3f0-3f1fa031f295","system_id":"levelo_inurba_marseille","lat":43.24413,"lon":5.37098,"is_reserved":false,"is_disabled":false,"rental_uris":{"android":"levelo://app?vid=4b43a537-0025-4181-b3f0-3f1fa031f295","ios":"levelo://app?vid=4b43a537-0025-4181-b3f0-3f1fa031f295"},"vehicle_type_id":"4","last_reported":1777266855,"current_range_meters":6800,"station_id":"ce4bhhh2rcd13ifvqfk0","pricing_plan_id":"cebpf4jnsgd1na2vs0mg"},{"bike_id":"5676b1df-3102-49f0-94ea-6bd037dc90c9","system_id":"levelo_inurba_marseille","lat":43.31122,"lon":5.38069,"is_reserved":false,"is_disabled":false,"rental_uris":{"android":"levelo://app?vid=5676b1df-3102-49f0-94ea-6bd037dc90c9","ios":"levelo://app?vid=5676b1df-3102-49f0-94ea-6bd037dc90c9"},"vehicle_type_id":"4","last_reported":1777266855,"current_range_meters":6800,"station_id":"","pricing_plan_id":"cebpf4jnsgd1na2vs0mg"},{"bike_id":"5c180de8-9c17-4b87-a3cf-6c2cc4bfc770","system_id":"levelo_inurba_marseille","lat":43.28448,"lon":5.37534,"is_reserved":false,"is_disabled":false,"rental_uris":{"android":"levelo://app?vid=5c180de8-9c17-4b87-a3cf-6c2cc4bfc770","ios":"levelo://app?vid=5c180de8-9c17-4b87-a3cf-6c2cc4bfc770"},"vehicle_type_id":"4","last_reported":1777266855,"current_range_meters":6800,"station_id":"ce4bh412rcd13ifvqds0","pricing_plan_id":"cebpf4jnsgd1na2vs0mg"},{"bike_id":"63aca4c7-ef0d-4ab8-a165-a7705e394405","system_id":"levelo_inurba_marseille","lat":43.3092,"lon":5.40174,"is_reserved":false,"is_disabled":false,"rental_uris":{"android":"levelo://app?vid=63aca4c7-ef0d-4ab8-a165-a7705e394405","ios":"levelo://app?vid=63aca4c7-ef0d-4ab8-a165-a7705e394405"},"vehicle_type_id":"4","last_reported":1777266855,"current_range_meters":6800,"station_id":"ce4bgvp2rcd13ifvqct0","pricing_plan_id":"cebpf4jnsgd1na2vs0mg"},{"bike_id":"e6e0181d-d51b-42d7-93b1-7e8f4d00629c","system_id":"levelo_inurba_marseille","lat":43.29825,"lon":5.42036,"is_reserved":false,"is_disabled":true,"rental_uris":{"android":"levelo://app?vid=e6e0181d-d51b-42d7-93b1-7e8f4d00629c","ios":"levelo://app?vid=e6e0181d-d51b-42d7-93b1-7e8f4d00629c"},"vehicle_type_id":"4","last_reported":1777266855,"current_range_meters":6800,"station_id":"","pricing_plan_id":"cebpf4jnsgd1na2vs0mg"},{"bike_id":"b21748b2-fb24-4ee6-8e6a-c7c61264faec","system_id":"levelo_inurba_marseille","lat":43.27399,"lon":5.42249,"is_reserved":false,"is_disabled":false,"rental_uris":{"android":"levelo://app?vid=b21748b2-fb24-4ee6-8e6a-c7c61264faec","ios":"levelo://app?vid=b21748b2-fb24-4ee6-8e6a-c7c61264faec"},"vehicle_type_id":"4","last_reported":1777266855,"current_range_meters":6800,"station_id":"","pricing_plan_id":"cebpf4jnsgd1na2vs0mg"},{"bike_id":"3f625a0c-3432-4ae7-800a-63b5fd7f457a","system_id":"levelo_inurba_marseille","lat":43.26936,"lon":5.38703,"is_reserved":false,"is_disabled":false,"rental_uris":{"android":"levelo://app?vid=3f625a0c-3432-4ae7-800a-63b5fd7f457a","ios":"levelo://app?vid=3f625a0c-3432-4ae7-800a-63b5fd7f457a"},"vehicle_type_id":"4","last_reported":1777266855,"current_range_meters":6800,"station_id":"ce4bhh92rcd13ifvqfh0","pricing_plan_id":"cebpf4jnsgd1na2vs0mg"},{"bike_id":"fd583349-9e7d-4e5b-8155-1da1a7a44b99","system_id":"levelo_inurba_marseille","lat":43.27942,"lon":5.41062,"is_reserved":false,"is_disabled":false,"rental_uris":{"android":"levelo://app?vid=fd583349-9e7d-4e5b-8155-1da1a7a44b99","ios":"levelo://app?vid=fd583349-9e7d-4e5b-8155-1da1a7a44b99"},"vehicle_type_id":"4","last_reported":1777266855,"current_range_meters":6800,"station_id":"ce4bhnp2rcd13ifvqh0g","pricing_plan_id":"cebpf4jnsgd1na2vs0mg"},{"bike_id":"2e734499-6f00-499b-90dc-b3f3e3caf0ee","system_id":"levelo_inurba_marseille","lat":43.28915,"lon":5.38391,"is_reserved":false,"is_disabled":true,"rental_uris":{"android":"levelo://app?vid=2e734499-6f00-499b-90dc-b3f3e3caf0ee","ios":"levelo://app?vid=2e734499-6f00-499b-90dc-b3f3e3caf0ee"},"vehicle_type_id":"4","last_reported":1777266855,"current_range_meters":6800,"station_id":"ce4bh612rcd13ifvqe6g","pricing_plan_id":"cebpf4jnsgd1na2vs0mg"},{"bike_id":"c6941364-0b3e-415d-827c-e48038694e60","system_id":"levelo_inurba_marseille","lat":43.30762,"lon":5.43533,"is_reserved":false,"is_disabled":false,"rental_uris":{"android":"levelo://app?vid=c6941364-0b3e-415d-827c-e48038694e60","ios":"levelo://app?vid=c6941364-0b3e-415d-827c-e48038694e60"},"vehicle_type_id":"4","last_reported":1777266855,"current_range_meters":6800,"station_id":"","pricing_plan_id":"cebpf4jnsgd1na2vs0mg"},{"bike_id":"55d65c85-28be-4ca9-8993-0e7f9e694f92","system_id":"levelo_inurba_marseille","lat":43.30322,"lon":5.40441,"is_reserved":false,"is_disabled":false,"rental_uris":{"android":"levelo://app?vid=55d65c85-28be-4ca9-8993-0e7f9e694f92","ios":"levelo://app?vid=55d65c85-28be-4ca9-8993-0e7f9e694f92"},"vehicle_type_id":"4","last_reported":1777266855,"current_range_meters":6800,"station_id":"ce4bh012rcd13ifvqd10","pricing_plan_id":"cebpf4jnsgd1na2vs0mg"},{"bike_id":"11560fe7-fea0-4469-a766-85729ac61a00","system_id":"levelo_inurba_marseille","lat":43.24646,"lon":5.43147,"is_reserved":false,"is_disabled":false,"rental_uris":{"android":"levelo://app?vid=11560fe7-fea0-4469-a766-85729ac61a00","ios":"levelo://app?vid=11560fe7-fea0-4469-a766-85729ac61a00"},"vehicle_type_id":"4","last_reported":1777266855,"current_range_meters":6800,"station_id":"st_d2m6c4gdas8pm72e190g","pricing_plan_id":"cebpf4jnsgd1na2vs0mg"},{"bike_id":"64b33474-fde7-4e18-8b51-1641db453f68","system_id":"levelo_inurba_marseille","lat":43.32281,"lon":5.3831,"is_reserved":false,"is_disabled":false,"rental_uris":{"android":"levelo://app?vid=64b33474-fde7-4e18-8b51-1641db453f68","ios":"levelo://app?vid=64b33474-fde7-4e18-8b51-1641db453f68"},"vehicle_type_id":"4","last_reported":1777266855,"current_range_meters":6800,"station_id":"ce4bhr12rcd13ifvqhqg","pricing_plan_id":"cebpf4jnsgd1na2vs0mg"},{"bike_id":"0ac6fe75-176f-47ca-97df-dc3691075e50","system_id":"levelo_inurba_marseille","lat":43.24824,"lon":5.37469,"is_reserved":false,"is_disabled":false,"rental_uris":{"android":"levelo://app?vid=0ac6fe75-176f-47ca-97df-dc3691075e50","ios":"levelo://app?vid=0ac6fe75-176f-47ca-97df-dc3691075e50"},"vehicle_type_id":"4","last_reported":1777266855,"current_range_meters":6800,"station_id":"ce4bhgh2rcd13ifvqfb0","pricing_plan_id":"cebpf4jnsgd1na2vs0mg"},{"bike_id":"867e4efb-03e8-466f-a027-d873140a375d","system_id":"levelo_inurba_marseille","lat":43.24815,"lon":5.37464,"is_reserved":false,"is_disabled":false,"rental_uris":{"android":"levelo://app?vid=867e4efb-03e8-466f-a027-d873140a375d","ios":"levelo://app?vid=867e4efb-03e8-466f-a027-d873140a375d"},"vehicle_type_id":"4","last_reported":1777266855,"current_range_meters":6800,"station_id":"ce4bhgh2rcd13ifvqfb0","pricing_plan_id":"cebpf4jnsgd1na2vs0mg"},{"bike_id":"2ecb7814-e231-4e51-a3ee-b3315f0bc596","system_id":"levelo_inurba_marseille","lat":43.25574,"lon":5.38244,"is_reserved":false,"is_disabled":false,"rental_uris":{"android":"levelo://app?vid=2ecb7814-e231-4e51-a3ee-b3315f0bc596","ios":"levelo://app?vid=2ecb7814-e231-4e51-a3ee-b3315f0bc596"},"vehicle_type_id":"4","last_reported":1777266855,"current_range_meters":6800,"station_id":"ce4bhih2rcd13ifvqfs0","pricing_plan_id":"cebpf4jnsgd1na2vs0mg"},{"bike_id":"ac97a0f3-8249-4825-814a-f3df98dbdbc2","system_id":"levelo_inurba_marseille","lat":43.28922,"lon":5.38405,"is_reserved":false,"is_disabled":false,"rental_uris":{"android":"levelo://app?vid=ac97a0f3-8249-4825-814a-f3df98dbdbc2","ios":"levelo://app?vid=ac97a0f3-8249-4825-814a-f3df98dbdbc2"},"vehicle_type_id":"4","last_reported":1777266855,"current_range_meters":7200,"station_id":"ce4bh612rcd13ifvqe6g","pricing_plan_id":"cebpf4jnsgd1na2vs0mg"},{"bike_id":"b283f812-8f72-4e36-9652-6e08f26289b1","system_id":"levelo_inurba_marseille","lat":43.28398,"lon":5.37535,"is_reserved":false,"is_disabled":false,"rental_uris":{"android":"levelo://app?vid=b283f812-8f72-4e36-9652-6e08f26289b1","ios":"levelo://app?vid=b283f812-8f72-4e36-9652-6e08f26289b1"},"vehicle_type_id":"4","last_reported":1777266855,"current_range_meters":7200,"station_id":"ce4bh412rcd13ifvqds0","pricing_plan_id":"cebpf4jnsgd1na2vs0mg"},{"bike_id":"27cd71a7-0940-4415-a67f-21597fbf1cd9","system_id":"levelo_inurba_marseille","lat":43.3448,"lon":5.37813,"is_reserved":false,"is_disabled":false,"rental_uris":{"android":"levelo://app?vid=27cd71a7-0940-4415-a67f-21597fbf1cd9","ios":"levelo://app?vid=27cd71a7-0940-4415-a67f-21597fbf1cd9"},"vehicle_type_id":"4","last_reported":1777266855,"current_range_meters":7200,"station_id":"","pricing_plan_id":"cebpf4jnsgd1na2vs0mg"},{"bike_id":"73ba8919-326f-4d88-92ea-75f41c911292","system_id":"levelo_inurba_marseille","lat":43.29026,"lon":5.38643,"is_reserved":false,"is_disabled":false,"rental_uris":{"android":"levelo://app?vid=73ba8919-326f-4d88-92ea-75f41c911292","ios":"levelo://app?vid=73ba8919-326f-4d88-92ea-75f41c911292"},"vehicle_type_id":"4","last_reported":1777266855,"current_range_meters":7200,"station_id":"ce4bh4p2rcd13ifvqe0g","pricing_plan_id":"cebpf4jnsgd1na2vs0mg"},{"bike_id":"fbf4882e-159d-4ca6-82a9-b10d0d0d148d","system_id":"levelo_inurba_marseille","lat":43.28615,"lon":5.39869,"is_reserved":false,"is_disabled":false,"rental_uris":{"android":"levelo://app?vid=fbf4882e-159d-4ca6-82a9-b10d0d0d148d","ios":"levelo://app?vid=fbf4882e-159d-4ca6-82a9-b10d0d0d148d"},"vehicle_type_id":"4","last_reported":1777266855,"current_range_meters":7200,"station_id":"st_d4a7ka997mjs738ck50g","pricing_plan_id":"cebpf4jnsgd1na2vs0mg"},{"bike_id":"ef108c04-2858-41f7-9596-e92449298e7b","system_id":"levelo_inurba_marseille","lat":43.295409,"lon":5.374998,"is_reserved":false,"is_disabled":false,"rental_uris":{"android":"levelo://app?vid=ef108c04-2858-41f7-9596-e92449298e7b","ios":"levelo://app?vid=ef108c04-2858-41f7-9596-e92449298e7b"},"vehicle_type_id":"4","last_reported":1777266855,"current_range_meters":7200,"station_id":"ce4bgkp2rcd13ifvqbmg","pricing_plan_id":"cebpf4jnsgd1na2vs0mg"},{"bike_id":"6f5fe14d-f920-4085-b2c7-9be3a39a1eca","system_id":"levelo_inurba_marseille","lat":43.30342,"lon":5.41917,"is_reserved":false,"is_disabled":false,"rental_uris":{"android":"levelo://app?vid=6f5fe14d-f920-4085-b2c7-9be3a39a1eca","ios":"levelo://app?vid=6f5fe14d-f920-4085-b2c7-9be3a39a1eca"},"vehicle_type_id":"4","last_reported":1777266855,"current_range_meters":7200,"station_id":"","pricing_plan_id":"cebpf4jnsgd1na2vs0mg"},{"bike_id":"e71479ac-2c75-4920-9d3c-08826be0b2df","system_id":"levelo_inurba_marseille","lat":43.28863,"lon":5.42521,"is_reserved":false,"is_disabled":false,"rental_uris":{"android":"levelo://app?vid=e71479ac-2c75-4920-9d3c-08826be0b2df","ios":"levelo://app?vid=e71479ac-2c75-4920-9d3c-08826be0b2df"},"vehicle_type_id":"4","last_reported":1777266855,"current_range_meters":7200,"station_id":"st_d3b462108ojc7389ooeg","pricing_plan_id":"cebpf4jnsgd1na2vs0mg"},{"bike_id":"ad06fbeb-2893-47bd-9310-693ccba410e9","system_id":"levelo_inurba_marseille","lat":43.28763,"lon":5.46823,"is_reserved":false,"is_disabled":false,"rental_uris":{"android":"levelo://app?vid=ad06fbeb-2893-47bd-9310-693ccba410e9","ios":"levelo://app?vid=ad06fbeb-2893-47bd-9310-693ccba410e9"},"vehicle_type_id":"4","last_reported":1777266855,"current_range_meters":7200,"station_id":"","pricing_plan_id":"cebpf4jnsgd1na2vs0mg"},{"bike_id":"cf4537a9-051c-4080-9a3f-93f632ce0082","system_id":"levelo_inurba_marseille","lat":43.337444,"lon":5.374475,"is_reserved":false,"is_disabled":false,"rental_uris":{"android":"levelo://app?vid=cf4537a9-051c-4080-9a3f-93f632ce0082","ios":"levelo://app?vid=cf4537a9-051c-4080-9a3f-93f632ce0082"},"vehicle_type_id":"4","last_reported":1777266855,"current_range_meters":7200,"station_id":"","pricing_plan_id":"cebpf4jnsgd1na2vs0mg"},{"bike_id":"17f5223a-84d1-46d9-b55d-6a7e95a08bd7","system_id":"levelo_inurba_marseille","lat":43.24809,"lon":5.37462,"is_reserved":false,"is_disabled":false,"rental_uris":{"android":"levelo://app?vid=17f5223a-84d1-46d9-b55d-6a7e95a08bd7","ios":"levelo://app?vid=17f5223a-84d1-46d9-b55d-6a7e95a08bd7"},"vehicle_type_id":"4","last_reported":1777266855,"current_range_meters":7200,"station_id":"ce4bhgh2rcd13ifvqfb0","pricing_plan_id":"cebpf4jnsgd1na2vs0mg"},{"bike_id":"d1063a8e-a667-4f9b-9166-4b2ea1244e5f","system_id":"levelo_inurba_marseille","lat":43.24801,"lon":5.37452,"is_reserved":false,"is_disabled":false,"rental_uris":{"android":"levelo://app?vid=d1063a8e-a667-4f9b-9166-4b2ea1244e5f","ios":"levelo://app?vid=d1063a8e-a667-4f9b-9166-4b2ea1244e5f"},"vehicle_type_id":"4","last_reported":1777266855,"current_range_meters":7200,"station_id":"ce4bhgh2rcd13ifvqfb0","pricing_plan_id":"cebpf4jnsgd1na2vs0mg"},{"bike_id":"c0f5f883-626c-43d0-ae77-4136fc8c4248","system_id":"levelo_inurba_marseille","lat":43.29027,"lon":5.3757,"is_reserved":false,"is_disabled":true,"rental_uris":{"android":"levelo://app?vid=c0f5f883-626c-43d0-ae77-4136fc8c4248","ios":"levelo://app?vid=c0f5f883-626c-43d0-ae77-4136fc8c4248"},"vehicle_type_id":"4","last_reported":1777266855,"current_range_meters":7200,"station_id":"ce4bh692rcd13ifvqe90","pricing_plan_id":"cebpf4jnsgd1na2vs0mg"},{"bike_id":"11effbb2-3489-4e85-aec9-0e018fcdcc03","system_id":"levelo_inurba_marseille","lat":43.23192,"lon":5.35551,"is_reserved":false,"is_disabled":false,"rental_uris":{"android":"levelo://app?vid=11effbb2-3489-4e85-aec9-0e018fcdcc03","ios":"levelo://app?vid=11effbb2-3489-4e85-aec9-0e018fcdcc03"},"vehicle_type_id":"4","last_reported":1777266855,"current_range_meters":7200,"station_id":"ce4bhu92rcd13ifvqi70","pricing_plan_id":"cebpf4jnsgd1na2vs0mg"},{"bike_id":"c11d1808-32dc-4683-bc6f-c818ed8e14de","system_id":"levelo_inurba_marseille","lat":43.2749,"lon":5.42486,"is_reserved":false,"is_disabled":true,"rental_uris":{"android":"levelo://app?vid=c11d1808-32dc-4683-bc6f-c818ed8e14de","ios":"levelo://app?vid=c11d1808-32dc-4683-bc6f-c818ed8e14de"},"vehicle_type_id":"4","last_reported":1777266855,"current_range_meters":7200,"station_id":"ce4bhn92rcd13ifvqgrg","pricing_plan_id":"cebpf4jnsgd1na2vs0mg"},{"bike_id":"a9335f62-4c73-44b2-8914-e3f52e6941ca","system_id":"levelo_inurba_marseille","lat":43.32093,"lon":5.36789,"is_reserved":false,"is_disabled":false,"rental_uris":{"android":"levelo://app?vid=a9335f62-4c73-44b2-8914-e3f52e6941ca","ios":"levelo://app?vid=a9335f62-4c73-44b2-8914-e3f52e6941ca"},"vehicle_type_id":"4","last_reported":1777266855,"current_range_meters":7200,"station_id":"ce4bhrh2rcd13ifvqhug","pricing_plan_id":"cebpf4jnsgd1na2vs0mg"},{"bike_id":"93378c7e-8a33-4e07-ab2a-fc9cc927fe7a","system_id":"levelo_inurba_marseille","lat":43.28853,"lon":5.39332,"is_reserved":false,"is_disabled":true,"rental_uris":{"android":"levelo://app?vid=93378c7e-8a33-4e07-ab2a-fc9cc927fe7a","ios":"levelo://app?vid=93378c7e-8a33-4e07-ab2a-fc9cc927fe7a"},"vehicle_type_id":"4","last_reported":1777266855,"current_range_meters":7200,"station_id":"ce4bh2p2rcd13ifvqdi0","pricing_plan_id":"cebpf4jnsgd1na2vs0mg"},{"bike_id":"7c41d2ae-5fd6-4d27-92e2-49a44a84ab68","system_id":"levelo_inurba_marseille","lat":43.30795,"lon":5.38216,"is_reserved":false,"is_disabled":false,"rental_uris":{"android":"levelo://app?vid=7c41d2ae-5fd6-4d27-92e2-49a44a84ab68","ios":"levelo://app?vid=7c41d2ae-5fd6-4d27-92e2-49a44a84ab68"},"vehicle_type_id":"4","last_reported":1777266855,"current_range_meters":7200,"station_id":"","pricing_plan_id":"cebpf4jnsgd1na2vs0mg"},{"bike_id":"8050b833-adef-43e8-8f24-94a8d1b4458b","system_id":"levelo_inurba_marseille","lat":43.27499,"lon":5.42487,"is_reserved":false,"is_disabled":true,"rental_uris":{"android":"levelo://app?vid=8050b833-adef-43e8-8f24-94a8d1b4458b","ios":"levelo://app?vid=8050b833-adef-43e8-8f24-94a8d1b4458b"},"vehicle_type_id":"4","last_reported":1777266855,"current_range_meters":7200,"station_id":"ce4bhn92rcd13ifvqgrg","pricing_plan_id":"cebpf4jnsgd1na2vs0mg"},{"bike_id":"07dd1776-73df-417c-87ab-2ed61da40beb","system_id":"levelo_inurba_marseille","lat":43.28315,"lon":5.38107,"is_reserved":false,"is_disabled":false,"rental_uris":{"android":"levelo://app?vid=07dd1776-73df-417c-87ab-2ed61da40beb","ios":"levelo://app?vid=07dd1776-73df-417c-87ab-2ed61da40beb"},"vehicle_type_id":"4","last_reported":1777266855,"current_range_meters":7200,"station_id":"ce4bh412rcd13ifvqdr0","pricing_plan_id":"cebpf4jnsgd1na2vs0mg"},{"bike_id":"76e100a0-77f6-48f6-b3d7-3eb9a98d4d51","system_id":"levelo_inurba_marseille","lat":43.29196,"lon":5.39321,"is_reserved":false,"is_disabled":false,"rental_uris":{"android":"levelo://app?vid=76e100a0-77f6-48f6-b3d7-3eb9a98d4d51","ios":"levelo://app?vid=76e100a0-77f6-48f6-b3d7-3eb9a98d4d51"},"vehicle_type_id":"4","last_reported":1777266855,"current_range_meters":7200,"station_id":"ce4bh192rcd13ifvqdd0","pricing_plan_id":"cebpf4jnsgd1na2vs0mg"},{"bike_id":"2c7eb658-56be-4bb0-a636-8bca8812996a","system_id":"levelo_inurba_marseille","lat":43.30797,"lon":5.38167,"is_reserved":false,"is_disabled":false,"rental_uris":{"android":"levelo://app?vid=2c7eb658-56be-4bb0-a636-8bca8812996a","ios":"levelo://app?vid=2c7eb658-56be-4bb0-a636-8bca8812996a"},"vehicle_type_id":"4","last_reported":1777266855,"current_range_meters":7200,"station_id":"ce4bgt12rcd13ifvqce0","pricing_plan_id":"cebpf4jnsgd1na2vs0mg"},{"bike_id":"706ecd89-bafe-46bb-8b99-a5d007005819","system_id":"levelo_inurba_marseille","lat":43.24822,"lon":5.37463,"is_reserved":false,"is_disabled":false,"rental_uris":{"android":"levelo://app?vid=706ecd89-bafe-46bb-8b99-a5d007005819","ios":"levelo://app?vid=706ecd89-bafe-46bb-8b99-a5d007005819"},"vehicle_type_id":"4","last_reported":1777266855,"current_range_meters":8000,"station_id":"ce4bhgh2rcd13ifvqfb0","pricing_plan_id":"cebpf4jnsgd1na2vs0mg"},{"bike_id":"91e4eed8-7aa0-4ca6-bc8b-33ffc5693469","system_id":"levelo_inurba_marseille","lat":43.31334,"lon":5.37908,"is_reserved":false,"is_disabled":false,"rental_uris":{"android":"levelo://app?vid=91e4eed8-7aa0-4ca6-bc8b-33ffc5693469","ios":"levelo://app?vid=91e4eed8-7aa0-4ca6-bc8b-33ffc5693469"},"vehicle_type_id":"4","last_reported":1777266855,"current_range_meters":8000,"station_id":"","pricing_plan_id":"cebpf4jnsgd1na2vs0mg"},{"bike_id":"45f5c63f-7cf8-42e6-8f85-3cf0002a697f","system_id":"levelo_inurba_marseille","lat":43.28736,"lon":5.37951,"is_reserved":false,"is_disabled":false,"rental_uris":{"android":"levelo://app?vid=45f5c63f-7cf8-42e6-8f85-3cf0002a697f","ios":"levelo://app?vid=45f5c63f-7cf8-42e6-8f85-3cf0002a697f"},"vehicle_type_id":"4","last_reported":1777266855,"current_range_meters":8000,"station_id":"ce4bh9p2rcd13ifvqec0","pricing_plan_id":"cebpf4jnsgd1na2vs0mg"},{"bike_id":"32d8062d-b01e-46bc-92b9-65d5fbd8fc06","system_id":"levelo_inurba_marseille","lat":43.23972,"lon":5.36633,"is_reserved":false,"is_disabled":false,"rental_uris":{"android":"levelo://app?vid=32d8062d-b01e-46bc-92b9-65d5fbd8fc06","ios":"levelo://app?vid=32d8062d-b01e-46bc-92b9-65d5fbd8fc06"},"vehicle_type_id":"4","last_reported":1777266855,"current_range_meters":8000,"station_id":"ce4bhi12rcd13ifvqfp0","pricing_plan_id":"cebpf4jnsgd1na2vs0mg"},{"bike_id":"a17a356a-6340-4eae-b4d5-d59f3247dda3","system_id":"levelo_inurba_marseille","lat":43.25992,"lon":5.39236,"is_reserved":false,"is_disabled":false,"rental_uris":{"android":"levelo://app?vid=a17a356a-6340-4eae-b4d5-d59f3247dda3","ios":"levelo://app?vid=a17a356a-6340-4eae-b4d5-d59f3247dda3"},"vehicle_type_id":"4","last_reported":1777266855,"current_range_meters":8000,"station_id":"","pricing_plan_id":"cebpf4jnsgd1na2vs0mg"},{"bike_id":"ba38b67a-5523-4a8f-8293-f5841702b18a","system_id":"levelo_inurba_marseille","lat":43.2938,"lon":5.38589,"is_reserved":false,"is_disabled":false,"rental_uris":{"android":"levelo://app?vid=ba38b67a-5523-4a8f-8293-f5841702b18a","ios":"levelo://app?vid=ba38b67a-5523-4a8f-8293-f5841702b18a"},"vehicle_type_id":"4","last_reported":1777266855,"current_range_meters":8000,"station_id":"","pricing_plan_id":"cebpf4jnsgd1na2vs0mg"},{"bike_id":"6b5b9e45-67f3-4a64-a294-ead66e30dbef","system_id":"levelo_inurba_marseille","lat":43.24686,"lon":5.38168,"is_reserved":false,"is_disabled":false,"rental_uris":{"android":"levelo://app?vid=6b5b9e45-67f3-4a64-a294-ead66e30dbef","ios":"levelo://app?vid=6b5b9e45-67f3-4a64-a294-ead66e30dbef"},"vehicle_type_id":"4","last_reported":1777266855,"current_range_meters":8000,"station_id":"ce4bhih2rcd13ifvqfr0","pricing_plan_id":"cebpf4jnsgd1na2vs0mg"},{"bike_id":"ad26b8dc-edee-444c-8fc3-cb83169b331a","system_id":"levelo_inurba_marseille","lat":43.28132,"lon":5.42686,"is_reserved":false,"is_disabled":false,"rental_uris":{"android":"levelo://app?vid=ad26b8dc-edee-444c-8fc3-cb83169b331a","ios":"levelo://app?vid=ad26b8dc-edee-444c-8fc3-cb83169b331a"},"vehicle_type_id":"4","last_reported":1777266855,"current_range_meters":8000,"station_id":"ce4bhnh2rcd13ifvqgug","pricing_plan_id":"cebpf4jnsgd1na2vs0mg"},{"bike_id":"50f8bdff-b169-44f8-8920-840c94d5e30a","system_id":"levelo_inurba_marseille","lat":43.28482,"lon":5.48389,"is_reserved":false,"is_disabled":true,"rental_uris":{"android":"levelo://app?vid=50f8bdff-b169-44f8-8920-840c94d5e30a","ios":"levelo://app?vid=50f8bdff-b169-44f8-8920-840c94d5e30a"},"vehicle_type_id":"4","last_reported":1777266855,"current_range_meters":8000,"station_id":"","pricing_plan_id":"cebpf4jnsgd1na2vs0mg"},{"bike_id":"87cd7e17-2d6d-448b-a06c-c67518e891dc","system_id":"levelo_inurba_marseille","lat":43.27833,"lon":5.39211,"is_reserved":false,"is_disabled":false,"rental_uris":{"android":"levelo://app?vid=87cd7e17-2d6d-448b-a06c-c67518e891dc","ios":"levelo://app?vid=87cd7e17-2d6d-448b-a06c-c67518e891dc"},"vehicle_type_id":"4","last_reported":1777266855,"current_range_meters":8000,"station_id":"ce4bhjp2rcd13ifvqga0","pricing_plan_id":"cebpf4jnsgd1na2vs0mg"},{"bike_id":"2725b0c0-a653-43ae-bc24-ce0141576499","system_id":"levelo_inurba_marseille","lat":43.30129,"lon":5.43118,"is_reserved":false,"is_disabled":false,"rental_uris":{"android":"levelo://app?vid=2725b0c0-a653-43ae-bc24-ce0141576499","ios":"levelo://app?vid=2725b0c0-a653-43ae-bc24-ce0141576499"},"vehicle_type_id":"4","last_reported":1777266855,"current_range_meters":8000,"station_id":"st_d3js3co5814s73ftftug","pricing_plan_id":"cebpf4jnsgd1na2vs0mg"},{"bike_id":"5f507e31-3dd6-447e-a9b5-15992546554f","system_id":"levelo_inurba_marseille","lat":43.28154,"lon":5.42642,"is_reserved":false,"is_disabled":false,"rental_uris":{"android":"levelo://app?vid=5f507e31-3dd6-447e-a9b5-15992546554f","ios":"levelo://app?vid=5f507e31-3dd6-447e-a9b5-15992546554f"},"vehicle_type_id":"4","last_reported":1777266855,"current_range_meters":8000,"station_id":"ce4bhnh2rcd13ifvqgug","pricing_plan_id":"cebpf4jnsgd1na2vs0mg"},{"bike_id":"6eca144a-174f-4056-9588-6103781a995e","system_id":"levelo_inurba_marseille","lat":43.3079,"lon":5.38161,"is_reserved":false,"is_disabled":false,"rental_uris":{"android":"levelo://app?vid=6eca144a-174f-4056-9588-6103781a995e","ios":"levelo://app?vid=6eca144a-174f-4056-9588-6103781a995e"},"vehicle_type_id":"4","last_reported":1777266855,"current_range_meters":8000,"station_id":"ce4bgt12rcd13ifvqce0","pricing_plan_id":"cebpf4jnsgd1na2vs0mg"},{"bike_id":"4b49ab9b-eeca-4117-b1e9-4b53277a58b0","system_id":"levelo_inurba_marseille","lat":43.2319,"lon":5.3556,"is_reserved":false,"is_disabled":true,"rental_uris":{"android":"levelo://app?vid=4b49ab9b-eeca-4117-b1e9-4b53277a58b0","ios":"levelo://app?vid=4b49ab9b-eeca-4117-b1e9-4b53277a58b0"},"vehicle_type_id":"4","last_reported":1777266855,"current_range_meters":8000,"station_id":"ce4bhu92rcd13ifvqi70","pricing_plan_id":"cebpf4jnsgd1na2vs0mg"},{"bike_id":"2768b254-100f-4f21-93b4-59c9565aaf35","system_id":"levelo_inurba_marseille","lat":43.30169,"lon":5.39172,"is_reserved":false,"is_disabled":false,"rental_uris":{"android":"levelo://app?vid=2768b254-100f-4f21-93b4-59c9565aaf35","ios":"levelo://app?vid=2768b254-100f-4f21-93b4-59c9565aaf35"},"vehicle_type_id":"4","last_reported":1777266855,"current_range_meters":8000,"station_id":"","pricing_plan_id":"cebpf4jnsgd1na2vs0mg"},{"bike_id":"00bdc8fa-ea04-4585-a7f2-5f352694ba2d","system_id":"levelo_inurba_marseille","lat":43.27943,"lon":5.38717,"is_reserved":false,"is_disabled":false,"rental_uris":{"android":"levelo://app?vid=00bdc8fa-ea04-4585-a7f2-5f352694ba2d","ios":"levelo://app?vid=00bdc8fa-ea04-4585-a7f2-5f352694ba2d"},"vehicle_type_id":"4","last_reported":1777266855,"current_range_meters":8000,"station_id":"ce4bhg12rcd13ifvqf80","pricing_plan_id":"cebpf4jnsgd1na2vs0mg"},{"bike_id":"cfa40bf7-7c5f-4567-b9c8-9841fba1763e","system_id":"levelo_inurba_marseille","lat":43.26549,"lon":5.40328,"is_reserved":false,"is_disabled":false,"rental_uris":{"android":"levelo://app?vid=cfa40bf7-7c5f-4567-b9c8-9841fba1763e","ios":"levelo://app?vid=cfa40bf7-7c5f-4567-b9c8-9841fba1763e"},"vehicle_type_id":"4","last_reported":1777266855,"current_range_meters":8000,"station_id":"ce4bhmp2rcd13ifvqgng","pricing_plan_id":"cebpf4jnsgd1na2vs0mg"},{"bike_id":"a04ab4c7-ba98-45c6-b83e-a919e77931f8","system_id":"levelo_inurba_marseille","lat":43.24649,"lon":5.38166,"is_reserved":false,"is_disabled":false,"rental_uris":{"android":"levelo://app?vid=a04ab4c7-ba98-45c6-b83e-a919e77931f8","ios":"levelo://app?vid=a04ab4c7-ba98-45c6-b83e-a919e77931f8"},"vehicle_type_id":"4","last_reported":1777266855,"current_range_meters":8000,"station_id":"ce4bhih2rcd13ifvqfr0","pricing_plan_id":"cebpf4jnsgd1na2vs0mg"},{"bike_id":"46669cb3-7b5d-415b-9e2b-bdd4dd046030","system_id":"levelo_inurba_marseille","lat":43.2869,"lon":5.37413,"is_reserved":false,"is_disabled":false,"rental_uris":{"android":"levelo://app?vid=46669cb3-7b5d-415b-9e2b-bdd4dd046030","ios":"levelo://app?vid=46669cb3-7b5d-415b-9e2b-bdd4dd046030"},"vehicle_type_id":"4","last_reported":1777266855,"current_range_meters":8000,"station_id":"ce4bh3p2rcd13ifvqdq0","pricing_plan_id":"cebpf4jnsgd1na2vs0mg"},{"bike_id":"a7f4a438-20bd-441f-8435-cac5f23c42b7","system_id":"levelo_inurba_marseille","lat":43.28729,"lon":5.37947,"is_reserved":false,"is_disabled":false,"rental_uris":{"android":"levelo://app?vid=a7f4a438-20bd-441f-8435-cac5f23c42b7","ios":"levelo://app?vid=a7f4a438-20bd-441f-8435-cac5f23c42b7"},"vehicle_type_id":"4","last_reported":1777266855,"current_range_meters":8000,"station_id":"ce4bh9p2rcd13ifvqec0","pricing_plan_id":"cebpf4jnsgd1na2vs0mg"},{"bike_id":"d385c7f6-ecb5-481c-9825-7d862bff6653","system_id":"levelo_inurba_marseille","lat":43.28614,"lon":5.39886,"is_reserved":false,"is_disabled":false,"rental_uris":{"android":"levelo://app?vid=d385c7f6-ecb5-481c-9825-7d862bff6653","ios":"levelo://app?vid=d385c7f6-ecb5-481c-9825-7d862bff6653"},"vehicle_type_id":"4","last_reported":1777266855,"current_range_meters":8400,"station_id":"st_d4a7ka997mjs738ck50g","pricing_plan_id":"cebpf4jnsgd1na2vs0mg"},{"bike_id":"2472f9fe-bfa0-4ed4-9a54-de268c7de137","system_id":"levelo_inurba_marseille","lat":43.29922,"lon":5.38109,"is_reserved":false,"is_disabled":true,"rental_uris":{"android":"levelo://app?vid=2472f9fe-bfa0-4ed4-9a54-de268c7de137","ios":"levelo://app?vid=2472f9fe-bfa0-4ed4-9a54-de268c7de137"},"vehicle_type_id":"4","last_reported":1777266855,"current_range_meters":8400,"station_id":"ce4bgj12rcd13ifvqbc0","pricing_plan_id":"cebpf4jnsgd1na2vs0mg"},{"bike_id":"e091c86c-a127-4c28-becb-7f31b8f94fcb","system_id":"levelo_inurba_marseille","lat":43.28852,"lon":5.39313,"is_reserved":false,"is_disabled":true,"rental_uris":{"android":"levelo://app?vid=e091c86c-a127-4c28-becb-7f31b8f94fcb","ios":"levelo://app?vid=e091c86c-a127-4c28-becb-7f31b8f94fcb"},"vehicle_type_id":"4","last_reported":1777266855,"current_range_meters":8400,"station_id":"ce4bh2p2rcd13ifvqdi0","pricing_plan_id":"cebpf4jnsgd1na2vs0mg"},{"bike_id":"c5e4557e-a579-4ba0-b540-76be6c2c51d2","system_id":"levelo_inurba_marseille","lat":43.26948,"lon":5.40264,"is_reserved":false,"is_disabled":true,"rental_uris":{"android":"levelo://app?vid=c5e4557e-a579-4ba0-b540-76be6c2c51d2","ios":"levelo://app?vid=c5e4557e-a579-4ba0-b540-76be6c2c51d2"},"vehicle_type_id":"4","last_reported":1777266855,"current_range_meters":8400,"station_id":"cjm6bp8fraef2m0cb0m0","pricing_plan_id":"cebpf4jnsgd1na2vs0mg"},{"bike_id":"5c6dbc22-6dc1-4a74-95d1-677c3ccf7a7b","system_id":"levelo_inurba_marseille","lat":43.29935,"lon":5.36546,"is_reserved":false,"is_disabled":true,"rental_uris":{"android":"levelo://app?vid=5c6dbc22-6dc1-4a74-95d1-677c3ccf7a7b","ios":"levelo://app?vid=5c6dbc22-6dc1-4a74-95d1-677c3ccf7a7b"},"vehicle_type_id":"4","last_reported":1777266855,"current_range_meters":8400,"station_id":"ce4bgm92rcd13ifvqbr0","pricing_plan_id":"cebpf4jnsgd1na2vs0mg"},{"bike_id":"11a5074f-be5e-43a9-8f56-2fea90effe08","system_id":"levelo_inurba_marseille","lat":43.24549,"lon":5.39547,"is_reserved":false,"is_disabled":false,"rental_uris":{"android":"levelo://app?vid=11a5074f-be5e-43a9-8f56-2fea90effe08","ios":"levelo://app?vid=11a5074f-be5e-43a9-8f56-2fea90effe08"},"vehicle_type_id":"4","last_reported":1777266855,"current_range_meters":8400,"station_id":"ce4bhlp2rcd13ifvqgjg","pricing_plan_id":"cebpf4jnsgd1na2vs0mg"},{"bike_id":"d68cd392-a214-40e4-8e5f-e39fa567524a","system_id":"levelo_inurba_marseille","lat":43.30166,"lon":5.37419,"is_reserved":false,"is_disabled":true,"rental_uris":{"android":"levelo://app?vid=d68cd392-a214-40e4-8e5f-e39fa567524a","ios":"levelo://app?vid=d68cd392-a214-40e4-8e5f-e39fa567524a"},"vehicle_type_id":"4","last_reported":1777266855,"current_range_meters":8400,"station_id":"ce4bgs92rcd13ifvqcc0","pricing_plan_id":"cebpf4jnsgd1na2vs0mg"},{"bike_id":"36835b9d-3b46-45e2-8a47-f3664de7ffc3","system_id":"levelo_inurba_marseille","lat":43.29019,"lon":5.38635,"is_reserved":false,"is_disabled":false,"rental_uris":{"android":"levelo://app?vid=36835b9d-3b46-45e2-8a47-f3664de7ffc3","ios":"levelo://app?vid=36835b9d-3b46-45e2-8a47-f3664de7ffc3"},"vehicle_type_id":"4","last_reported":1777266855,"current_range_meters":8400,"station_id":"ce4bh4p2rcd13ifvqe0g","pricing_plan_id":"cebpf4jnsgd1na2vs0mg"},{"bike_id":"0d8c3362-be20-49ce-8a46-7df1fa0c42ea","system_id":"levelo_inurba_marseille","lat":43.24834,"lon":5.37447,"is_reserved":false,"is_disabled":false,"rental_uris":{"android":"levelo://app?vid=0d8c3362-be20-49ce-8a46-7df1fa0c42ea","ios":"levelo://app?vid=0d8c3362-be20-49ce-8a46-7df1fa0c42ea"},"vehicle_type_id":"4","last_reported":1777266855,"current_range_meters":8400,"station_id":"ce4bhgh2rcd13ifvqfb0","pricing_plan_id":"cebpf4jnsgd1na2vs0mg"},{"bike_id":"95de8394-db1e-40fc-b0cf-525b71cab227","system_id":"levelo_inurba_marseille","lat":43.29524,"lon":5.37517,"is_reserved":false,"is_disabled":true,"rental_uris":{"android":"levelo://app?vid=95de8394-db1e-40fc-b0cf-525b71cab227","ios":"levelo://app?vid=95de8394-db1e-40fc-b0cf-525b71cab227"},"vehicle_type_id":"4","last_reported":1777266855,"current_range_meters":8400,"station_id":"ce4bgkp2rcd13ifvqbmg","pricing_plan_id":"cebpf4jnsgd1na2vs0mg"},{"bike_id":"15d9bd7c-a3b4-4d01-b24e-a2c28f408df7","system_id":"levelo_inurba_marseille","lat":43.29293,"lon":5.38412,"is_reserved":false,"is_disabled":false,"rental_uris":{"android":"levelo://app?vid=15d9bd7c-a3b4-4d01-b24e-a2c28f408df7","ios":"levelo://app?vid=15d9bd7c-a3b4-4d01-b24e-a2c28f408df7"},"vehicle_type_id":"4","last_reported":1777266855,"current_range_meters":8400,"station_id":"ce4bh692rcd13ifvqea0","pricing_plan_id":"cebpf4jnsgd1na2vs0mg"},{"bike_id":"6b8549bf-30d2-490f-8f61-d9ca43e4d06c","system_id":"levelo_inurba_marseille","lat":43.27012,"lon":5.40268,"is_reserved":false,"is_disabled":false,"rental_uris":{"android":"levelo://app?vid=6b8549bf-30d2-490f-8f61-d9ca43e4d06c","ios":"levelo://app?vid=6b8549bf-30d2-490f-8f61-d9ca43e4d06c"},"vehicle_type_id":"4","last_reported":1777266855,"current_range_meters":8400,"station_id":"","pricing_plan_id":"cebpf4jnsgd1na2vs0mg"},{"bike_id":"62a20b6e-e98d-4cc9-b298-e865d7184b00","system_id":"levelo_inurba_marseille","lat":43.25533,"lon":5.37622,"is_reserved":false,"is_disabled":false,"rental_uris":{"android":"levelo://app?vid=62a20b6e-e98d-4cc9-b298-e865d7184b00","ios":"levelo://app?vid=62a20b6e-e98d-4cc9-b298-e865d7184b00"},"vehicle_type_id":"4","last_reported":1777266855,"current_range_meters":8400,"station_id":"ce4bhh12rcd13ifvqff0","pricing_plan_id":"cebpf4jnsgd1na2vs0mg"},{"bike_id":"778fed07-6d1a-4419-8399-5fee9af0e8a1","system_id":"levelo_inurba_marseille","lat":43.31159,"lon":5.38726,"is_reserved":false,"is_disabled":false,"rental_uris":{"android":"levelo://app?vid=778fed07-6d1a-4419-8399-5fee9af0e8a1","ios":"levelo://app?vid=778fed07-6d1a-4419-8399-5fee9af0e8a1"},"vehicle_type_id":"4","last_reported":1777266855,"current_range_meters":8400,"station_id":"ce4bgv12rcd13ifvqcp0","pricing_plan_id":"cebpf4jnsgd1na2vs0mg"},{"bike_id":"870e0d9e-4850-46bf-826b-bb575c104c95","system_id":"levelo_inurba_marseille","lat":43.24629,"lon":5.4316,"is_reserved":false,"is_disabled":false,"rental_uris":{"android":"levelo://app?vid=870e0d9e-4850-46bf-826b-bb575c104c95","ios":"levelo://app?vid=870e0d9e-4850-46bf-826b-bb575c104c95"},"vehicle_type_id":"4","last_reported":1777266855,"current_range_meters":8400,"station_id":"st_d2m6c4gdas8pm72e190g","pricing_plan_id":"cebpf4jnsgd1na2vs0mg"},{"bike_id":"f74ef20f-404e-46f7-82c0-a244b4421e63","system_id":"levelo_inurba_marseille","lat":43.28724,"lon":5.37959,"is_reserved":false,"is_disabled":false,"rental_uris":{"android":"levelo://app?vid=f74ef20f-404e-46f7-82c0-a244b4421e63","ios":"levelo://app?vid=f74ef20f-404e-46f7-82c0-a244b4421e63"},"vehicle_type_id":"4","last_reported":1777266855,"current_range_meters":8400,"station_id":"ce4bh9p2rcd13ifvqec0","pricing_plan_id":"cebpf4jnsgd1na2vs0mg"},{"bike_id":"61075d33-3a9e-4857-b3e4-51a59bb1db59","system_id":"levelo_inurba_marseille","lat":43.31534,"lon":5.38041,"is_reserved":false,"is_disabled":false,"rental_uris":{"android":"levelo://app?vid=61075d33-3a9e-4857-b3e4-51a59bb1db59","ios":"levelo://app?vid=61075d33-3a9e-4857-b3e4-51a59bb1db59"},"vehicle_type_id":"4","last_reported":1777266855,"current_range_meters":8400,"station_id":"ce4bhsp2rcd13ifvqi50","pricing_plan_id":"cebpf4jnsgd1na2vs0mg"},{"bike_id":"ab7f2434-b87e-4993-9b3d-394f84e66eac","system_id":"levelo_inurba_marseille","lat":43.28688,"lon":5.37392,"is_reserved":false,"is_disabled":false,"rental_uris":{"android":"levelo://app?vid=ab7f2434-b87e-4993-9b3d-394f84e66eac","ios":"levelo://app?vid=ab7f2434-b87e-4993-9b3d-394f84e66eac"},"vehicle_type_id":"4","last_reported":1777266855,"current_range_meters":8400,"station_id":"ce4bh3p2rcd13ifvqdq0","pricing_plan_id":"cebpf4jnsgd1na2vs0mg"},{"bike_id":"7689a261-bed1-4a9c-9d80-6cdb5041e9b1","system_id":"levelo_inurba_marseille","lat":43.3046,"lon":5.37906,"is_reserved":false,"is_disabled":false,"rental_uris":{"android":"levelo://app?vid=7689a261-bed1-4a9c-9d80-6cdb5041e9b1","ios":"levelo://app?vid=7689a261-bed1-4a9c-9d80-6cdb5041e9b1"},"vehicle_type_id":"4","last_reported":1777266855,"current_range_meters":8400,"station_id":"ce4bgup2rcd13ifvqcn0","pricing_plan_id":"cebpf4jnsgd1na2vs0mg"},{"bike_id":"bdd0759d-9534-4fe3-a7f4-571dfe17a881","system_id":"levelo_inurba_marseille","lat":43.25587,"lon":5.38251,"is_reserved":false,"is_disabled":false,"rental_uris":{"android":"levelo://app?vid=bdd0759d-9534-4fe3-a7f4-571dfe17a881","ios":"levelo://app?vid=bdd0759d-9534-4fe3-a7f4-571dfe17a881"},"vehicle_type_id":"4","last_reported":1777266855,"current_range_meters":8400,"station_id":"ce4bhih2rcd13ifvqfs0","pricing_plan_id":"cebpf4jnsgd1na2vs0mg"},{"bike_id":"969b0eaf-1182-4875-a1f1-5398a28d21b3","system_id":"levelo_inurba_marseille","lat":43.23139,"lon":5.4373,"is_reserved":false,"is_disabled":false,"rental_uris":{"android":"levelo://app?vid=969b0eaf-1182-4875-a1f1-5398a28d21b3","ios":"levelo://app?vid=969b0eaf-1182-4875-a1f1-5398a28d21b3"},"vehicle_type_id":"4","last_reported":1777266855,"current_range_meters":8400,"station_id":"ce4bhmp2rcd13ifvqgog","pricing_plan_id":"cebpf4jnsgd1na2vs0mg"},{"bike_id":"7130db19-5eb9-458d-a560-72e3ad305da2","system_id":"levelo_inurba_marseille","lat":43.29036,"lon":5.38653,"is_reserved":false,"is_disabled":false,"rental_uris":{"android":"levelo://app?vid=7130db19-5eb9-458d-a560-72e3ad305da2","ios":"levelo://app?vid=7130db19-5eb9-458d-a560-72e3ad305da2"},"vehicle_type_id":"4","last_reported":1777266855,"current_range_meters":8400,"station_id":"ce4bh4p2rcd13ifvqe0g","pricing_plan_id":"cebpf4jnsgd1na2vs0mg"},{"bike_id":"fa293d2c-79f9-4b16-9ef5-6b5f037705f2","system_id":"levelo_inurba_marseille","lat":43.28398,"lon":5.3752,"is_reserved":false,"is_disabled":false,"rental_uris":{"android":"levelo://app?vid=fa293d2c-79f9-4b16-9ef5-6b5f037705f2","ios":"levelo://app?vid=fa293d2c-79f9-4b16-9ef5-6b5f037705f2"},"vehicle_type_id":"4","last_reported":1777266855,"current_range_meters":8400,"station_id":"ce4bh412rcd13ifvqds0","pricing_plan_id":"cebpf4jnsgd1na2vs0mg"},{"bike_id":"d9913dbb-4dff-4544-8f9f-31189a1466e7","system_id":"levelo_inurba_marseille","lat":43.27071,"lon":5.42324,"is_reserved":false,"is_disabled":false,"rental_uris":{"android":"levelo://app?vid=d9913dbb-4dff-4544-8f9f-31189a1466e7","ios":"levelo://app?vid=d9913dbb-4dff-4544-8f9f-31189a1466e7"},"vehicle_type_id":"4","last_reported":1777266855,"current_range_meters":8400,"station_id":"ce4bhk92rcd13ifvqgb0","pricing_plan_id":"cebpf4jnsgd1na2vs0mg"},{"bike_id":"d1cbe1f5-cc23-401a-92a9-6ed210e80962","system_id":"levelo_inurba_marseille","lat":43.28421,"lon":5.37527,"is_reserved":false,"is_disabled":false,"rental_uris":{"android":"levelo://app?vid=d1cbe1f5-cc23-401a-92a9-6ed210e80962","ios":"levelo://app?vid=d1cbe1f5-cc23-401a-92a9-6ed210e80962"},"vehicle_type_id":"4","last_reported":1777266855,"current_range_meters":8400,"station_id":"ce4bh412rcd13ifvqds0","pricing_plan_id":"cebpf4jnsgd1na2vs0mg"},{"bike_id":"45016ab2-cba4-493e-b53b-ed959d96f6eb","system_id":"levelo_inurba_marseille","lat":43.23149,"lon":5.43728,"is_reserved":false,"is_disabled":false,"rental_uris":{"android":"levelo://app?vid=45016ab2-cba4-493e-b53b-ed959d96f6eb","ios":"levelo://app?vid=45016ab2-cba4-493e-b53b-ed959d96f6eb"},"vehicle_type_id":"4","last_reported":1777266855,"current_range_meters":8400,"station_id":"ce4bhmp2rcd13ifvqgog","pricing_plan_id":"cebpf4jnsgd1na2vs0mg"},{"bike_id":"e5d0e68a-dee4-4664-b2e7-41693e048ab1","system_id":"levelo_inurba_marseille","lat":43.28931,"lon":5.39621,"is_reserved":false,"is_disabled":true,"rental_uris":{"android":"levelo://app?vid=e5d0e68a-dee4-4664-b2e7-41693e048ab1","ios":"levelo://app?vid=e5d0e68a-dee4-4664-b2e7-41693e048ab1"},"vehicle_type_id":"4","last_reported":1777266855,"current_range_meters":8800,"station_id":"ce4bh3h2rcd13ifvqdn0","pricing_plan_id":"cebpf4jnsgd1na2vs0mg"},{"bike_id":"ba462ae8-c9a2-43c7-b922-3a3e5fcf33fa","system_id":"levelo_inurba_marseille","lat":43.28613,"lon":5.37083,"is_reserved":false,"is_disabled":false,"rental_uris":{"android":"levelo://app?vid=ba462ae8-c9a2-43c7-b922-3a3e5fcf33fa","ios":"levelo://app?vid=ba462ae8-c9a2-43c7-b922-3a3e5fcf33fa"},"vehicle_type_id":"4","last_reported":1777266855,"current_range_meters":8800,"station_id":"ce4bht12rcd13ifvqi60","pricing_plan_id":"cebpf4jnsgd1na2vs0mg"},{"bike_id":"181f2449-0d9a-4f74-aed9-d4a85cc5ef6a","system_id":"levelo_inurba_marseille","lat":43.31486,"lon":5.37292,"is_reserved":false,"is_disabled":false,"rental_uris":{"android":"levelo://app?vid=181f2449-0d9a-4f74-aed9-d4a85cc5ef6a","ios":"levelo://app?vid=181f2449-0d9a-4f74-aed9-d4a85cc5ef6a"},"vehicle_type_id":"4","last_reported":1777266855,"current_range_meters":8800,"station_id":"ce4bgt12rcd13ifvqcd0","pricing_plan_id":"cebpf4jnsgd1na2vs0mg"},{"bike_id":"4dc63b09-8ca5-4a87-b1cf-5ce3015ecfcc","system_id":"levelo_inurba_marseille","lat":43.2318,"lon":5.4003,"is_reserved":false,"is_disabled":false,"rental_uris":{"android":"levelo://app?vid=4dc63b09-8ca5-4a87-b1cf-5ce3015ecfcc","ios":"levelo://app?vid=4dc63b09-8ca5-4a87-b1cf-5ce3015ecfcc"},"vehicle_type_id":"4","last_reported":1777266855,"current_range_meters":8800,"station_id":"ce4bhn12rcd13ifvqgqg","pricing_plan_id":"cebpf4jnsgd1na2vs0mg"},{"bike_id":"f8f1d70a-3ad4-44c4-8908-e3b730c66517","system_id":"levelo_inurba_marseille","lat":43.2811,"lon":5.37832,"is_reserved":false,"is_disabled":false,"rental_uris":{"android":"levelo://app?vid=f8f1d70a-3ad4-44c4-8908-e3b730c66517","ios":"levelo://app?vid=f8f1d70a-3ad4-44c4-8908-e3b730c66517"},"vehicle_type_id":"4","last_reported":1777266855,"current_range_meters":8800,"station_id":"ce4bha12rcd13ifvqee0","pricing_plan_id":"cebpf4jnsgd1na2vs0mg"},{"bike_id":"6b9ceb44-f98b-4474-bf14-5e53602be7a5","system_id":"levelo_inurba_marseille","lat":43.33537,"lon":5.37467,"is_reserved":false,"is_disabled":false,"rental_uris":{"android":"levelo://app?vid=6b9ceb44-f98b-4474-bf14-5e53602be7a5","ios":"levelo://app?vid=6b9ceb44-f98b-4474-bf14-5e53602be7a5"},"vehicle_type_id":"4","last_reported":1777266855,"current_range_meters":8800,"station_id":"st_d46tts09ee8s73dlu43g","pricing_plan_id":"cebpf4jnsgd1na2vs0mg"},{"bike_id":"addff318-653f-45c2-bbb7-77b46b3919e4","system_id":"levelo_inurba_marseille","lat":43.21751,"lon":5.3461,"is_reserved":false,"is_disabled":false,"rental_uris":{"android":"levelo://app?vid=addff318-653f-45c2-bbb7-77b46b3919e4","ios":"levelo://app?vid=addff318-653f-45c2-bbb7-77b46b3919e4"},"vehicle_type_id":"4","last_reported":1777266855,"current_range_meters":8800,"station_id":"st_cvj6r9ubvosntc0bgbag","pricing_plan_id":"cebpf4jnsgd1na2vs0mg"},{"bike_id":"5f893e8d-afa1-40ab-afdf-23b5a43807ba","system_id":"levelo_inurba_marseille","lat":43.26218,"lon":5.40455,"is_reserved":false,"is_disabled":false,"rental_uris":{"android":"levelo://app?vid=5f893e8d-afa1-40ab-afdf-23b5a43807ba","ios":"levelo://app?vid=5f893e8d-afa1-40ab-afdf-23b5a43807ba"},"vehicle_type_id":"4","last_reported":1777266855,"current_range_meters":8800,"station_id":"ce4bhmh2rcd13ifvqgmg","pricing_plan_id":"cebpf4jnsgd1na2vs0mg"},{"bike_id":"e3ac66c3-95e0-48b9-98c3-07a77e716cc0","system_id":"levelo_inurba_marseille","lat":43.28263,"lon":5.35077,"is_reserved":false,"is_disabled":false,"rental_uris":{"android":"levelo://app?vid=e3ac66c3-95e0-48b9-98c3-07a77e716cc0","ios":"levelo://app?vid=e3ac66c3-95e0-48b9-98c3-07a77e716cc0"},"vehicle_type_id":"4","last_reported":1777266855,"current_range_meters":8800,"station_id":"ce4bhbp2rcd13ifvqerg","pricing_plan_id":"cebpf4jnsgd1na2vs0mg"},{"bike_id":"2e1487b5-ffbe-4174-a3cb-5f2ca03b60ce","system_id":"levelo_inurba_marseille","lat":43.28502,"lon":5.48413,"is_reserved":false,"is_disabled":false,"rental_uris":{"android":"levelo://app?vid=2e1487b5-ffbe-4174-a3cb-5f2ca03b60ce","ios":"levelo://app?vid=2e1487b5-ffbe-4174-a3cb-5f2ca03b60ce"},"vehicle_type_id":"4","last_reported":1777266855,"current_range_meters":8800,"station_id":"st_d3svhcjqgbts73a3dn0g","pricing_plan_id":"cebpf4jnsgd1na2vs0mg"},{"bike_id":"2e013045-b635-4629-a87d-995ec1628a85","system_id":"levelo_inurba_marseille","lat":43.32105,"lon":5.36761,"is_reserved":false,"is_disabled":false,"rental_uris":{"android":"levelo://app?vid=2e013045-b635-4629-a87d-995ec1628a85","ios":"levelo://app?vid=2e013045-b635-4629-a87d-995ec1628a85"},"vehicle_type_id":"4","last_reported":1777266855,"current_range_meters":8800,"station_id":"ce4bhrh2rcd13ifvqhug","pricing_plan_id":"cebpf4jnsgd1na2vs0mg"},{"bike_id":"01135cbf-29b3-489b-b2e0-6c7d396ff4ee","system_id":"levelo_inurba_marseille","lat":43.24801,"lon":5.37461,"is_reserved":false,"is_disabled":false,"rental_uris":{"android":"levelo://app?vid=01135cbf-29b3-489b-b2e0-6c7d396ff4ee","ios":"levelo://app?vid=01135cbf-29b3-489b-b2e0-6c7d396ff4ee"},"vehicle_type_id":"4","last_reported":1777266855,"current_range_meters":8800,"station_id":"ce4bhgh2rcd13ifvqfb0","pricing_plan_id":"cebpf4jnsgd1na2vs0mg"},{"bike_id":"8b9e0881-72b9-480c-aff3-786498ddef5c","system_id":"levelo_inurba_marseille","lat":43.29274,"lon":5.36848,"is_reserved":false,"is_disabled":false,"rental_uris":{"android":"levelo://app?vid=8b9e0881-72b9-480c-aff3-786498ddef5c","ios":"levelo://app?vid=8b9e0881-72b9-480c-aff3-786498ddef5c"},"vehicle_type_id":"4","last_reported":1777266855,"current_range_meters":8800,"station_id":"ce4bhbp2rcd13ifvqesg","pricing_plan_id":"cebpf4jnsgd1na2vs0mg"},{"bike_id":"a67c9b87-5da4-47a5-99d0-06f9874f7d71","system_id":"levelo_inurba_marseille","lat":43.28689,"lon":5.37411,"is_reserved":false,"is_disabled":false,"rental_uris":{"android":"levelo://app?vid=a67c9b87-5da4-47a5-99d0-06f9874f7d71","ios":"levelo://app?vid=a67c9b87-5da4-47a5-99d0-06f9874f7d71"},"vehicle_type_id":"4","last_reported":1777266855,"current_range_meters":8800,"station_id":"ce4bh3p2rcd13ifvqdq0","pricing_plan_id":"cebpf4jnsgd1na2vs0mg"},{"bike_id":"23a43893-db5e-493c-81de-f8390aa0c6ae","system_id":"levelo_inurba_marseille","lat":43.29812,"lon":5.44069,"is_reserved":false,"is_disabled":false,"rental_uris":{"android":"levelo://app?vid=23a43893-db5e-493c-81de-f8390aa0c6ae","ios":"levelo://app?vid=23a43893-db5e-493c-81de-f8390aa0c6ae"},"vehicle_type_id":"4","last_reported":1777266855,"current_range_meters":8800,"station_id":"st_d3jp68qikq2c7381ktn0","pricing_plan_id":"cebpf4jnsgd1na2vs0mg"},{"bike_id":"4e999b02-bd00-4823-82d7-e75b026cf900","system_id":"levelo_inurba_marseille","lat":43.28339,"lon":5.38135,"is_reserved":false,"is_disabled":false,"rental_uris":{"android":"levelo://app?vid=4e999b02-bd00-4823-82d7-e75b026cf900","ios":"levelo://app?vid=4e999b02-bd00-4823-82d7-e75b026cf900"},"vehicle_type_id":"4","last_reported":1777266855,"current_range_meters":8800,"station_id":"ce4bh412rcd13ifvqdr0","pricing_plan_id":"cebpf4jnsgd1na2vs0mg"},{"bike_id":"0f724a0c-a1c1-401d-be4e-2de44ce9d14c","system_id":"levelo_inurba_marseille","lat":43.24171,"lon":5.39734,"is_reserved":false,"is_disabled":false,"rental_uris":{"android":"levelo://app?vid=0f724a0c-a1c1-401d-be4e-2de44ce9d14c","ios":"levelo://app?vid=0f724a0c-a1c1-401d-be4e-2de44ce9d14c"},"vehicle_type_id":"4","last_reported":1777266855,"current_range_meters":8800,"station_id":"ce4bhn12rcd13ifvqgpg","pricing_plan_id":"cebpf4jnsgd1na2vs0mg"},{"bike_id":"479b3be7-80c5-426c-81f0-6686686bd1e8","system_id":"levelo_inurba_marseille","lat":43.27169,"lon":5.40999,"is_reserved":false,"is_disabled":false,"rental_uris":{"android":"levelo://app?vid=479b3be7-80c5-426c-81f0-6686686bd1e8","ios":"levelo://app?vid=479b3be7-80c5-426c-81f0-6686686bd1e8"},"vehicle_type_id":"4","last_reported":1777266855,"current_range_meters":8800,"station_id":"ce4bhl12rcd13ifvqgf0","pricing_plan_id":"cebpf4jnsgd1na2vs0mg"},{"bike_id":"5abb7b8a-5f8b-42e3-8a6e-0f524c95afc2","system_id":"levelo_inurba_marseille","lat":43.28706,"lon":5.46689,"is_reserved":false,"is_disabled":false,"rental_uris":{"android":"levelo://app?vid=5abb7b8a-5f8b-42e3-8a6e-0f524c95afc2","ios":"levelo://app?vid=5abb7b8a-5f8b-42e3-8a6e-0f524c95afc2"},"vehicle_type_id":"4","last_reported":1777266855,"current_range_meters":8800,"station_id":"st_d6tc3vkotcvc738tfjhg","pricing_plan_id":"cebpf4jnsgd1na2vs0mg"},{"bike_id":"7d24a3ee-0eb9-47a1-8904-33af700bdc69","system_id":"levelo_inurba_marseille","lat":43.28485,"lon":5.48399,"is_reserved":false,"is_disabled":false,"rental_uris":{"android":"levelo://app?vid=7d24a3ee-0eb9-47a1-8904-33af700bdc69","ios":"levelo://app?vid=7d24a3ee-0eb9-47a1-8904-33af700bdc69"},"vehicle_type_id":"4","last_reported":1777266855,"current_range_meters":9200,"station_id":"st_d3svhcjqgbts73a3dn0g","pricing_plan_id":"cebpf4jnsgd1na2vs0mg"},{"bike_id":"3f50f4ca-bd3a-424e-a444-96fabe929944","system_id":"levelo_inurba_marseille","lat":43.29175,"lon":5.39313,"is_reserved":false,"is_disabled":false,"rental_uris":{"android":"levelo://app?vid=3f50f4ca-bd3a-424e-a444-96fabe929944","ios":"levelo://app?vid=3f50f4ca-bd3a-424e-a444-96fabe929944"},"vehicle_type_id":"4","last_reported":1777266855,"current_range_meters":9200,"station_id":"ce4bh192rcd13ifvqdd0","pricing_plan_id":"cebpf4jnsgd1na2vs0mg"},{"bike_id":"1401200e-5936-42c2-aba3-47659625462c","system_id":"levelo_inurba_marseille","lat":43.2848,"lon":5.38435,"is_reserved":false,"is_disabled":true,"rental_uris":{"android":"levelo://app?vid=1401200e-5936-42c2-aba3-47659625462c","ios":"levelo://app?vid=1401200e-5936-42c2-aba3-47659625462c"},"vehicle_type_id":"4","last_reported":1777266855,"current_range_meters":9200,"station_id":"ce4bh512rcd13ifvqe3g","pricing_plan_id":"cebpf4jnsgd1na2vs0mg"},{"bike_id":"8f13b61e-8a25-4927-8213-0f8d3090195b","system_id":"levelo_inurba_marseille","lat":43.2849,"lon":5.48373,"is_reserved":false,"is_disabled":false,"rental_uris":{"android":"levelo://app?vid=8f13b61e-8a25-4927-8213-0f8d3090195b","ios":"levelo://app?vid=8f13b61e-8a25-4927-8213-0f8d3090195b"},"vehicle_type_id":"4","last_reported":1777266855,"current_range_meters":9200,"station_id":"","pricing_plan_id":"cebpf4jnsgd1na2vs0mg"},{"bike_id":"4fba49e0-f42f-4971-ab48-4a6d5148f297","system_id":"levelo_inurba_marseille","lat":43.26376,"lon":5.42301,"is_reserved":false,"is_disabled":false,"rental_uris":{"android":"levelo://app?vid=4fba49e0-f42f-4971-ab48-4a6d5148f297","ios":"levelo://app?vid=4fba49e0-f42f-4971-ab48-4a6d5148f297"},"vehicle_type_id":"4","last_reported":1777266855,"current_range_meters":9200,"station_id":"","pricing_plan_id":"cebpf4jnsgd1na2vs0mg"},{"bike_id":"d91a79ea-757d-4fb0-822d-efffb3df9a9a","system_id":"levelo_inurba_marseille","lat":43.24623,"lon":5.38909,"is_reserved":false,"is_disabled":false,"rental_uris":{"android":"levelo://app?vid=d91a79ea-757d-4fb0-822d-efffb3df9a9a","ios":"levelo://app?vid=d91a79ea-757d-4fb0-822d-efffb3df9a9a"},"vehicle_type_id":"4","last_reported":1777266855,"current_range_meters":9200,"station_id":"ce4bhg12rcd13ifvqf60","pricing_plan_id":"cebpf4jnsgd1na2vs0mg"},{"bike_id":"751bc786-9504-4c6e-af89-5b2ef3a43b0a","system_id":"levelo_inurba_marseille","lat":43.24466,"lon":5.42556,"is_reserved":false,"is_disabled":true,"rental_uris":{"android":"levelo://app?vid=751bc786-9504-4c6e-af89-5b2ef3a43b0a","ios":"levelo://app?vid=751bc786-9504-4c6e-af89-5b2ef3a43b0a"},"vehicle_type_id":"4","last_reported":1777266855,"current_range_meters":9200,"station_id":"st_d4a3vfp97mjs738cd8kg","pricing_plan_id":"cebpf4jnsgd1na2vs0mg"},{"bike_id":"a7de89e0-f425-497e-abb6-9d629f7ff9c8","system_id":"levelo_inurba_marseille","lat":43.31483,"lon":5.37286,"is_reserved":false,"is_disabled":false,"rental_uris":{"android":"levelo://app?vid=a7de89e0-f425-497e-abb6-9d629f7ff9c8","ios":"levelo://app?vid=a7de89e0-f425-497e-abb6-9d629f7ff9c8"},"vehicle_type_id":"4","last_reported":1777266855,"current_range_meters":9200,"station_id":"ce4bgt12rcd13ifvqcd0","pricing_plan_id":"cebpf4jnsgd1na2vs0mg"},{"bike_id":"486a6bd7-6877-47a7-872d-b6d92138ce35","system_id":"levelo_inurba_marseille","lat":43.28149,"lon":5.42663,"is_reserved":false,"is_disabled":false,"rental_uris":{"android":"levelo://app?vid=486a6bd7-6877-47a7-872d-b6d92138ce35","ios":"levelo://app?vid=486a6bd7-6877-47a7-872d-b6d92138ce35"},"vehicle_type_id":"4","last_reported":1777266855,"current_range_meters":9200,"station_id":"ce4bhnh2rcd13ifvqgug","pricing_plan_id":"cebpf4jnsgd1na2vs0mg"},{"bike_id":"1d51c702-75ba-494d-89c9-6b8c4379e860","system_id":"levelo_inurba_marseille","lat":43.31207,"lon":5.37821,"is_reserved":false,"is_disabled":false,"rental_uris":{"android":"levelo://app?vid=1d51c702-75ba-494d-89c9-6b8c4379e860","ios":"levelo://app?vid=1d51c702-75ba-494d-89c9-6b8c4379e860"},"vehicle_type_id":"4","last_reported":1777266855,"current_range_meters":9200,"station_id":"","pricing_plan_id":"cebpf4jnsgd1na2vs0mg"},{"bike_id":"06a3b654-ddac-4735-b1f2-9a73ab3a4bdd","system_id":"levelo_inurba_marseille","lat":43.31481,"lon":5.37323,"is_reserved":false,"is_disabled":false,"rental_uris":{"android":"levelo://app?vid=06a3b654-ddac-4735-b1f2-9a73ab3a4bdd","ios":"levelo://app?vid=06a3b654-ddac-4735-b1f2-9a73ab3a4bdd"},"vehicle_type_id":"4","last_reported":1777266855,"current_range_meters":9200,"station_id":"ce4bgt12rcd13ifvqcd0","pricing_plan_id":"cebpf4jnsgd1na2vs0mg"},{"bike_id":"7e0a60c0-b0a9-4cd0-8d80-09cbd521e171","system_id":"levelo_inurba_marseille","lat":43.30803,"lon":5.38159,"is_reserved":false,"is_disabled":false,"rental_uris":{"android":"levelo://app?vid=7e0a60c0-b0a9-4cd0-8d80-09cbd521e171","ios":"levelo://app?vid=7e0a60c0-b0a9-4cd0-8d80-09cbd521e171"},"vehicle_type_id":"4","last_reported":1777266855,"current_range_meters":9200,"station_id":"ce4bgt12rcd13ifvqce0","pricing_plan_id":"cebpf4jnsgd1na2vs0mg"},{"bike_id":"223d1ac1-8fb5-4c33-9e25-45fb75c789be","system_id":"levelo_inurba_marseille","lat":43.29986,"lon":5.38533,"is_reserved":false,"is_disabled":true,"rental_uris":{"android":"levelo://app?vid=223d1ac1-8fb5-4c33-9e25-45fb75c789be","ios":"levelo://app?vid=223d1ac1-8fb5-4c33-9e25-45fb75c789be"},"vehicle_type_id":"4","last_reported":1777266855,"current_range_meters":9200,"station_id":"ce4bgj92rcd13ifvqbd0","pricing_plan_id":"cebpf4jnsgd1na2vs0mg"},{"bike_id":"6c0e44b5-b4c6-4989-a0ec-b3c6d257ac1d","system_id":"levelo_inurba_marseille","lat":43.33186,"lon":5.37828,"is_reserved":false,"is_disabled":false,"rental_uris":{"android":"levelo://app?vid=6c0e44b5-b4c6-4989-a0ec-b3c6d257ac1d","ios":"levelo://app?vid=6c0e44b5-b4c6-4989-a0ec-b3c6d257ac1d"},"vehicle_type_id":"4","last_reported":1777266855,"current_range_meters":9600,"station_id":"","pricing_plan_id":"cebpf4jnsgd1na2vs0mg"},{"bike_id":"dc958fce-2074-4ec1-a937-a154c4f33257","system_id":"levelo_inurba_marseille","lat":43.27673,"lon":5.3893,"is_reserved":false,"is_disabled":false,"rental_uris":{"android":"levelo://app?vid=dc958fce-2074-4ec1-a937-a154c4f33257","ios":"levelo://app?vid=dc958fce-2074-4ec1-a937-a154c4f33257"},"vehicle_type_id":"4","last_reported":1777266855,"current_range_meters":9600,"station_id":"ce4bhi12rcd13ifvqfo0","pricing_plan_id":"cebpf4jnsgd1na2vs0mg"},{"bike_id":"70ab68a7-f252-47fa-a529-01a3240781ee","system_id":"levelo_inurba_marseille","lat":43.23161,"lon":5.43717,"is_reserved":false,"is_disabled":false,"rental_uris":{"android":"levelo://app?vid=70ab68a7-f252-47fa-a529-01a3240781ee","ios":"levelo://app?vid=70ab68a7-f252-47fa-a529-01a3240781ee"},"vehicle_type_id":"4","last_reported":1777266855,"current_range_meters":9600,"station_id":"ce4bhmp2rcd13ifvqgog","pricing_plan_id":"cebpf4jnsgd1na2vs0mg"},{"bike_id":"f4a51db9-5338-4577-9cf2-ac91c316c5cb","system_id":"levelo_inurba_marseille","lat":43.28691,"lon":5.37425,"is_reserved":false,"is_disabled":false,"rental_uris":{"android":"levelo://app?vid=f4a51db9-5338-4577-9cf2-ac91c316c5cb","ios":"levelo://app?vid=f4a51db9-5338-4577-9cf2-ac91c316c5cb"},"vehicle_type_id":"4","last_reported":1777266855,"current_range_meters":9600,"station_id":"ce4bh3p2rcd13ifvqdq0","pricing_plan_id":"cebpf4jnsgd1na2vs0mg"},{"bike_id":"e593377f-0b04-468e-be39-461905e9f322","system_id":"levelo_inurba_marseille","lat":43.24651,"lon":5.38901,"is_reserved":false,"is_disabled":false,"rental_uris":{"android":"levelo://app?vid=e593377f-0b04-468e-be39-461905e9f322","ios":"levelo://app?vid=e593377f-0b04-468e-be39-461905e9f322"},"vehicle_type_id":"4","last_reported":1777266855,"current_range_meters":9600,"station_id":"ce4bhg12rcd13ifvqf60","pricing_plan_id":"cebpf4jnsgd1na2vs0mg"},{"bike_id":"f8ef0bb6-07a7-4702-a825-10fc6c751fc2","system_id":"levelo_inurba_marseille","lat":43.3033,"lon":5.36908,"is_reserved":false,"is_disabled":false,"rental_uris":{"android":"levelo://app?vid=f8ef0bb6-07a7-4702-a825-10fc6c751fc2","ios":"levelo://app?vid=f8ef0bb6-07a7-4702-a825-10fc6c751fc2"},"vehicle_type_id":"4","last_reported":1777266855,"current_range_meters":9600,"station_id":"ce4bgqh2rcd13ifvqc5g","pricing_plan_id":"cebpf4jnsgd1na2vs0mg"},{"bike_id":"fc097491-473c-4dda-846e-61ed2310d3ca","system_id":"levelo_inurba_marseille","lat":43.28985,"lon":5.37842,"is_reserved":false,"is_disabled":false,"rental_uris":{"android":"levelo://app?vid=fc097491-473c-4dda-846e-61ed2310d3ca","ios":"levelo://app?vid=fc097491-473c-4dda-846e-61ed2310d3ca"},"vehicle_type_id":"4","last_reported":1777266855,"current_range_meters":9600,"station_id":"ce4bh9p2rcd13ifvqed0","pricing_plan_id":"cebpf4jnsgd1na2vs0mg"},{"bike_id":"eaee29c7-0ad1-49d0-a8e7-03ae05ec97e6","system_id":"levelo_inurba_marseille","lat":43.30147,"lon":5.38086,"is_reserved":false,"is_disabled":false,"rental_uris":{"android":"levelo://app?vid=eaee29c7-0ad1-49d0-a8e7-03ae05ec97e6","ios":"levelo://app?vid=eaee29c7-0ad1-49d0-a8e7-03ae05ec97e6"},"vehicle_type_id":"4","last_reported":1777266855,"current_range_meters":9600,"station_id":"ce4bgjp2rcd13ifvqbh0","pricing_plan_id":"cebpf4jnsgd1na2vs0mg"},{"bike_id":"a57b6e5d-3889-4a7e-8598-ea5c47fc0f3f","system_id":"levelo_inurba_marseille","lat":43.31522,"lon":5.38056,"is_reserved":false,"is_disabled":false,"rental_uris":{"android":"levelo://app?vid=a57b6e5d-3889-4a7e-8598-ea5c47fc0f3f","ios":"levelo://app?vid=a57b6e5d-3889-4a7e-8598-ea5c47fc0f3f"},"vehicle_type_id":"4","last_reported":1777266855,"current_range_meters":9600,"station_id":"ce4bhsp2rcd13ifvqi50","pricing_plan_id":"cebpf4jnsgd1na2vs0mg"},{"bike_id":"2488a67d-575d-444e-a92c-918ff86519af","system_id":"levelo_inurba_marseille","lat":43.23204,"lon":5.35554,"is_reserved":false,"is_disabled":false,"rental_uris":{"android":"levelo://app?vid=2488a67d-575d-444e-a92c-918ff86519af","ios":"levelo://app?vid=2488a67d-575d-444e-a92c-918ff86519af"},"vehicle_type_id":"4","last_reported":1777266855,"current_range_meters":9600,"station_id":"ce4bhu92rcd13ifvqi70","pricing_plan_id":"cebpf4jnsgd1na2vs0mg"},{"bike_id":"966714c9-5cac-419a-8de3-f5c4e126e8bd","system_id":"levelo_inurba_marseille","lat":43.30175,"lon":5.3808,"is_reserved":false,"is_disabled":false,"rental_uris":{"android":"levelo://app?vid=966714c9-5cac-419a-8de3-f5c4e126e8bd","ios":"levelo://app?vid=966714c9-5cac-419a-8de3-f5c4e126e8bd"},"vehicle_type_id":"4","last_reported":1777266855,"current_range_meters":10000,"station_id":"ce4bgjp2rcd13ifvqbh0","pricing_plan_id":"cebpf4jnsgd1na2vs0mg"},{"bike_id":"3462feaa-c9a2-441c-b3a1-f70058c367e6","system_id":"levelo_inurba_marseille","lat":43.24406,"lon":5.37067,"is_reserved":false,"is_disabled":false,"rental_uris":{"android":"levelo://app?vid=3462feaa-c9a2-441c-b3a1-f70058c367e6","ios":"levelo://app?vid=3462feaa-c9a2-441c-b3a1-f70058c367e6"},"vehicle_type_id":"4","last_reported":1777266855,"current_range_meters":10000,"station_id":"ce4bhhh2rcd13ifvqfk0","pricing_plan_id":"cebpf4jnsgd1na2vs0mg"},{"bike_id":"817c3c75-e767-42c1-a7a7-c38ed6ad789e","system_id":"levelo_inurba_marseille","lat":43.24465,"lon":5.42532,"is_reserved":false,"is_disabled":false,"rental_uris":{"android":"levelo://app?vid=817c3c75-e767-42c1-a7a7-c38ed6ad789e","ios":"levelo://app?vid=817c3c75-e767-42c1-a7a7-c38ed6ad789e"},"vehicle_type_id":"4","last_reported":1777266855,"current_range_meters":10000,"station_id":"st_d4a3vfp97mjs738cd8kg","pricing_plan_id":"cebpf4jnsgd1na2vs0mg"},{"bike_id":"b19c60d7-da5c-48c7-93ec-3c4828aa80b3","system_id":"levelo_inurba_marseille","lat":43.31092,"lon":5.37756,"is_reserved":false,"is_disabled":false,"rental_uris":{"android":"levelo://app?vid=b19c60d7-da5c-48c7-93ec-3c4828aa80b3","ios":"levelo://app?vid=b19c60d7-da5c-48c7-93ec-3c4828aa80b3"},"vehicle_type_id":"4","last_reported":1777266855,"current_range_meters":10000,"station_id":"ce4bgt92rcd13ifvqcg0","pricing_plan_id":"cebpf4jnsgd1na2vs0mg"},{"bike_id":"9a2c3d9f-e7df-4d3a-94b2-1cc769201e73","system_id":"levelo_inurba_marseille","lat":43.2864,"lon":5.36351,"is_reserved":false,"is_disabled":false,"rental_uris":{"android":"levelo://app?vid=9a2c3d9f-e7df-4d3a-94b2-1cc769201e73","ios":"levelo://app?vid=9a2c3d9f-e7df-4d3a-94b2-1cc769201e73"},"vehicle_type_id":"4","last_reported":1777266855,"current_range_meters":10000,"station_id":"ce4bhah2rcd13ifvqej0","pricing_plan_id":"cebpf4jnsgd1na2vs0mg"},{"bike_id":"b5088cd7-5e45-457a-ae9f-32446d67355c","system_id":"levelo_inurba_marseille","lat":43.32464,"lon":5.36591,"is_reserved":false,"is_disabled":false,"rental_uris":{"android":"levelo://app?vid=b5088cd7-5e45-457a-ae9f-32446d67355c","ios":"levelo://app?vid=b5088cd7-5e45-457a-ae9f-32446d67355c"},"vehicle_type_id":"4","last_reported":1777266855,"current_range_meters":10000,"station_id":"ce4bhs12rcd13ifvqhvg","pricing_plan_id":"cebpf4jnsgd1na2vs0mg"},{"bike_id":"28915863-8f44-4fc4-929b-fdddb33d354f","system_id":"levelo_inurba_marseille","lat":43.31116,"lon":5.37764,"is_reserved":false,"is_disabled":false,"rental_uris":{"android":"levelo://app?vid=28915863-8f44-4fc4-929b-fdddb33d354f","ios":"levelo://app?vid=28915863-8f44-4fc4-929b-fdddb33d354f"},"vehicle_type_id":"4","last_reported":1777266855,"current_range_meters":10000,"station_id":"ce4bgt92rcd13ifvqcg0","pricing_plan_id":"cebpf4jnsgd1na2vs0mg"},{"bike_id":"4fd39799-4ec0-453d-b9cf-72cb2a751a56","system_id":"levelo_inurba_marseille","lat":43.26554,"lon":5.40335,"is_reserved":false,"is_disabled":false,"rental_uris":{"android":"levelo://app?vid=4fd39799-4ec0-453d-b9cf-72cb2a751a56","ios":"levelo://app?vid=4fd39799-4ec0-453d-b9cf-72cb2a751a56"},"vehicle_type_id":"4","last_reported":1777266855,"current_range_meters":10000,"station_id":"ce4bhmp2rcd13ifvqgng","pricing_plan_id":"cebpf4jnsgd1na2vs0mg"},{"bike_id":"252e2b7e-092f-419f-bf3e-62d9dbb2b231","system_id":"levelo_inurba_marseille","lat":43.29255,"lon":5.38403,"is_reserved":false,"is_disabled":false,"rental_uris":{"android":"levelo://app?vid=252e2b7e-092f-419f-bf3e-62d9dbb2b231","ios":"levelo://app?vid=252e2b7e-092f-419f-bf3e-62d9dbb2b231"},"vehicle_type_id":"4","last_reported":1777266855,"current_range_meters":10000,"station_id":"ce4bh692rcd13ifvqea0","pricing_plan_id":"cebpf4jnsgd1na2vs0mg"},{"bike_id":"7a014c8c-2e02-4192-ba68-d84d2a0739ce","system_id":"levelo_inurba_marseille","lat":43.30954,"lon":5.39026,"is_reserved":false,"is_disabled":true,"rental_uris":{"android":"levelo://app?vid=7a014c8c-2e02-4192-ba68-d84d2a0739ce","ios":"levelo://app?vid=7a014c8c-2e02-4192-ba68-d84d2a0739ce"},"vehicle_type_id":"4","last_reported":1777266855,"current_range_meters":10000,"station_id":"ce4bgup2rcd13ifvqco0","pricing_plan_id":"cebpf4jnsgd1na2vs0mg"},{"bike_id":"8b4e6bd3-1e82-4277-a45a-3a8abaa4e3ab","system_id":"levelo_inurba_marseille","lat":43.28485,"lon":5.48394,"is_reserved":false,"is_disabled":false,"rental_uris":{"android":"levelo://app?vid=8b4e6bd3-1e82-4277-a45a-3a8abaa4e3ab","ios":"levelo://app?vid=8b4e6bd3-1e82-4277-a45a-3a8abaa4e3ab"},"vehicle_type_id":"4","last_reported":1777266855,"current_range_meters":10000,"station_id":"","pricing_plan_id":"cebpf4jnsgd1na2vs0mg"},{"bike_id":"b2b5d024-5b55-4bc5-8d6e-f1fecde5da15","system_id":"levelo_inurba_marseille","lat":43.26707,"lon":5.39714,"is_reserved":false,"is_disabled":false,"rental_uris":{"android":"levelo://app?vid=b2b5d024-5b55-4bc5-8d6e-f1fecde5da15","ios":"levelo://app?vid=b2b5d024-5b55-4bc5-8d6e-f1fecde5da15"},"vehicle_type_id":"4","last_reported":1777266855,"current_range_meters":10000,"station_id":"","pricing_plan_id":"cebpf4jnsgd1na2vs0mg"},{"bike_id":"3696057e-746c-4ba4-b300-9c7a449e20ed","system_id":"levelo_inurba_marseille","lat":43.27533,"lon":5.39628,"is_reserved":false,"is_disabled":false,"rental_uris":{"android":"levelo://app?vid=3696057e-746c-4ba4-b300-9c7a449e20ed","ios":"levelo://app?vid=3696057e-746c-4ba4-b300-9c7a449e20ed"},"vehicle_type_id":"4","last_reported":1777266855,"current_range_meters":10000,"station_id":"","pricing_plan_id":"cebpf4jnsgd1na2vs0mg"},{"bike_id":"84f53d51-811c-42d8-8ca9-95d35c0c0840","system_id":"levelo_inurba_marseille","lat":43.29484,"lon":5.43323,"is_reserved":false,"is_disabled":false,"rental_uris":{"android":"levelo://app?vid=84f53d51-811c-42d8-8ca9-95d35c0c0840","ios":"levelo://app?vid=84f53d51-811c-42d8-8ca9-95d35c0c0840"},"vehicle_type_id":"4","last_reported":1777266855,"current_range_meters":10000,"station_id":"st_d3j5ugp08ojc73fj9d10","pricing_plan_id":"cebpf4jnsgd1na2vs0mg"},{"bike_id":"61825a82-9e29-4689-95f9-31137acb2d30","system_id":"levelo_inurba_marseille","lat":43.28411,"lon":5.37523,"is_reserved":false,"is_disabled":false,"rental_uris":{"android":"levelo://app?vid=61825a82-9e29-4689-95f9-31137acb2d30","ios":"levelo://app?vid=61825a82-9e29-4689-95f9-31137acb2d30"},"vehicle_type_id":"4","last_reported":1777266855,"current_range_meters":10000,"station_id":"ce4bh412rcd13ifvqds0","pricing_plan_id":"cebpf4jnsgd1na2vs0mg"},{"bike_id":"dc995a04-c81e-45cc-af45-e44da3504436","system_id":"levelo_inurba_marseille","lat":43.29205,"lon":5.39347,"is_reserved":false,"is_disabled":false,"rental_uris":{"android":"levelo://app?vid=dc995a04-c81e-45cc-af45-e44da3504436","ios":"levelo://app?vid=dc995a04-c81e-45cc-af45-e44da3504436"},"vehicle_type_id":"4","last_reported":1777266855,"current_range_meters":10800,"station_id":"ce4bh192rcd13ifvqdd0","pricing_plan_id":"cebpf4jnsgd1na2vs0mg"},{"bike_id":"3c068e99-7fcc-4817-adfa-308cbf707cec","system_id":"levelo_inurba_marseille","lat":43.25106,"lon":5.40363,"is_reserved":false,"is_disabled":false,"rental_uris":{"android":"levelo://app?vid=3c068e99-7fcc-4817-adfa-308cbf707cec","ios":"levelo://app?vid=3c068e99-7fcc-4817-adfa-308cbf707cec"},"vehicle_type_id":"4","last_reported":1777266855,"current_range_meters":10800,"station_id":"ce4bhlh2rcd13ifvqgig","pricing_plan_id":"cebpf4jnsgd1na2vs0mg"},{"bike_id":"5e233815-6269-4b6d-93b5-4e0d82a39e53","system_id":"levelo_inurba_marseille","lat":43.29154,"lon":5.35785,"is_reserved":false,"is_disabled":true,"rental_uris":{"android":"levelo://app?vid=5e233815-6269-4b6d-93b5-4e0d82a39e53","ios":"levelo://app?vid=5e233815-6269-4b6d-93b5-4e0d82a39e53"},"vehicle_type_id":"4","last_reported":1777266855,"current_range_meters":10800,"station_id":"","pricing_plan_id":"cebpf4jnsgd1na2vs0mg"},{"bike_id":"0d4dfb01-63c5-4be7-bdb0-5163c6b2578c","system_id":"levelo_inurba_marseille","lat":43.31893,"lon":5.3682,"is_reserved":false,"is_disabled":false,"rental_uris":{"android":"levelo://app?vid=0d4dfb01-63c5-4be7-bdb0-5163c6b2578c","ios":"levelo://app?vid=0d4dfb01-63c5-4be7-bdb0-5163c6b2578c"},"vehicle_type_id":"4","last_reported":1777266855,"current_range_meters":10800,"station_id":"st_d6o2h0d0559c73evc1b0","pricing_plan_id":"cebpf4jnsgd1na2vs0mg"},{"bike_id":"dabc5e28-b9df-4b1a-affa-f2e365a8b45b","system_id":"levelo_inurba_marseille","lat":43.32099,"lon":5.36775,"is_reserved":false,"is_disabled":false,"rental_uris":{"android":"levelo://app?vid=dabc5e28-b9df-4b1a-affa-f2e365a8b45b","ios":"levelo://app?vid=dabc5e28-b9df-4b1a-affa-f2e365a8b45b"},"vehicle_type_id":"4","last_reported":1777266855,"current_range_meters":10800,"station_id":"ce4bhrh2rcd13ifvqhug","pricing_plan_id":"cebpf4jnsgd1na2vs0mg"},{"bike_id":"a293a698-7882-4a3c-8edd-1d3a4cb128d4","system_id":"levelo_inurba_marseille","lat":43.26595,"lon":5.40338,"is_reserved":false,"is_disabled":false,"rental_uris":{"android":"levelo://app?vid=a293a698-7882-4a3c-8edd-1d3a4cb128d4","ios":"levelo://app?vid=a293a698-7882-4a3c-8edd-1d3a4cb128d4"},"vehicle_type_id":"4","last_reported":1777266855,"current_range_meters":10800,"station_id":"ce4bhmp2rcd13ifvqgng","pricing_plan_id":"cebpf4jnsgd1na2vs0mg"},