{"last_updated":1740935224,"ttl":60,"version":"2.2","data":{"bikes":[{"bike_id":"7ab8679e-47c1-48b3-aed2-146d276acca2","system_id":"levelo_inurba_marseille","lat":43.28655,"lon":5.38657,"is_reserved":false,"is_disabled":false,"rental_uris":{"android":"levelo://app?vid=7ab8679e-47c1-48b3-aed2-146d276acca2","ios":"levelo://app?vid=7ab8679e-47c1-48b3-aed2-146d276acca2"},"vehicle_type_id":"4","last_reported":1740935224,"current_range_meters":2000,"station_id":"ce4bhh92rcd13ifvqfi0","pricing_plan_id":"cebpf4jnsgd1na2vs0mg"},{"bike_id":"59ed2de8-0015-42ad-91d8-282617b90705","system_id":"levelo_inurba_marseille","lat":43.28928,"lon":5.38404,"is_reserved":false,"is_disabled":false,"rental_uris":{"android":"levelo://app?vid=59ed2de8-0015-42ad-91d8-282617b90705","ios":"levelo://app?vid=59ed2de8-0015-42ad-91d8-282617b90705"},"vehicle_type_id":"4","last_reported":1740935224,"current_range_meters":2800,"station_id":"ce4bh612rcd13ifvqe6g","pricing_plan_id":"cebpf4jnsgd1na2vs0mg"},{"bike_id":"597db620-c13b-49e1-b2f9-832f0b639d21","system_id":"levelo_inurba_marseille","lat":43.29032,"lon":5.37566,"is_reserved":false,"is_disabled":false,"rental_uris":{"android":"levelo://app?vid=597db620-c13b-49e1-b2f9-832f0b639d21","ios":"levelo://app?vid=597db620-c13b-49e1-b2f9-832f0b639d21"},"vehicle_type_id":"4","last_reported":1740935224,"current_range_meters":2800,"station_id":"ce4bh692rcd13ifvqe90","pricing_plan_id":"cebpf4jnsgd1na2vs0mg"},{"bike_id":"3394f642-00b4-4f89-a0fd-3657afa7f93d","system_id":"levelo_inurba_marseille","lat":43.28678,"lon":5.3867,"is_reserved":false,"is_disabled":false,"rental_uris":{"android":"levelo://app?vid=3394f642-00b4-4f89-a0fd-3657afa7f93d","ios":"levelo://app?vid=3394f642-00b4-4f89-a0fd-3657afa7f93d"},"vehicle_type_id":"4","last_reported":1740935224,"current_range_meters":3200,"station_id":"ce4bh492rcd13ifvqdug","pricing_plan_id":"cebpf4jnsgd1na2vs0mg"},{"bike_id":"395f4e47-767b-4ee5-b3b4-6a8453576879","system_id":"levelo_inurba_marseille","lat":43.27313,"lon":5.39085,"is_reserved":false,"is_disabled":false,"rental_uris":{"android":"levelo://app?vid=395f4e47-767b-4ee5-b3b4-6a8453576879","ios":"levelo://app?vid=395f4e47-767b-4ee5-b3b4-6a8453576879"},"vehicle_type_id":"4","last_reported":1740935224,"current_range_meters":3200,"station_id":"ce4bhgp2rcd13ifvqfe0","pricing_plan_id":"cebpf4jnsgd1na2vs0mg"},{"bike_id":"b695c1b8-9d19-4083-975b-f498ffa15a5a","system_id":"levelo_inurba_marseille","lat":43.28688,"lon":5.37398,"is_reserved":false,"is_disabled":false,"rental_uris":{"android":"levelo://app?vid=b695c1b8-9d19-4083-975b-f498ffa15a5a","ios":"levelo://app?vid=b695c1b8-9d19-4083-975b-f498ffa15a5a"},"vehicle_type_id":"4","last_reported":1740935224,"current_range_meters":3200,"station_id":"ce4bh3p2rcd13ifvqdq0","pricing_plan_id":"cebpf4jnsgd1na2vs0mg"},{"bike_id":"a5fd71ea-4807-4e2d-a716-448c8cd70326","system_id":"levelo_inurba_marseille","lat":43.26549,"lon":5.3728,"is_reserved":false,"is_disabled":true,"rental_uris":{"android":"levelo://app?vid=a5fd71ea-4807-4e2d-a716-448c8cd70326","ios":"levelo://app?vid=a5fd71ea-4807-4e2d-a716-448c8cd70326"},"vehicle_type_id":"4","last_reported":1740935224,"current_range_meters":3200,"station_id":"ce4bhg12rcd13ifvqf70","pricing_plan_id":"cebpf4jnsgd1na2vs0mg"},{"bike_id":"239a3a18-827b-47ac-8bed-36c3c2e9ac7d","system_id":"levelo_inurba_marseille","lat":43.30138,"lon":5.37412,"is_reserved":false,"is_disabled":false,"rental_uris":{"android":"levelo://app?vid=239a3a18-827b-47ac-8bed-36c3c2e9ac7d","ios":"levelo://app?vid=239a3a18-827b-47ac-8bed-36c3c2e9ac7d"},"vehicle_type_id":"4","last_reported":1740935224,"current_range_meters":1600,"station_id":"ce4bgs92rcd13ifvqcc0","pricing_plan_id":"cebpf4jnsgd1na2vs0mg"},{"bike_id":"51abc8b0-5383-4a5b-9ce3-946c16942fbf","system_id":"levelo_inurba_marseille","lat":43.31503,"lon":5.37319,"is_reserved":false,"is_disabled":false,"rental_uris":{"android":"levelo://app?vid=51abc8b0-5383-4a5b-9ce3-946c16942fbf","ios":"levelo://app?vid=51abc8b0-5383-4a5b-9ce3-946c16942fbf"},"vehicle_type_id":"4","last_reported":1740935224,"current_range_meters":3200,"station_id":"ce4bgt12rcd13ifvqcd0","pricing_plan_id":"cebpf4jnsgd1na2vs0mg"},{"bike_id":"1a0cb533-3d11-40da-a205-1c39dbfc161c","system_id":"levelo_inurba_marseille","lat":43.29931,"lon":5.37465,"is_reserved":false,"is_disabled":false,"rental_uris":{"android":"levelo://app?vid=1a0cb533-3d11-40da-a205-1c39dbfc161c","ios":"levelo://app?vid=1a0cb533-3d11-40da-a205-1c39dbfc161c"},"vehicle_type_id":"4","last_reported":1740935224,"current_range_meters":3200,"station_id":"ce4bgjh2rcd13ifvqbg0","pricing_plan_id":"cebpf4jnsgd1na2vs0mg"},{"bike_id":"d6af2a55-e22c-4b16-9b22-aa5c12070e67","system_id":"levelo_inurba_marseille","lat":43.3028,"lon":5.36895,"is_reserved":false,"is_disabled":false,"rental_uris":{"android":"levelo://app?vid=d6af2a55-e22c-4b16-9b22-aa5c12070e67","ios":"levelo://app?vid=d6af2a55-e22c-4b16-9b22-aa5c12070e67"},"vehicle_type_id":"4","last_reported":1740935224,"current_range_meters":3600,"station_id":"ce4bgqh2rcd13ifvqc5g","pricing_plan_id":"cebpf4jnsgd1na2vs0mg"},{"bike_id":"ea6a02cb-3810-403c-ab47-423df20fff9f","system_id":"levelo_inurba_marseille","lat":43.28856,"lon":5.44996,"is_reserved":false,"is_disabled":false,"rental_uris":{"android":"levelo://app?vid=ea6a02cb-3810-403c-ab47-423df20fff9f","ios":"levelo://app?vid=ea6a02cb-3810-403c-ab47-423df20fff9f"},"vehicle_type_id":"4","last_reported":1740935224,"current_range_meters":3600,"station_id":"","pricing_plan_id":"cebpf4jnsgd1na2vs0mg"},{"bike_id":"e7a273f7-33da-4a04-98fb-585255aead15","system_id":"levelo_inurba_marseille","lat":43.27073,"lon":5.4228,"is_reserved":false,"is_disabled":false,"rental_uris":{"android":"levelo://app?vid=e7a273f7-33da-4a04-98fb-585255aead15","ios":"levelo://app?vid=e7a273f7-33da-4a04-98fb-585255aead15"},"vehicle_type_id":"4","last_reported":1740935224,"current_range_meters":1600,"station_id":"ce4bhk92rcd13ifvqgb0","pricing_plan_id":"cebpf4jnsgd1na2vs0mg"},{"bike_id":"9c902900-156d-44d2-9c6a-8ed91a8624b0","system_id":"levelo_inurba_marseille","lat":43.29304,"lon":5.37463,"is_reserved":false,"is_disabled":false,"rental_uris":{"android":"levelo://app?vid=9c902900-156d-44d2-9c6a-8ed91a8624b0","ios":"levelo://app?vid=9c902900-156d-44d2-9c6a-8ed91a8624b0"},"vehicle_type_id":"4","last_reported":1740935224,"current_range_meters":400,"station_id":"ce4bgi12rcd13ifvqb70","pricing_plan_id":"cebpf4jnsgd1na2vs0mg"},{"bike_id":"01db09d2-daee-4fa5-8866-08b35e9af81f","system_id":"levelo_inurba_marseille","lat":43.29571,"lon":5.42281,"is_reserved":false,"is_disabled":true,"rental_uris":{"android":"levelo://app?vid=01db09d2-daee-4fa5-8866-08b35e9af81f","ios":"levelo://app?vid=01db09d2-daee-4fa5-8866-08b35e9af81f"},"vehicle_type_id":"4","last_reported":1740935224,"current_range_meters":3600,"station_id":"ce4bhph2rcd13ifvqhdg","pricing_plan_id":"cebpf4jnsgd1na2vs0mg"},{"bike_id":"a6139a05-d14d-4802-8534-146cb41ab93a","system_id":"levelo_inurba_marseille","lat":43.29607,"lon":5.37728,"is_reserved":false,"is_disabled":false,"rental_uris":{"android":"levelo://app?vid=a6139a05-d14d-4802-8534-146cb41ab93a","ios":"levelo://app?vid=a6139a05-d14d-4802-8534-146cb41ab93a"},"vehicle_type_id":"4","last_reported":1740935224,"current_range_meters":3600,"station_id":"ce4bgi92rcd13ifvqb90","pricing_plan_id":"cebpf4jnsgd1na2vs0mg"},{"bike_id":"ca6715aa-8d9c-4b96-adb0-61f8a1b1a1a2","system_id":"levelo_inurba_marseille","lat":43.2828,"lon":5.35072,"is_reserved":false,"is_disabled":true,"rental_uris":{"android":"levelo://app?vid=ca6715aa-8d9c-4b96-adb0-61f8a1b1a1a2","ios":"levelo://app?vid=ca6715aa-8d9c-4b96-adb0-61f8a1b1a1a2"},"vehicle_type_id":"4","last_reported":1740935224,"current_range_meters":3600,"station_id":"ce4bhbp2rcd13ifvqerg","pricing_plan_id":"cebpf4jnsgd1na2vs0mg"},{"bike_id":"1e42ea53-463b-4a03-92f5-c395ff4abf73","system_id":"levelo_inurba_marseille","lat":43.25494,"lon":5.37642,"is_reserved":false,"is_disabled":true,"rental_uris":{"android":"levelo://app?vid=1e42ea53-463b-4a03-92f5-c395ff4abf73","ios":"levelo://app?vid=1e42ea53-463b-4a03-92f5-c395ff4abf73"},"vehicle_type_id":"4","last_reported":1740935224,"current_range_meters":4000,"station_id":"ce4bhh12rcd13ifvqff0","pricing_plan_id":"cebpf4jnsgd1na2vs0mg"},{"bike_id":"6ff2d2d1-8e67-4863-bf99-cabf0cc6cd49","system_id":"levelo_inurba_marseille","lat":43.27204,"lon":5.39182,"is_reserved":false,"is_disabled":false,"rental_uris":{"android":"levelo://app?vid=6ff2d2d1-8e67-4863-bf99-cabf0cc6cd49","ios":"levelo://app?vid=6ff2d2d1-8e67-4863-bf99-cabf0cc6cd49"},"vehicle_type_id":"4","last_reported":1740935224,"current_range_meters":3200,"station_id":"ce4bhhp2rcd13ifvqfm0","pricing_plan_id":"cebpf4jnsgd1na2vs0mg"},{"bike_id":"20414ac1-c9fa-436c-855a-8f392bbff234","system_id":"levelo_inurba_marseille","lat":43.2834,"lon":5.38106,"is_reserved":false,"is_disabled":false,"rental_uris":{"android":"levelo://app?vid=20414ac1-c9fa-436c-855a-8f392bbff234","ios":"levelo://app?vid=20414ac1-c9fa-436c-855a-8f392bbff234"},"vehicle_type_id":"4","last_reported":1740935224,"current_range_meters":3600,"station_id":"ce4bh412rcd13ifvqdr0","pricing_plan_id":"cebpf4jnsgd1na2vs0mg"},{"bike_id":"b967e503-863c-4dcd-8e2b-884104ac8730","system_id":"levelo_inurba_marseille","lat":43.28956,"lon":5.35939,"is_reserved":false,"is_disabled":false,"rental_uris":{"android":"levelo://app?vid=b967e503-863c-4dcd-8e2b-884104ac8730","ios":"levelo://app?vid=b967e503-863c-4dcd-8e2b-884104ac8730"},"vehicle_type_id":"4","last_reported":1740935224,"current_range_meters":4000,"station_id":"ce4bhb12rcd13ifvqem0","pricing_plan_id":"cebpf4jnsgd1na2vs0mg"},{"bike_id":"8cb3fb12-54f4-4969-a393-d6e04f524f2b","system_id":"levelo_inurba_marseille","lat":43.31489,"lon":5.37308,"is_reserved":false,"is_disabled":false,"rental_uris":{"android":"levelo://app?vid=8cb3fb12-54f4-4969-a393-d6e04f524f2b","ios":"levelo://app?vid=8cb3fb12-54f4-4969-a393-d6e04f524f2b"},"vehicle_type_id":"4","last_reported":1740935224,"current_range_meters":2000,"station_id":"ce4bgt12rcd13ifvqcd0","pricing_plan_id":"cebpf4jnsgd1na2vs0mg"},{"bike_id":"3a7f7e48-fe8e-4e54-a782-fc3131749f5d","system_id":"levelo_inurba_marseille","lat":43.301,"lon":5.39083,"is_reserved":false,"is_disabled":false,"rental_uris":{"android":"levelo://app?vid=3a7f7e48-fe8e-4e54-a782-fc3131749f5d","ios":"levelo://app?vid=3a7f7e48-fe8e-4e54-a782-fc3131749f5d"},"vehicle_type_id":"4","last_reported":1740935224,"current_range_meters":4400,"station_id":"ce4bh192rcd13ifvqdb0","pricing_plan_id":"cebpf4jnsgd1na2vs0mg"},{"bike_id":"508a02d7-da16-4977-ab36-a2ff2105428a","system_id":"levelo_inurba_marseille","lat":43.28481,"lon":5.38409,"is_reserved":false,"is_disabled":false,"rental_uris":{"android":"levelo://app?vid=508a02d7-da16-4977-ab36-a2ff2105428a","ios":"levelo://app?vid=508a02d7-da16-4977-ab36-a2ff2105428a"},"vehicle_type_id":"4","last_reported":1740935224,"current_range_meters":4800,"station_id":"ce4bh512rcd13ifvqe3g","pricing_plan_id":"cebpf4jnsgd1na2vs0mg"},{"bike_id":"0493fb67-a36e-41ed-9af2-89b334d9632c","system_id":"levelo_inurba_marseille","lat":43.23961,"lon":5.36628,"is_reserved":false,"is_disabled":false,"rental_uris":{"android":"levelo://app?vid=0493fb67-a36e-41ed-9af2-89b334d9632c","ios":"levelo://app?vid=0493fb67-a36e-41ed-9af2-89b334d9632c"},"vehicle_type_id":"4","last_reported":1740935224,"current_range_meters":4800,"station_id":"ce4bhi12rcd13ifvqfp0","pricing_plan_id":"cebpf4jnsgd1na2vs0mg"},{"bike_id":"bb67237a-f88f-4063-af78-fd788eb88d7b","system_id":"levelo_inurba_marseille","lat":43.31713,"lon":5.43709,"is_reserved":false,"is_disabled":false,"rental_uris":{"android":"levelo://app?vid=bb67237a-f88f-4063-af78-fd788eb88d7b","ios":"levelo://app?vid=bb67237a-f88f-4063-af78-fd788eb88d7b"},"vehicle_type_id":"4","last_reported":1740935224,"current_range_meters":4400,"station_id":"ce4bhp92rcd13ifvqhcg","pricing_plan_id":"cebpf4jnsgd1na2vs0mg"},{"bike_id":"acc712df-9231-42cf-8019-c9de21a45347","system_id":"levelo_inurba_marseille","lat":43.29532,"lon":5.38546,"is_reserved":false,"is_disabled":false,"rental_uris":{"android":"levelo://app?vid=acc712df-9231-42cf-8019-c9de21a45347","ios":"levelo://app?vid=acc712df-9231-42cf-8019-c9de21a45347"},"vehicle_type_id":"4","last_reported":1740935224,"current_range_meters":4800,"station_id":"ce4bgih2rcd13ifvqba0","pricing_plan_id":"cebpf4jnsgd1na2vs0mg"},{"bike_id":"fd29ec35-5e36-48cf-b730-40472773ec6d","system_id":"levelo_inurba_marseille","lat":43.29557,"lon":5.42295,"is_reserved":false,"is_disabled":false,"rental_uris":{"android":"levelo://app?vid=fd29ec35-5e36-48cf-b730-40472773ec6d","ios":"levelo://app?vid=fd29ec35-5e36-48cf-b730-40472773ec6d"},"vehicle_type_id":"4","last_reported":1740935224,"current_range_meters":4800,"station_id":"ce4bhph2rcd13ifvqhdg","pricing_plan_id":"cebpf4jnsgd1na2vs0mg"},{"bike_id":"2e208862-1e3c-4145-814a-d46897a0c46e","system_id":"levelo_inurba_marseille","lat":43.28611,"lon":5.37058,"is_reserved":false,"is_disabled":false,"rental_uris":{"android":"levelo://app?vid=2e208862-1e3c-4145-814a-d46897a0c46e","ios":"levelo://app?vid=2e208862-1e3c-4145-814a-d46897a0c46e"},"vehicle_type_id":"4","last_reported":1740935224,"current_range_meters":4800,"station_id":"ce4bht12rcd13ifvqi60","pricing_plan_id":"cebpf4jnsgd1na2vs0mg"},{"bike_id":"b873b545-982b-4653-b8bd-6a57dc18e06d","system_id":"levelo_inurba_marseille","lat":43.28477,"lon":5.38406,"is_reserved":false,"is_disabled":false,"rental_uris":{"android":"levelo://app?vid=b873b545-982b-4653-b8bd-6a57dc18e06d","ios":"levelo://app?vid=b873b545-982b-4653-b8bd-6a57dc18e06d"},"vehicle_type_id":"4","last_reported":1740935224,"current_range_meters":4800,"station_id":"ce4bh512rcd13ifvqe3g","pricing_plan_id":"cebpf4jnsgd1na2vs0mg"},{"bike_id":"dfb929c0-0be9-4f0d-947a-71be4d18e3a0","system_id":"levelo_inurba_marseille","lat":43.28671,"lon":5.3865,"is_reserved":false,"is_disabled":false,"rental_uris":{"android":"levelo://app?vid=dfb929c0-0be9-4f0d-947a-71be4d18e3a0","ios":"levelo://app?vid=dfb929c0-0be9-4f0d-947a-71be4d18e3a0"},"vehicle_type_id":"4","last_reported":1740935224,"current_range_meters":5600,"station_id":"ce4bh492rcd13ifvqdug","pricing_plan_id":"cebpf4jnsgd1na2vs0mg"},{"bike_id":"a6a14404-1625-4a30-9cc2-a138d6664e51","system_id":"levelo_inurba_marseille","lat":43.26963,"lon":5.38643,"is_reserved":false,"is_disabled":false,"rental_uris":{"android":"levelo://app?vid=a6a14404-1625-4a30-9cc2-a138d6664e51","ios":"levelo://app?vid=a6a14404-1625-4a30-9cc2-a138d6664e51"},"vehicle_type_id":"4","last_reported":1740935224,"current_range_meters":4800,"station_id":"ce4bhh92rcd13ifvqfh0","pricing_plan_id":"cebpf4jnsgd1na2vs0mg"},{"bike_id":"99021771-fd37-4c9e-ad3f-747bc4a8be0a","system_id":"levelo_inurba_marseille","lat":43.26804,"lon":5.4027,"is_reserved":false,"is_disabled":false,"rental_uris":{"android":"levelo://app?vid=99021771-fd37-4c9e-ad3f-747bc4a8be0a","ios":"levelo://app?vid=99021771-fd37-4c9e-ad3f-747bc4a8be0a"},"vehicle_type_id":"4","last_reported":1740935224,"current_range_meters":5600,"station_id":"ce501612rcd8frsf0b60","pricing_plan_id":"cebpf4jnsgd1na2vs0mg"},{"bike_id":"df808798-682a-40ea-be21-78b9336b8480","system_id":"levelo_inurba_marseille","lat":43.24818,"lon":5.37469,"is_reserved":false,"is_disabled":false,"rental_uris":{"android":"levelo://app?vid=df808798-682a-40ea-be21-78b9336b8480","ios":"levelo://app?vid=df808798-682a-40ea-be21-78b9336b8480"},"vehicle_type_id":"4","last_reported":1740935224,"current_range_meters":6000,"station_id":"ce4bhgh2rcd13ifvqfb0","pricing_plan_id":"cebpf4jnsgd1na2vs0mg"},{"bike_id":"b153ddf9-462f-41c3-a8fd-f616df44872f","system_id":"levelo_inurba_marseille","lat":43.25083,"lon":5.39518,"is_reserved":false,"is_disabled":false,"rental_uris":{"android":"levelo://app?vid=b153ddf9-462f-41c3-a8fd-f616df44872f","ios":"levelo://app?vid=b153ddf9-462f-41c3-a8fd-f616df44872f"},"vehicle_type_id":"4","last_reported":1740935224,"current_range_meters":6000,"station_id":"ce4bhm12rcd13ifvqgkg","pricing_plan_id":"cebpf4jnsgd1na2vs0mg"},{"bike_id":"d5f3545a-d7d3-4bdb-b9ca-af46e105f623","system_id":"levelo_inurba_marseille","lat":43.27438,"lon":5.39408,"is_reserved":false,"is_disabled":true,"rental_uris":{"android":"levelo://app?vid=d5f3545a-d7d3-4bdb-b9ca-af46e105f623","ios":"levelo://app?vid=d5f3545a-d7d3-4bdb-b9ca-af46e105f623"},"vehicle_type_id":"4","last_reported":1740935224,"current_range_meters":6000,"station_id":"ce4bhdp2rcd13ifvqf20","pricing_plan_id":"cebpf4jnsgd1na2vs0mg"},{"bike_id":"28a23890-2fd0-448b-898a-4b30ea34a2e4","system_id":"levelo_inurba_marseille","lat":43.28,"lon":5.40009,"is_reserved":false,"is_disabled":false,"rental_uris":{"android":"levelo://app?vid=28a23890-2fd0-448b-898a-4b30ea34a2e4","ios":"levelo://app?vid=28a23890-2fd0-448b-898a-4b30ea34a2e4"},"vehicle_type_id":"4","last_reported":1740935224,"current_range_meters":6000,"station_id":"ce4bho92rcd13ifvqh4g","pricing_plan_id":"cebpf4jnsgd1na2vs0mg"},{"bike_id":"e3d7d43b-d33e-4764-883d-77097c242d7a","system_id":"levelo_inurba_marseille","lat":43.30534,"lon":5.36707,"is_reserved":false,"is_disabled":true,"rental_uris":{"android":"levelo://app?vid=e3d7d43b-d33e-4764-883d-77097c242d7a","ios":"levelo://app?vid=e3d7d43b-d33e-4764-883d-77097c242d7a"},"vehicle_type_id":"4","last_reported":1740935224,"current_range_meters":6000,"station_id":"ce4bgrp2rcd13ifvqc9g","pricing_plan_id":"cebpf4jnsgd1na2vs0mg"},{"bike_id":"a38bd9fd-4513-466a-9b77-6bf547673042","system_id":"levelo_inurba_marseille","lat":43.276122,"lon":5.361057,"is_reserved":false,"is_disabled":false,"rental_uris":{"android":"levelo://app?vid=a38bd9fd-4513-466a-9b77-6bf547673042","ios":"levelo://app?vid=a38bd9fd-4513-466a-9b77-6bf547673042"},"vehicle_type_id":"4","last_reported":1740935224,"current_range_meters":6000,"station_id":"ce4bgj92rcd13ifvqbe0","pricing_plan_id":"cebpf4jnsgd1na2vs0mg"},{"bike_id":"f2cfe5a3-04de-4010-8b79-d28042318bc8","system_id":"levelo_inurba_marseille","lat":43.29526,"lon":5.39042,"is_reserved":false,"is_disabled":false,"rental_uris":{"android":"levelo://app?vid=f2cfe5a3-04de-4010-8b79-d28042318bc8","ios":"levelo://app?vid=f2cfe5a3-04de-4010-8b79-d28042318bc8"},"vehicle_type_id":"4","last_reported":1740935224,"current_range_meters":1600,"station_id":"ce4bh3p2rcd13ifvqdp0","pricing_plan_id":"cebpf4jnsgd1na2vs0mg"},{"bike_id":"3501be90-cc5a-445c-b569-1bbedd7f5298","system_id":"levelo_inurba_marseille","lat":43.23159,"lon":5.43691,"is_reserved":false,"is_disabled":true,"rental_uris":{"android":"levelo://app?vid=3501be90-cc5a-445c-b569-1bbedd7f5298","ios":"levelo://app?vid=3501be90-cc5a-445c-b569-1bbedd7f5298"},"vehicle_type_id":"4","last_reported":1740935224,"current_range_meters":6400,"station_id":"ce4bhmp2rcd13ifvqgog","pricing_plan_id":"cebpf4jnsgd1na2vs0mg"},{"bike_id":"53ebed9a-fd1a-4d94-96e3-0c8bc5887ace","system_id":"levelo_inurba_marseille","lat":43.314229,"lon":5.393688,"is_reserved":false,"is_disabled":false,"rental_uris":{"android":"levelo://app?vid=53ebed9a-fd1a-4d94-96e3-0c8bc5887ace","ios":"levelo://app?vid=53ebed9a-fd1a-4d94-96e3-0c8bc5887ace"},"vehicle_type_id":"4","last_reported":1740935224,"current_range_meters":6800,"station_id":"","pricing_plan_id":"cebpf4jnsgd1na2vs0mg"},{"bike_id":"17e77021-fbe7-4621-83d7-505e1377ab23","system_id":"levelo_inurba_marseille","lat":43.29982,"lon":5.38474,"is_reserved":false,"is_disabled":false,"rental_uris":{"android":"levelo://app?vid=17e77021-fbe7-4621-83d7-505e1377ab23","ios":"levelo://app?vid=17e77021-fbe7-4621-83d7-505e1377ab23"},"vehicle_type_id":"4","last_reported":1740935224,"current_range_meters":6400,"station_id":"ce4bgj92rcd13ifvqbd0","pricing_plan_id":"cebpf4jnsgd1na2vs0mg"},{"bike_id":"b849f981-3c18-4cde-8394-b24b04122ef0","system_id":"levelo_inurba_marseille","lat":43.26261,"lon":5.38243,"is_reserved":false,"is_disabled":false,"rental_uris":{"android":"levelo://app?vid=b849f981-3c18-4cde-8394-b24b04122ef0","ios":"levelo://app?vid=b849f981-3c18-4cde-8394-b24b04122ef0"},"vehicle_type_id":"4","last_reported":1740935224,"current_range_meters":6800,"station_id":"","pricing_plan_id":"cebpf4jnsgd1na2vs0mg"},{"bike_id":"db6d24f3-9c3c-46fd-a6d8-6b87f8fe11f7","system_id":"levelo_inurba_marseille","lat":43.28421,"lon":5.34984,"is_reserved":false,"is_disabled":false,"rental_uris":{"android":"levelo://app?vid=db6d24f3-9c3c-46fd-a6d8-6b87f8fe11f7","ios":"levelo://app?vid=db6d24f3-9c3c-46fd-a6d8-6b87f8fe11f7"},"vehicle_type_id":"4","last_reported":1740935224,"current_range_meters":6800,"station_id":"ce4bhbh2rcd13ifvqepg","pricing_plan_id":"cebpf4jnsgd1na2vs0mg"},{"bike_id":"17364cae-ad34-4230-8bb0-ac142c57f6f1","system_id":"levelo_inurba_marseille","lat":43.23192,"lon":5.3556,"is_reserved":false,"is_disabled":false,"rental_uris":{"android":"levelo://app?vid=17364cae-ad34-4230-8bb0-ac142c57f6f1","ios":"levelo://app?vid=17364cae-ad34-4230-8bb0-ac142c57f6f1"},"vehicle_type_id":"4","last_reported":1740935224,"current_range_meters":6800,"station_id":"ce4bhu92rcd13ifvqi70","pricing_plan_id":"cebpf4jnsgd1na2vs0mg"},{"bike_id":"d260b64e-0367-42d9-a703-ef06e70c19cf","system_id":"levelo_inurba_marseille","lat":43.29567,"lon":5.39965,"is_reserved":false,"is_disabled":false,"rental_uris":{"android":"levelo://app?vid=d260b64e-0367-42d9-a703-ef06e70c19cf","ios":"levelo://app?vid=d260b64e-0367-42d9-a703-ef06e70c19cf"},"vehicle_type_id":"4","last_reported":1740935224,"current_range_meters":4800,"station_id":"ce4bh312rcd13ifvqdj0","pricing_plan_id":"cebpf4jnsgd1na2vs0mg"},{"bike_id":"029628de-28eb-4022-8c46-dfe7b0455bc1","system_id":"levelo_inurba_marseille","lat":43.2742,"lon":5.39415,"is_reserved":false,"is_disabled":false,"rental_uris":{"android":"levelo://app?vid=029628de-28eb-4022-8c46-dfe7b0455bc1","ios":"levelo://app?vid=029628de-28eb-4022-8c46-dfe7b0455bc1"},"vehicle_type_id":"4","last_reported":1740935224,"current_range_meters":6800,"station_id":"ce4bhdp2rcd13ifvqf20","pricing_plan_id":"cebpf4jnsgd1na2vs0mg"},{"bike_id":"3cbb5843-7d6f-4ab1-8221-c879ecca96e4","system_id":"levelo_inurba_marseille","lat":43.32724,"lon":5.36298,"is_reserved":false,"is_disabled":false,"rental_uris":{"android":"levelo://app?vid=3cbb5843-7d6f-4ab1-8221-c879ecca96e4","ios":"levelo://app?vid=3cbb5843-7d6f-4ab1-8221-c879ecca96e4"},"vehicle_type_id":"4","last_reported":1740935224,"current_range_meters":6800,"station_id":"","pricing_plan_id":"cebpf4jnsgd1na2vs0mg"},{"bike_id":"c8bccc5c-c0fa-403e-b6b7-604362c57c4a","system_id":"levelo_inurba_marseille","lat":43.26938,"lon":5.40264,"is_reserved":false,"is_disabled":false,"rental_uris":{"android":"levelo://app?vid=c8bccc5c-c0fa-403e-b6b7-604362c57c4a","ios":"levelo://app?vid=c8bccc5c-c0fa-403e-b6b7-604362c57c4a"},"vehicle_type_id":"4","last_reported":1740935224,"current_range_meters":7200,"station_id":"cjm6bp8fraef2m0cb0m0","pricing_plan_id":"cebpf4jnsgd1na2vs0mg"},{"bike_id":"b811c60a-6933-40a7-84ba-ba9cab9803d2","system_id":"levelo_inurba_marseille","lat":43.24994,"lon":5.38928,"is_reserved":false,"is_disabled":false,"rental_uris":{"android":"levelo://app?vid=b811c60a-6933-40a7-84ba-ba9cab9803d2","ios":"levelo://app?vid=b811c60a-6933-40a7-84ba-ba9cab9803d2"},"vehicle_type_id":"4","last_reported":1740935224,"current_range_meters":7200,"station_id":"ce4bhgp2rcd13ifvqfd0","pricing_plan_id":"cebpf4jnsgd1na2vs0mg"},{"bike_id":"318dcb1b-9247-409e-9dad-ff18bd11104d","system_id":"levelo_inurba_marseille","lat":43.24808,"lon":5.37457,"is_reserved":false,"is_disabled":false,"rental_uris":{"android":"levelo://app?vid=318dcb1b-9247-409e-9dad-ff18bd11104d","ios":"levelo://app?vid=318dcb1b-9247-409e-9dad-ff18bd11104d"},"vehicle_type_id":"4","last_reported":1740935224,"current_range_meters":7200,"station_id":"ce4bhgh2rcd13ifvqfb0","pricing_plan_id":"cebpf4jnsgd1na2vs0mg"},{"bike_id":"3da75832-2bcc-4e5f-909f-b17b30f50baa","system_id":"levelo_inurba_marseille","lat":43.33722,"lon":5.39177,"is_reserved":false,"is_disabled":false,"rental_uris":{"android":"levelo://app?vid=3da75832-2bcc-4e5f-909f-b17b30f50baa","ios":"levelo://app?vid=3da75832-2bcc-4e5f-909f-b17b30f50baa"},"vehicle_type_id":"4","last_reported":1740935224,"current_range_meters":7200,"station_id":"ce4bhr92rcd13ifvqhsg","pricing_plan_id":"cebpf4jnsgd1na2vs0mg"},{"bike_id":"86fc34e5-32b7-4a02-8301-6e205904b1cd","system_id":"levelo_inurba_marseille","lat":43.25869,"lon":5.39895,"is_reserved":false,"is_disabled":false,"rental_uris":{"android":"levelo://app?vid=86fc34e5-32b7-4a02-8301-6e205904b1cd","ios":"levelo://app?vid=86fc34e5-32b7-4a02-8301-6e205904b1cd"},"vehicle_type_id":"4","last_reported":1740935224,"current_range_meters":6800,"station_id":"ce4bhl92rcd13ifvqghg","pricing_plan_id":"cebpf4jnsgd1na2vs0mg"},{"bike_id":"651a43c0-24fb-4c31-9ca0-442bd9c02099","system_id":"levelo_inurba_marseille","lat":43.23963,"lon":5.36634,"is_reserved":false,"is_disabled":false,"rental_uris":{"android":"levelo://app?vid=651a43c0-24fb-4c31-9ca0-442bd9c02099","ios":"levelo://app?vid=651a43c0-24fb-4c31-9ca0-442bd9c02099"},"vehicle_type_id":"4","last_reported":1740935224,"current_range_meters":7200,"station_id":"ce4bhi12rcd13ifvqfp0","pricing_plan_id":"cebpf4jnsgd1na2vs0mg"},{"bike_id":"17df8bf6-6b99-4433-86c9-6d5ce093c418","system_id":"levelo_inurba_marseille","lat":43.290055,"lon":5.356116,"is_reserved":false,"is_disabled":false,"rental_uris":{"android":"levelo://app?vid=17df8bf6-6b99-4433-86c9-6d5ce093c418","ios":"levelo://app?vid=17df8bf6-6b99-4433-86c9-6d5ce093c418"},"vehicle_type_id":"4","last_reported":1740935224,"current_range_meters":8000,"station_id":"ce4bh9p2rcd13ifvqec0","pricing_plan_id":"cebpf4jnsgd1na2vs0mg"},{"bike_id":"3114a359-5815-4e2f-a07b-583b47cb7676","system_id":"levelo_inurba_marseille","lat":43.28497,"lon":5.38405,"is_reserved":false,"is_disabled":false,"rental_uris":{"android":"levelo://app?vid=3114a359-5815-4e2f-a07b-583b47cb7676","ios":"levelo://app?vid=3114a359-5815-4e2f-a07b-583b47cb7676"},"vehicle_type_id":"4","last_reported":1740935224,"current_range_meters":7200,"station_id":"ce4bh512rcd13ifvqe3g","pricing_plan_id":"cebpf4jnsgd1na2vs0mg"},{"bike_id":"dd5cd7e7-0cb9-48f7-852c-a51cbc48c9e6","system_id":"levelo_inurba_marseille","lat":43.2979,"lon":5.38091,"is_reserved":false,"is_disabled":false,"rental_uris":{"android":"levelo://app?vid=dd5cd7e7-0cb9-48f7-852c-a51cbc48c9e6","ios":"levelo://app?vid=dd5cd7e7-0cb9-48f7-852c-a51cbc48c9e6"},"vehicle_type_id":"4","last_reported":1740935224,"current_range_meters":7200,"station_id":"ce4bgip2rcd13ifvqbb0","pricing_plan_id":"cebpf4jnsgd1na2vs0mg"},{"bike_id":"5d5a2bf8-1ee7-45cd-894a-143a4d88757e","system_id":"levelo_inurba_marseille","lat":43.30135,"lon":5.38775,"is_reserved":false,"is_disabled":false,"rental_uris":{"android":"levelo://app?vid=5d5a2bf8-1ee7-45cd-894a-143a4d88757e","ios":"levelo://app?vid=5d5a2bf8-1ee7-45cd-894a-143a4d88757e"},"vehicle_type_id":"4","last_reported":1740935224,"current_range_meters":6800,"station_id":"ce4bghh2rcd13ifvqb60","pricing_plan_id":"cebpf4jnsgd1na2vs0mg"},{"bike_id":"f480da84-1887-4ade-84fb-1c0d19a4cdd8","system_id":"levelo_inurba_marseille","lat":43.32281,"lon":5.38995,"is_reserved":false,"is_disabled":true,"rental_uris":{"android":"levelo://app?vid=f480da84-1887-4ade-84fb-1c0d19a4cdd8","ios":"levelo://app?vid=f480da84-1887-4ade-84fb-1c0d19a4cdd8"},"vehicle_type_id":"4","last_reported":1740935224,"current_range_meters":8000,"station_id":"","pricing_plan_id":"cebpf4jnsgd1na2vs0mg"},{"bike_id":"e1273b19-4429-4adc-983d-2484bcaa0070","system_id":"levelo_inurba_marseille","lat":43.31207,"lon":5.36867,"is_reserved":false,"is_disabled":false,"rental_uris":{"android":"levelo://app?vid=e1273b19-4429-4adc-983d-2484bcaa0070","ios":"levelo://app?vid=e1273b19-4429-4adc-983d-2484bcaa0070"},"vehicle_type_id":"4","last_reported":1740935224,"current_range_meters":7200,"station_id":"ce4bgl92rcd13ifvqbq0","pricing_plan_id":"cebpf4jnsgd1na2vs0mg"},{"bike_id":"73a4f0a9-2a9c-4839-80b8-acd05a8f539c","system_id":"levelo_inurba_marseille","lat":43.28691,"lon":5.37382,"is_reserved":false,"is_disabled":false,"rental_uris":{"android":"levelo://app?vid=73a4f0a9-2a9c-4839-80b8-acd05a8f539c","ios":"levelo://app?vid=73a4f0a9-2a9c-4839-80b8-acd05a8f539c"},"vehicle_type_id":"4","last_reported":1740935224,"current_range_meters":8000,"station_id":"ce4bh3p2rcd13ifvqdq0","pricing_plan_id":"cebpf4jnsgd1na2vs0mg"},{"bike_id":"b0122701-5c24-4816-b2c3-5c3603db40d5","system_id":"levelo_inurba_marseille","lat":43.28103,"lon":5.37846,"is_reserved":false,"is_disabled":false,"rental_uris":{"android":"levelo://app?vid=b0122701-5c24-4816-b2c3-5c3603db40d5","ios":"levelo://app?vid=b0122701-5c24-4816-b2c3-5c3603db40d5"},"vehicle_type_id":"4","last_reported":1740935224,"current_range_meters":8000,"station_id":"ce4bha12rcd13ifvqee0","pricing_plan_id":"cebpf4jnsgd1na2vs0mg"},{"bike_id":"eafe4694-db55-4cde-85aa-971c3787bde8","system_id":"levelo_inurba_marseille","lat":43.24168,"lon":5.36401,"is_reserved":false,"is_disabled":false,"rental_uris":{"android":"levelo://app?vid=eafe4694-db55-4cde-85aa-971c3787bde8","ios":"levelo://app?vid=eafe4694-db55-4cde-85aa-971c3787bde8"},"vehicle_type_id":"4","last_reported":1740935224,"current_range_meters":8000,"station_id":"cpo36qri1sfpv3e86is0","pricing_plan_id":"cebpf4jnsgd1na2vs0mg"},{"bike_id":"7cd9466f-a00e-4a72-aec9-d81037fedbf4","system_id":"levelo_inurba_marseille","lat":43.31255,"lon":5.36841,"is_reserved":false,"is_disabled":false,"rental_uris":{"android":"levelo://app?vid=7cd9466f-a00e-4a72-aec9-d81037fedbf4","ios":"levelo://app?vid=7cd9466f-a00e-4a72-aec9-d81037fedbf4"},"vehicle_type_id":"4","last_reported":1740935224,"current_range_meters":8000,"station_id":"ce4bgl92rcd13ifvqbq0","pricing_plan_id":"cebpf4jnsgd1na2vs0mg"},{"bike_id":"875e0e4e-acc7-4916-a21e-8a4a106acaf9","system_id":"levelo_inurba_marseille","lat":43.31287,"lon":5.40173,"is_reserved":false,"is_disabled":true,"rental_uris":{"android":"levelo://app?vid=875e0e4e-acc7-4916-a21e-8a4a106acaf9","ios":"levelo://app?vid=875e0e4e-acc7-4916-a21e-8a4a106acaf9"},"vehicle_type_id":"4","last_reported":1740935224,"current_range_meters":8000,"station_id":"ce4bh092rcd13ifvqd30","pricing_plan_id":"cebpf4jnsgd1na2vs0mg"},{"bike_id":"8df9b094-4d09-46b8-b35e-996c4beb636c","system_id":"levelo_inurba_marseille","lat":43.28418,"lon":5.34983,"is_reserved":false,"is_disabled":false,"rental_uris":{"android":"levelo://app?vid=8df9b094-4d09-46b8-b35e-996c4beb636c","ios":"levelo://app?vid=8df9b094-4d09-46b8-b35e-996c4beb636c"},"vehicle_type_id":"4","last_reported":1740935224,"current_range_meters":8000,"station_id":"ce4bhbh2rcd13ifvqepg","pricing_plan_id":"cebpf4jnsgd1na2vs0mg"},{"bike_id":"63f1c1d9-f2ad-400c-99c0-4e7930bdee54","system_id":"levelo_inurba_marseille","lat":43.2925,"lon":5.38439,"is_reserved":false,"is_disabled":false,"rental_uris":{"android":"levelo://app?vid=63f1c1d9-f2ad-400c-99c0-4e7930bdee54","ios":"levelo://app?vid=63f1c1d9-f2ad-400c-99c0-4e7930bdee54"},"vehicle_type_id":"4","last_reported":1740935224,"current_range_meters":7200,"station_id":"ce4bh692rcd13ifvqea0","pricing_plan_id":"cebpf4jnsgd1na2vs0mg"},{"bike_id":"4a01e614-9a34-4e70-9e02-4e744008ae90","system_id":"levelo_inurba_marseille","lat":43.31382,"lon":5.39191,"is_reserved":false,"is_disabled":false,"rental_uris":{"android":"levelo://app?vid=4a01e614-9a34-4e70-9e02-4e744008ae90","ios":"levelo://app?vid=4a01e614-9a34-4e70-9e02-4e744008ae90"},"vehicle_type_id":"4","last_reported":1740935224,"current_range_meters":8000,"station_id":"","pricing_plan_id":"cebpf4jnsgd1na2vs0mg"},{"bike_id":"90ce9610-e9f5-4a02-9973-a06dfc3817c9","system_id":"levelo_inurba_marseille","lat":43.25119,"lon":5.40315,"is_reserved":false,"is_disabled":false,"rental_uris":{"android":"levelo://app?vid=90ce9610-e9f5-4a02-9973-a06dfc3817c9","ios":"levelo://app?vid=90ce9610-e9f5-4a02-9973-a06dfc3817c9"},"vehicle_type_id":"4","last_reported":1740935224,"current_range_meters":8000,"station_id":"ce4bhlh2rcd13ifvqgig","pricing_plan_id":"cebpf4jnsgd1na2vs0mg"},{"bike_id":"4564f812-f08b-4a66-981e-2461c0bf420c","system_id":"levelo_inurba_marseille","lat":43.24549,"lon":5.39523,"is_reserved":false,"is_disabled":false,"rental_uris":{"android":"levelo://app?vid=4564f812-f08b-4a66-981e-2461c0bf420c","ios":"levelo://app?vid=4564f812-f08b-4a66-981e-2461c0bf420c"},"vehicle_type_id":"4","last_reported":1740935224,"current_range_meters":2000,"station_id":"ce4bhlp2rcd13ifvqgjg","pricing_plan_id":"cebpf4jnsgd1na2vs0mg"},{"bike_id":"7ef7ac43-0eab-4d6d-b040-181e2e2d7919","system_id":"levelo_inurba_marseille","lat":43.25015,"lon":5.38914,"is_reserved":false,"is_disabled":false,"rental_uris":{"android":"levelo://app?vid=7ef7ac43-0eab-4d6d-b040-181e2e2d7919","ios":"levelo://app?vid=7ef7ac43-0eab-4d6d-b040-181e2e2d7919"},"vehicle_type_id":"4","last_reported":1740935224,"current_range_meters":8000,"station_id":"ce4bhgp2rcd13ifvqfd0","pricing_plan_id":"cebpf4jnsgd1na2vs0mg"},{"bike_id":"c2e077c7-6036-44cb-b942-655755e2bcb7","system_id":"levelo_inurba_marseille","lat":43.29969,"lon":5.38501,"is_reserved":false,"is_disabled":false,"rental_uris":{"android":"levelo://app?vid=c2e077c7-6036-44cb-b942-655755e2bcb7","ios":"levelo://app?vid=c2e077c7-6036-44cb-b942-655755e2bcb7"},"vehicle_type_id":"4","last_reported":1740935224,"current_range_meters":4000,"station_id":"ce4bgk12rcd13ifvqbi0","pricing_plan_id":"cebpf4jnsgd1na2vs0mg"},{"bike_id":"5c9e4aa6-1f73-442c-89c7-13de3e7e56f9","system_id":"levelo_inurba_marseille","lat":43.24086,"lon":5.37755,"is_reserved":false,"is_disabled":false,"rental_uris":{"android":"levelo://app?vid=5c9e4aa6-1f73-442c-89c7-13de3e7e56f9","ios":"levelo://app?vid=5c9e4aa6-1f73-442c-89c7-13de3e7e56f9"},"vehicle_type_id":"4","last_reported":1740935224,"current_range_meters":8400,"station_id":"ce4bhnp2rcd13ifvqgvg","pricing_plan_id":"cebpf4jnsgd1na2vs0mg"},{"bike_id":"7899c946-f285-45e8-94fd-3c4576dfc396","system_id":"levelo_inurba_marseille","lat":43.30922,"lon":5.36866,"is_reserved":false,"is_disabled":false,"rental_uris":{"android":"levelo://app?vid=7899c946-f285-45e8-94fd-3c4576dfc396","ios":"levelo://app?vid=7899c946-f285-45e8-94fd-3c4576dfc396"},"vehicle_type_id":"4","last_reported":1740935224,"current_range_meters":8400,"station_id":"ce4bgn92rcd13ifvqbvg","pricing_plan_id":"cebpf4jnsgd1na2vs0mg"},{"bike_id":"0fb4c3ea-31f7-4190-8d2f-52a4689f0dee","system_id":"levelo_inurba_marseille","lat":43.24661,"lon":5.3816,"is_reserved":false,"is_disabled":false,"rental_uris":{"android":"levelo://app?vid=0fb4c3ea-31f7-4190-8d2f-52a4689f0dee","ios":"levelo://app?vid=0fb4c3ea-31f7-4190-8d2f-52a4689f0dee"},"vehicle_type_id":"4","last_reported":1740935224,"current_range_meters":8400,"station_id":"ce4bhih2rcd13ifvqfr0","pricing_plan_id":"cebpf4jnsgd1na2vs0mg"},{"bike_id":"5d581bbf-c03d-40c4-8c08-d40ad9eeaa19","system_id":"levelo_inurba_marseille","lat":43.29109,"lon":5.42686,"is_reserved":false,"is_disabled":false,"rental_uris":{"android":"levelo://app?vid=5d581bbf-c03d-40c4-8c08-d40ad9eeaa19","ios":"levelo://app?vid=5d581bbf-c03d-40c4-8c08-d40ad9eeaa19"},"vehicle_type_id":"4","last_reported":1740935224,"current_range_meters":8400,"station_id":"","pricing_plan_id":"cebpf4jnsgd1na2vs0mg"},{"bike_id":"a49f3958-1797-4ba6-a931-ac46d72ecef1","system_id":"levelo_inurba_marseille","lat":43.26227,"lon":5.4045,"is_reserved":false,"is_disabled":false,"rental_uris":{"android":"levelo://app?vid=a49f3958-1797-4ba6-a931-ac46d72ecef1","ios":"levelo://app?vid=a49f3958-1797-4ba6-a931-ac46d72ecef1"},"vehicle_type_id":"4","last_reported":1740935224,"current_range_meters":8400,"station_id":"ce4bhmh2rcd13ifvqgmg","pricing_plan_id":"cebpf4jnsgd1na2vs0mg"},{"bike_id":"a49d64ff-aff0-4639-a2e1-63c005bbfca9","system_id":"levelo_inurba_marseille","lat":43.31708,"lon":5.37728,"is_reserved":false,"is_disabled":false,"rental_uris":{"android":"levelo://app?vid=a49d64ff-aff0-4639-a2e1-63c005bbfca9","ios":"levelo://app?vid=a49d64ff-aff0-4639-a2e1-63c005bbfca9"},"vehicle_type_id":"4","last_reported":1740935224,"current_range_meters":14000,"station_id":"ce4bgth2rcd13ifvqch0","pricing_plan_id":"cebpf4jnsgd1na2vs0mg"},{"bike_id":"259d7138-5d9c-48a2-b6cb-30127d32f76b","system_id":"levelo_inurba_marseille","lat":43.24809,"lon":5.37462,"is_reserved":false,"is_disabled":false,"rental_uris":{"android":"levelo://app?vid=259d7138-5d9c-48a2-b6cb-30127d32f76b","ios":"levelo://app?vid=259d7138-5d9c-48a2-b6cb-30127d32f76b"},"vehicle_type_id":"4","last_reported":1740935224,"current_range_meters":8400,"station_id":"ce4bhgh2rcd13ifvqfb0","pricing_plan_id":"cebpf4jnsgd1na2vs0mg"},{"bike_id":"d6f1abb2-c3d6-4c28-a749-60ea34bfd838","system_id":"levelo_inurba_marseille","lat":43.30302,"lon":5.39225,"is_reserved":false,"is_disabled":false,"rental_uris":{"android":"levelo://app?vid=d6f1abb2-c3d6-4c28-a749-60ea34bfd838","ios":"levelo://app?vid=d6f1abb2-c3d6-4c28-a749-60ea34bfd838"},"vehicle_type_id":"4","last_reported":1740935224,"current_range_meters":8400,"station_id":"ce4bgkh2rcd13ifvqbk0","pricing_plan_id":"cebpf4jnsgd1na2vs0mg"},{"bike_id":"7f47d482-09e6-40be-bf28-f1af69f2fc72","system_id":"levelo_inurba_marseille","lat":43.24069,"lon":5.37762,"is_reserved":false,"is_disabled":false,"rental_uris":{"android":"levelo://app?vid=7f47d482-09e6-40be-bf28-f1af69f2fc72","ios":"levelo://app?vid=7f47d482-09e6-40be-bf28-f1af69f2fc72"},"vehicle_type_id":"4","last_reported":1740935224,"current_range_meters":8400,"station_id":"ce4bhnp2rcd13ifvqgvg","pricing_plan_id":"cebpf4jnsgd1na2vs0mg"},{"bike_id":"3d326c83-df55-456d-a39d-f1c118f8a994","system_id":"levelo_inurba_marseille","lat":43.30233,"lon":5.40064,"is_reserved":false,"is_disabled":true,"rental_uris":{"android":"levelo://app?vid=3d326c83-df55-456d-a39d-f1c118f8a994","ios":"levelo://app?vid=3d326c83-df55-456d-a39d-f1c118f8a994"},"vehicle_type_id":"4","last_reported":1740935224,"current_range_meters":8400,"station_id":"ce4bgvh2rcd13ifvqcs0","pricing_plan_id":"cebpf4jnsgd1na2vs0mg"},{"bike_id":"34763611-ebe6-4cc1-8950-30c66c591f5c","system_id":"levelo_inurba_marseille","lat":43.33021,"lon":5.39046,"is_reserved":false,"is_disabled":false,"rental_uris":{"android":"levelo://app?vid=34763611-ebe6-4cc1-8950-30c66c591f5c","ios":"levelo://app?vid=34763611-ebe6-4cc1-8950-30c66c591f5c"},"vehicle_type_id":"4","last_reported":1740935224,"current_range_meters":8400,"station_id":"ce4bhr92rcd13ifvqhrg","pricing_plan_id":"cebpf4jnsgd1na2vs0mg"},{"bike_id":"4320d103-322d-4d96-86a8-99897045ae34","system_id":"levelo_inurba_marseille","lat":43.24088,"lon":5.37757,"is_reserved":false,"is_disabled":false,"rental_uris":{"android":"levelo://app?vid=4320d103-322d-4d96-86a8-99897045ae34","ios":"levelo://app?vid=4320d103-322d-4d96-86a8-99897045ae34"},"vehicle_type_id":"4","last_reported":1740935224,"current_range_meters":8400,"station_id":"ce4bhnp2rcd13ifvqgvg","pricing_plan_id":"cebpf4jnsgd1na2vs0mg"},{"bike_id":"0693b9d6-4a9d-4e38-bfa2-80f934bcc2e3","system_id":"levelo_inurba_marseille","lat":43.24172,"lon":5.36398,"is_reserved":false,"is_disabled":false,"rental_uris":{"android":"levelo://app?vid=0693b9d6-4a9d-4e38-bfa2-80f934bcc2e3","ios":"levelo://app?vid=0693b9d6-4a9d-4e38-bfa2-80f934bcc2e3"},"vehicle_type_id":"4","last_reported":1740935224,"current_range_meters":8800,"station_id":"cpo36qri1sfpv3e86is0","pricing_plan_id":"cebpf4jnsgd1na2vs0mg"},{"bike_id":"5e556b50-cf5d-4b0a-af2c-a04de8186495","system_id":"levelo_inurba_marseille","lat":43.31362,"lon":5.38492,"is_reserved":false,"is_disabled":false,"rental_uris":{"android":"levelo://app?vid=5e556b50-cf5d-4b0a-af2c-a04de8186495","ios":"levelo://app?vid=5e556b50-cf5d-4b0a-af2c-a04de8186495"},"vehicle_type_id":"4","last_reported":1740935224,"current_range_meters":8800,"station_id":"ce4bgt92rcd13ifvqcf0","pricing_plan_id":"cebpf4jnsgd1na2vs0mg"},{"bike_id":"65d0eb0a-a0fe-45dc-95d3-9b5b2e9c75df","system_id":"levelo_inurba_marseille","lat":43.27989,"lon":5.4001,"is_reserved":false,"is_disabled":true,"rental_uris":{"android":"levelo://app?vid=65d0eb0a-a0fe-45dc-95d3-9b5b2e9c75df","ios":"levelo://app?vid=65d0eb0a-a0fe-45dc-95d3-9b5b2e9c75df"},"vehicle_type_id":"4","last_reported":1740935224,"current_range_meters":8800,"station_id":"ce4bho92rcd13ifvqh4g","pricing_plan_id":"cebpf4jnsgd1na2vs0mg"},{"bike_id":"e23d6240-6ee7-4c2c-897e-dc4888fcae4f","system_id":"levelo_inurba_marseille","lat":43.29546,"lon":5.37519,"is_reserved":false,"is_disabled":false,"rental_uris":{"android":"levelo://app?vid=e23d6240-6ee7-4c2c-897e-dc4888fcae4f","ios":"levelo://app?vid=e23d6240-6ee7-4c2c-897e-dc4888fcae4f"},"vehicle_type_id":"4","last_reported":1740935224,"current_range_meters":8800,"station_id":"ce4bgkp2rcd13ifvqbmg","pricing_plan_id":"cebpf4jnsgd1na2vs0mg"},{"bike_id":"0e4d5d36-7d5d-4fbf-9597-759cc9a1b223","system_id":"levelo_inurba_marseille","lat":43.30563,"lon":5.37246,"is_reserved":false,"is_disabled":false,"rental_uris":{"android":"levelo://app?vid=0e4d5d36-7d5d-4fbf-9597-759cc9a1b223","ios":"levelo://app?vid=0e4d5d36-7d5d-4fbf-9597-759cc9a1b223"},"vehicle_type_id":"4","last_reported":1740935224,"current_range_meters":8800,"station_id":"","pricing_plan_id":"cebpf4jnsgd1na2vs0mg"},{"bike_id":"d149ba3b-206e-46a0-8a3f-7909f974e9bd","system_id":"levelo_inurba_marseille","lat":43.30046,"lon":5.4015,"is_reserved":false,"is_disabled":false,"rental_uris":{"android":"levelo://app?vid=d149ba3b-206e-46a0-8a3f-7909f974e9bd","ios":"levelo://app?vid=d149ba3b-206e-46a0-8a3f-7909f974e9bd"},"vehicle_type_id":"4","last_reported":1740935224,"current_range_meters":8800,"station_id":"","pricing_plan_id":"cebpf4jnsgd1na2vs0mg"},{"bike_id":"45e1b94b-cc10-4e23-be69-6fdab371fb4f","system_id":"levelo_inurba_marseille","lat":43.27422,"lon":5.39414,"is_reserved":false,"is_disabled":false,"rental_uris":{"android":"levelo://app?vid=45e1b94b-cc10-4e23-be69-6fdab371fb4f","ios":"levelo://app?vid=45e1b94b-cc10-4e23-be69-6fdab371fb4f"},"vehicle_type_id":"4","last_reported":1740935224,"current_range_meters":4400,"station_id":"ce4bhdp2rcd13ifvqf20","pricing_plan_id":"cebpf4jnsgd1na2vs0mg"},{"bike_id":"4c2bba23-ca4b-414b-a09e-ff15bf44cd05","system_id":"levelo_inurba_marseille","lat":43.2879,"lon":5.3711,"is_reserved":false,"is_disabled":false,"rental_uris":{"android":"levelo://app?vid=4c2bba23-ca4b-414b-a09e-ff15bf44cd05","ios":"levelo://app?vid=4c2bba23-ca4b-414b-a09e-ff15bf44cd05"},"vehicle_type_id":"4","last_reported":1740935224,"current_range_meters":8800,"station_id":"","pricing_plan_id":"cebpf4jnsgd1na2vs0mg"},{"bike_id":"9fdc1308-f67e-454b-b038-9195ebf81e1d","system_id":"levelo_inurba_marseille","lat":43.29554,"lon":5.42292,"is_reserved":false,"is_disabled":false,"rental_uris":{"android":"levelo://app?vid=9fdc1308-f67e-454b-b038-9195ebf81e1d","ios":"levelo://app?vid=9fdc1308-f67e-454b-b038-9195ebf81e1d"},"vehicle_type_id":"4","last_reported":1740935224,"current_range_meters":8400,"station_id":"ce4bhph2rcd13ifvqhdg","pricing_plan_id":"cebpf4jnsgd1na2vs0mg"},{"bike_id":"44954537-5fea-4c11-867e-da5d86b46215","system_id":"levelo_inurba_marseille","lat":43.31004,"lon":5.37329,"is_reserved":false,"is_disabled":false,"rental_uris":{"android":"levelo://app?vid=44954537-5fea-4c11-867e-da5d86b46215","ios":"levelo://app?vid=44954537-5fea-4c11-867e-da5d86b46215"},"vehicle_type_id":"4","last_reported":1740935224,"current_range_meters":9200,"station_id":"","pricing_plan_id":"cebpf4jnsgd1na2vs0mg"},{"bike_id":"5365f3e3-1095-4284-be0e-5e73a795384b","system_id":"levelo_inurba_marseille","lat":43.25734,"lon":5.41083,"is_reserved":false,"is_disabled":false,"rental_uris":{"android":"levelo://app?vid=5365f3e3-1095-4284-be0e-5e73a795384b","ios":"levelo://app?vid=5365f3e3-1095-4284-be0e-5e73a795384b"},"vehicle_type_id":"4","last_reported":1740935224,"current_range_meters":9200,"station_id":"ce4bhkp2rcd13ifvqgd0","pricing_plan_id":"cebpf4jnsgd1na2vs0mg"},{"bike_id":"e68ffee2-157d-4d6d-9753-411110e2f70e","system_id":"levelo_inurba_marseille","lat":43.25719,"lon":5.41113,"is_reserved":false,"is_disabled":true,"rental_uris":{"android":"levelo://app?vid=e68ffee2-157d-4d6d-9753-411110e2f70e","ios":"levelo://app?vid=e68ffee2-157d-4d6d-9753-411110e2f70e"},"vehicle_type_id":"4","last_reported":1740935224,"current_range_meters":9200,"station_id":"ce4bhkp2rcd13ifvqgd0","pricing_plan_id":"cebpf4jnsgd1na2vs0mg"},{"bike_id":"4a1cf917-29c8-4db0-990e-c26360253d1e","system_id":"levelo_inurba_marseille","lat":43.2869,"lon":5.3865,"is_reserved":false,"is_disabled":false,"rental_uris":{"android":"levelo://app?vid=4a1cf917-29c8-4db0-990e-c26360253d1e","ios":"levelo://app?vid=4a1cf917-29c8-4db0-990e-c26360253d1e"},"vehicle_type_id":"4","last_reported":1740935224,"current_range_meters":8400,"station_id":"ce4bh492rcd13ifvqdug","pricing_plan_id":"cebpf4jnsgd1na2vs0mg"},{"bike_id":"cdc7bb16-17ae-4a5f-9bc7-0aeaf3f3b2d1","system_id":"levelo_inurba_marseille","lat":43.29606,"lon":5.38105,"is_reserved":false,"is_disabled":false,"rental_uris":{"android":"levelo://app?vid=cdc7bb16-17ae-4a5f-9bc7-0aeaf3f3b2d1","ios":"levelo://app?vid=cdc7bb16-17ae-4a5f-9bc7-0aeaf3f3b2d1"},"vehicle_type_id":"4","last_reported":1740935224,"current_range_meters":9200,"station_id":"ce4bgl12rcd13ifvqbo0","pricing_plan_id":"cebpf4jnsgd1na2vs0mg"},{"bike_id":"f53a24c7-b4ca-4142-8ba4-47df0ddfac13","system_id":"levelo_inurba_marseille","lat":43.30876,"lon":5.36852,"is_reserved":false,"is_disabled":false,"rental_uris":{"android":"levelo://app?vid=f53a24c7-b4ca-4142-8ba4-47df0ddfac13","ios":"levelo://app?vid=f53a24c7-b4ca-4142-8ba4-47df0ddfac13"},"vehicle_type_id":"4","last_reported":1740935224,"current_range_meters":9200,"station_id":"ce4bgn92rcd13ifvqbvg","pricing_plan_id":"cebpf4jnsgd1na2vs0mg"},{"bike_id":"adaef3d7-1b95-490c-a7fc-4e761e475ef8","system_id":"levelo_inurba_marseille","lat":43.24808,"lon":5.37454,"is_reserved":false,"is_disabled":false,"rental_uris":{"android":"levelo://app?vid=adaef3d7-1b95-490c-a7fc-4e761e475ef8","ios":"levelo://app?vid=adaef3d7-1b95-490c-a7fc-4e761e475ef8"},"vehicle_type_id":"4","last_reported":1740935224,"current_range_meters":9200,"station_id":"ce4bhgh2rcd13ifvqfb0","pricing_plan_id":"cebpf4jnsgd1na2vs0mg"},{"bike_id":"0c6ae537-229a-4d33-bc48-a3b75a80f5df","system_id":"levelo_inurba_marseille","lat":43.2842,"lon":5.34985,"is_reserved":false,"is_disabled":false,"rental_uris":{"android":"levelo://app?vid=0c6ae537-229a-4d33-bc48-a3b75a80f5df","ios":"levelo://app?vid=0c6ae537-229a-4d33-bc48-a3b75a80f5df"},"vehicle_type_id":"4","last_reported":1740935224,"current_range_meters":9200,"station_id":"ce4bhbh2rcd13ifvqepg","pricing_plan_id":"cebpf4jnsgd1na2vs0mg"},{"bike_id":"f488411f-3bed-4966-a527-41fb67b98397","system_id":"levelo_inurba_marseille","lat":43.30884,"lon":5.39646,"is_reserved":false,"is_disabled":false,"rental_uris":{"android":"levelo://app?vid=f488411f-3bed-4966-a527-41fb67b98397","ios":"levelo://app?vid=f488411f-3bed-4966-a527-41fb67b98397"},"vehicle_type_id":"4","last_reported":1740935224,"current_range_meters":3600,"station_id":"ce4bh012rcd13ifvqcv0","pricing_plan_id":"cebpf4jnsgd1na2vs0mg"},{"bike_id":"082db46a-c5a5-413b-b7bc-2a9573be91c8","system_id":"levelo_inurba_marseille","lat":43.28353,"lon":5.38113,"is_reserved":false,"is_disabled":false,"rental_uris":{"android":"levelo://app?vid=082db46a-c5a5-413b-b7bc-2a9573be91c8","ios":"levelo://app?vid=082db46a-c5a5-413b-b7bc-2a9573be91c8"},"vehicle_type_id":"4","last_reported":1740935224,"current_range_meters":9600,"station_id":"ce4bh412rcd13ifvqdr0","pricing_plan_id":"cebpf4jnsgd1na2vs0mg"},{"bike_id":"32baf06d-eca1-4981-bd19-70b85ee792fe","system_id":"levelo_inurba_marseille","lat":43.29526,"lon":5.39041,"is_reserved":false,"is_disabled":false,"rental_uris":{"android":"levelo://app?vid=32baf06d-eca1-4981-bd19-70b85ee792fe","ios":"levelo://app?vid=32baf06d-eca1-4981-bd19-70b85ee792fe"},"vehicle_type_id":"4","last_reported":1740935224,"current_range_meters":9600,"station_id":"ce4bh3p2rcd13ifvqdp0","pricing_plan_id":"cebpf4jnsgd1na2vs0mg"},{"bike_id":"f711a177-8c95-4e96-bcaf-e6e0dc33f59e","system_id":"levelo_inurba_marseille","lat":43.24396,"lon":5.37049,"is_reserved":false,"is_disabled":false,"rental_uris":{"android":"levelo://app?vid=f711a177-8c95-4e96-bcaf-e6e0dc33f59e","ios":"levelo://app?vid=f711a177-8c95-4e96-bcaf-e6e0dc33f59e"},"vehicle_type_id":"4","last_reported":1740935224,"current_range_meters":9600,"station_id":"ce4bhhh2rcd13ifvqfk0","pricing_plan_id":"cebpf4jnsgd1na2vs0mg"},{"bike_id":"5e40e677-73ed-4b49-bdf6-1d82fe61512c","system_id":"levelo_inurba_marseille","lat":43.29557,"lon":5.422692,"is_reserved":false,"is_disabled":true,"rental_uris":{"android":"levelo://app?vid=5e40e677-73ed-4b49-bdf6-1d82fe61512c","ios":"levelo://app?vid=5e40e677-73ed-4b49-bdf6-1d82fe61512c"},"vehicle_type_id":"4","last_reported":1740935224,"current_range_meters":9600,"station_id":"ce4bhph2rcd13ifvqhdg","pricing_plan_id":"cebpf4jnsgd1na2vs0mg"},{"bike_id":"f4af2fc5-12b1-413f-b3e8-70775a52b007","system_id":"levelo_inurba_marseille","lat":43.2417,"lon":5.3975,"is_reserved":false,"is_disabled":false,"rental_uris":{"android":"levelo://app?vid=f4af2fc5-12b1-413f-b3e8-70775a52b007","ios":"levelo://app?vid=f4af2fc5-12b1-413f-b3e8-70775a52b007"},"vehicle_type_id":"4","last_reported":1740935224,"current_range_meters":9600,"station_id":"ce4bhn12rcd13ifvqgpg","pricing_plan_id":"cebpf4jnsgd1na2vs0mg"},{"bike_id":"bd701142-5eca-4346-8dfa-871e0b975cde","system_id":"levelo_inurba_marseille","lat":43.27679,"lon":5.3886,"is_reserved":false,"is_disabled":false,"rental_uris":{"android":"levelo://app?vid=bd701142-5eca-4346-8dfa-871e0b975cde","ios":"levelo://app?vid=bd701142-5eca-4346-8dfa-871e0b975cde"},"vehicle_type_id":"4","last_reported":1740935224,"current_range_meters":8400,"station_id":"ce4bhi12rcd13ifvqfo0","pricing_plan_id":"cebpf4jnsgd1na2vs0mg"},{"bike_id":"13985eab-e3f9-4cc2-ba2f-d24a29935124","system_id":"levelo_inurba_marseille","lat":43.30803,"lon":5.37376,"is_reserved":false,"is_disabled":false,"rental_uris":{"android":"levelo://app?vid=13985eab-e3f9-4cc2-ba2f-d24a29935124","ios":"levelo://app?vid=13985eab-e3f9-4cc2-ba2f-d24a29935124"},"vehicle_type_id":"4","last_reported":1740935224,"current_range_meters":10000,"station_id":"","pricing_plan_id":"cebpf4jnsgd1na2vs0mg"},{"bike_id":"8689682f-2568-4e90-b3f9-a8802bd64794","system_id":"levelo_inurba_marseille","lat":43.29866,"lon":5.38917,"is_reserved":false,"is_disabled":false,"rental_uris":{"android":"levelo://app?vid=8689682f-2568-4e90-b3f9-a8802bd64794","ios":"levelo://app?vid=8689682f-2568-4e90-b3f9-a8802bd64794"},"vehicle_type_id":"4","last_reported":1740935224,"current_range_meters":10000,"station_id":"ce4bh392rcd13ifvqdl0","pricing_plan_id":"cebpf4jnsgd1na2vs0mg"},{"bike_id":"d83f8a8b-8d85-4fa7-a86c-9c9f8c9879ad","system_id":"levelo_inurba_marseille","lat":43.30303,"lon":5.36889,"is_reserved":false,"is_disabled":false,"rental_uris":{"android":"levelo://app?vid=d83f8a8b-8d85-4fa7-a86c-9c9f8c9879ad","ios":"levelo://app?vid=d83f8a8b-8d85-4fa7-a86c-9c9f8c9879ad"},"vehicle_type_id":"4","last_reported":1740935224,"current_range_meters":10000,"station_id":"ce4bgqh2rcd13ifvqc5g","pricing_plan_id":"cebpf4jnsgd1na2vs0mg"},{"bike_id":"c56107b8-f17b-4384-b213-34b896cb5d85","system_id":"levelo_inurba_marseille","lat":43.29293,"lon":5.3747,"is_reserved":false,"is_disabled":false,"rental_uris":{"android":"levelo://app?vid=c56107b8-f17b-4384-b213-34b896cb5d85","ios":"levelo://app?vid=c56107b8-f17b-4384-b213-34b896cb5d85"},"vehicle_type_id":"4","last_reported":1740935224,"current_range_meters":9200,"station_id":"ce4bgi12rcd13ifvqb70","pricing_plan_id":"cebpf4jnsgd1na2vs0mg"},{"bike_id":"fc1caa54-9d90-48f1-b7ca-bb8ec97bbf26","system_id":"levelo_inurba_marseille","lat":43.29247,"lon":5.40903,"is_reserved":false,"is_disabled":false,"rental_uris":{"android":"levelo://app?vid=fc1caa54-9d90-48f1-b7ca-bb8ec97bbf26","ios":"levelo://app?vid=fc1caa54-9d90-48f1-b7ca-bb8ec97bbf26"},"vehicle_type_id":"4","last_reported":1740935224,"current_range_meters":10000,"station_id":"ce4bh192rcd13ifvqdc0","pricing_plan_id":"cebpf4jnsgd1na2vs0mg"},{"bike_id":"248fda52-7900-453f-a8b0-a8410e6aeedc","system_id":"levelo_inurba_marseille","lat":43.26967,"lon":5.40256,"is_reserved":false,"is_disabled":false,"rental_uris":{"android":"levelo://app?vid=248fda52-7900-453f-a8b0-a8410e6aeedc","ios":"levelo://app?vid=248fda52-7900-453f-a8b0-a8410e6aeedc"},"vehicle_type_id":"4","last_reported":1740935224,"current_range_meters":10000,"station_id":"cjm6bp8fraef2m0cb0m0","pricing_plan_id":"cebpf4jnsgd1na2vs0mg"},{"bike_id":"94ec007b-8e32-465d-81b2-5bba3b64276f","system_id":"levelo_inurba_marseille","lat":43.30275,"lon":5.36895,"is_reserved":false,"is_disabled":false,"rental_uris":{"android":"levelo://app?vid=94ec007b-8e32-465d-81b2-5bba3b64276f","ios":"levelo://app?vid=94ec007b-8e32-465d-81b2-5bba3b64276f"},"vehicle_type_id":"4","last_reported":1740935224,"current_range_meters":10000,"station_id":"ce4bgqh2rcd13ifvqc5g","pricing_plan_id":"cebpf4jnsgd1na2vs0mg"},{"bike_id":"bacd3e52-d0db-4939-a52d-894fab7a7b88","system_id":"levelo_inurba_marseille","lat":43.28847,"lon":5.39301,"is_reserved":false,"is_disabled":false,"rental_uris":{"android":"levelo://app?vid=bacd3e52-d0db-4939-a52d-894fab7a7b88","ios":"levelo://app?vid=bacd3e52-d0db-4939-a52d-894fab7a7b88"},"vehicle_type_id":"4","last_reported":1740935224,"current_range_meters":10000,"station_id":"ce4bh2p2rcd13ifvqdi0","pricing_plan_id":"cebpf4jnsgd1na2vs0mg"},{"bike_id":"7f0095e0-df8c-4cc7-b155-4ba6215f1f50","system_id":"levelo_inurba_marseille","lat":43.27962,"lon":5.3872,"is_reserved":false,"is_disabled":true,"rental_uris":{"android":"levelo://app?vid=7f0095e0-df8c-4cc7-b155-4ba6215f1f50","ios":"levelo://app?vid=7f0095e0-df8c-4cc7-b155-4ba6215f1f50"},"vehicle_type_id":"4","last_reported":1740935224,"current_range_meters":10000,"station_id":"ce4bhg12rcd13ifvqf80","pricing_plan_id":"cebpf4jnsgd1na2vs0mg"},{"bike_id":"661f8586-a54c-40f1-b56f-c502f38f8ad4","system_id":"levelo_inurba_marseille","lat":43.262,"lon":5.3793,"is_reserved":false,"is_disabled":false,"rental_uris":{"android":"levelo://app?vid=661f8586-a54c-40f1-b56f-c502f38f8ad4","ios":"levelo://app?vid=661f8586-a54c-40f1-b56f-c502f38f8ad4"},"vehicle_type_id":"4","last_reported":1740935224,"current_range_meters":10800,"station_id":"","pricing_plan_id":"cebpf4jnsgd1na2vs0mg"},{"bike_id":"2b75eecd-78d7-4d93-843f-42cd7b895474","system_id":"levelo_inurba_marseille","lat":43.28672,"lon":5.36355,"is_reserved":false,"is_disabled":false,"rental_uris":{"android":"levelo://app?vid=2b75eecd-78d7-4d93-843f-42cd7b895474","ios":"levelo://app?vid=2b75eecd-78d7-4d93-843f-42cd7b895474"},"vehicle_type_id":"4","last_reported":1740935224,"current_range_meters":10000,"station_id":"ce4bhah2rcd13ifvqej0","pricing_plan_id":"cebpf4jnsgd1na2vs0mg"},{"bike_id":"fb96874a-4129-47cc-b63a-8a144c2001e4","system_id":"levelo_inurba_marseille","lat":43.31226,"lon":5.36847,"is_reserved":false,"is_disabled":false,"rental_uris":{"android":"levelo://app?vid=fb96874a-4129-47cc-b63a-8a144c2001e4","ios":"levelo://app?vid=fb96874a-4129-47cc-b63a-8a144c2001e4"},"vehicle_type_id":"4","last_reported":1740935224,"current_range_meters":10800,"station_id":"ce4bgl92rcd13ifvqbq0","pricing_plan_id":"cebpf4jnsgd1na2vs0mg"},{"bike_id":"cf24d898-0f2b-43aa-82ff-8eeb8950ecf6","system_id":"levelo_inurba_marseille","lat":43.30313,"lon":5.40439,"is_reserved":false,"is_disabled":false,"rental_uris":{"android":"levelo://app?vid=cf24d898-0f2b-43aa-82ff-8eeb8950ecf6","ios":"levelo://app?vid=cf24d898-0f2b-43aa-82ff-8eeb8950ecf6"},"vehicle_type_id":"4","last_reported":1740935224,"current_range_meters":10000,"station_id":"ce4bh012rcd13ifvqd10","pricing_plan_id":"cebpf4jnsgd1na2vs0mg"},{"bike_id":"20d46fcb-4529-4896-b225-392c7b6d1f52","system_id":"levelo_inurba_marseille","lat":43.29179,"lon":5.39315,"is_reserved":false,"is_disabled":true,"rental_uris":{"android":"levelo://app?vid=20d46fcb-4529-4896-b225-392c7b6d1f52","ios":"levelo://app?vid=20d46fcb-4529-4896-b225-392c7b6d1f52"},"vehicle_type_id":"4","last_reported":1740935224,"current_range_meters":10800,"station_id":"ce4bh192rcd13ifvqdd0","pricing_plan_id":"cebpf4jnsgd1na2vs0mg"},{"bike_id":"c52f616b-3464-417a-a1bc-41003b356f42","system_id":"levelo_inurba_marseille","lat":43.26062,"lon":5.3757,"is_reserved":false,"is_disabled":true,"rental_uris":{"android":"levelo://app?vid=c52f616b-3464-417a-a1bc-41003b356f42","ios":"levelo://app?vid=c52f616b-3464-417a-a1bc-41003b356f42"},"vehicle_type_id":"4","last_reported":1740935224,"current_range_meters":10800,"station_id":"ce4bhgh2rcd13ifvqfa0","pricing_plan_id":"cebpf4jnsgd1na2vs0mg"},{"bike_id":"ef1a2826-78d4-4095-8ad3-f2e1de6a0623","system_id":"levelo_inurba_marseille","lat":43.26938,"lon":5.4025,"is_reserved":false,"is_disabled":false,"rental_uris":{"android":"levelo://app?vid=ef1a2826-78d4-4095-8ad3-f2e1de6a0623","ios":"levelo://app?vid=ef1a2826-78d4-4095-8ad3-f2e1de6a0623"},"vehicle_type_id":"4","last_reported":1740935224,"current_range_meters":10000,"station_id":"cjm6bp8fraef2m0cb0m0","pricing_plan_id":"cebpf4jnsgd1na2vs0mg"},{"bike_id":"ecb80e8e-fb85-41a8-ac25-7da0edd91cc6","system_id":"levelo_inurba_marseille","lat":43.29597,"lon":5.40593,"is_reserved":false,"is_disabled":false,"rental_uris":{"android":"levelo://app?vid=ecb80e8e-fb85-41a8-ac25-7da0edd91cc6","ios":"levelo://app?vid=ecb80e8e-fb85-41a8-ac25-7da0edd91cc6"},"vehicle_type_id":"4","last_reported":1740935224,"current_range_meters":10800,"station_id":"ce4bh0h2rcd13ifvqd60","pricing_plan_id":"cebpf4jnsgd1na2vs0mg"},{"bike_id":"e9249915-dbbf-4a2b-8201-3d790a83e9fe","system_id":"levelo_inurba_marseille","lat":43.30891,"lon":5.37192,"is_reserved":false,"is_disabled":false,"rental_uris":{"android":"levelo://app?vid=e9249915-dbbf-4a2b-8201-3d790a83e9fe","ios":"levelo://app?vid=e9249915-dbbf-4a2b-8201-3d790a83e9fe"},"vehicle_type_id":"4","last_reported":1740935224,"current_range_meters":10800,"station_id":"ce4bguh2rcd13ifvqckg","pricing_plan_id":"cebpf4jnsgd1na2vs0mg"},{"bike_id":"8e58708e-24eb-4be6-ab67-2fdbde3a8fff","system_id":"levelo_inurba_marseille","lat":43.2927,"lon":5.38431,"is_reserved":false,"is_disabled":true,"rental_uris":{"android":"levelo://app?vid=8e58708e-24eb-4be6-ab67-2fdbde3a8fff","ios":"levelo://app?vid=8e58708e-24eb-4be6-ab67-2fdbde3a8fff"},"vehicle_type_id":"4","last_reported":1740935224,"current_range_meters":11200,"station_id":"ce4bh692rcd13ifvqea0","pricing_plan_id":"cebpf4jnsgd1na2vs0mg"},{"bike_id":"d15a920c-600b-4ae1-bbc4-6f27080680ca","system_id":"levelo_inurba_marseille","lat":43.24664,"lon":5.3816,"is_reserved":false,"is_disabled":false,"rental_uris":{"android":"levelo://app?vid=d15a920c-600b-4ae1-bbc4-6f27080680ca","ios":"levelo://app?vid=d15a920c-600b-4ae1-bbc4-6f27080680ca"},"vehicle_type_id":"4","last_reported":1740935224,"current_range_meters":11200,"station_id":"ce4bhih2rcd13ifvqfr0","pricing_plan_id":"cebpf4jnsgd1na2vs0mg"},{"bike_id":"c66a61e8-acac-4c53-8abb-0a01ae4beade","system_id":"levelo_inurba_marseille","lat":43.248155,"lon":5.374534,"is_reserved":false,"is_disabled":false,"rental_uris":{"android":"levelo://app?vid=c66a61e8-acac-4c53-8abb-0a01ae4beade","ios":"levelo://app?vid=c66a61e8-acac-4c53-8abb-0a01ae4beade"},"vehicle_type_id":"4","last_reported":1740935224,"current_range_meters":11200,"station_id":"ce4bhgh2rcd13ifvqfb0","pricing_plan_id":"cebpf4jnsgd1na2vs0mg"},{"bike_id":"d3132b5f-cddc-4ef3-80c5-f2d8896822cd","system_id":"levelo_inurba_marseille","lat":43.28694,"lon":5.37395,"is_reserved":false,"is_disabled":false,"rental_uris":{"android":"levelo://app?vid=d3132b5f-cddc-4ef3-80c5-f2d8896822cd","ios":"levelo://app?vid=d3132b5f-cddc-4ef3-80c5-f2d8896822cd"},"vehicle_type_id":"4","last_reported":1740935224,"current_range_meters":9200,"station_id":"ce4bh3p2rcd13ifvqdq0","pricing_plan_id":"cebpf4jnsgd1na2vs0mg"},{"bike_id":"63df401f-d26f-4090-91a2-ac57408312e4","system_id":"levelo_inurba_marseille","lat":43.28471,"lon":5.38419,"is_reserved":false,"is_disabled":false,"rental_uris":{"android":"levelo://app?vid=63df401f-d26f-4090-91a2-ac57408312e4","ios":"levelo://app?vid=63df401f-d26f-4090-91a2-ac57408312e4"},"vehicle_type_id":"4","last_reported":1740935224,"current_range_meters":11200,"station_id":"ce4bh512rcd13ifvqe3g","pricing_plan_id":"cebpf4jnsgd1na2vs0mg"},{"bike_id":"2935aa11-2de3-4210-9f37-dc433b723a34","system_id":"levelo_inurba_marseille","lat":43.29416,"lon":5.38625,"is_reserved":false,"is_disabled":false,"rental_uris":{"android":"levelo://app?vid=2935aa11-2de3-4210-9f37-dc433b723a34","ios":"levelo://app?vid=2935aa11-2de3-4210-9f37-dc433b723a34"},"vehicle_type_id":"4","last_reported":1740935224,"current_range_meters":10000,"station_id":"ce4bh2h2rcd13ifvqdh0","pricing_plan_id":"cebpf4jnsgd1na2vs0mg"},{"bike_id":"93c8ac2c-dd48-4059-8e12-2bbb5dfdb523","system_id":"levelo_inurba_marseille","lat":43.30647,"lon":5.40097,"is_reserved":false,"is_disabled":false,"rental_uris":{"android":"levelo://app?vid=93c8ac2c-dd48-4059-8e12-2bbb5dfdb523","ios":"levelo://app?vid=93c8ac2c-dd48-4059-8e12-2bbb5dfdb523"},"vehicle_type_id":"4","last_reported":1740935224,"current_range_meters":11200,"station_id":"ce4bh112rcd13ifvqda0","pricing_plan_id":"cebpf4jnsgd1na2vs0mg"},{"bike_id":"e32dac59-6a17-4e96-af40-537201131058","system_id":"levelo_inurba_marseille","lat":43.29887,"lon":5.38894,"is_reserved":false,"is_disabled":false,"rental_uris":{"android":"levelo://app?vid=e32dac59-6a17-4e96-af40-537201131058","ios":"levelo://app?vid=e32dac59-6a17-4e96-af40-537201131058"},"vehicle_type_id":"4","last_reported":1740935224,"current_range_meters":11200,"station_id":"ce4bh392rcd13ifvqdl0","pricing_plan_id":"cebpf4jnsgd1na2vs0mg"},{"bike_id":"3c9c65ff-a2a8-4c52-a6f4-62bcc77556ef","system_id":"levelo_inurba_marseille","lat":43.24163,"lon":5.36417,"is_reserved":false,"is_disabled":false,"rental_uris":{"android":"levelo://app?vid=3c9c65ff-a2a8-4c52-a6f4-62bcc77556ef","ios":"levelo://app?vid=3c9c65ff-a2a8-4c52-a6f4-62bcc77556ef"},"vehicle_type_id":"4","last_reported":1740935224,"current_range_meters":11200,"station_id":"cpo36qri1sfpv3e86is0","pricing_plan_id":"cebpf4jnsgd1na2vs0mg"},{"bike_id":"4d6c738d-a60b-44e7-9164-73adebb5d01f","system_id":"levelo_inurba_marseille","lat":43.31217,"lon":5.36852,"is_reserved":false,"is_disabled":false,"rental_uris":{"android":"levelo://app?vid=4d6c738d-a60b-44e7-9164-73adebb5d01f","ios":"levelo://app?vid=4d6c738d-a60b-44e7-9164-73adebb5d01f"},"vehicle_type_id":"4","last_reported":1740935224,"current_range_meters":11600,"station_id":"ce4bgl92rcd13ifvqbq0","pricing_plan_id":"cebpf4jnsgd1na2vs0mg"},{"bike_id":"d9d0682b-d66d-46e0-941f-51c271865e75","system_id":"levelo_inurba_marseille","lat":43.29003,"lon":5.3561,"is_reserved":false,"is_disabled":false,"rental_uris":{"android":"levelo://app?vid=d9d0682b-d66d-46e0-941f-51c271865e75","ios":"levelo://app?vid=d9d0682b-d66d-46e0-941f-51c271865e75"},"vehicle_type_id":"4","last_reported":1740935224,"current_range_meters":7200,"station_id":"ce4bhb92rcd13ifvqen0","pricing_plan_id":"cebpf4jnsgd1na2vs0mg"},{"bike_id":"9f2f5afa-dba6-4a22-a334-4307fd9e7da8","system_id":"levelo_inurba_marseille","lat":43.24152,"lon":5.36424,"is_reserved":false,"is_disabled":true,"rental_uris":{"android":"levelo://app?vid=9f2f5afa-dba6-4a22-a334-4307fd9e7da8","ios":"levelo://app?vid=9f2f5afa-dba6-4a22-a334-4307fd9e7da8"},"vehicle_type_id":"4","last_reported":1740935224,"current_range_meters":11600,"station_id":"cpo36qri1sfpv3e86is0","pricing_plan_id":"cebpf4jnsgd1na2vs0mg"},{"bike_id":"ccab9dd3-2745-4c8d-9831-6d29bb2ae6f8","system_id":"levelo_inurba_marseille","lat":43.2467,"lon":5.38146,"is_reserved":false,"is_disabled":false,"rental_uris":{"android":"levelo://app?vid=ccab9dd3-2745-4c8d-9831-6d29bb2ae6f8","ios":"levelo://app?vid=ccab9dd3-2745-4c8d-9831-6d29bb2ae6f8"},"vehicle_type_id":"4","last_reported":1740935224,"current_range_meters":11600,"station_id":"ce4bhih2rcd13ifvqfr0","pricing_plan_id":"cebpf4jnsgd1na2vs0mg"},{"bike_id":"79f15cd5-2da1-4969-90c8-4b12861b1d16","system_id":"levelo_inurba_marseille","lat":43.30913,"lon":5.36842,"is_reserved":false,"is_disabled":false,"rental_uris":{"android":"levelo://app?vid=79f15cd5-2da1-4969-90c8-4b12861b1d16","ios":"levelo://app?vid=79f15cd5-2da1-4969-90c8-4b12861b1d16"},"vehicle_type_id":"4","last_reported":1740935224,"current_range_meters":11600,"station_id":"ce4bgn92rcd13ifvqbvg","pricing_plan_id":"cebpf4jnsgd1na2vs0mg"},{"bike_id":"fef7be04-1a1b-4287-9471-39a8a88826d4","system_id":"levelo_inurba_marseille","lat":43.29418,"lon":5.38625,"is_reserved":false,"is_disabled":false,"rental_uris":{"android":"levelo://app?vid=fef7be04-1a1b-4287-9471-39a8a88826d4","ios":"levelo://app?vid=fef7be04-1a1b-4287-9471-39a8a88826d4"},"vehicle_type_id":"4","last_reported":1740935224,"current_range_meters":11600,"station_id":"ce4bh2h2rcd13ifvqdh0","pricing_plan_id":"cebpf4jnsgd1na2vs0mg"},{"bike_id":"88d09cbc-1497-4fea-99b9-c1fe29ff58f0","system_id":"levelo_inurba_marseille","lat":43.28059,"lon":5.36604,"is_reserved":false,"is_disabled":false,"rental_uris":{"android":"levelo://app?vid=88d09cbc-1497-4fea-99b9-c1fe29ff58f0","ios":"levelo://app?vid=88d09cbc-1497-4fea-99b9-c1fe29ff58f0"},"vehicle_type_id":"4","last_reported":1740935224,"current_range_meters":11600,"station_id":"","pricing_plan_id":"cebpf4jnsgd1na2vs0mg"},{"bike_id":"8ad4b958-1c69-451c-8b9f-8439adb3562c","system_id":"levelo_inurba_marseille","lat":43.29381,"lon":5.37503,"is_reserved":false,"is_disabled":false,"rental_uris":{"android":"levelo://app?vid=8ad4b958-1c69-451c-8b9f-8439adb3562c","ios":"levelo://app?vid=8ad4b958-1c69-451c-8b9f-8439adb3562c"},"vehicle_type_id":"4","last_reported":1740935224,"current_range_meters":11600,"station_id":"ce4bhoh2rcd13ifvqh5g","pricing_plan_id":"cebpf4jnsgd1na2vs0mg"},{"bike_id":"81f34c1e-6c8f-47a1-a8ed-b8b60aa2711d","system_id":"levelo_inurba_marseille","lat":43.2408,"lon":5.37751,"is_reserved":false,"is_disabled":true,"rental_uris":{"android":"levelo://app?vid=81f34c1e-6c8f-47a1-a8ed-b8b60aa2711d","ios":"levelo://app?vid=81f34c1e-6c8f-47a1-a8ed-b8b60aa2711d"},"vehicle_type_id":"4","last_reported":1740935224,"current_range_meters":12000,"station_id":"ce4bhnp2rcd13ifvqgvg","pricing_plan_id":"cebpf4jnsgd1na2vs0mg"},{"bike_id":"620a5eb3-daee-44ad-a3ba-f984dc8c768a","system_id":"levelo_inurba_marseille","lat":43.301796,"lon":5.366,"is_reserved":false,"is_disabled":true,"rental_uris":{"android":"levelo://app?vid=620a5eb3-daee-44ad-a3ba-f984dc8c768a","ios":"levelo://app?vid=620a5eb3-daee-44ad-a3ba-f984dc8c768a"},"vehicle_type_id":"4","last_reported":1740935224,"current_range_meters":12000,"station_id":"ce4bgrh2rcd13ifvqc8g","pricing_plan_id":"cebpf4jnsgd1na2vs0mg"},{"bike_id":"4d1e1c30-1d07-45d8-b967-5851eafbda79","system_id":"levelo_inurba_marseille","lat":43.29418,"lon":5.38627,"is_reserved":false,"is_disabled":false,"rental_uris":{"android":"levelo://app?vid=4d1e1c30-1d07-45d8-b967-5851eafbda79","ios":"levelo://app?vid=4d1e1c30-1d07-45d8-b967-5851eafbda79"},"vehicle_type_id":"4","last_reported":1740935224,"current_range_meters":12000,"station_id":"ce4bh2h2rcd13ifvqdh0","pricing_plan_id":"cebpf4jnsgd1na2vs0mg"},{"bike_id":"4987e077-b9c1-4ad1-bae1-66cf51f9ba1d","system_id":"levelo_inurba_marseille","lat":43.23201,"lon":5.35548,"is_reserved":false,"is_disabled":false,"rental_uris":{"android":"levelo://app?vid=4987e077-b9c1-4ad1-bae1-66cf51f9ba1d","ios":"levelo://app?vid=4987e077-b9c1-4ad1-bae1-66cf51f9ba1d"},"vehicle_type_id":"4","last_reported":1740935224,"current_range_meters":12000,"station_id":"ce4bhu92rcd13ifvqi70","pricing_plan_id":"cebpf4jnsgd1na2vs0mg"},{"bike_id":"ce8fe0de-4e74-4c91-a6bf-f18b5f844150","system_id":"levelo_inurba_marseille","lat":43.27974,"lon":5.38746,"is_reserved":false,"is_disabled":false,"rental_uris":{"android":"levelo://app?vid=ce8fe0de-4e74-4c91-a6bf-f18b5f844150","ios":"levelo://app?vid=ce8fe0de-4e74-4c91-a6bf-f18b5f844150"},"vehicle_type_id":"4","last_reported":1740935224,"current_range_meters":12000,"station_id":"ce4bhg12rcd13ifvqf80","pricing_plan_id":"cebpf4jnsgd1na2vs0mg"},{"bike_id":"993a5b6d-179a-45e9-a2be-e44e423943f5","system_id":"levelo_inurba_marseille","lat":43.29786,"lon":5.39333,"is_reserved":false,"is_disabled":false,"rental_uris":{"android":"levelo://app?vid=993a5b6d-179a-45e9-a2be-e44e423943f5","ios":"levelo://app?vid=993a5b6d-179a-45e9-a2be-e44e423943f5"},"vehicle_type_id":"4","last_reported":1740935224,"current_range_meters":10800,"station_id":"chh1huq6cuj3fo74tm60","pricing_plan_id":"cebpf4jnsgd1na2vs0mg"},{"bike_id":"f8774b53-6aad-4c74-8fcb-de09dc38caee","system_id":"levelo_inurba_marseille","lat":43.27384,"lon":5.36255,"is_reserved":false,"is_disabled":true,"rental_uris":{"android":"levelo://app?vid=f8774b53-6aad-4c74-8fcb-de09dc38caee","ios":"levelo://app?vid=f8774b53-6aad-4c74-8fcb-de09dc38caee"},"vehicle_type_id":"4","last_reported":1740935224,"current_range_meters":12400,"station_id":"ce4bhbh2rcd13ifvqeo0","pricing_plan_id":"cebpf4jnsgd1na2vs0mg"},{"bike_id":"affd9eb1-cb07-4907-8b25-1ddfd45ea599","system_id":"levelo_inurba_marseille","lat":43.29573,"lon":5.39976,"is_reserved":false,"is_disabled":false,"rental_uris":{"android":"levelo://app?vid=affd9eb1-cb07-4907-8b25-1ddfd45ea599","ios":"levelo://app?vid=affd9eb1-cb07-4907-8b25-1ddfd45ea599"},"vehicle_type_id":"4","last_reported":1740935224,"current_range_meters":9200,"station_id":"ce4bh312rcd13ifvqdj0","pricing_plan_id":"cebpf4jnsgd1na2vs0mg"},{"bike_id":"1a1eb5ba-fe0e-4b2c-a078-0a9e385e8866","system_id":"levelo_inurba_marseille","lat":43.29427,"lon":5.38616,"is_reserved":false,"is_disabled":false,"rental_uris":{"android":"levelo://app?vid=1a1eb5ba-fe0e-4b2c-a078-0a9e385e8866","ios":"levelo://app?vid=1a1eb5ba-fe0e-4b2c-a078-0a9e385e8866"},"vehicle_type_id":"4","last_reported":1740935224,"current_range_meters":12400,"station_id":"ce4bh2h2rcd13ifvqdh0","pricing_plan_id":"cebpf4jnsgd1na2vs0mg"},{"bike_id":"02265da8-2d34-47da-88b1-fbe0ee97ec29","system_id":"levelo_inurba_marseille","lat":43.293683,"lon":5.378517,"is_reserved":false,"is_disabled":false,"rental_uris":{"android":"levelo://app?vid=02265da8-2d34-47da-88b1-fbe0ee97ec29","ios":"levelo://app?vid=02265da8-2d34-47da-88b1-fbe0ee97ec29"},"vehicle_type_id":"4","last_reported":1740935224,"current_range_meters":11200,"station_id":"ce4bhoh2rcd13ifvqh5g","pricing_plan_id":"cebpf4jnsgd1na2vs0mg"},{"bike_id":"db1661e9-a931-43cf-9194-8b11755f891e","system_id":"levelo_inurba_marseille","lat":43.293668,"lon":5.378645,"is_reserved":false,"is_disabled":false,"rental_uris":{"android":"levelo://app?vid=db1661e9-a931-43cf-9194-8b11755f891e","ios":"levelo://app?vid=db1661e9-a931-43cf-9194-8b11755f891e"},"vehicle_type_id":"4","last_reported":1740935224,"current_range_meters":12400,"station_id":"ce4bgjh2rcd13ifvqbf0","pricing_plan_id":"cebpf4jnsgd1na2vs0mg"},{"bike_id":"d582d420-ad76-4943-9aaa-ec3ad66c7cfa","system_id":"levelo_inurba_marseille","lat":43.24066,"lon":5.37752,"is_reserved":false,"is_disabled":false,"rental_uris":{"android":"levelo://app?vid=d582d420-ad76-4943-9aaa-ec3ad66c7cfa","ios":"levelo://app?vid=d582d420-ad76-4943-9aaa-ec3ad66c7cfa"},"vehicle_type_id":"4","last_reported":1740935224,"current_range_meters":12400,"station_id":"ce4bhnp2rcd13ifvqgvg","pricing_plan_id":"cebpf4jnsgd1na2vs0mg"},{"bike_id":"61e3c74e-7012-4cb6-8ef4-17db5d82fdf7","system_id":"levelo_inurba_marseille","lat":43.25295,"lon":5.39308,"is_reserved":false,"is_disabled":false,"rental_uris":{"android":"levelo://app?vid=61e3c74e-7012-4cb6-8ef4-17db5d82fdf7","ios":"levelo://app?vid=61e3c74e-7012-4cb6-8ef4-17db5d82fdf7"},"vehicle_type_id":"4","last_reported":1740935224,"current_range_meters":12400,"station_id":"","pricing_plan_id":"cebpf4jnsgd1na2vs0mg"},{"bike_id":"f2c0ca3b-8324-45cc-9282-3b53540210ba","system_id":"levelo_inurba_marseille","lat":43.29558,"lon":5.42296,"is_reserved":false,"is_disabled":false,"rental_uris":{"android":"levelo://app?vid=f2c0ca3b-8324-45cc-9282-3b53540210ba","ios":"levelo://app?vid=f2c0ca3b-8324-45cc-9282-3b53540210ba"},"vehicle_type_id":"4","last_reported":1740935224,"current_range_meters":12800,"station_id":"ce4bhph2rcd13ifvqhdg","pricing_plan_id":"cebpf4jnsgd1na2vs0mg"},{"bike_id":"8942eaca-4c04-4542-8c95-ccebbd2e0539","system_id":"levelo_inurba_marseille","lat":43.30585,"lon":5.39349,"is_reserved":false,"is_disabled":false,"rental_uris":{"android":"levelo://app?vid=8942eaca-4c04-4542-8c95-ccebbd2e0539","ios":"levelo://app?vid=8942eaca-4c04-4542-8c95-ccebbd2e0539"},"vehicle_type_id":"4","last_reported":1740935224,"current_range_meters":12800,"station_id":"ce4bh0p2rcd13ifvqd80","pricing_plan_id":"cebpf4jnsgd1na2vs0mg"},{"bike_id":"d23f519a-ec51-4d19-821b-41d2d8ce3029","system_id":"levelo_inurba_marseille","lat":43.23198,"lon":5.3998,"is_reserved":false,"is_disabled":false,"rental_uris":{"android":"levelo://app?vid=d23f519a-ec51-4d19-821b-41d2d8ce3029","ios":"levelo://app?vid=d23f519a-ec51-4d19-821b-41d2d8ce3029"},"vehicle_type_id":"4","last_reported":1740935224,"current_range_meters":12800,"station_id":"ce4bhn12rcd13ifvqgqg","pricing_plan_id":"cebpf4jnsgd1na2vs0mg"},{"bike_id":"12ab922a-f881-4968-9e63-ec8d58f2ca05","system_id":"levelo_inurba_marseille","lat":43.24813,"lon":5.37433,"is_reserved":false,"is_disabled":false,"rental_uris":{"android":"levelo://app?vid=12ab922a-f881-4968-9e63-ec8d58f2ca05","ios":"levelo://app?vid=12ab922a-f881-4968-9e63-ec8d58f2ca05"},"vehicle_type_id":"4","last_reported":1740935224,"current_range_meters":13600,"station_id":"ce4bhgh2rcd13ifvqfb0","pricing_plan_id":"cebpf4jnsgd1na2vs0mg"},{"bike_id":"20966208-2b25-427a-aaf0-b62a886ee2ab","system_id":"levelo_inurba_marseille","lat":43.28085,"lon":5.3967,"is_reserved":false,"is_disabled":false,"rental_uris":{"android":"levelo://app?vid=20966208-2b25-427a-aaf0-b62a886ee2ab","ios":"levelo://app?vid=20966208-2b25-427a-aaf0-b62a886ee2ab"},"vehicle_type_id":"4","last_reported":1740935224,"current_range_meters":8800,"station_id":"ce4bho12rcd13ifvqh2g","pricing_plan_id":"cebpf4jnsgd1na2vs0mg"},{"bike_id":"e9281800-89ae-463d-bf71-0245836aa272","system_id":"levelo_inurba_marseille","lat":43.28411,"lon":5.34996,"is_reserved":false,"is_disabled":false,"rental_uris":{"android":"levelo://app?vid=e9281800-89ae-463d-bf71-0245836aa272","ios":"levelo://app?vid=e9281800-89ae-463d-bf71-0245836aa272"},"vehicle_type_id":"4","last_reported":1740935224,"current_range_meters":13600,"station_id":"ce4bhbh2rcd13ifvqepg","pricing_plan_id":"cebpf4jnsgd1na2vs0mg"},{"bike_id":"59e3015f-c397-404c-8ef0-6169c7f7e233","system_id":"levelo_inurba_marseille","lat":43.24394,"lon":5.37056,"is_reserved":false,"is_disabled":true,"rental_uris":{"android":"levelo://app?vid=59e3015f-c397-404c-8ef0-6169c7f7e233","ios":"levelo://app?vid=59e3015f-c397-404c-8ef0-6169c7f7e233"},"vehicle_type_id":"4","last_reported":1740935224,"current_range_meters":14000,"station_id":"ce4bhhh2rcd13ifvqfk0","pricing_plan_id":"cebpf4jnsgd1na2vs0mg"},{"bike_id":"b3f1eda1-e234-4bde-aa9a-8783888c59a4","system_id":"levelo_inurba_marseille","lat":43.33022,"lon":5.39039,"is_reserved":false,"is_disabled":false,"rental_uris":{"android":"levelo://app?vid=b3f1eda1-e234-4bde-aa9a-8783888c59a4","ios":"levelo://app?vid=b3f1eda1-e234-4bde-aa9a-8783888c59a4"},"vehicle_type_id":"4","last_reported":1740935224,"current_range_meters":14000,"station_id":"ce4bhr92rcd13ifvqhrg","pricing_plan_id":"cebpf4jnsgd1na2vs0mg"},{"bike_id":"760542bd-7992-4224-ae69-4f6efc1017c9","system_id":"levelo_inurba_marseille","lat":43.2926,"lon":5.409,"is_reserved":false,"is_disabled":false,"rental_uris":{"android":"levelo://app?vid=760542bd-7992-4224-ae69-4f6efc1017c9","ios":"levelo://app?vid=760542bd-7992-4224-ae69-4f6efc1017c9"},"vehicle_type_id":"4","last_reported":1740935224,"current_range_meters":14400,"station_id":"ce4bh192rcd13ifvqdc0","pricing_plan_id":"cebpf4jnsgd1na2vs0mg"},{"bike_id":"adbad922-317c-40d7-a8d7-fe9317726cc3","system_id":"levelo_inurba_marseille","lat":43.29979,"lon":5.38507,"is_reserved":false,"is_disabled":true,"rental_uris":{"android":"levelo://app?vid=adbad922-317c-40d7-a8d7-fe9317726cc3","ios":"levelo://app?vid=adbad922-317c-40d7-a8d7-fe9317726cc3"},"vehicle_type_id":"4","last_reported":1740935224,"current_range_meters":14400,"station_id":"ce4bgj92rcd13ifvqbd0","pricing_plan_id":"cebpf4jnsgd1na2vs0mg"},{"bike_id":"0105fe6d-b104-4bcb-91d5-e3c87859fcc3","system_id":"levelo_inurba_marseille","lat":43.32366,"lon":5.38891,"is_reserved":false,"is_disabled":false,"rental_uris":{"android":"levelo://app?vid=0105fe6d-b104-4bcb-91d5-e3c87859fcc3","ios":"levelo://app?vid=0105fe6d-b104-4bcb-91d5-e3c87859fcc3"},"vehicle_type_id":"4","last_reported":1740935224,"current_range_meters":14400,"station_id":"ce4bhqp2rcd13ifvqhog","pricing_plan_id":"cebpf4jnsgd1na2vs0mg"},{"bike_id":"801f7a76-f31e-48cb-b473-247f3d39008c","system_id":"levelo_inurba_marseille","lat":43.30658,"lon":5.401,"is_reserved":false,"is_disabled":false,"rental_uris":{"android":"levelo://app?vid=801f7a76-f31e-48cb-b473-247f3d39008c","ios":"levelo://app?vid=801f7a76-f31e-48cb-b473-247f3d39008c"},"vehicle_type_id":"4","last_reported":1740935224,"current_range_meters":12000,"station_id":"ce4bh112rcd13ifvqda0","pricing_plan_id":"cebpf4jnsgd1na2vs0mg"},{"bike_id":"ac5892ae-ac78-4c04-aae1-c25c0dd1c9a4","system_id":"levelo_inurba_marseille","lat":43.26795,"lon":5.4027,"is_reserved":false,"is_disabled":false,"rental_uris":{"android":"levelo://app?vid=ac5892ae-ac78-4c04-aae1-c25c0dd1c9a4","ios":"levelo://app?vid=ac5892ae-ac78-4c04-aae1-c25c0dd1c9a4"},"vehicle_type_id":"4","last_reported":1740935224,"current_range_meters":14400,"station_id":"ce501612rcd8frsf0b60","pricing_plan_id":"cebpf4jnsgd1na2vs0mg"},{"bike_id":"7c414e0b-ce44-4220-8995-6822bfce5805","system_id":"levelo_inurba_marseille","lat":43.26682,"lon":5.3827,"is_reserved":false,"is_disabled":false,"rental_uris":{"android":"levelo://app?vid=7c414e0b-ce44-4220-8995-6822bfce5805","ios":"levelo://app?vid=7c414e0b-ce44-4220-8995-6822bfce5805"},"vehicle_type_id":"4","last_reported":1740935224,"current_range_meters":14400,"station_id":"ce4bhg92rcd13ifvqf90","pricing_plan_id":"cebpf4jnsgd1na2vs0mg"},{"bike_id":"c5b35fc3-133b-4fcd-9bc1-000b1b46221f","system_id":"levelo_inurba_marseille","lat":43.24168,"lon":5.36384,"is_reserved":false,"is_disabled":false,"rental_uris":{"android":"levelo://app?vid=c5b35fc3-133b-4fcd-9bc1-000b1b46221f","ios":"levelo://app?vid=c5b35fc3-133b-4fcd-9bc1-000b1b46221f"},"vehicle_type_id":"4","last_reported":1740935224,"current_range_meters":14800,"station_id":"cpo36qri1sfpv3e86is0","pricing_plan_id":"cebpf4jnsgd1na2vs0mg"},{"bike_id":"758398a3-1a3d-49c1-93c5-f72a34b79285","system_id":"levelo_inurba_marseille","lat":43.2657,"lon":5.39001,"is_reserved":false,"is_disabled":false,"rental_uris":{"android":"levelo://app?vid=758398a3-1a3d-49c1-93c5-f72a34b79285","ios":"levelo://app?vid=758398a3-1a3d-49c1-93c5-f72a34b79285"},"vehicle_type_id":"4","last_reported":1740935224,"current_range_meters":14800,"station_id":"ce4bhe12rcd13ifvqf30","pricing_plan_id":"cebpf4jnsgd1na2vs0mg"},{"bike_id":"18ed809a-93be-4ceb-a90d-b4661309b51d","system_id":"levelo_inurba_marseille","lat":43.30965,"lon":5.37418,"is_reserved":false,"is_disabled":false,"rental_uris":{"android":"levelo://app?vid=18ed809a-93be-4ceb-a90d-b4661309b51d","ios":"levelo://app?vid=18ed809a-93be-4ceb-a90d-b4661309b51d"},"vehicle_type_id":"4","last_reported":1740935224,"current_range_meters":14800,"station_id":"","pricing_plan_id":"cebpf4jnsgd1na2vs0mg"},{"bike_id":"b863bc21-ecc3-4be8-b58d-8f3ecf2d3213","system_id":"levelo_inurba_marseille","lat":43.29464,"lon":5.39758,"is_reserved":false,"is_disabled":true,"rental_uris":{"android":"levelo://app?vid=b863bc21-ecc3-4be8-b58d-8f3ecf2d3213","ios":"levelo://app?vid=b863bc21-ecc3-4be8-b58d-8f3ecf2d3213"},"vehicle_type_id":"4","last_reported":1740935224,"current_range_meters":14800,"station_id":"ce4bh3h2rcd13ifvqdo0","pricing_plan_id":"cebpf4jnsgd1na2vs0mg"},{"bike_id":"5ee03e0b-5dea-413b-9552-87b807a45a73","system_id":"levelo_inurba_marseille","lat":43.29999,"lon":5.3891,"is_reserved":false,"is_disabled":false,"rental_uris":{"android":"levelo://app?vid=5ee03e0b-5dea-413b-9552-87b807a45a73","ios":"levelo://app?vid=5ee03e0b-5dea-413b-9552-87b807a45a73"},"vehicle_type_id":"4","last_reported":1740935224,"current_range_meters":15200,"station_id":"ce4bh2h2rcd13ifvqdh0","pricing_plan_id":"cebpf4jnsgd1na2vs0mg"},{"bike_id":"c10e162a-6f98-4bc0-a8a0-996c2861c4e5","system_id":"levelo_inurba_marseille","lat":43.28605,"lon":5.37066,"is_reserved":false,"is_disabled":false,"rental_uris":{"android":"levelo://app?vid=c10e162a-6f98-4bc0-a8a0-996c2861c4e5","ios":"levelo://app?vid=c10e162a-6f98-4bc0-a8a0-996c2861c4e5"},"vehicle_type_id":"4","last_reported":1740935224,"current_range_meters":15200,"station_id":"ce4bht12rcd13ifvqi60","pricing_plan_id":"cebpf4jnsgd1na2vs0mg"},{"bike_id":"ee8338ba-0f97-4826-83f5-3271605e8158","system_id":"levelo_inurba_marseille","lat":43.25492,"lon":5.37643,"is_reserved":false,"is_disabled":true,"rental_uris":{"android":"levelo://app?vid=ee8338ba-0f97-4826-83f5-3271605e8158","ios":"levelo://app?vid=ee8338ba-0f97-4826-83f5-3271605e8158"},"vehicle_type_id":"4","last_reported":1740935224,"current_range_meters":15200,"station_id":"ce4bhh12rcd13ifvqff0","pricing_plan_id":"cebpf4jnsgd1na2vs0mg"},{"bike_id":"cc836fe0-3cfd-4fe9-beb4-1fec15d76872","system_id":"levelo_inurba_marseille","lat":43.30414,"lon":5.37331,"is_reserved":false,"is_disabled":false,"rental_uris":{"android":"levelo://app?vid=cc836fe0-3cfd-4fe9-beb4-1fec15d76872","ios":"levelo://app?vid=cc836fe0-3cfd-4fe9-beb4-1fec15d76872"},"vehicle_type_id":"4","last_reported":1740935224,"current_range_meters":15200,"station_id":"","pricing_plan_id":"cebpf4jnsgd1na2vs0mg"},{"bike_id":"7c9d30c8-391a-42e2-a72d-72173d5246f4","system_id":"levelo_inurba_marseille","lat":43.28939,"lon":5.36643,"is_reserved":false,"is_disabled":false,"rental_uris":{"android":"levelo://app?vid=7c9d30c8-391a-42e2-a72d-72173d5246f4","ios":"levelo://app?vid=7c9d30c8-391a-42e2-a72d-72173d5246f4"},"vehicle_type_id":"4","last_reported":1740935224,"current_range_meters":16000,"station_id":"ce4bhap2rcd13ifvqek0","pricing_plan_id":"cebpf4jnsgd1na2vs0mg"},{"bike_id":"ab61ec09-b2a5-4d1e-87f7-90359803db9a","system_id":"levelo_inurba_marseille","lat":43.27995,"lon":5.41664,"is_reserved":false,"is_disabled":false,"rental_uris":{"android":"levelo://app?vid=ab61ec09-b2a5-4d1e-87f7-90359803db9a","ios":"levelo://app?vid=ab61ec09-b2a5-4d1e-87f7-90359803db9a"},"vehicle_type_id":"4","last_reported":1740935224,"current_range_meters":16000,"station_id":"ce4bho12rcd13ifvqh1g","pricing_plan_id":"cebpf4jnsgd1na2vs0mg"},{"bike_id":"2c5f6957-d531-40e4-8342-1a9be631de97","system_id":"levelo_inurba_marseille","lat":43.28398,"lon":5.37522,"is_reserved":false,"is_disabled":false,"rental_uris":{"android":"levelo://app?vid=2c5f6957-d531-40e4-8342-1a9be631de97","ios":"levelo://app?vid=2c5f6957-d531-40e4-8342-1a9be631de97"},"vehicle_type_id":"4","last_reported":1740935224,"current_range_meters":16000,"station_id":"ce4bh412rcd13ifvqds0","pricing_plan_id":"cebpf4jnsgd1na2vs0mg"},{"bike_id":"8ad2ab55-4d78-4ede-b00a-0a5edbe3b28a","system_id":"levelo_inurba_marseille","lat":43.29255,"lon":5.38426,"is_reserved":false,"is_disabled":false,"rental_uris":{"android":"levelo://app?vid=8ad2ab55-4d78-4ede-b00a-0a5edbe3b28a","ios":"levelo://app?vid=8ad2ab55-4d78-4ede-b00a-0a5edbe3b28a"},"vehicle_type_id":"4","last_reported":1740935224,"current_range_meters":16000,"station_id":"ce4bh692rcd13ifvqea0","pricing_plan_id":"cebpf4jnsgd1na2vs0mg"},{"bike_id":"d29e82e5-442b-4177-903e-3742ab7d0a8c","system_id":"levelo_inurba_marseille","lat":43.3003,"lon":5.37413,"is_reserved":false,"is_disabled":false,"rental_uris":{"android":"levelo://app?vid=d29e82e5-442b-4177-903e-3742ab7d0a8c","ios":"levelo://app?vid=d29e82e5-442b-4177-903e-3742ab7d0a8c"},"vehicle_type_id":"4","last_reported":1740935224,"current_range_meters":16000,"station_id":"","pricing_plan_id":"cebpf4jnsgd1na2vs0mg"},{"bike_id":"83bf10a6-fe49-41be-bada-3c7a1d60f118","system_id":"levelo_inurba_marseille","lat":43.23187,"lon":5.35559,"is_reserved":false,"is_disabled":false,"rental_uris":{"android":"levelo://app?vid=83bf10a6-fe49-41be-bada-3c7a1d60f118","ios":"levelo://app?vid=83bf10a6-fe49-41be-bada-3c7a1d60f118"},"vehicle_type_id":"4","last_reported":1740935224,"current_range_meters":16000,"station_id":"ce4bhu92rcd13ifvqi70","pricing_plan_id":"cebpf4jnsgd1na2vs0mg"},{"bike_id":"670122a3-157a-4ef1-82d1-a5574649dac0","system_id":"levelo_inurba_marseille","lat":43.23956,"lon":5.36615,"is_reserved":false,"is_disabled":false,"rental_uris":{"android":"levelo://app?vid=670122a3-157a-4ef1-82d1-a5574649dac0","ios":"levelo://app?vid=670122a3-157a-4ef1-82d1-a5574649dac0"},"vehicle_type_id":"4","last_reported":1740935224,"current_range_meters":16000,"station_id":"ce4bhi12rcd13ifvqfp0","pricing_plan_id":"cebpf4jnsgd1na2vs0mg"},{"bike_id":"6ef121dc-1889-4795-bbef-28609514bd7b","system_id":"levelo_inurba_marseille","lat":43.24822,"lon":5.37437,"is_reserved":false,"is_disabled":false,"rental_uris":{"android":"levelo://app?vid=6ef121dc-1889-4795-bbef-28609514bd7b","ios":"levelo://app?vid=6ef121dc-1889-4795-bbef-28609514bd7b"},"vehicle_type_id":"4","last_reported":1740935224,"current_range_meters":16000,"station_id":"ce4bhgh2rcd13ifvqfb0","pricing_plan_id":"cebpf4jnsgd1na2vs0mg"},{"bike_id":"480956fb-fbd3-45d8-8835-17773bb1cc8b","system_id":"levelo_inurba_marseille","lat":43.30415,"lon":5.4128,"is_reserved":false,"is_disabled":false,"rental_uris":{"android":"levelo://app?vid=480956fb-fbd3-45d8-8835-17773bb1cc8b","ios":"levelo://app?vid=480956fb-fbd3-45d8-8835-17773bb1cc8b"},"vehicle_type_id":"4","last_reported":1740935224,"current_range_meters":16000,"station_id":"ce4bhop2rcd13ifvqh8g","pricing_plan_id":"cebpf4jnsgd1na2vs0mg"},{"bike_id":"f92cdb3e-8200-406c-a004-1416ff1d1dbb","system_id":"levelo_inurba_marseille","lat":43.28842,"lon":5.43328,"is_reserved":false,"is_disabled":false,"rental_uris":{"android":"levelo://app?vid=f92cdb3e-8200-406c-a004-1416ff1d1dbb","ios":"levelo://app?vid=f92cdb3e-8200-406c-a004-1416ff1d1dbb"},"vehicle_type_id":"4","last_reported":1740935224,"current_range_meters":16000,"station_id":"","pricing_plan_id":"cebpf4jnsgd1na2vs0mg"},{"bike_id":"edc1a413-247b-4125-8ff6-3193d9b9b0b7","system_id":"levelo_inurba_marseille","lat":43.24398,"lon":5.37059,"is_reserved":false,"is_disabled":false,"rental_uris":{"android":"levelo://app?vid=edc1a413-247b-4125-8ff6-3193d9b9b0b7","ios":"levelo://app?vid=edc1a413-247b-4125-8ff6-3193d9b9b0b7"},"vehicle_type_id":"4","last_reported":1740935224,"current_range_meters":16000,"station_id":"ce4bhhh2rcd13ifvqfk0","pricing_plan_id":"cebpf4jnsgd1na2vs0mg"},{"bike_id":"6dbc928e-e5ba-4a11-a0a2-7b66b39a4e83","system_id":"levelo_inurba_marseille","lat":43.27915,"lon":5.39576,"is_reserved":false,"is_disabled":false,"rental_uris":{"android":"levelo://app?vid=6dbc928e-e5ba-4a11-a0a2-7b66b39a4e83","ios":"levelo://app?vid=6dbc928e-e5ba-4a11-a0a2-7b66b39a4e83"},"vehicle_type_id":"4","last_reported":1740935224,"current_range_meters":16000,"station_id":"ce4bhf92rcd13ifvqf40","pricing_plan_id":"cebpf4jnsgd1na2vs0mg"},{"bike_id":"7c47f470-84f2-4d78-8564-b17b897f3442","system_id":"levelo_inurba_marseille","lat":43.29016,"lon":5.35607,"is_reserved":false,"is_disabled":false,"rental_uris":{"android":"levelo://app?vid=7c47f470-84f2-4d78-8564-b17b897f3442","ios":"levelo://app?vid=7c47f470-84f2-4d78-8564-b17b897f3442"},"vehicle_type_id":"4","last_reported":1740935224,"current_range_meters":16000,"station_id":"ce4bhb92rcd13ifvqen0","pricing_plan_id":"cebpf4jnsgd1na2vs0mg"},{"bike_id":"8afe136c-0c51-4aca-ad51-f30e81f8c519","system_id":"levelo_inurba_marseille","lat":43.32507,"lon":5.42671,"is_reserved":false,"is_disabled":false,"rental_uris":{"android":"levelo://app?vid=8afe136c-0c51-4aca-ad51-f30e81f8c519","ios":"levelo://app?vid=8afe136c-0c51-4aca-ad51-f30e81f8c519"},"vehicle_type_id":"4","last_reported":1740935224,"current_range_meters":16400,"station_id":"","pricing_plan_id":"cebpf4jnsgd1na2vs0mg"},{"bike_id":"1479e1b5-6e5e-4242-8121-7caa8b967c30","system_id":"levelo_inurba_marseille","lat":43.3135,"lon":5.36719,"is_reserved":false,"is_disabled":false,"rental_uris":{"android":"levelo://app?vid=1479e1b5-6e5e-4242-8121-7caa8b967c30","ios":"levelo://app?vid=1479e1b5-6e5e-4242-8121-7caa8b967c30"},"vehicle_type_id":"4","last_reported":1740935224,"current_range_meters":15200,"station_id":"ce4bgr92rcd13ifvqc6g","pricing_plan_id":"cebpf4jnsgd1na2vs0mg"},{"bike_id":"c1087511-e0ac-417a-b7cb-428b21938425","system_id":"levelo_inurba_marseille","lat":43.29577,"lon":5.36737,"is_reserved":false,"is_disabled":false,"rental_uris":{"android":"levelo://app?vid=c1087511-e0ac-417a-b7cb-428b21938425","ios":"levelo://app?vid=c1087511-e0ac-417a-b7cb-428b21938425"},"vehicle_type_id":"4","last_reported":1740935224,"current_range_meters":17200,"station_id":"ce4bgph2rcd13ifvqc2g","pricing_plan_id":"cebpf4jnsgd1na2vs0mg"},{"bike_id":"e300d73d-35a3-436c-a2e7-df70ee03f614","system_id":"levelo_inurba_marseille","lat":43.24654,"lon":5.38894,"is_reserved":false,"is_disabled":false,"rental_uris":{"android":"levelo://app?vid=e300d73d-35a3-436c-a2e7-df70ee03f614","ios":"levelo://app?vid=e300d73d-35a3-436c-a2e7-df70ee03f614"},"vehicle_type_id":"4","last_reported":1740935224,"current_range_meters":16400,"station_id":"ce4bhg12rcd13ifvqf60","pricing_plan_id":"cebpf4jnsgd1na2vs0mg"},{"bike_id":"8a679bb1-08fd-411a-8e5e-d38137ae07c7","system_id":"levelo_inurba_marseille","lat":43.23054,"lon":5.35494,"is_reserved":false,"is_disabled":true,"rental_uris":{"android":"levelo://app?vid=8a679bb1-08fd-411a-8e5e-d38137ae07c7","ios":"levelo://app?vid=8a679bb1-08fd-411a-8e5e-d38137ae07c7"},"vehicle_type_id":"4","last_reported":1740935224,"current_range_meters":16400,"station_id":"cpo3342slgdg3j2ifvpg","pricing_plan_id":"cebpf4jnsgd1na2vs0mg"},{"bike_id":"a6e03227-9a90-4644-8efe-bc8533ca3835","system_id":"levelo_inurba_marseille","lat":43.29712,"lon":5.37709,"is_reserved":false,"is_disabled":true,"rental_uris":{"android":"levelo://app?vid=a6e03227-9a90-4644-8efe-bc8533ca3835","ios":"levelo://app?vid=a6e03227-9a90-4644-8efe-bc8533ca3835"},"vehicle_type_id":"4","last_reported":1740935224,"current_range_meters":16400,"station_id":"ce4bgkh2rcd13ifvqbl0","pricing_plan_id":"cebpf4jnsgd1na2vs0mg"},{"bike_id":"e0328144-59ed-4262-b367-c9eae5753697","system_id":"levelo_inurba_marseille","lat":43.24808,"lon":5.37469,"is_reserved":false,"is_disabled":false,"rental_uris":{"android":"levelo://app?vid=e0328144-59ed-4262-b367-c9eae5753697","ios":"levelo://app?vid=e0328144-59ed-4262-b367-c9eae5753697"},"vehicle_type_id":"4","last_reported":1740935224,"current_range_meters":16800,"station_id":"ce4bhgh2rcd13ifvqfb0","pricing_plan_id":"cebpf4jnsgd1na2vs0mg"},{"bike_id":"369ed6b3-3903-4940-9a1b-f4b519a56372","system_id":"levelo_inurba_marseille","lat":43.28929,"lon":5.36404,"is_reserved":false,"is_disabled":false,"rental_uris":{"android":"levelo://app?vid=369ed6b3-3903-4940-9a1b-f4b519a56372","ios":"levelo://app?vid=369ed6b3-3903-4940-9a1b-f4b519a56372"},"vehicle_type_id":"4","last_reported":1740935224,"current_range_meters":16000,"station_id":"ce4bhc92rcd13ifvqetg","pricing_plan_id":"cebpf4jnsgd1na2vs0mg"},{"bike_id":"e7ed3e21-cb80-4d51-8614-d14dae844c92","system_id":"levelo_inurba_marseille","lat":43.28349,"lon":5.38109,"is_reserved":false,"is_disabled":false,"rental_uris":{"android":"levelo://app?vid=e7ed3e21-cb80-4d51-8614-d14dae844c92","ios":"levelo://app?vid=e7ed3e21-cb80-4d51-8614-d14dae844c92"},"vehicle_type_id":"4","last_reported":1740935224,"current_range_meters":16400,"station_id":"ce4bh412rcd13ifvqdr0","pricing_plan_id":"cebpf4jnsgd1na2vs0mg"},{"bike_id":"404e1b87-4cb9-4288-9092-462444875a34","system_id":"levelo_inurba_marseille","lat":43.286124,"lon":5.351035,"is_reserved":false,"is_disabled":false,"rental_uris":{"android":"levelo://app?vid=404e1b87-4cb9-4288-9092-462444875a34","ios":"levelo://app?vid=404e1b87-4cb9-4288-9092-462444875a34"},"vehicle_type_id":"4","last_reported":1740935224,"current_range_meters":16800,"station_id":"ce4bhch2rcd13ifvqeug","pricing_plan_id":"cebpf4jnsgd1na2vs0mg"},{"bike_id":"0481b51c-96a0-47f6-894b-d5781f7c8840","system_id":"levelo_inurba_marseille","lat":43.25725,"lon":5.4111,"is_reserved":false,"is_disabled":false,"rental_uris":{"android":"levelo://app?vid=0481b51c-96a0-47f6-894b-d5781f7c8840","ios":"levelo://app?vid=0481b51c-96a0-47f6-894b-d5781f7c8840"},"vehicle_type_id":"4","last_reported":1740935224,"current_range_meters":16800,"station_id":"ce4bhkp2rcd13ifvqgd0","pricing_plan_id":"cebpf4jnsgd1na2vs0mg"},{"bike_id":"4344c971-43c3-4c92-b0ff-47be87956c14","system_id":"levelo_inurba_marseille","lat":43.28423,"lon":5.37521,"is_reserved":false,"is_disabled":false,"rental_uris":{"android":"levelo://app?vid=4344c971-43c3-4c92-b0ff-47be87956c14","ios":"levelo://app?vid=4344c971-43c3-4c92-b0ff-47be87956c14"},"vehicle_type_id":"4","last_reported":1740935224,"current_range_meters":16800,"station_id":"ce4bh412rcd13ifvqds0","pricing_plan_id":"cebpf4jnsgd1na2vs0mg"},{"bike_id":"fd5882ad-f8e0-4228-b034-b0eceb7f08d2","system_id":"levelo_inurba_marseille","lat":43.23062,"lon":5.35503,"is_reserved":false,"is_disabled":false,"rental_uris":{"android":"levelo://app?vid=fd5882ad-f8e0-4228-b034-b0eceb7f08d2","ios":"levelo://app?vid=fd5882ad-f8e0-4228-b034-b0eceb7f08d2"},"vehicle_type_id":"4","last_reported":1740935224,"current_range_meters":16800,"station_id":"cpo3342slgdg3j2ifvpg","pricing_plan_id":"cebpf4jnsgd1na2vs0mg"},{"bike_id":"ff0bfa05-961a-405c-a86a-3cc39934fa42","system_id":"levelo_inurba_marseille","lat":43.29976,"lon":5.38504,"is_reserved":false,"is_disabled":false,"rental_uris":{"android":"levelo://app?vid=ff0bfa05-961a-405c-a86a-3cc39934fa42","ios":"levelo://app?vid=ff0bfa05-961a-405c-a86a-3cc39934fa42"},"vehicle_type_id":"4","last_reported":1740935224,"current_range_meters":16000,"station_id":"ce4bgj92rcd13ifvqbd0","pricing_plan_id":"cebpf4jnsgd1na2vs0mg"},{"bike_id":"70093afa-ca70-4bd2-817e-fc7002e6811c","system_id":"levelo_inurba_marseille","lat":43.29435,"lon":5.3976,"is_reserved":false,"is_disabled":false,"rental_uris":{"android":"levelo://app?vid=70093afa-ca70-4bd2-817e-fc7002e6811c","ios":"levelo://app?vid=70093afa-ca70-4bd2-817e-fc7002e6811c"},"vehicle_type_id":"4","last_reported":1740935224,"current_range_meters":14400,"station_id":"ce4bh3h2rcd13ifvqdo0","pricing_plan_id":"cebpf4jnsgd1na2vs0mg"},{"bike_id":"d7b10593-f470-4af4-85f7-baabf817d706","system_id":"levelo_inurba_marseille","lat":43.3302,"lon":5.39046,"is_reserved":false,"is_disabled":false,"rental_uris":{"android":"levelo://app?vid=d7b10593-f470-4af4-85f7-baabf817d706","ios":"levelo://app?vid=d7b10593-f470-4af4-85f7-baabf817d706"},"vehicle_type_id":"4","last_reported":1740935224,"current_range_meters":16000,"station_id":"ce4bhr92rcd13ifvqhrg","pricing_plan_id":"cebpf4jnsgd1na2vs0mg"},{"bike_id":"7e127578-e896-4a64-b98c-4f3885df7395","system_id":"levelo_inurba_marseille","lat":43.27809,"lon":5.40712,"is_reserved":false,"is_disabled":false,"rental_uris":{"android":"levelo://app?vid=7e127578-e896-4a64-b98c-4f3885df7395","ios":"levelo://app?vid=7e127578-e896-4a64-b98c-4f3885df7395"},"vehicle_type_id":"4","last_reported":1740935224,"current_range_meters":16800,"station_id":"ce4bhnh2rcd13ifvqgtg","pricing_plan_id":"cebpf4jnsgd1na2vs0mg"},{"bike_id":"86d526c3-aa70-432f-82d7-70197a76784a","system_id":"levelo_inurba_marseille","lat":43.29257,"lon":5.40909,"is_reserved":false,"is_disabled":false,"rental_uris":{"android":"levelo://app?vid=86d526c3-aa70-432f-82d7-70197a76784a","ios":"levelo://app?vid=86d526c3-aa70-432f-82d7-70197a76784a"},"vehicle_type_id":"4","last_reported":1740935224,"current_range_meters":17600,"station_id":"ce4bh192rcd13ifvqdc0","pricing_plan_id":"cebpf4jnsgd1na2vs0mg"},{"bike_id":"9f9568d4-45df-4969-9243-ffd50aec2aa0","system_id":"levelo_inurba_marseille","lat":43.29275,"lon":5.38201,"is_reserved":false,"is_disabled":true,"rental_uris":{"android":"levelo://app?vid=9f9568d4-45df-4969-9243-ffd50aec2aa0","ios":"levelo://app?vid=9f9568d4-45df-4969-9243-ffd50aec2aa0"},"vehicle_type_id":"4","last_reported":1740935224,"current_range_meters":17200,"station_id":"","pricing_plan_id":"cebpf4jnsgd1na2vs0mg"},{"bike_id":"ce040b97-adf8-488e-abcc-2cd8b3ad2c41","system_id":"levelo_inurba_marseille","lat":43.32363,"lon":5.36765,"is_reserved":false,"is_disabled":false,"rental_uris":{"android":"levelo://app?vid=ce040b97-adf8-488e-abcc-2cd8b3ad2c41","ios":"levelo://app?vid=ce040b97-adf8-488e-abcc-2cd8b3ad2c41"},"vehicle_type_id":"4","last_reported":1740935224,"current_range_meters":17200,"station_id":"ce4bhsh2rcd13ifvqi2g","pricing_plan_id":"cebpf4jnsgd1na2vs0mg"},{"bike_id":"892454a1-107a-47b9-95d5-3588c1291e85","system_id":"levelo_inurba_marseille","lat":43.28473,"lon":5.38412,"is_reserved":false,"is_disabled":false,"rental_uris":{"android":"levelo://app?vid=892454a1-107a-47b9-95d5-3588c1291e85","ios":"levelo://app?vid=892454a1-107a-47b9-95d5-3588c1291e85"},"vehicle_type_id":"4","last_reported":1740935224,"current_range_meters":16800,"station_id":"ce4bh512rcd13ifvqe3g","pricing_plan_id":"cebpf4jnsgd1na2vs0mg"},{"bike_id":"b05b54df-4f03-44cf-b138-86922ea29926","system_id":"levelo_inurba_marseille","lat":43.269164,"lon":5.402717,"is_reserved":false,"is_disabled":false,"rental_uris":{"android":"levelo://app?vid=b05b54df-4f03-44cf-b138-86922ea29926","ios":"levelo://app?vid=b05b54df-4f03-44cf-b138-86922ea29926"},"vehicle_type_id":"4","last_reported":1740935224,"current_range_meters":17600,"station_id":"cjm6bp8fraef2m0cb0m0","pricing_plan_id":"cebpf4jnsgd1na2vs0mg"},{"bike_id":"7d3f29a2-77e1-43cf-a74e-c2df62166b7a","system_id":"levelo_inurba_marseille","lat":43.2481,"lon":5.37453,"is_reserved":false,"is_disabled":false,"rental_uris":{"android":"levelo://app?vid=7d3f29a2-77e1-43cf-a74e-c2df62166b7a","ios":"levelo://app?vid=7d3f29a2-77e1-43cf-a74e-c2df62166b7a"},"vehicle_type_id":"4","last_reported":1740935224,"current_range_meters":17600,"station_id":"ce4bhgh2rcd13ifvqfb0","pricing_plan_id":"cebpf4jnsgd1na2vs0mg"},{"bike_id":"76c158ef-5486-4182-a848-acf5a6bf9f9e","system_id":"levelo_inurba_marseille","lat":43.28343,"lon":5.38096,"is_reserved":false,"is_disabled":false,"rental_uris":{"android":"levelo://app?vid=76c158ef-5486-4182-a848-acf5a6bf9f9e","ios":"levelo://app?vid=76c158ef-5486-4182-a848-acf5a6bf9f9e"},"vehicle_type_id":"4","last_reported":1740935224,"current_range_meters":17200,"station_id":"ce4bh412rcd13ifvqdr0","pricing_plan_id":"cebpf4jnsgd1na2vs0mg"},{"bike_id":"9e245260-a52d-45ce-8e62-3c252a055775","system_id":"levelo_inurba_marseille","lat":43.27431,"lon":5.39425,"is_reserved":false,"is_disabled":false,"rental_uris":{"android":"levelo://app?vid=9e245260-a52d-45ce-8e62-3c252a055775","ios":"levelo://app?vid=9e245260-a52d-45ce-8e62-3c252a055775"},"vehicle_type_id":"4","last_reported":1740935224,"current_range_meters":17200,"station_id":"ce4bhdp2rcd13ifvqf20","pricing_plan_id":"cebpf4jnsgd1na2vs0mg"},{"bike_id":"ab9cb69f-91d1-457e-a12a-43f5ddea2219","system_id":"levelo_inurba_marseille","lat":43.24808,"lon":5.37454,"is_reserved":false,"is_disabled":false,"rental_uris":{"android":"levelo://app?vid=ab9cb69f-91d1-457e-a12a-43f5ddea2219","ios":"levelo://app?vid=ab9cb69f-91d1-457e-a12a-43f5ddea2219"},"vehicle_type_id":"4","last_reported":1740935224,"current_range_meters":17600,"station_id":"ce4bhgh2rcd13ifvqfb0","pricing_plan_id":"cebpf4jnsgd1na2vs0mg"},{"bike_id":"6f9f3f95-0161-4973-849a-64e64d8388fc","system_id":"levelo_inurba_marseille","lat":43.23213,"lon":5.35501,"is_reserved":false,"is_disabled":false,"rental_uris":{"android":"levelo://app?vid=6f9f3f95-0161-4973-849a-64e64d8388fc","ios":"levelo://app?vid=6f9f3f95-0161-4973-849a-64e64d8388fc"},"vehicle_type_id":"4","last_reported":1740935224,"current_range_meters":17600,"station_id":"ce4bhu92rcd13ifvqi70","pricing_plan_id":"cebpf4jnsgd1na2vs0mg"},{"bike_id":"84f1d3aa-30d5-4609-bc11-8e87634aba62","system_id":"levelo_inurba_marseille","lat":43.24807,"lon":5.3746,"is_reserved":false,"is_disabled":false,"rental_uris":{"android":"levelo://app?vid=84f1d3aa-30d5-4609-bc11-8e87634aba62","ios":"levelo://app?vid=84f1d3aa-30d5-4609-bc11-8e87634aba62"},