{"last_updated":1712622884,"ttl":30,"version":"2.2","data":{"bikes":[{"bike_id":"aa813bbb-fd46-45bd-99d5-275838f52249","system_id":"levelo_inurba_marseille","lat":43.309076,"lon":5.368465,"is_reserved":false,"is_disabled":false,"rental_uris":{"android":"levelo://app?vid=aa813bbb-fd46-45bd-99d5-275838f52249","ios":"levelo://app?vid=aa813bbb-fd46-45bd-99d5-275838f52249"},"vehicle_type_id":"4","last_reported":1712622884,"current_range_meters":24800,"station_id":"ce4bgn92rcd13ifvqbvg","pricing_plan_id":"cebpf4jnsgd1na2vs0mg"},{"bike_id":"e0d2bac6-2a4c-4871-b120-e17ed82bf141","system_id":"levelo_inurba_marseille","lat":43.309076,"lon":5.368465,"is_reserved":false,"is_disabled":false,"rental_uris":{"android":"levelo://app?vid=e0d2bac6-2a4c-4871-b120-e17ed82bf141","ios":"levelo://app?vid=e0d2bac6-2a4c-4871-b120-e17ed82bf141"},"vehicle_type_id":"4","last_reported":1712622884,"current_range_meters":28400,"station_id":"ce4bgn92rcd13ifvqbvg","pricing_plan_id":"cebpf4jnsgd1na2vs0mg"},{"bike_id":"73706916-b3f3-4ff0-b068-cec67895e8b1","system_id":"levelo_inurba_marseille","lat":43.308474,"lon":5.367652,"is_reserved":false,"is_disabled":false,"rental_uris":{"android":"levelo://app?vid=73706916-b3f3-4ff0-b068-cec67895e8b1","ios":"levelo://app?vid=73706916-b3f3-4ff0-b068-cec67895e8b1"},"vehicle_type_id":"4","last_reported":1712622884,"current_range_meters":2400,"station_id":"","pricing_plan_id":"cebpf4jnsgd1na2vs0mg"},{"bike_id":"03b953fe-032c-4efa-96f7-b0794edaeb3d","system_id":"levelo_inurba_marseille","lat":43.314811,"lon":5.373103,"is_reserved":false,"is_disabled":false,"rental_uris":{"android":"levelo://app?vid=03b953fe-032c-4efa-96f7-b0794edaeb3d","ios":"levelo://app?vid=03b953fe-032c-4efa-96f7-b0794edaeb3d"},"vehicle_type_id":"4","last_reported":1712622884,"current_range_meters":18000,"station_id":"ce4bgt12rcd13ifvqcd0","pricing_plan_id":"cebpf4jnsgd1na2vs0mg"},{"bike_id":"51838794-d1c8-472b-b8c4-12a20072fdc9","system_id":"levelo_inurba_marseille","lat":43.314811,"lon":5.373103,"is_reserved":false,"is_disabled":false,"rental_uris":{"android":"levelo://app?vid=51838794-d1c8-472b-b8c4-12a20072fdc9","ios":"levelo://app?vid=51838794-d1c8-472b-b8c4-12a20072fdc9"},"vehicle_type_id":"4","last_reported":1712622884,"current_range_meters":24400,"station_id":"ce4bgt12rcd13ifvqcd0","pricing_plan_id":"cebpf4jnsgd1na2vs0mg"},{"bike_id":"5ab0b934-ede6-4403-ad0b-f2d3c1a1fc05","system_id":"levelo_inurba_marseille","lat":43.31494,"lon":5.37298,"is_reserved":false,"is_disabled":false,"rental_uris":{"android":"levelo://app?vid=5ab0b934-ede6-4403-ad0b-f2d3c1a1fc05","ios":"levelo://app?vid=5ab0b934-ede6-4403-ad0b-f2d3c1a1fc05"},"vehicle_type_id":"4","last_reported":1712622884,"current_range_meters":0,"station_id":"ce4bgt12rcd13ifvqcd0","pricing_plan_id":"cebpf4jnsgd1na2vs0mg"},{"bike_id":"44e2b4e4-4015-47d6-ac75-b46811d6d1f1","system_id":"levelo_inurba_marseille","lat":43.314811,"lon":5.373104,"is_reserved":false,"is_disabled":false,"rental_uris":{"android":"levelo://app?vid=44e2b4e4-4015-47d6-ac75-b46811d6d1f1","ios":"levelo://app?vid=44e2b4e4-4015-47d6-ac75-b46811d6d1f1"},"vehicle_type_id":"4","last_reported":1712622884,"current_range_meters":1200,"station_id":"ce4bgt12rcd13ifvqcd0","pricing_plan_id":"cebpf4jnsgd1na2vs0mg"},{"bike_id":"43f40058-7390-4c9e-b3ee-0b4da12a79cc","system_id":"levelo_inurba_marseille","lat":43.314811,"lon":5.373104,"is_reserved":false,"is_disabled":false,"rental_uris":{"android":"levelo://app?vid=43f40058-7390-4c9e-b3ee-0b4da12a79cc","ios":"levelo://app?vid=43f40058-7390-4c9e-b3ee-0b4da12a79cc"},"vehicle_type_id":"4","last_reported":1712622884,"current_range_meters":13200,"station_id":"ce4bgt12rcd13ifvqcd0","pricing_plan_id":"cebpf4jnsgd1na2vs0mg"},{"bike_id":"ef79e8ae-e94e-4ed7-9f94-001456e444f4","system_id":"levelo_inurba_marseille","lat":43.314811,"lon":5.373104,"is_reserved":false,"is_disabled":false,"rental_uris":{"android":"levelo://app?vid=ef79e8ae-e94e-4ed7-9f94-001456e444f4","ios":"levelo://app?vid=ef79e8ae-e94e-4ed7-9f94-001456e444f4"},"vehicle_type_id":"4","last_reported":1712622884,"current_range_meters":18000,"station_id":"ce4bgt12rcd13ifvqcd0","pricing_plan_id":"cebpf4jnsgd1na2vs0mg"},{"bike_id":"27ea752c-a934-4d19-9fb5-c2a748b5cdbb","system_id":"levelo_inurba_marseille","lat":43.314811,"lon":5.373104,"is_reserved":false,"is_disabled":false,"rental_uris":{"android":"levelo://app?vid=27ea752c-a934-4d19-9fb5-c2a748b5cdbb","ios":"levelo://app?vid=27ea752c-a934-4d19-9fb5-c2a748b5cdbb"},"vehicle_type_id":"4","last_reported":1712622884,"current_range_meters":31200,"station_id":"ce4bgt12rcd13ifvqcd0","pricing_plan_id":"cebpf4jnsgd1na2vs0mg"},{"bike_id":"2da45ef7-269f-49d5-ae9f-8d81bc7fbbbf","system_id":"levelo_inurba_marseille","lat":43.309039,"lon":5.371797,"is_reserved":false,"is_disabled":false,"rental_uris":{"android":"levelo://app?vid=2da45ef7-269f-49d5-ae9f-8d81bc7fbbbf","ios":"levelo://app?vid=2da45ef7-269f-49d5-ae9f-8d81bc7fbbbf"},"vehicle_type_id":"4","last_reported":1712622884,"current_range_meters":1200,"station_id":"ce4bguh2rcd13ifvqckg","pricing_plan_id":"cebpf4jnsgd1na2vs0mg"},{"bike_id":"d8e11b3f-6751-424c-a6a3-9a72bbf9c665","system_id":"levelo_inurba_marseille","lat":43.31119,"lon":5.37638,"is_reserved":false,"is_disabled":false,"rental_uris":{"android":"levelo://app?vid=d8e11b3f-6751-424c-a6a3-9a72bbf9c665","ios":"levelo://app?vid=d8e11b3f-6751-424c-a6a3-9a72bbf9c665"},"vehicle_type_id":"4","last_reported":1712622884,"current_range_meters":23200,"station_id":"","pricing_plan_id":"cebpf4jnsgd1na2vs0mg"},{"bike_id":"59211f08-0990-4089-be8f-5fd37ba0a086","system_id":"levelo_inurba_marseille","lat":43.31318,"lon":5.37673,"is_reserved":false,"is_disabled":false,"rental_uris":{"android":"levelo://app?vid=59211f08-0990-4089-be8f-5fd37ba0a086","ios":"levelo://app?vid=59211f08-0990-4089-be8f-5fd37ba0a086"},"vehicle_type_id":"4","last_reported":1712622884,"current_range_meters":10400,"station_id":"","pricing_plan_id":"cebpf4jnsgd1na2vs0mg"},{"bike_id":"14c0d73a-5180-430e-bbb6-c28ae36ba04b","system_id":"levelo_inurba_marseille","lat":43.30547,"lon":5.36541,"is_reserved":false,"is_disabled":false,"rental_uris":{"android":"levelo://app?vid=14c0d73a-5180-430e-bbb6-c28ae36ba04b","ios":"levelo://app?vid=14c0d73a-5180-430e-bbb6-c28ae36ba04b"},"vehicle_type_id":"4","last_reported":1712622884,"current_range_meters":800,"station_id":"","pricing_plan_id":"cebpf4jnsgd1na2vs0mg"},{"bike_id":"0f6d8882-7f76-41a7-bd65-70c5952de0b3","system_id":"levelo_inurba_marseille","lat":43.310398,"lon":5.376795,"is_reserved":false,"is_disabled":false,"rental_uris":{"android":"levelo://app?vid=0f6d8882-7f76-41a7-bd65-70c5952de0b3","ios":"levelo://app?vid=0f6d8882-7f76-41a7-bd65-70c5952de0b3"},"vehicle_type_id":"4","last_reported":1712622884,"current_range_meters":5200,"station_id":"","pricing_plan_id":"cebpf4jnsgd1na2vs0mg"},{"bike_id":"b5928144-fe73-4ffa-a534-0998fa1a7f8f","system_id":"levelo_inurba_marseille","lat":43.305989,"lon":5.37225,"is_reserved":false,"is_disabled":false,"rental_uris":{"android":"levelo://app?vid=b5928144-fe73-4ffa-a534-0998fa1a7f8f","ios":"levelo://app?vid=b5928144-fe73-4ffa-a534-0998fa1a7f8f"},"vehicle_type_id":"4","last_reported":1712622884,"current_range_meters":24000,"station_id":"ce4bgqh2rcd13ifvqc4g","pricing_plan_id":"cebpf4jnsgd1na2vs0mg"},{"bike_id":"3612c5f8-5b2a-40f8-8c9f-b46020e50bd4","system_id":"levelo_inurba_marseille","lat":43.30596,"lon":5.37214,"is_reserved":false,"is_disabled":false,"rental_uris":{"android":"levelo://app?vid=3612c5f8-5b2a-40f8-8c9f-b46020e50bd4","ios":"levelo://app?vid=3612c5f8-5b2a-40f8-8c9f-b46020e50bd4"},"vehicle_type_id":"4","last_reported":1712622884,"current_range_meters":0,"station_id":"ce4bgqh2rcd13ifvqc4g","pricing_plan_id":"cebpf4jnsgd1na2vs0mg"},{"bike_id":"ed903c19-5f67-4901-b64b-a3c267dfe1f4","system_id":"levelo_inurba_marseille","lat":43.305989,"lon":5.37225,"is_reserved":false,"is_disabled":false,"rental_uris":{"android":"levelo://app?vid=ed903c19-5f67-4901-b64b-a3c267dfe1f4","ios":"levelo://app?vid=ed903c19-5f67-4901-b64b-a3c267dfe1f4"},"vehicle_type_id":"4","last_reported":1712622884,"current_range_meters":24000,"station_id":"ce4bgqh2rcd13ifvqc4g","pricing_plan_id":"cebpf4jnsgd1na2vs0mg"},{"bike_id":"b7f754e2-6a1a-4edc-968f-a77afac09d24","system_id":"levelo_inurba_marseille","lat":43.311131,"lon":5.377651,"is_reserved":false,"is_disabled":false,"rental_uris":{"android":"levelo://app?vid=b7f754e2-6a1a-4edc-968f-a77afac09d24","ios":"levelo://app?vid=b7f754e2-6a1a-4edc-968f-a77afac09d24"},"vehicle_type_id":"4","last_reported":1712622884,"current_range_meters":20400,"station_id":"ce4bgt92rcd13ifvqcg0","pricing_plan_id":"cebpf4jnsgd1na2vs0mg"},{"bike_id":"a488eb24-417f-4c78-967b-470493959bb4","system_id":"levelo_inurba_marseille","lat":43.311131,"lon":5.377651,"is_reserved":false,"is_disabled":false,"rental_uris":{"android":"levelo://app?vid=a488eb24-417f-4c78-967b-470493959bb4","ios":"levelo://app?vid=a488eb24-417f-4c78-967b-470493959bb4"},"vehicle_type_id":"4","last_reported":1712622884,"current_range_meters":1200,"station_id":"ce4bgt92rcd13ifvqcg0","pricing_plan_id":"cebpf4jnsgd1na2vs0mg"},{"bike_id":"d853f96e-07e5-4a94-9dc4-75d246434837","system_id":"levelo_inurba_marseille","lat":43.311125,"lon":5.377624,"is_reserved":false,"is_disabled":false,"rental_uris":{"android":"levelo://app?vid=d853f96e-07e5-4a94-9dc4-75d246434837","ios":"levelo://app?vid=d853f96e-07e5-4a94-9dc4-75d246434837"},"vehicle_type_id":"4","last_reported":1712622884,"current_range_meters":0,"station_id":"ce4bgt92rcd13ifvqcg0","pricing_plan_id":"cebpf4jnsgd1na2vs0mg"},{"bike_id":"aa58f084-8f0b-4842-907c-5dac3d4c02f8","system_id":"levelo_inurba_marseille","lat":43.311125,"lon":5.377624,"is_reserved":false,"is_disabled":false,"rental_uris":{"android":"levelo://app?vid=aa58f084-8f0b-4842-907c-5dac3d4c02f8","ios":"levelo://app?vid=aa58f084-8f0b-4842-907c-5dac3d4c02f8"},"vehicle_type_id":"4","last_reported":1712622884,"current_range_meters":6800,"station_id":"ce4bgt92rcd13ifvqcg0","pricing_plan_id":"cebpf4jnsgd1na2vs0mg"},{"bike_id":"e1d23c5f-72da-4b82-a97c-aaf6ac371e92","system_id":"levelo_inurba_marseille","lat":43.311131,"lon":5.377651,"is_reserved":false,"is_disabled":false,"rental_uris":{"android":"levelo://app?vid=e1d23c5f-72da-4b82-a97c-aaf6ac371e92","ios":"levelo://app?vid=e1d23c5f-72da-4b82-a97c-aaf6ac371e92"},"vehicle_type_id":"4","last_reported":1712622884,"current_range_meters":0,"station_id":"ce4bgt92rcd13ifvqcg0","pricing_plan_id":"cebpf4jnsgd1na2vs0mg"},{"bike_id":"fd3e5e70-6f62-486d-8f7b-28a00244cae2","system_id":"levelo_inurba_marseille","lat":43.311125,"lon":5.377624,"is_reserved":false,"is_disabled":false,"rental_uris":{"android":"levelo://app?vid=fd3e5e70-6f62-486d-8f7b-28a00244cae2","ios":"levelo://app?vid=fd3e5e70-6f62-486d-8f7b-28a00244cae2"},"vehicle_type_id":"4","last_reported":1712622884,"current_range_meters":22000,"station_id":"ce4bgt92rcd13ifvqcg0","pricing_plan_id":"cebpf4jnsgd1na2vs0mg"},{"bike_id":"907d6a77-696b-4664-be60-c1854acc527d","system_id":"levelo_inurba_marseille","lat":43.311131,"lon":5.377651,"is_reserved":false,"is_disabled":false,"rental_uris":{"android":"levelo://app?vid=907d6a77-696b-4664-be60-c1854acc527d","ios":"levelo://app?vid=907d6a77-696b-4664-be60-c1854acc527d"},"vehicle_type_id":"4","last_reported":1712622884,"current_range_meters":12800,"station_id":"ce4bgt92rcd13ifvqcg0","pricing_plan_id":"cebpf4jnsgd1na2vs0mg"},{"bike_id":"bde34e67-db82-4c04-a51a-711a28e7ff5f","system_id":"levelo_inurba_marseille","lat":43.311131,"lon":5.377651,"is_reserved":false,"is_disabled":false,"rental_uris":{"android":"levelo://app?vid=bde34e67-db82-4c04-a51a-711a28e7ff5f","ios":"levelo://app?vid=bde34e67-db82-4c04-a51a-711a28e7ff5f"},"vehicle_type_id":"4","last_reported":1712622884,"current_range_meters":4400,"station_id":"ce4bgt92rcd13ifvqcg0","pricing_plan_id":"cebpf4jnsgd1na2vs0mg"},{"bike_id":"010d589d-180c-417b-9dbe-5dd144874157","system_id":"levelo_inurba_marseille","lat":43.307945,"lon":5.376487,"is_reserved":false,"is_disabled":false,"rental_uris":{"android":"levelo://app?vid=010d589d-180c-417b-9dbe-5dd144874157","ios":"levelo://app?vid=010d589d-180c-417b-9dbe-5dd144874157"},"vehicle_type_id":"4","last_reported":1712622884,"current_range_meters":30800,"station_id":"ce4bgv92rcd13ifvqcq0","pricing_plan_id":"cebpf4jnsgd1na2vs0mg"},{"bike_id":"4508fa8c-8e31-47da-a59b-ba21e4969eea","system_id":"levelo_inurba_marseille","lat":43.307945,"lon":5.376487,"is_reserved":false,"is_disabled":false,"rental_uris":{"android":"levelo://app?vid=4508fa8c-8e31-47da-a59b-ba21e4969eea","ios":"levelo://app?vid=4508fa8c-8e31-47da-a59b-ba21e4969eea"},"vehicle_type_id":"4","last_reported":1712622884,"current_range_meters":22400,"station_id":"ce4bgv92rcd13ifvqcq0","pricing_plan_id":"cebpf4jnsgd1na2vs0mg"},{"bike_id":"1ddd2652-9a8e-438a-9a4f-0bddd7ccd592","system_id":"levelo_inurba_marseille","lat":43.307945,"lon":5.376487,"is_reserved":false,"is_disabled":false,"rental_uris":{"android":"levelo://app?vid=1ddd2652-9a8e-438a-9a4f-0bddd7ccd592","ios":"levelo://app?vid=1ddd2652-9a8e-438a-9a4f-0bddd7ccd592"},"vehicle_type_id":"4","last_reported":1712622884,"current_range_meters":17600,"station_id":"ce4bgv92rcd13ifvqcq0","pricing_plan_id":"cebpf4jnsgd1na2vs0mg"},{"bike_id":"a6cdc948-8442-41d1-8bc0-b065df4b88fe","system_id":"levelo_inurba_marseille","lat":43.317075,"lon":5.377367,"is_reserved":false,"is_disabled":false,"rental_uris":{"android":"levelo://app?vid=a6cdc948-8442-41d1-8bc0-b065df4b88fe","ios":"levelo://app?vid=a6cdc948-8442-41d1-8bc0-b065df4b88fe"},"vehicle_type_id":"4","last_reported":1712622884,"current_range_meters":12400,"station_id":"ce4bgth2rcd13ifvqch0","pricing_plan_id":"cebpf4jnsgd1na2vs0mg"},{"bike_id":"2deb9ef4-cf12-4748-afce-76682756aeff","system_id":"levelo_inurba_marseille","lat":43.317075,"lon":5.377367,"is_reserved":false,"is_disabled":false,"rental_uris":{"android":"levelo://app?vid=2deb9ef4-cf12-4748-afce-76682756aeff","ios":"levelo://app?vid=2deb9ef4-cf12-4748-afce-76682756aeff"},"vehicle_type_id":"4","last_reported":1712622884,"current_range_meters":10000,"station_id":"ce4bgth2rcd13ifvqch0","pricing_plan_id":"cebpf4jnsgd1na2vs0mg"},{"bike_id":"5fdb08ba-2954-4421-bf7e-02ec24332efb","system_id":"levelo_inurba_marseille","lat":43.303046,"lon":5.368981,"is_reserved":false,"is_disabled":false,"rental_uris":{"android":"levelo://app?vid=5fdb08ba-2954-4421-bf7e-02ec24332efb","ios":"levelo://app?vid=5fdb08ba-2954-4421-bf7e-02ec24332efb"},"vehicle_type_id":"4","last_reported":1712622884,"current_range_meters":10800,"station_id":"ce4bgqh2rcd13ifvqc5g","pricing_plan_id":"cebpf4jnsgd1na2vs0mg"},{"bike_id":"0362c4b5-8413-4b69-9cf2-854a70e9b9b8","system_id":"levelo_inurba_marseille","lat":43.303046,"lon":5.368981,"is_reserved":false,"is_disabled":false,"rental_uris":{"android":"levelo://app?vid=0362c4b5-8413-4b69-9cf2-854a70e9b9b8","ios":"levelo://app?vid=0362c4b5-8413-4b69-9cf2-854a70e9b9b8"},"vehicle_type_id":"4","last_reported":1712622884,"current_range_meters":19600,"station_id":"ce4bgqh2rcd13ifvqc5g","pricing_plan_id":"cebpf4jnsgd1na2vs0mg"},{"bike_id":"593cb4c3-0b32-485b-be73-16abb5d470ca","system_id":"levelo_inurba_marseille","lat":43.287184,"lon":5.37937,"is_reserved":false,"is_disabled":false,"rental_uris":{"android":"levelo://app?vid=593cb4c3-0b32-485b-be73-16abb5d470ca","ios":"levelo://app?vid=593cb4c3-0b32-485b-be73-16abb5d470ca"},"vehicle_type_id":"4","last_reported":1712622884,"current_range_meters":23200,"station_id":"ce4bh9p2rcd13ifvqec0","pricing_plan_id":"cebpf4jnsgd1na2vs0mg"},{"bike_id":"4055e59c-2fd9-4199-bc9c-3f7ee1d62a49","system_id":"levelo_inurba_marseille","lat":43.303046,"lon":5.368981,"is_reserved":false,"is_disabled":false,"rental_uris":{"android":"levelo://app?vid=4055e59c-2fd9-4199-bc9c-3f7ee1d62a49","ios":"levelo://app?vid=4055e59c-2fd9-4199-bc9c-3f7ee1d62a49"},"vehicle_type_id":"4","last_reported":1712622884,"current_range_meters":31200,"station_id":"ce4bgqh2rcd13ifvqc5g","pricing_plan_id":"cebpf4jnsgd1na2vs0mg"},{"bike_id":"63668dd1-c350-46b5-8a50-bef5fa1ab5b1","system_id":"levelo_inurba_marseille","lat":43.315289,"lon":5.380349,"is_reserved":false,"is_disabled":false,"rental_uris":{"android":"levelo://app?vid=63668dd1-c350-46b5-8a50-bef5fa1ab5b1","ios":"levelo://app?vid=63668dd1-c350-46b5-8a50-bef5fa1ab5b1"},"vehicle_type_id":"4","last_reported":1712622884,"current_range_meters":16400,"station_id":"ce4bhsp2rcd13ifvqi50","pricing_plan_id":"cebpf4jnsgd1na2vs0mg"},{"bike_id":"cf1745c1-c135-4215-8272-80dafc380add","system_id":"levelo_inurba_marseille","lat":43.315293,"lon":5.380349,"is_reserved":false,"is_disabled":false,"rental_uris":{"android":"levelo://app?vid=cf1745c1-c135-4215-8272-80dafc380add","ios":"levelo://app?vid=cf1745c1-c135-4215-8272-80dafc380add"},"vehicle_type_id":"4","last_reported":1712622884,"current_range_meters":27600,"station_id":"ce4bhsp2rcd13ifvqi50","pricing_plan_id":"cebpf4jnsgd1na2vs0mg"},{"bike_id":"fb0bb270-363a-4aa2-9d09-684a2900324e","system_id":"levelo_inurba_marseille","lat":43.315293,"lon":5.380349,"is_reserved":false,"is_disabled":false,"rental_uris":{"android":"levelo://app?vid=fb0bb270-363a-4aa2-9d09-684a2900324e","ios":"levelo://app?vid=fb0bb270-363a-4aa2-9d09-684a2900324e"},"vehicle_type_id":"4","last_reported":1712622884,"current_range_meters":14000,"station_id":"ce4bhsp2rcd13ifvqi50","pricing_plan_id":"cebpf4jnsgd1na2vs0mg"},{"bike_id":"16394f1e-47af-4f30-9d28-d10b29c0008e","system_id":"levelo_inurba_marseille","lat":43.301939,"lon":5.366286,"is_reserved":false,"is_disabled":false,"rental_uris":{"android":"levelo://app?vid=16394f1e-47af-4f30-9d28-d10b29c0008e","ios":"levelo://app?vid=16394f1e-47af-4f30-9d28-d10b29c0008e"},"vehicle_type_id":"4","last_reported":1712622884,"current_range_meters":20400,"station_id":"ce4bgrh2rcd13ifvqc8g","pricing_plan_id":"cebpf4jnsgd1na2vs0mg"},{"bike_id":"951fffc4-6b04-4c8d-889c-12fd68b773d8","system_id":"levelo_inurba_marseille","lat":43.301939,"lon":5.366286,"is_reserved":false,"is_disabled":false,"rental_uris":{"android":"levelo://app?vid=951fffc4-6b04-4c8d-889c-12fd68b773d8","ios":"levelo://app?vid=951fffc4-6b04-4c8d-889c-12fd68b773d8"},"vehicle_type_id":"4","last_reported":1712622884,"current_range_meters":22400,"station_id":"ce4bgrh2rcd13ifvqc8g","pricing_plan_id":"cebpf4jnsgd1na2vs0mg"},{"bike_id":"03e57f47-11e9-4014-9184-a4834e63023f","system_id":"levelo_inurba_marseille","lat":43.301939,"lon":5.366286,"is_reserved":false,"is_disabled":false,"rental_uris":{"android":"levelo://app?vid=03e57f47-11e9-4014-9184-a4834e63023f","ios":"levelo://app?vid=03e57f47-11e9-4014-9184-a4834e63023f"},"vehicle_type_id":"4","last_reported":1712622884,"current_range_meters":17600,"station_id":"ce4bgrh2rcd13ifvqc8g","pricing_plan_id":"cebpf4jnsgd1na2vs0mg"},{"bike_id":"c85cf482-ec77-4a19-9183-19c9821720d2","system_id":"levelo_inurba_marseille","lat":43.308012,"lon":5.381511,"is_reserved":false,"is_disabled":false,"rental_uris":{"android":"levelo://app?vid=c85cf482-ec77-4a19-9183-19c9821720d2","ios":"levelo://app?vid=c85cf482-ec77-4a19-9183-19c9821720d2"},"vehicle_type_id":"4","last_reported":1712622884,"current_range_meters":0,"station_id":"ce4bgt12rcd13ifvqce0","pricing_plan_id":"cebpf4jnsgd1na2vs0mg"},{"bike_id":"8997e81c-82c0-4313-ae03-5940440e8e61","system_id":"levelo_inurba_marseille","lat":43.308012,"lon":5.381511,"is_reserved":false,"is_disabled":false,"rental_uris":{"android":"levelo://app?vid=8997e81c-82c0-4313-ae03-5940440e8e61","ios":"levelo://app?vid=8997e81c-82c0-4313-ae03-5940440e8e61"},"vehicle_type_id":"4","last_reported":1712622884,"current_range_meters":21200,"station_id":"ce4bgt12rcd13ifvqce0","pricing_plan_id":"cebpf4jnsgd1na2vs0mg"},{"bike_id":"caecd321-9682-4f3b-9643-b6d90ebb3f0e","system_id":"levelo_inurba_marseille","lat":43.304606,"lon":5.379026,"is_reserved":false,"is_disabled":false,"rental_uris":{"android":"levelo://app?vid=caecd321-9682-4f3b-9643-b6d90ebb3f0e","ios":"levelo://app?vid=caecd321-9682-4f3b-9643-b6d90ebb3f0e"},"vehicle_type_id":"4","last_reported":1712622884,"current_range_meters":20800,"station_id":"ce4bgup2rcd13ifvqcn0","pricing_plan_id":"cebpf4jnsgd1na2vs0mg"},{"bike_id":"d3826f09-d3ba-4d41-8f64-4d3098f747bb","system_id":"levelo_inurba_marseille","lat":43.304606,"lon":5.379026,"is_reserved":false,"is_disabled":false,"rental_uris":{"android":"levelo://app?vid=d3826f09-d3ba-4d41-8f64-4d3098f747bb","ios":"levelo://app?vid=d3826f09-d3ba-4d41-8f64-4d3098f747bb"},"vehicle_type_id":"4","last_reported":1712622884,"current_range_meters":15200,"station_id":"ce4bgup2rcd13ifvqcn0","pricing_plan_id":"cebpf4jnsgd1na2vs0mg"},{"bike_id":"1e7763ea-0bf0-4093-a1b5-3e099ef782fd","system_id":"levelo_inurba_marseille","lat":43.304606,"lon":5.379026,"is_reserved":false,"is_disabled":false,"rental_uris":{"android":"levelo://app?vid=1e7763ea-0bf0-4093-a1b5-3e099ef782fd","ios":"levelo://app?vid=1e7763ea-0bf0-4093-a1b5-3e099ef782fd"},"vehicle_type_id":"4","last_reported":1712622884,"current_range_meters":21200,"station_id":"ce4bgup2rcd13ifvqcn0","pricing_plan_id":"cebpf4jnsgd1na2vs0mg"},{"bike_id":"836f4623-2225-47ca-a21d-c74ac7e67ab4","system_id":"levelo_inurba_marseille","lat":43.32473,"lon":5.36575,"is_reserved":false,"is_disabled":false,"rental_uris":{"android":"levelo://app?vid=836f4623-2225-47ca-a21d-c74ac7e67ab4","ios":"levelo://app?vid=836f4623-2225-47ca-a21d-c74ac7e67ab4"},"vehicle_type_id":"4","last_reported":1712622884,"current_range_meters":17200,"station_id":"ce4bhs12rcd13ifvqhvg","pricing_plan_id":"cebpf4jnsgd1na2vs0mg"},{"bike_id":"b61f5fce-3370-4eb2-9cfe-757ef3a5f155","system_id":"levelo_inurba_marseille","lat":43.324771,"lon":5.36557,"is_reserved":false,"is_disabled":false,"rental_uris":{"android":"levelo://app?vid=b61f5fce-3370-4eb2-9cfe-757ef3a5f155","ios":"levelo://app?vid=b61f5fce-3370-4eb2-9cfe-757ef3a5f155"},"vehicle_type_id":"4","last_reported":1712622884,"current_range_meters":24800,"station_id":"ce4bhs12rcd13ifvqhvg","pricing_plan_id":"cebpf4jnsgd1na2vs0mg"},{"bike_id":"f2f0a323-f4cf-4d69-bda0-3382b45e92bd","system_id":"levelo_inurba_marseille","lat":43.324785,"lon":5.365759,"is_reserved":false,"is_disabled":false,"rental_uris":{"android":"levelo://app?vid=f2f0a323-f4cf-4d69-bda0-3382b45e92bd","ios":"levelo://app?vid=f2f0a323-f4cf-4d69-bda0-3382b45e92bd"},"vehicle_type_id":"4","last_reported":1712622884,"current_range_meters":8800,"station_id":"ce4bhs12rcd13ifvqhvg","pricing_plan_id":"cebpf4jnsgd1na2vs0mg"},{"bike_id":"5cd7436a-1c11-4873-af7d-baa07ac34cd8","system_id":"levelo_inurba_marseille","lat":43.324771,"lon":5.36557,"is_reserved":false,"is_disabled":false,"rental_uris":{"android":"levelo://app?vid=5cd7436a-1c11-4873-af7d-baa07ac34cd8","ios":"levelo://app?vid=5cd7436a-1c11-4873-af7d-baa07ac34cd8"},"vehicle_type_id":"4","last_reported":1712622884,"current_range_meters":20000,"station_id":"ce4bhs12rcd13ifvqhvg","pricing_plan_id":"cebpf4jnsgd1na2vs0mg"},{"bike_id":"d3b996e9-4da1-4b89-87ff-4d5a0f28982e","system_id":"levelo_inurba_marseille","lat":43.324771,"lon":5.36557,"is_reserved":false,"is_disabled":false,"rental_uris":{"android":"levelo://app?vid=d3b996e9-4da1-4b89-87ff-4d5a0f28982e","ios":"levelo://app?vid=d3b996e9-4da1-4b89-87ff-4d5a0f28982e"},"vehicle_type_id":"4","last_reported":1712622884,"current_range_meters":14800,"station_id":"ce4bhs12rcd13ifvqhvg","pricing_plan_id":"cebpf4jnsgd1na2vs0mg"},{"bike_id":"b7373fc7-088e-4fcb-9af9-2e8e176eee32","system_id":"levelo_inurba_marseille","lat":43.308051,"lon":5.43527,"is_reserved":false,"is_disabled":false,"rental_uris":{"android":"levelo://app?vid=b7373fc7-088e-4fcb-9af9-2e8e176eee32","ios":"levelo://app?vid=b7373fc7-088e-4fcb-9af9-2e8e176eee32"},"vehicle_type_id":"4","last_reported":1712622884,"current_range_meters":800,"station_id":"ce4bhph2rcd13ifvqheg","pricing_plan_id":"cebpf4jnsgd1na2vs0mg"},{"bike_id":"7f1175c4-0172-440d-b61d-b816cff96fbc","system_id":"levelo_inurba_marseille","lat":43.324771,"lon":5.36557,"is_reserved":false,"is_disabled":false,"rental_uris":{"android":"levelo://app?vid=7f1175c4-0172-440d-b61d-b816cff96fbc","ios":"levelo://app?vid=7f1175c4-0172-440d-b61d-b816cff96fbc"},"vehicle_type_id":"4","last_reported":1712622884,"current_range_meters":20800,"station_id":"ce4bhs12rcd13ifvqhvg","pricing_plan_id":"cebpf4jnsgd1na2vs0mg"},{"bike_id":"d453f5f1-b263-477b-864b-bf2146099cf6","system_id":"levelo_inurba_marseille","lat":43.324771,"lon":5.36557,"is_reserved":false,"is_disabled":false,"rental_uris":{"android":"levelo://app?vid=d453f5f1-b263-477b-864b-bf2146099cf6","ios":"levelo://app?vid=d453f5f1-b263-477b-864b-bf2146099cf6"},"vehicle_type_id":"4","last_reported":1712622884,"current_range_meters":18800,"station_id":"ce4bhs12rcd13ifvqhvg","pricing_plan_id":"cebpf4jnsgd1na2vs0mg"},{"bike_id":"dd1eeaf3-7ce5-435e-b6c8-fd616106d621","system_id":"levelo_inurba_marseille","lat":43.324771,"lon":5.36557,"is_reserved":false,"is_disabled":false,"rental_uris":{"android":"levelo://app?vid=dd1eeaf3-7ce5-435e-b6c8-fd616106d621","ios":"levelo://app?vid=dd1eeaf3-7ce5-435e-b6c8-fd616106d621"},"vehicle_type_id":"4","last_reported":1712622884,"current_range_meters":18800,"station_id":"ce4bhs12rcd13ifvqhvg","pricing_plan_id":"cebpf4jnsgd1na2vs0mg"},{"bike_id":"466fa14b-daa3-4177-b540-e71b4a8e6995","system_id":"levelo_inurba_marseille","lat":43.324771,"lon":5.36557,"is_reserved":false,"is_disabled":false,"rental_uris":{"android":"levelo://app?vid=466fa14b-daa3-4177-b540-e71b4a8e6995","ios":"levelo://app?vid=466fa14b-daa3-4177-b540-e71b4a8e6995"},"vehicle_type_id":"4","last_reported":1712622884,"current_range_meters":20400,"station_id":"ce4bhs12rcd13ifvqhvg","pricing_plan_id":"cebpf4jnsgd1na2vs0mg"},{"bike_id":"93f39419-5cbf-400a-91d0-19b962f1e4df","system_id":"levelo_inurba_marseille","lat":43.324771,"lon":5.36557,"is_reserved":false,"is_disabled":false,"rental_uris":{"android":"levelo://app?vid=93f39419-5cbf-400a-91d0-19b962f1e4df","ios":"levelo://app?vid=93f39419-5cbf-400a-91d0-19b962f1e4df"},"vehicle_type_id":"4","last_reported":1712622884,"current_range_meters":4400,"station_id":"ce4bhs12rcd13ifvqhvg","pricing_plan_id":"cebpf4jnsgd1na2vs0mg"},{"bike_id":"d12e7c2e-a3f2-4647-9ec1-aad839340afa","system_id":"levelo_inurba_marseille","lat":43.324771,"lon":5.36557,"is_reserved":false,"is_disabled":false,"rental_uris":{"android":"levelo://app?vid=d12e7c2e-a3f2-4647-9ec1-aad839340afa","ios":"levelo://app?vid=d12e7c2e-a3f2-4647-9ec1-aad839340afa"},"vehicle_type_id":"4","last_reported":1712622884,"current_range_meters":14000,"station_id":"ce4bhs12rcd13ifvqhvg","pricing_plan_id":"cebpf4jnsgd1na2vs0mg"},{"bike_id":"8c866bc7-737e-4c29-8bba-ab56157d3a7a","system_id":"levelo_inurba_marseille","lat":43.324771,"lon":5.36557,"is_reserved":false,"is_disabled":false,"rental_uris":{"android":"levelo://app?vid=8c866bc7-737e-4c29-8bba-ab56157d3a7a","ios":"levelo://app?vid=8c866bc7-737e-4c29-8bba-ab56157d3a7a"},"vehicle_type_id":"4","last_reported":1712622884,"current_range_meters":1200,"station_id":"ce4bhs12rcd13ifvqhvg","pricing_plan_id":"cebpf4jnsgd1na2vs0mg"},{"bike_id":"28a60fa5-83d7-47ac-8e02-bbd9305ed0d8","system_id":"levelo_inurba_marseille","lat":43.32488,"lon":5.365757,"is_reserved":false,"is_disabled":false,"rental_uris":{"android":"levelo://app?vid=28a60fa5-83d7-47ac-8e02-bbd9305ed0d8","ios":"levelo://app?vid=28a60fa5-83d7-47ac-8e02-bbd9305ed0d8"},"vehicle_type_id":"4","last_reported":1712622884,"current_range_meters":13200,"station_id":"ce4bhs12rcd13ifvqhvg","pricing_plan_id":"cebpf4jnsgd1na2vs0mg"},{"bike_id":"27c81a18-cdda-4f1a-8d82-041f4af2b280","system_id":"levelo_inurba_marseille","lat":43.310804,"lon":5.38359,"is_reserved":false,"is_disabled":false,"rental_uris":{"android":"levelo://app?vid=27c81a18-cdda-4f1a-8d82-041f4af2b280","ios":"levelo://app?vid=27c81a18-cdda-4f1a-8d82-041f4af2b280"},"vehicle_type_id":"4","last_reported":1712622884,"current_range_meters":12400,"station_id":"ce4bgv92rcd13ifvqcr0","pricing_plan_id":"cebpf4jnsgd1na2vs0mg"},{"bike_id":"ca785dd5-d46d-4763-837a-a26bfcbe6402","system_id":"levelo_inurba_marseille","lat":43.310804,"lon":5.38359,"is_reserved":false,"is_disabled":false,"rental_uris":{"android":"levelo://app?vid=ca785dd5-d46d-4763-837a-a26bfcbe6402","ios":"levelo://app?vid=ca785dd5-d46d-4763-837a-a26bfcbe6402"},"vehicle_type_id":"4","last_reported":1712622884,"current_range_meters":0,"station_id":"ce4bgv92rcd13ifvqcr0","pricing_plan_id":"cebpf4jnsgd1na2vs0mg"},{"bike_id":"eaf552ff-6764-4664-bb69-ece0aa895899","system_id":"levelo_inurba_marseille","lat":43.310804,"lon":5.38359,"is_reserved":false,"is_disabled":false,"rental_uris":{"android":"levelo://app?vid=eaf552ff-6764-4664-bb69-ece0aa895899","ios":"levelo://app?vid=eaf552ff-6764-4664-bb69-ece0aa895899"},"vehicle_type_id":"4","last_reported":1712622884,"current_range_meters":25200,"station_id":"ce4bgv92rcd13ifvqcr0","pricing_plan_id":"cebpf4jnsgd1na2vs0mg"},{"bike_id":"c8be279b-b81f-4ae1-9057-adf184724a2e","system_id":"levelo_inurba_marseille","lat":43.310804,"lon":5.38359,"is_reserved":false,"is_disabled":false,"rental_uris":{"android":"levelo://app?vid=c8be279b-b81f-4ae1-9057-adf184724a2e","ios":"levelo://app?vid=c8be279b-b81f-4ae1-9057-adf184724a2e"},"vehicle_type_id":"4","last_reported":1712622884,"current_range_meters":14400,"station_id":"ce4bgv92rcd13ifvqcr0","pricing_plan_id":"cebpf4jnsgd1na2vs0mg"},{"bike_id":"0e678be0-74e8-49be-b584-1086c487ed2c","system_id":"levelo_inurba_marseille","lat":43.319935,"lon":5.381699,"is_reserved":false,"is_disabled":false,"rental_uris":{"android":"levelo://app?vid=0e678be0-74e8-49be-b584-1086c487ed2c","ios":"levelo://app?vid=0e678be0-74e8-49be-b584-1086c487ed2c"},"vehicle_type_id":"4","last_reported":1712622884,"current_range_meters":24000,"station_id":"ce4bhr12rcd13ifvqhpg","pricing_plan_id":"cebpf4jnsgd1na2vs0mg"},{"bike_id":"d566bd6c-d076-4292-9ebb-0a174a0709f7","system_id":"levelo_inurba_marseille","lat":43.319935,"lon":5.381699,"is_reserved":false,"is_disabled":false,"rental_uris":{"android":"levelo://app?vid=d566bd6c-d076-4292-9ebb-0a174a0709f7","ios":"levelo://app?vid=d566bd6c-d076-4292-9ebb-0a174a0709f7"},"vehicle_type_id":"4","last_reported":1712622884,"current_range_meters":17200,"station_id":"ce4bhr12rcd13ifvqhpg","pricing_plan_id":"cebpf4jnsgd1na2vs0mg"},{"bike_id":"d5ce791c-5b43-46b8-b989-d24eb0cedb62","system_id":"levelo_inurba_marseille","lat":43.31366,"lon":5.38478,"is_reserved":false,"is_disabled":false,"rental_uris":{"android":"levelo://app?vid=d5ce791c-5b43-46b8-b989-d24eb0cedb62","ios":"levelo://app?vid=d5ce791c-5b43-46b8-b989-d24eb0cedb62"},"vehicle_type_id":"4","last_reported":1712622884,"current_range_meters":18000,"station_id":"ce4bgt92rcd13ifvqcf0","pricing_plan_id":"cebpf4jnsgd1na2vs0mg"},{"bike_id":"7cc408ff-3d87-4eac-88fb-cf23e60805ed","system_id":"levelo_inurba_marseille","lat":43.3136,"lon":5.38488,"is_reserved":false,"is_disabled":false,"rental_uris":{"android":"levelo://app?vid=7cc408ff-3d87-4eac-88fb-cf23e60805ed","ios":"levelo://app?vid=7cc408ff-3d87-4eac-88fb-cf23e60805ed"},"vehicle_type_id":"4","last_reported":1712622884,"current_range_meters":6400,"station_id":"ce4bgt92rcd13ifvqcf0","pricing_plan_id":"cebpf4jnsgd1na2vs0mg"},{"bike_id":"ccd30490-4a14-4b6e-92e3-be06b7264352","system_id":"levelo_inurba_marseille","lat":43.31361,"lon":5.3849,"is_reserved":false,"is_disabled":false,"rental_uris":{"android":"levelo://app?vid=ccd30490-4a14-4b6e-92e3-be06b7264352","ios":"levelo://app?vid=ccd30490-4a14-4b6e-92e3-be06b7264352"},"vehicle_type_id":"4","last_reported":1712622884,"current_range_meters":26800,"station_id":"ce4bgt92rcd13ifvqcf0","pricing_plan_id":"cebpf4jnsgd1na2vs0mg"},{"bike_id":"d89448db-763c-4d8c-8748-adb947f43089","system_id":"levelo_inurba_marseille","lat":43.31372,"lon":5.38494,"is_reserved":false,"is_disabled":false,"rental_uris":{"android":"levelo://app?vid=d89448db-763c-4d8c-8748-adb947f43089","ios":"levelo://app?vid=d89448db-763c-4d8c-8748-adb947f43089"},"vehicle_type_id":"4","last_reported":1712622884,"current_range_meters":11600,"station_id":"ce4bgt92rcd13ifvqcf0","pricing_plan_id":"cebpf4jnsgd1na2vs0mg"},{"bike_id":"507057a2-9c2c-46c8-9eea-7e4653b466e6","system_id":"levelo_inurba_marseille","lat":43.31353,"lon":5.38496,"is_reserved":false,"is_disabled":false,"rental_uris":{"android":"levelo://app?vid=507057a2-9c2c-46c8-9eea-7e4653b466e6","ios":"levelo://app?vid=507057a2-9c2c-46c8-9eea-7e4653b466e6"},"vehicle_type_id":"4","last_reported":1712622884,"current_range_meters":0,"station_id":"ce4bgt92rcd13ifvqcf0","pricing_plan_id":"cebpf4jnsgd1na2vs0mg"},{"bike_id":"c4054830-584a-4c53-b39c-ce84e2fd8932","system_id":"levelo_inurba_marseille","lat":43.313576,"lon":5.384966,"is_reserved":false,"is_disabled":false,"rental_uris":{"android":"levelo://app?vid=c4054830-584a-4c53-b39c-ce84e2fd8932","ios":"levelo://app?vid=c4054830-584a-4c53-b39c-ce84e2fd8932"},"vehicle_type_id":"4","last_reported":1712622884,"current_range_meters":8000,"station_id":"ce4bgt92rcd13ifvqcf0","pricing_plan_id":"cebpf4jnsgd1na2vs0mg"},{"bike_id":"5ff4d53f-8058-417f-a939-1c3d22c13d3d","system_id":"levelo_inurba_marseille","lat":43.313619,"lon":5.384979,"is_reserved":false,"is_disabled":false,"rental_uris":{"android":"levelo://app?vid=5ff4d53f-8058-417f-a939-1c3d22c13d3d","ios":"levelo://app?vid=5ff4d53f-8058-417f-a939-1c3d22c13d3d"},"vehicle_type_id":"4","last_reported":1712622884,"current_range_meters":22000,"station_id":"ce4bgt92rcd13ifvqcf0","pricing_plan_id":"cebpf4jnsgd1na2vs0mg"},{"bike_id":"d592cf80-4529-49df-ad47-440c0e28b62f","system_id":"levelo_inurba_marseille","lat":43.31368,"lon":5.384977,"is_reserved":false,"is_disabled":false,"rental_uris":{"android":"levelo://app?vid=d592cf80-4529-49df-ad47-440c0e28b62f","ios":"levelo://app?vid=d592cf80-4529-49df-ad47-440c0e28b62f"},"vehicle_type_id":"4","last_reported":1712622884,"current_range_meters":3200,"station_id":"ce4bgt92rcd13ifvqcf0","pricing_plan_id":"cebpf4jnsgd1na2vs0mg"},{"bike_id":"d0b0bf38-77f6-43f1-894d-fae71829cbcb","system_id":"levelo_inurba_marseille","lat":43.31365,"lon":5.38501,"is_reserved":false,"is_disabled":false,"rental_uris":{"android":"levelo://app?vid=d0b0bf38-77f6-43f1-894d-fae71829cbcb","ios":"levelo://app?vid=d0b0bf38-77f6-43f1-894d-fae71829cbcb"},"vehicle_type_id":"4","last_reported":1712622884,"current_range_meters":7600,"station_id":"ce4bgt92rcd13ifvqcf0","pricing_plan_id":"cebpf4jnsgd1na2vs0mg"},{"bike_id":"902f64c5-1cf8-46e1-b7e1-9f774fcc6093","system_id":"levelo_inurba_marseille","lat":43.299222,"lon":5.365554,"is_reserved":false,"is_disabled":false,"rental_uris":{"android":"levelo://app?vid=902f64c5-1cf8-46e1-b7e1-9f774fcc6093","ios":"levelo://app?vid=902f64c5-1cf8-46e1-b7e1-9f774fcc6093"},"vehicle_type_id":"4","last_reported":1712622884,"current_range_meters":28000,"station_id":"ce4bgm92rcd13ifvqbr0","pricing_plan_id":"cebpf4jnsgd1na2vs0mg"},{"bike_id":"867d6eba-214c-4fad-a48c-dc3a2bbffe9e","system_id":"levelo_inurba_marseille","lat":43.299722,"lon":5.371798,"is_reserved":false,"is_disabled":false,"rental_uris":{"android":"levelo://app?vid=867d6eba-214c-4fad-a48c-dc3a2bbffe9e","ios":"levelo://app?vid=867d6eba-214c-4fad-a48c-dc3a2bbffe9e"},"vehicle_type_id":"4","last_reported":1712622884,"current_range_meters":10800,"station_id":"","pricing_plan_id":"cebpf4jnsgd1na2vs0mg"},{"bike_id":"6dd41630-0d30-49ba-aea5-20e574d5d65b","system_id":"levelo_inurba_marseille","lat":43.29856,"lon":5.36436,"is_reserved":false,"is_disabled":false,"rental_uris":{"android":"levelo://app?vid=6dd41630-0d30-49ba-aea5-20e574d5d65b","ios":"levelo://app?vid=6dd41630-0d30-49ba-aea5-20e574d5d65b"},"vehicle_type_id":"4","last_reported":1712622884,"current_range_meters":12000,"station_id":"","pricing_plan_id":"cebpf4jnsgd1na2vs0mg"},{"bike_id":"3a009a40-2129-4339-a407-59b61a96271d","system_id":"levelo_inurba_marseille","lat":43.305364,"lon":5.384119,"is_reserved":false,"is_disabled":false,"rental_uris":{"android":"levelo://app?vid=3a009a40-2129-4339-a407-59b61a96271d","ios":"levelo://app?vid=3a009a40-2129-4339-a407-59b61a96271d"},"vehicle_type_id":"4","last_reported":1712622884,"current_range_meters":27600,"station_id":"ce4bgg92rcd13ifvqb30","pricing_plan_id":"cebpf4jnsgd1na2vs0mg"},{"bike_id":"5175f9f2-6207-43bc-b341-dc7dd501faac","system_id":"levelo_inurba_marseille","lat":43.305368,"lon":5.384266,"is_reserved":false,"is_disabled":false,"rental_uris":{"android":"levelo://app?vid=5175f9f2-6207-43bc-b341-dc7dd501faac","ios":"levelo://app?vid=5175f9f2-6207-43bc-b341-dc7dd501faac"},"vehicle_type_id":"4","last_reported":1712622884,"current_range_meters":0,"station_id":"ce4bgg92rcd13ifvqb30","pricing_plan_id":"cebpf4jnsgd1na2vs0mg"},{"bike_id":"a0d06d39-3929-430a-974d-c2fd04d006f7","system_id":"levelo_inurba_marseille","lat":43.29843,"lon":5.36271,"is_reserved":false,"is_disabled":false,"rental_uris":{"android":"levelo://app?vid=a0d06d39-3929-430a-974d-c2fd04d006f7","ios":"levelo://app?vid=a0d06d39-3929-430a-974d-c2fd04d006f7"},"vehicle_type_id":"4","last_reported":1712622884,"current_range_meters":21600,"station_id":"ce4bgpp2rcd13ifvqc3g","pricing_plan_id":"cebpf4jnsgd1na2vs0mg"},{"bike_id":"02568c70-b7b9-44d5-98f3-89bb4b18e507","system_id":"levelo_inurba_marseille","lat":43.299243,"lon":5.374807,"is_reserved":false,"is_disabled":false,"rental_uris":{"android":"levelo://app?vid=02568c70-b7b9-44d5-98f3-89bb4b18e507","ios":"levelo://app?vid=02568c70-b7b9-44d5-98f3-89bb4b18e507"},"vehicle_type_id":"4","last_reported":1712622884,"current_range_meters":31200,"station_id":"ce4bgjh2rcd13ifvqbg0","pricing_plan_id":"cebpf4jnsgd1na2vs0mg"},{"bike_id":"969454bb-1922-4ee2-8098-8aec76befa4f","system_id":"levelo_inurba_marseille","lat":43.311722,"lon":5.387247,"is_reserved":false,"is_disabled":false,"rental_uris":{"android":"levelo://app?vid=969454bb-1922-4ee2-8098-8aec76befa4f","ios":"levelo://app?vid=969454bb-1922-4ee2-8098-8aec76befa4f"},"vehicle_type_id":"4","last_reported":1712622884,"current_range_meters":10400,"station_id":"ce4bgv12rcd13ifvqcp0","pricing_plan_id":"cebpf4jnsgd1na2vs0mg"},{"bike_id":"a854eb33-5cf1-4b38-a92d-09277a135927","system_id":"levelo_inurba_marseille","lat":43.311722,"lon":5.387247,"is_reserved":false,"is_disabled":false,"rental_uris":{"android":"levelo://app?vid=a854eb33-5cf1-4b38-a92d-09277a135927","ios":"levelo://app?vid=a854eb33-5cf1-4b38-a92d-09277a135927"},"vehicle_type_id":"4","last_reported":1712622884,"current_range_meters":25600,"station_id":"ce4bgv12rcd13ifvqcp0","pricing_plan_id":"cebpf4jnsgd1na2vs0mg"},{"bike_id":"b80feff6-7927-4dc0-9d63-986bdb479d52","system_id":"levelo_inurba_marseille","lat":43.311722,"lon":5.387247,"is_reserved":false,"is_disabled":false,"rental_uris":{"android":"levelo://app?vid=b80feff6-7927-4dc0-9d63-986bdb479d52","ios":"levelo://app?vid=b80feff6-7927-4dc0-9d63-986bdb479d52"},"vehicle_type_id":"4","last_reported":1712622884,"current_range_meters":4400,"station_id":"ce4bgv12rcd13ifvqcp0","pricing_plan_id":"cebpf4jnsgd1na2vs0mg"},{"bike_id":"b587ca8f-8324-471a-8225-164c8114b5ee","system_id":"levelo_inurba_marseille","lat":43.30046,"lon":5.37811,"is_reserved":false,"is_disabled":false,"rental_uris":{"android":"levelo://app?vid=b587ca8f-8324-471a-8225-164c8114b5ee","ios":"levelo://app?vid=b587ca8f-8324-471a-8225-164c8114b5ee"},"vehicle_type_id":"4","last_reported":1712622884,"current_range_meters":13600,"station_id":"","pricing_plan_id":"cebpf4jnsgd1na2vs0mg"},{"bike_id":"5ef03855-85b0-4e0f-8ffd-3291c5465f33","system_id":"levelo_inurba_marseille","lat":43.299243,"lon":5.374807,"is_reserved":false,"is_disabled":false,"rental_uris":{"android":"levelo://app?vid=5ef03855-85b0-4e0f-8ffd-3291c5465f33","ios":"levelo://app?vid=5ef03855-85b0-4e0f-8ffd-3291c5465f33"},"vehicle_type_id":"4","last_reported":1712622884,"current_range_meters":31200,"station_id":"ce4bgjh2rcd13ifvqbg0","pricing_plan_id":"cebpf4jnsgd1na2vs0mg"},{"bike_id":"135d21c7-7646-4420-989e-ce8a6cebc9d9","system_id":"levelo_inurba_marseille","lat":43.311722,"lon":5.387247,"is_reserved":false,"is_disabled":false,"rental_uris":{"android":"levelo://app?vid=135d21c7-7646-4420-989e-ce8a6cebc9d9","ios":"levelo://app?vid=135d21c7-7646-4420-989e-ce8a6cebc9d9"},"vehicle_type_id":"4","last_reported":1712622884,"current_range_meters":18400,"station_id":"ce4bgv12rcd13ifvqcp0","pricing_plan_id":"cebpf4jnsgd1na2vs0mg"},{"bike_id":"c9a8adb6-818e-480b-95a2-2353560b2420","system_id":"levelo_inurba_marseille","lat":43.311722,"lon":5.387247,"is_reserved":false,"is_disabled":false,"rental_uris":{"android":"levelo://app?vid=c9a8adb6-818e-480b-95a2-2353560b2420","ios":"levelo://app?vid=c9a8adb6-818e-480b-95a2-2353560b2420"},"vehicle_type_id":"4","last_reported":1712622884,"current_range_meters":16800,"station_id":"ce4bgv12rcd13ifvqcp0","pricing_plan_id":"cebpf4jnsgd1na2vs0mg"},{"bike_id":"1f85ee71-3e52-4a9b-b54e-b881faa53c64","system_id":"levelo_inurba_marseille","lat":43.299243,"lon":5.374807,"is_reserved":false,"is_disabled":false,"rental_uris":{"android":"levelo://app?vid=1f85ee71-3e52-4a9b-b54e-b881faa53c64","ios":"levelo://app?vid=1f85ee71-3e52-4a9b-b54e-b881faa53c64"},"vehicle_type_id":"4","last_reported":1712622884,"current_range_meters":30400,"station_id":"ce4bgjh2rcd13ifvqbg0","pricing_plan_id":"cebpf4jnsgd1na2vs0mg"},{"bike_id":"5496b2b7-5897-452f-b4f2-9583af190772","system_id":"levelo_inurba_marseille","lat":43.299243,"lon":5.37481,"is_reserved":false,"is_disabled":false,"rental_uris":{"android":"levelo://app?vid=5496b2b7-5897-452f-b4f2-9583af190772","ios":"levelo://app?vid=5496b2b7-5897-452f-b4f2-9583af190772"},"vehicle_type_id":"4","last_reported":1712622884,"current_range_meters":30000,"station_id":"ce4bgjh2rcd13ifvqbg0","pricing_plan_id":"cebpf4jnsgd1na2vs0mg"},{"bike_id":"2b8d7882-8acb-40d0-9fa7-095f7a25cc85","system_id":"levelo_inurba_marseille","lat":43.311722,"lon":5.387247,"is_reserved":false,"is_disabled":false,"rental_uris":{"android":"levelo://app?vid=2b8d7882-8acb-40d0-9fa7-095f7a25cc85","ios":"levelo://app?vid=2b8d7882-8acb-40d0-9fa7-095f7a25cc85"},"vehicle_type_id":"4","last_reported":1712622884,"current_range_meters":31200,"station_id":"ce4bgv12rcd13ifvqcp0","pricing_plan_id":"cebpf4jnsgd1na2vs0mg"},{"bike_id":"52f2f212-bcf5-41c2-a478-96f4b883c8da","system_id":"levelo_inurba_marseille","lat":43.311722,"lon":5.387247,"is_reserved":false,"is_disabled":false,"rental_uris":{"android":"levelo://app?vid=52f2f212-bcf5-41c2-a478-96f4b883c8da","ios":"levelo://app?vid=52f2f212-bcf5-41c2-a478-96f4b883c8da"},"vehicle_type_id":"4","last_reported":1712622884,"current_range_meters":26400,"station_id":"ce4bgv12rcd13ifvqcp0","pricing_plan_id":"cebpf4jnsgd1na2vs0mg"},{"bike_id":"f515239e-c465-401f-a99d-ff6570684fde","system_id":"levelo_inurba_marseille","lat":43.311722,"lon":5.387247,"is_reserved":false,"is_disabled":false,"rental_uris":{"android":"levelo://app?vid=f515239e-c465-401f-a99d-ff6570684fde","ios":"levelo://app?vid=f515239e-c465-401f-a99d-ff6570684fde"},"vehicle_type_id":"4","last_reported":1712622884,"current_range_meters":26800,"station_id":"ce4bgv12rcd13ifvqcp0","pricing_plan_id":"cebpf4jnsgd1na2vs0mg"},{"bike_id":"3077b952-a308-458d-b1d2-fc92f760efb4","system_id":"levelo_inurba_marseille","lat":43.29789,"lon":5.37097,"is_reserved":false,"is_disabled":false,"rental_uris":{"android":"levelo://app?vid=3077b952-a308-458d-b1d2-fc92f760efb4","ios":"levelo://app?vid=3077b952-a308-458d-b1d2-fc92f760efb4"},"vehicle_type_id":"4","last_reported":1712622884,"current_range_meters":14000,"station_id":"ce4bgop2rcd13ifvqc1g","pricing_plan_id":"cebpf4jnsgd1na2vs0mg"},{"bike_id":"4f6a2b4c-6725-485d-83c3-05cad3f78400","system_id":"levelo_inurba_marseille","lat":43.322872,"lon":5.382756,"is_reserved":false,"is_disabled":false,"rental_uris":{"android":"levelo://app?vid=4f6a2b4c-6725-485d-83c3-05cad3f78400","ios":"levelo://app?vid=4f6a2b4c-6725-485d-83c3-05cad3f78400"},"vehicle_type_id":"4","last_reported":1712622884,"current_range_meters":12400,"station_id":"ce4bhr12rcd13ifvqhqg","pricing_plan_id":"cebpf4jnsgd1na2vs0mg"},{"bike_id":"ce262d47-6adc-4310-a652-b999cfa2d70d","system_id":"levelo_inurba_marseille","lat":43.322872,"lon":5.382756,"is_reserved":false,"is_disabled":false,"rental_uris":{"android":"levelo://app?vid=ce262d47-6adc-4310-a652-b999cfa2d70d","ios":"levelo://app?vid=ce262d47-6adc-4310-a652-b999cfa2d70d"},"vehicle_type_id":"4","last_reported":1712622884,"current_range_meters":28800,"station_id":"ce4bhr12rcd13ifvqhqg","pricing_plan_id":"cebpf4jnsgd1na2vs0mg"},{"bike_id":"c6c56787-5af4-461a-a1fb-627309935cd3","system_id":"levelo_inurba_marseille","lat":43.322872,"lon":5.382756,"is_reserved":false,"is_disabled":false,"rental_uris":{"android":"levelo://app?vid=c6c56787-5af4-461a-a1fb-627309935cd3","ios":"levelo://app?vid=c6c56787-5af4-461a-a1fb-627309935cd3"},"vehicle_type_id":"4","last_reported":1712622884,"current_range_meters":21600,"station_id":"ce4bhr12rcd13ifvqhqg","pricing_plan_id":"cebpf4jnsgd1na2vs0mg"},{"bike_id":"268960fa-29a0-45a0-af94-70b75d75c05e","system_id":"levelo_inurba_marseille","lat":43.322872,"lon":5.382756,"is_reserved":false,"is_disabled":false,"rental_uris":{"android":"levelo://app?vid=268960fa-29a0-45a0-af94-70b75d75c05e","ios":"levelo://app?vid=268960fa-29a0-45a0-af94-70b75d75c05e"},"vehicle_type_id":"4","last_reported":1712622884,"current_range_meters":22400,"station_id":"ce4bhr12rcd13ifvqhqg","pricing_plan_id":"cebpf4jnsgd1na2vs0mg"},{"bike_id":"3636b6be-fb2c-4a00-bf18-0ae864af0553","system_id":"levelo_inurba_marseille","lat":43.297163,"lon":5.365866,"is_reserved":false,"is_disabled":false,"rental_uris":{"android":"levelo://app?vid=3636b6be-fb2c-4a00-bf18-0ae864af0553","ios":"levelo://app?vid=3636b6be-fb2c-4a00-bf18-0ae864af0553"},"vehicle_type_id":"4","last_reported":1712622884,"current_range_meters":18400,"station_id":"ce4bgn12rcd13ifvqbt0","pricing_plan_id":"cebpf4jnsgd1na2vs0mg"},{"bike_id":"a7b21e5a-dc6a-4c61-a5dd-10854c26bc74","system_id":"levelo_inurba_marseille","lat":43.297115,"lon":5.366099,"is_reserved":false,"is_disabled":false,"rental_uris":{"android":"levelo://app?vid=a7b21e5a-dc6a-4c61-a5dd-10854c26bc74","ios":"levelo://app?vid=a7b21e5a-dc6a-4c61-a5dd-10854c26bc74"},"vehicle_type_id":"4","last_reported":1712622884,"current_range_meters":19200,"station_id":"ce4bgn12rcd13ifvqbt0","pricing_plan_id":"cebpf4jnsgd1na2vs0mg"},{"bike_id":"bf452407-aa99-439e-a2de-7283f4049167","system_id":"levelo_inurba_marseille","lat":43.297163,"lon":5.365866,"is_reserved":false,"is_disabled":false,"rental_uris":{"android":"levelo://app?vid=bf452407-aa99-439e-a2de-7283f4049167","ios":"levelo://app?vid=bf452407-aa99-439e-a2de-7283f4049167"},"vehicle_type_id":"4","last_reported":1712622884,"current_range_meters":26800,"station_id":"ce4bgn12rcd13ifvqbt0","pricing_plan_id":"cebpf4jnsgd1na2vs0mg"},{"bike_id":"e0b07ec7-4464-405f-8b9f-06a48339c629","system_id":"levelo_inurba_marseille","lat":43.297163,"lon":5.365866,"is_reserved":false,"is_disabled":false,"rental_uris":{"android":"levelo://app?vid=e0b07ec7-4464-405f-8b9f-06a48339c629","ios":"levelo://app?vid=e0b07ec7-4464-405f-8b9f-06a48339c629"},"vehicle_type_id":"4","last_reported":1712622884,"current_range_meters":13200,"station_id":"ce4bgn12rcd13ifvqbt0","pricing_plan_id":"cebpf4jnsgd1na2vs0mg"},{"bike_id":"f2937007-981a-4413-9af3-8f37744352d6","system_id":"levelo_inurba_marseille","lat":43.297086,"lon":5.365884,"is_reserved":false,"is_disabled":false,"rental_uris":{"android":"levelo://app?vid=f2937007-981a-4413-9af3-8f37744352d6","ios":"levelo://app?vid=f2937007-981a-4413-9af3-8f37744352d6"},"vehicle_type_id":"4","last_reported":1712622884,"current_range_meters":800,"station_id":"ce4bgn12rcd13ifvqbt0","pricing_plan_id":"cebpf4jnsgd1na2vs0mg"},{"bike_id":"7fd1ea66-0293-4578-8b9a-79f6e3c74363","system_id":"levelo_inurba_marseille","lat":43.297047,"lon":5.365907,"is_reserved":false,"is_disabled":false,"rental_uris":{"android":"levelo://app?vid=7fd1ea66-0293-4578-8b9a-79f6e3c74363","ios":"levelo://app?vid=7fd1ea66-0293-4578-8b9a-79f6e3c74363"},"vehicle_type_id":"4","last_reported":1712622884,"current_range_meters":19200,"station_id":"ce4bgn12rcd13ifvqbt0","pricing_plan_id":"cebpf4jnsgd1na2vs0mg"},{"bike_id":"ecfa5616-6081-4cb6-a6c7-711932be47ec","system_id":"levelo_inurba_marseille","lat":43.29573,"lon":5.367355,"is_reserved":false,"is_disabled":false,"rental_uris":{"android":"levelo://app?vid=ecfa5616-6081-4cb6-a6c7-711932be47ec","ios":"levelo://app?vid=ecfa5616-6081-4cb6-a6c7-711932be47ec"},"vehicle_type_id":"4","last_reported":1712622884,"current_range_meters":31200,"station_id":"ce4bgph2rcd13ifvqc2g","pricing_plan_id":"cebpf4jnsgd1na2vs0mg"},{"bike_id":"edda8c33-c844-4be0-b6be-54542b116763","system_id":"levelo_inurba_marseille","lat":43.309589,"lon":5.390258,"is_reserved":false,"is_disabled":false,"rental_uris":{"android":"levelo://app?vid=edda8c33-c844-4be0-b6be-54542b116763","ios":"levelo://app?vid=edda8c33-c844-4be0-b6be-54542b116763"},"vehicle_type_id":"4","last_reported":1712622884,"current_range_meters":18800,"station_id":"ce4bgup2rcd13ifvqco0","pricing_plan_id":"cebpf4jnsgd1na2vs0mg"},{"bike_id":"03492c6e-127d-4bde-bdaa-023fd9832c03","system_id":"levelo_inurba_marseille","lat":43.309589,"lon":5.390258,"is_reserved":false,"is_disabled":false,"rental_uris":{"android":"levelo://app?vid=03492c6e-127d-4bde-bdaa-023fd9832c03","ios":"levelo://app?vid=03492c6e-127d-4bde-bdaa-023fd9832c03"},"vehicle_type_id":"4","last_reported":1712622884,"current_range_meters":28800,"station_id":"ce4bgup2rcd13ifvqco0","pricing_plan_id":"cebpf4jnsgd1na2vs0mg"},{"bike_id":"7d7c0425-5cdf-4b32-9b90-894ccf5e9a2e","system_id":"levelo_inurba_marseille","lat":43.309603,"lon":5.390413,"is_reserved":false,"is_disabled":false,"rental_uris":{"android":"levelo://app?vid=7d7c0425-5cdf-4b32-9b90-894ccf5e9a2e","ios":"levelo://app?vid=7d7c0425-5cdf-4b32-9b90-894ccf5e9a2e"},"vehicle_type_id":"4","last_reported":1712622884,"current_range_meters":16000,"station_id":"","pricing_plan_id":"cebpf4jnsgd1na2vs0mg"},{"bike_id":"afa73c66-1b00-4dfc-9f2f-2091d0c8b813","system_id":"levelo_inurba_marseille","lat":43.317557,"lon":5.390173,"is_reserved":false,"is_disabled":false,"rental_uris":{"android":"levelo://app?vid=afa73c66-1b00-4dfc-9f2f-2091d0c8b813","ios":"levelo://app?vid=afa73c66-1b00-4dfc-9f2f-2091d0c8b813"},"vehicle_type_id":"4","last_reported":1712622884,"current_range_meters":26000,"station_id":"ce4bhqp2rcd13ifvqhng","pricing_plan_id":"cebpf4jnsgd1na2vs0mg"},{"bike_id":"d96ace96-38a1-4bbf-a539-cdad5a18c2dc","system_id":"levelo_inurba_marseille","lat":43.317557,"lon":5.390173,"is_reserved":false,"is_disabled":false,"rental_uris":{"android":"levelo://app?vid=d96ace96-38a1-4bbf-a539-cdad5a18c2dc","ios":"levelo://app?vid=d96ace96-38a1-4bbf-a539-cdad5a18c2dc"},"vehicle_type_id":"4","last_reported":1712622884,"current_range_meters":22800,"station_id":"ce4bhqp2rcd13ifvqhng","pricing_plan_id":"cebpf4jnsgd1na2vs0mg"},{"bike_id":"22c89056-fb4a-4abb-9ca4-5c679bce10d3","system_id":"levelo_inurba_marseille","lat":43.295748,"lon":5.37522,"is_reserved":false,"is_disabled":false,"rental_uris":{"android":"levelo://app?vid=22c89056-fb4a-4abb-9ca4-5c679bce10d3","ios":"levelo://app?vid=22c89056-fb4a-4abb-9ca4-5c679bce10d3"},"vehicle_type_id":"4","last_reported":1712622884,"current_range_meters":30800,"station_id":"ce4bgh92rcd13ifvqb50","pricing_plan_id":"cebpf4jnsgd1na2vs0mg"},{"bike_id":"e36619b1-3961-46e1-a532-2f1d6b618404","system_id":"levelo_inurba_marseille","lat":43.304274,"lon":5.388873,"is_reserved":false,"is_disabled":false,"rental_uris":{"android":"levelo://app?vid=e36619b1-3961-46e1-a532-2f1d6b618404","ios":"levelo://app?vid=e36619b1-3961-46e1-a532-2f1d6b618404"},"vehicle_type_id":"4","last_reported":1712622884,"current_range_meters":14000,"station_id":"ce4bgk12rcd13ifvqbi0","pricing_plan_id":"cebpf4jnsgd1na2vs0mg"},{"bike_id":"482f9ed0-1e9d-4014-b5b2-7754385060a9","system_id":"levelo_inurba_marseille","lat":43.295748,"lon":5.37522,"is_reserved":false,"is_disabled":false,"rental_uris":{"android":"levelo://app?vid=482f9ed0-1e9d-4014-b5b2-7754385060a9","ios":"levelo://app?vid=482f9ed0-1e9d-4014-b5b2-7754385060a9"},"vehicle_type_id":"4","last_reported":1712622884,"current_range_meters":26800,"station_id":"ce4bgh92rcd13ifvqb50","pricing_plan_id":"cebpf4jnsgd1na2vs0mg"},{"bike_id":"943a8845-8940-4aa4-bc85-f241b8ee2461","system_id":"levelo_inurba_marseille","lat":43.304274,"lon":5.388873,"is_reserved":false,"is_disabled":false,"rental_uris":{"android":"levelo://app?vid=943a8845-8940-4aa4-bc85-f241b8ee2461","ios":"levelo://app?vid=943a8845-8940-4aa4-bc85-f241b8ee2461"},"vehicle_type_id":"4","last_reported":1712622884,"current_range_meters":20400,"station_id":"ce4bgk12rcd13ifvqbi0","pricing_plan_id":"cebpf4jnsgd1na2vs0mg"},{"bike_id":"12ad9ff1-b3a5-4813-a1c3-ba91ca7cabfc","system_id":"levelo_inurba_marseille","lat":43.304278,"lon":5.388868,"is_reserved":false,"is_disabled":false,"rental_uris":{"android":"levelo://app?vid=12ad9ff1-b3a5-4813-a1c3-ba91ca7cabfc","ios":"levelo://app?vid=12ad9ff1-b3a5-4813-a1c3-ba91ca7cabfc"},"vehicle_type_id":"4","last_reported":1712622884,"current_range_meters":28400,"station_id":"ce4bgk12rcd13ifvqbi0","pricing_plan_id":"cebpf4jnsgd1na2vs0mg"},{"bike_id":"885ab8b8-3b34-416c-8a2a-0e0860d2aea1","system_id":"levelo_inurba_marseille","lat":43.295748,"lon":5.37522,"is_reserved":false,"is_disabled":false,"rental_uris":{"android":"levelo://app?vid=885ab8b8-3b34-416c-8a2a-0e0860d2aea1","ios":"levelo://app?vid=885ab8b8-3b34-416c-8a2a-0e0860d2aea1"},"vehicle_type_id":"4","last_reported":1712622884,"current_range_meters":24000,"station_id":"ce4bgh92rcd13ifvqb50","pricing_plan_id":"cebpf4jnsgd1na2vs0mg"},{"bike_id":"6da33c90-0154-4a7e-8e08-7dafd0a04594","system_id":"levelo_inurba_marseille","lat":43.304274,"lon":5.388873,"is_reserved":false,"is_disabled":false,"rental_uris":{"android":"levelo://app?vid=6da33c90-0154-4a7e-8e08-7dafd0a04594","ios":"levelo://app?vid=6da33c90-0154-4a7e-8e08-7dafd0a04594"},"vehicle_type_id":"4","last_reported":1712622884,"current_range_meters":16400,"station_id":"ce4bgk12rcd13ifvqbi0","pricing_plan_id":"cebpf4jnsgd1na2vs0mg"},{"bike_id":"8930f35d-dbb7-4229-9da1-2bfec27948fd","system_id":"levelo_inurba_marseille","lat":43.298037,"lon":5.381066,"is_reserved":false,"is_disabled":false,"rental_uris":{"android":"levelo://app?vid=8930f35d-dbb7-4229-9da1-2bfec27948fd","ios":"levelo://app?vid=8930f35d-dbb7-4229-9da1-2bfec27948fd"},"vehicle_type_id":"4","last_reported":1712622884,"current_range_meters":28800,"station_id":"ce4bgip2rcd13ifvqbb0","pricing_plan_id":"cebpf4jnsgd1na2vs0mg"},{"bike_id":"1f749f40-1311-4465-a181-27408bce4344","system_id":"levelo_inurba_marseille","lat":43.29525,"lon":5.37501,"is_reserved":false,"is_disabled":false,"rental_uris":{"android":"levelo://app?vid=1f749f40-1311-4465-a181-27408bce4344","ios":"levelo://app?vid=1f749f40-1311-4465-a181-27408bce4344"},"vehicle_type_id":"4","last_reported":1712622884,"current_range_meters":8400,"station_id":"","pricing_plan_id":"cebpf4jnsgd1na2vs0mg"},{"bike_id":"1034b17d-b99e-4164-bbd4-2696dfa2ca9b","system_id":"levelo_inurba_marseille","lat":43.295279,"lon":5.375048,"is_reserved":false,"is_disabled":false,"rental_uris":{"android":"levelo://app?vid=1034b17d-b99e-4164-bbd4-2696dfa2ca9b","ios":"levelo://app?vid=1034b17d-b99e-4164-bbd4-2696dfa2ca9b"},"vehicle_type_id":"4","last_reported":1712622884,"current_range_meters":25600,"station_id":"ce4bgkp2rcd13ifvqbmg","pricing_plan_id":"cebpf4jnsgd1na2vs0mg"},{"bike_id":"1808db17-e5f0-48ab-8040-2167b420659d","system_id":"levelo_inurba_marseille","lat":43.32367,"lon":5.388836,"is_reserved":false,"is_disabled":false,"rental_uris":{"android":"levelo://app?vid=1808db17-e5f0-48ab-8040-2167b420659d","ios":"levelo://app?vid=1808db17-e5f0-48ab-8040-2167b420659d"},"vehicle_type_id":"4","last_reported":1712622884,"current_range_meters":30400,"station_id":"ce4bhqp2rcd13ifvqhog","pricing_plan_id":"cebpf4jnsgd1na2vs0mg"},{"bike_id":"b3748819-c47c-49d5-b700-e88e6d4409aa","system_id":"levelo_inurba_marseille","lat":43.32367,"lon":5.388836,"is_reserved":false,"is_disabled":false,"rental_uris":{"android":"levelo://app?vid=b3748819-c47c-49d5-b700-e88e6d4409aa","ios":"levelo://app?vid=b3748819-c47c-49d5-b700-e88e6d4409aa"},"vehicle_type_id":"4","last_reported":1712622884,"current_range_meters":15200,"station_id":"ce4bhqp2rcd13ifvqhog","pricing_plan_id":"cebpf4jnsgd1na2vs0mg"},{"bike_id":"8a226edd-d694-4da1-8b19-74cd79bee81b","system_id":"levelo_inurba_marseille","lat":43.32367,"lon":5.388836,"is_reserved":false,"is_disabled":false,"rental_uris":{"android":"levelo://app?vid=8a226edd-d694-4da1-8b19-74cd79bee81b","ios":"levelo://app?vid=8a226edd-d694-4da1-8b19-74cd79bee81b"},"vehicle_type_id":"4","last_reported":1712622884,"current_range_meters":400,"station_id":"ce4bhqp2rcd13ifvqhog","pricing_plan_id":"cebpf4jnsgd1na2vs0mg"},{"bike_id":"ea6e2bcc-ba08-4768-8752-e42689e3ba04","system_id":"levelo_inurba_marseille","lat":43.32367,"lon":5.388836,"is_reserved":false,"is_disabled":false,"rental_uris":{"android":"levelo://app?vid=ea6e2bcc-ba08-4768-8752-e42689e3ba04","ios":"levelo://app?vid=ea6e2bcc-ba08-4768-8752-e42689e3ba04"},"vehicle_type_id":"4","last_reported":1712622884,"current_range_meters":6400,"station_id":"ce4bhqp2rcd13ifvqhog","pricing_plan_id":"cebpf4jnsgd1na2vs0mg"},{"bike_id":"da01c756-2491-4f26-af5e-5457a01ac88d","system_id":"levelo_inurba_marseille","lat":43.32367,"lon":5.388836,"is_reserved":false,"is_disabled":false,"rental_uris":{"android":"levelo://app?vid=da01c756-2491-4f26-af5e-5457a01ac88d","ios":"levelo://app?vid=da01c756-2491-4f26-af5e-5457a01ac88d"},"vehicle_type_id":"4","last_reported":1712622884,"current_range_meters":24000,"station_id":"ce4bhqp2rcd13ifvqhog","pricing_plan_id":"cebpf4jnsgd1na2vs0mg"},{"bike_id":"88d4114b-f8ad-462a-92ab-e7570a5f59a6","system_id":"levelo_inurba_marseille","lat":43.32367,"lon":5.388836,"is_reserved":false,"is_disabled":false,"rental_uris":{"android":"levelo://app?vid=88d4114b-f8ad-462a-92ab-e7570a5f59a6","ios":"levelo://app?vid=88d4114b-f8ad-462a-92ab-e7570a5f59a6"},"vehicle_type_id":"4","last_reported":1712622884,"current_range_meters":24800,"station_id":"ce4bhqp2rcd13ifvqhog","pricing_plan_id":"cebpf4jnsgd1na2vs0mg"},{"bike_id":"e0227968-a14e-43ac-b7d6-ecd922e7e186","system_id":"levelo_inurba_marseille","lat":43.314195,"lon":5.394184,"is_reserved":false,"is_disabled":false,"rental_uris":{"android":"levelo://app?vid=e0227968-a14e-43ac-b7d6-ecd922e7e186","ios":"levelo://app?vid=e0227968-a14e-43ac-b7d6-ecd922e7e186"},"vehicle_type_id":"4","last_reported":1712622884,"current_range_meters":30000,"station_id":"","pricing_plan_id":"cebpf4jnsgd1na2vs0mg"},{"bike_id":"1e699dc7-2e7c-4380-b598-f582b3f7de1e","system_id":"levelo_inurba_marseille","lat":43.283998,"lon":5.375062,"is_reserved":false,"is_disabled":false,"rental_uris":{"android":"levelo://app?vid=1e699dc7-2e7c-4380-b598-f582b3f7de1e","ios":"levelo://app?vid=1e699dc7-2e7c-4380-b598-f582b3f7de1e"},"vehicle_type_id":"4","last_reported":1712622884,"current_range_meters":14800,"station_id":"ce4bh412rcd13ifvqds0","pricing_plan_id":"cebpf4jnsgd1na2vs0mg"},{"bike_id":"2adeff5d-4aa5-460f-8414-5417ed2053c5","system_id":"levelo_inurba_marseille","lat":43.292961,"lon":5.374512,"is_reserved":false,"is_disabled":false,"rental_uris":{"android":"levelo://app?vid=2adeff5d-4aa5-460f-8414-5417ed2053c5","ios":"levelo://app?vid=2adeff5d-4aa5-460f-8414-5417ed2053c5"},"vehicle_type_id":"4","last_reported":1712622884,"current_range_meters":20000,"station_id":"ce4bgi12rcd13ifvqb70","pricing_plan_id":"cebpf4jnsgd1na2vs0mg"},{"bike_id":"d0b97186-4cee-4f8f-9741-fd5fdc7e6b7d","system_id":"levelo_inurba_marseille","lat":43.302992,"lon":5.392136,"is_reserved":false,"is_disabled":false,"rental_uris":{"android":"levelo://app?vid=d0b97186-4cee-4f8f-9741-fd5fdc7e6b7d","ios":"levelo://app?vid=d0b97186-4cee-4f8f-9741-fd5fdc7e6b7d"},"vehicle_type_id":"4","last_reported":1712622884,"current_range_meters":23200,"station_id":"ce4bgkh2rcd13ifvqbk0","pricing_plan_id":"cebpf4jnsgd1na2vs0mg"},{"bike_id":"7a0c0856-888d-40f3-ab10-af4d838f008e","system_id":"levelo_inurba_marseille","lat":43.2936,"lon":5.37835,"is_reserved":false,"is_disabled":false,"rental_uris":{"android":"levelo://app?vid=7a0c0856-888d-40f3-ab10-af4d838f008e","ios":"levelo://app?vid=7a0c0856-888d-40f3-ab10-af4d838f008e"},"vehicle_type_id":"4","last_reported":1712622884,"current_range_meters":11600,"station_id":"ce4bgjh2rcd13ifvqbf0","pricing_plan_id":"cebpf4jnsgd1na2vs0mg"},{"bike_id":"ad605a0f-4918-40c4-9323-6e5d20a5f587","system_id":"levelo_inurba_marseille","lat":43.292311,"lon":5.360731,"is_reserved":false,"is_disabled":false,"rental_uris":{"android":"levelo://app?vid=ad605a0f-4918-40c4-9323-6e5d20a5f587","ios":"levelo://app?vid=ad605a0f-4918-40c4-9323-6e5d20a5f587"},"vehicle_type_id":"4","last_reported":1712622884,"current_range_meters":8000,"station_id":"ce4bhbh2rcd13ifvqeqg","pricing_plan_id":"cebpf4jnsgd1na2vs0mg"},{"bike_id":"1d4bb2a6-0297-4311-8e65-a23b372657b5","system_id":"levelo_inurba_marseille","lat":43.30284,"lon":5.39288,"is_reserved":false,"is_disabled":false,"rental_uris":{"android":"levelo://app?vid=1d4bb2a6-0297-4311-8e65-a23b372657b5","ios":"levelo://app?vid=1d4bb2a6-0297-4311-8e65-a23b372657b5"},"vehicle_type_id":"4","last_reported":1712622884,"current_range_meters":26800,"station_id":"","pricing_plan_id":"cebpf4jnsgd1na2vs0mg"},{"bike_id":"f13d2ae1-28f2-45bf-b76d-b2f265a70a10","system_id":"levelo_inurba_marseille","lat":43.291675,"lon":5.371583,"is_reserved":false,"is_disabled":false,"rental_uris":{"android":"levelo://app?vid=f13d2ae1-28f2-45bf-b76d-b2f265a70a10","ios":"levelo://app?vid=f13d2ae1-28f2-45bf-b76d-b2f265a70a10"},"vehicle_type_id":"4","last_reported":1712622884,"current_range_meters":30800,"station_id":"ce4bha92rcd13ifvqeh0","pricing_plan_id":"cebpf4jnsgd1na2vs0mg"},{"bike_id":"d1a8c29a-bc80-4882-8bdf-aa57cbe80519","system_id":"levelo_inurba_marseille","lat":43.309047,"lon":5.396551,"is_reserved":false,"is_disabled":false,"rental_uris":{"android":"levelo://app?vid=d1a8c29a-bc80-4882-8bdf-aa57cbe80519","ios":"levelo://app?vid=d1a8c29a-bc80-4882-8bdf-aa57cbe80519"},"vehicle_type_id":"4","last_reported":1712622884,"current_range_meters":4400,"station_id":"ce4bh012rcd13ifvqcv0","pricing_plan_id":"cebpf4jnsgd1na2vs0mg"},{"bike_id":"70bf5de4-d8d0-4a55-90f3-452b91ffa7a1","system_id":"levelo_inurba_marseille","lat":43.309047,"lon":5.396551,"is_reserved":false,"is_disabled":false,"rental_uris":{"android":"levelo://app?vid=70bf5de4-d8d0-4a55-90f3-452b91ffa7a1","ios":"levelo://app?vid=70bf5de4-d8d0-4a55-90f3-452b91ffa7a1"},"vehicle_type_id":"4","last_reported":1712622884,"current_range_meters":7600,"station_id":"ce4bh012rcd13ifvqcv0","pricing_plan_id":"cebpf4jnsgd1na2vs0mg"},{"bike_id":"adb864db-508c-492f-8d0b-9eeab6d2e1ec","system_id":"levelo_inurba_marseille","lat":43.309047,"lon":5.396551,"is_reserved":false,"is_disabled":false,"rental_uris":{"android":"levelo://app?vid=adb864db-508c-492f-8d0b-9eeab6d2e1ec","ios":"levelo://app?vid=adb864db-508c-492f-8d0b-9eeab6d2e1ec"},"vehicle_type_id":"4","last_reported":1712622884,"current_range_meters":31600,"station_id":"ce4bh012rcd13ifvqcv0","pricing_plan_id":"cebpf4jnsgd1na2vs0mg"},{"bike_id":"4370cb2b-6bb7-46a3-a956-27934bfb589c","system_id":"levelo_inurba_marseille","lat":43.309047,"lon":5.396551,"is_reserved":false,"is_disabled":false,"rental_uris":{"android":"levelo://app?vid=4370cb2b-6bb7-46a3-a956-27934bfb589c","ios":"levelo://app?vid=4370cb2b-6bb7-46a3-a956-27934bfb589c"},"vehicle_type_id":"4","last_reported":1712622884,"current_range_meters":9200,"station_id":"ce4bh012rcd13ifvqcv0","pricing_plan_id":"cebpf4jnsgd1na2vs0mg"},{"bike_id":"7c1bc0c7-06c3-4344-94f3-9587a73c44dc","system_id":"levelo_inurba_marseille","lat":43.309047,"lon":5.396551,"is_reserved":false,"is_disabled":false,"rental_uris":{"android":"levelo://app?vid=7c1bc0c7-06c3-4344-94f3-9587a73c44dc","ios":"levelo://app?vid=7c1bc0c7-06c3-4344-94f3-9587a73c44dc"},"vehicle_type_id":"4","last_reported":1712622884,"current_range_meters":25200,"station_id":"ce4bh012rcd13ifvqcv0","pricing_plan_id":"cebpf4jnsgd1na2vs0mg"},{"bike_id":"40f4ea5e-3a68-46bc-a9ab-e1a1e6f39c21","system_id":"levelo_inurba_marseille","lat":43.309038,"lon":5.396546,"is_reserved":false,"is_disabled":false,"rental_uris":{"android":"levelo://app?vid=40f4ea5e-3a68-46bc-a9ab-e1a1e6f39c21","ios":"levelo://app?vid=40f4ea5e-3a68-46bc-a9ab-e1a1e6f39c21"},"vehicle_type_id":"4","last_reported":1712622884,"current_range_meters":13600,"station_id":"ce4bh012rcd13ifvqcv0","pricing_plan_id":"cebpf4jnsgd1na2vs0mg"},{"bike_id":"126d0c17-245a-4dc4-9625-e834115a9669","system_id":"levelo_inurba_marseille","lat":43.313291,"lon":5.396838,"is_reserved":false,"is_disabled":false,"rental_uris":{"android":"levelo://app?vid=126d0c17-245a-4dc4-9625-e834115a9669","ios":"levelo://app?vid=126d0c17-245a-4dc4-9625-e834115a9669"},"vehicle_type_id":"4","last_reported":1712622884,"current_range_meters":29600,"station_id":"ce4bgvp2rcd13ifvqcu0","pricing_plan_id":"cebpf4jnsgd1na2vs0mg"},{"bike_id":"4d6a1fed-c56e-484a-a372-79da3b282752","system_id":"levelo_inurba_marseille","lat":43.309038,"lon":5.396546,"is_reserved":false,"is_disabled":false,"rental_uris":{"android":"levelo://app?vid=4d6a1fed-c56e-484a-a372-79da3b282752","ios":"levelo://app?vid=4d6a1fed-c56e-484a-a372-79da3b282752"},"vehicle_type_id":"4","last_reported":1712622884,"current_range_meters":29200,"station_id":"ce4bh012rcd13ifvqcv0","pricing_plan_id":"cebpf4jnsgd1na2vs0mg"},{"bike_id":"a4f56b27-24ed-4a32-bd04-5e9bb1c3b0ea","system_id":"levelo_inurba_marseille","lat":43.309047,"lon":5.396551,"is_reserved":false,"is_disabled":false,"rental_uris":{"android":"levelo://app?vid=a4f56b27-24ed-4a32-bd04-5e9bb1c3b0ea","ios":"levelo://app?vid=a4f56b27-24ed-4a32-bd04-5e9bb1c3b0ea"},"vehicle_type_id":"4","last_reported":1712622884,"current_range_meters":0,"station_id":"ce4bh012rcd13ifvqcv0","pricing_plan_id":"cebpf4jnsgd1na2vs0mg"},{"bike_id":"8a9088b4-5822-4477-b1d5-48aca2125df6","system_id":"levelo_inurba_marseille","lat":43.309038,"lon":5.396546,"is_reserved":false,"is_disabled":false,"rental_uris":{"android":"levelo://app?vid=8a9088b4-5822-4477-b1d5-48aca2125df6","ios":"levelo://app?vid=8a9088b4-5822-4477-b1d5-48aca2125df6"},"vehicle_type_id":"4","last_reported":1712622884,"current_range_meters":20400,"station_id":"ce4bh012rcd13ifvqcv0","pricing_plan_id":"cebpf4jnsgd1na2vs0mg"},{"bike_id":"2f7ab3d2-503c-4004-ba83-e9e206b373a4","system_id":"levelo_inurba_marseille","lat":43.309038,"lon":5.396546,"is_reserved":false,"is_disabled":false,"rental_uris":{"android":"levelo://app?vid=2f7ab3d2-503c-4004-ba83-e9e206b373a4","ios":"levelo://app?vid=2f7ab3d2-503c-4004-ba83-e9e206b373a4"},"vehicle_type_id":"4","last_reported":1712622884,"current_range_meters":0,"station_id":"ce4bh012rcd13ifvqcv0","pricing_plan_id":"cebpf4jnsgd1na2vs0mg"},{"bike_id":"c1063a02-23b7-42a4-b780-c16d8818a1ca","system_id":"levelo_inurba_marseille","lat":43.292005,"lon":5.357875,"is_reserved":false,"is_disabled":false,"rental_uris":{"android":"levelo://app?vid=c1063a02-23b7-42a4-b780-c16d8818a1ca","ios":"levelo://app?vid=c1063a02-23b7-42a4-b780-c16d8818a1ca"},"vehicle_type_id":"4","last_reported":1712622884,"current_range_meters":12800,"station_id":"ce4bhb12rcd13ifvqel0","pricing_plan_id":"cebpf4jnsgd1na2vs0mg"},{"bike_id":"8850191a-193e-45c0-bd6a-3207800dc0ec","system_id":"levelo_inurba_marseille","lat":43.309038,"lon":5.396546,"is_reserved":false,"is_disabled":false,"rental_uris":{"android":"levelo://app?vid=8850191a-193e-45c0-bd6a-3207800dc0ec","ios":"levelo://app?vid=8850191a-193e-45c0-bd6a-3207800dc0ec"},"vehicle_type_id":"4","last_reported":1712622884,"current_range_meters":4800,"station_id":"ce4bh012rcd13ifvqcv0","pricing_plan_id":"cebpf4jnsgd1na2vs0mg"},{"bike_id":"add27eb3-a361-43ee-afb9-d819a1f97155","system_id":"levelo_inurba_marseille","lat":43.309047,"lon":5.396551,"is_reserved":false,"is_disabled":false,"rental_uris":{"android":"levelo://app?vid=add27eb3-a361-43ee-afb9-d819a1f97155","ios":"levelo://app?vid=add27eb3-a361-43ee-afb9-d819a1f97155"},"vehicle_type_id":"4","last_reported":1712622884,"current_range_meters":28800,"station_id":"ce4bh012rcd13ifvqcv0","pricing_plan_id":"cebpf4jnsgd1na2vs0mg"},{"bike_id":"093a4445-8fa9-4769-a22f-fc3ff883f0a4","system_id":"levelo_inurba_marseille","lat":43.309038,"lon":5.396546,"is_reserved":false,"is_disabled":false,"rental_uris":{"android":"levelo://app?vid=093a4445-8fa9-4769-a22f-fc3ff883f0a4","ios":"levelo://app?vid=093a4445-8fa9-4769-a22f-fc3ff883f0a4"},"vehicle_type_id":"4","last_reported":1712622884,"current_range_meters":31600,"station_id":"ce4bh012rcd13ifvqcv0","pricing_plan_id":"cebpf4jnsgd1na2vs0mg"},{"bike_id":"20c83c6a-46e6-4851-ad05-f24de4ed588a","system_id":"levelo_inurba_marseille","lat":43.313291,"lon":5.396838,"is_reserved":false,"is_disabled":false,"rental_uris":{"android":"levelo://app?vid=20c83c6a-46e6-4851-ad05-f24de4ed588a","ios":"levelo://app?vid=20c83c6a-46e6-4851-ad05-f24de4ed588a"},"vehicle_type_id":"4","last_reported":1712622884,"current_range_meters":26800,"station_id":"ce4bgvp2rcd13ifvqcu0","pricing_plan_id":"cebpf4jnsgd1na2vs0mg"},{"bike_id":"6aa6b6a0-81d1-47d4-b889-dbb19115fffb","system_id":"levelo_inurba_marseille","lat":43.309038,"lon":5.396546,"is_reserved":false,"is_disabled":false,"rental_uris":{"android":"levelo://app?vid=6aa6b6a0-81d1-47d4-b889-dbb19115fffb","ios":"levelo://app?vid=6aa6b6a0-81d1-47d4-b889-dbb19115fffb"},"vehicle_type_id":"4","last_reported":1712622884,"current_range_meters":25200,"station_id":"ce4bh012rcd13ifvqcv0","pricing_plan_id":"cebpf4jnsgd1na2vs0mg"},{"bike_id":"444cddd7-2f95-4814-835c-2e817bf5fac0","system_id":"levelo_inurba_marseille","lat":43.29192,"lon":5.35786,"is_reserved":false,"is_disabled":false,"rental_uris":{"android":"levelo://app?vid=444cddd7-2f95-4814-835c-2e817bf5fac0","ios":"levelo://app?vid=444cddd7-2f95-4814-835c-2e817bf5fac0"},"vehicle_type_id":"4","last_reported":1712622884,"current_range_meters":0,"station_id":"ce4bhb12rcd13ifvqel0","pricing_plan_id":"cebpf4jnsgd1na2vs0mg"},{"bike_id":"acbd54a4-0d9c-4a98-80c8-0d983933e6f7","system_id":"levelo_inurba_marseille","lat":43.313291,"lon":5.396838,"is_reserved":false,"is_disabled":false,"rental_uris":{"android":"levelo://app?vid=acbd54a4-0d9c-4a98-80c8-0d983933e6f7","ios":"levelo://app?vid=acbd54a4-0d9c-4a98-80c8-0d983933e6f7"},"vehicle_type_id":"4","last_reported":1712622884,"current_range_meters":6800,"station_id":"ce4bgvp2rcd13ifvqcu0","pricing_plan_id":"cebpf4jnsgd1na2vs0mg"},{"bike_id":"ed048514-7055-49f9-8b76-754cde3f3e05","system_id":"levelo_inurba_marseille","lat":43.313291,"lon":5.396838,"is_reserved":false,"is_disabled":false,"rental_uris":{"android":"levelo://app?vid=ed048514-7055-49f9-8b76-754cde3f3e05","ios":"levelo://app?vid=ed048514-7055-49f9-8b76-754cde3f3e05"},"vehicle_type_id":"4","last_reported":1712622884,"current_range_meters":17600,"station_id":"ce4bgvp2rcd13ifvqcu0","pricing_plan_id":"cebpf4jnsgd1na2vs0mg"},{"bike_id":"3118be01-d314-4a1c-b937-b4fd183478e2","system_id":"levelo_inurba_marseille","lat":43.313291,"lon":5.396838,"is_reserved":false,"is_disabled":false,"rental_uris":{"android":"levelo://app?vid=3118be01-d314-4a1c-b937-b4fd183478e2","ios":"levelo://app?vid=3118be01-d314-4a1c-b937-b4fd183478e2"},"vehicle_type_id":"4","last_reported":1712622884,"current_range_meters":14400,"station_id":"ce4bgvp2rcd13ifvqcu0","pricing_plan_id":"cebpf4jnsgd1na2vs0mg"},{"bike_id":"0dd458e0-43cd-4c62-9d0b-e27f92d9be22","system_id":"levelo_inurba_marseille","lat":43.313291,"lon":5.396838,"is_reserved":false,"is_disabled":false,"rental_uris":{"android":"levelo://app?vid=0dd458e0-43cd-4c62-9d0b-e27f92d9be22","ios":"levelo://app?vid=0dd458e0-43cd-4c62-9d0b-e27f92d9be22"},"vehicle_type_id":"4","last_reported":1712622884,"current_range_meters":21600,"station_id":"ce4bgvp2rcd13ifvqcu0","pricing_plan_id":"cebpf4jnsgd1na2vs0mg"},{"bike_id":"cafd8be9-0a91-41c6-a4da-9ff6111746ed","system_id":"levelo_inurba_marseille","lat":43.309038,"lon":5.396546,"is_reserved":false,"is_disabled":false,"rental_uris":{"android":"levelo://app?vid=cafd8be9-0a91-41c6-a4da-9ff6111746ed","ios":"levelo://app?vid=cafd8be9-0a91-41c6-a4da-9ff6111746ed"},"vehicle_type_id":"4","last_reported":1712622884,"current_range_meters":6800,"station_id":"ce4bh012rcd13ifvqcv0","pricing_plan_id":"cebpf4jnsgd1na2vs0mg"},{"bike_id":"5b06b108-805c-4072-9d9c-4c4d596bbb97","system_id":"levelo_inurba_marseille","lat":43.313291,"lon":5.396838,"is_reserved":false,"is_disabled":false,"rental_uris":{"android":"levelo://app?vid=5b06b108-805c-4072-9d9c-4c4d596bbb97","ios":"levelo://app?vid=5b06b108-805c-4072-9d9c-4c4d596bbb97"},"vehicle_type_id":"4","last_reported":1712622884,"current_range_meters":19600,"station_id":"ce4bgvp2rcd13ifvqcu0","pricing_plan_id":"cebpf4jnsgd1na2vs0mg"},{"bike_id":"6184fc20-54e9-4fc4-b712-ac364aaf40d7","system_id":"levelo_inurba_marseille","lat":43.313291,"lon":5.396838,"is_reserved":false,"is_disabled":false,"rental_uris":{"android":"levelo://app?vid=6184fc20-54e9-4fc4-b712-ac364aaf40d7","ios":"levelo://app?vid=6184fc20-54e9-4fc4-b712-ac364aaf40d7"},"vehicle_type_id":"4","last_reported":1712622884,"current_range_meters":31200,"station_id":"ce4bgvp2rcd13ifvqcu0","pricing_plan_id":"cebpf4jnsgd1na2vs0mg"},{"bike_id":"66e7669e-0b5a-4a26-bcf2-74decee1c578","system_id":"levelo_inurba_marseille","lat":43.313291,"lon":5.396838,"is_reserved":false,"is_disabled":false,"rental_uris":{"android":"levelo://app?vid=66e7669e-0b5a-4a26-bcf2-74decee1c578","ios":"levelo://app?vid=66e7669e-0b5a-4a26-bcf2-74decee1c578"},"vehicle_type_id":"4","last_reported":1712622884,"current_range_meters":29600,"station_id":"ce4bgvp2rcd13ifvqcu0","pricing_plan_id":"cebpf4jnsgd1na2vs0mg"},{"bike_id":"8dd67e85-e5d8-4a39-aefb-5d4d9c167b8a","system_id":"levelo_inurba_marseille","lat":43.291511,"lon":5.359133,"is_reserved":false,"is_disabled":false,"rental_uris":{"android":"levelo://app?vid=8dd67e85-e5d8-4a39-aefb-5d4d9c167b8a","ios":"levelo://app?vid=8dd67e85-e5d8-4a39-aefb-5d4d9c167b8a"},"vehicle_type_id":"4","last_reported":1712622884,"current_range_meters":7200,"station_id":"","pricing_plan_id":"cebpf4jnsgd1na2vs0mg"},{"bike_id":"248fcfbb-5c71-448b-b42a-4f6f9de63be1","system_id":"levelo_inurba_marseille","lat":43.290779,"lon":5.371482,"is_reserved":false,"is_disabled":false,"rental_uris":{"android":"levelo://app?vid=248fcfbb-5c71-448b-b42a-4f6f9de63be1","ios":"levelo://app?vid=248fcfbb-5c71-448b-b42a-4f6f9de63be1"},"vehicle_type_id":"4","last_reported":1712622884,"current_range_meters":31200,"station_id":"ce4bh5p2rcd13ifvqe4g","pricing_plan_id":"cebpf4jnsgd1na2vs0mg"},{"bike_id":"29449c87-523d-4dbf-9d86-3231da923b3d","system_id":"levelo_inurba_marseille","lat":43.290779,"lon":5.371482,"is_reserved":false,"is_disabled":false,"rental_uris":{"android":"levelo://app?vid=29449c87-523d-4dbf-9d86-3231da923b3d","ios":"levelo://app?vid=29449c87-523d-4dbf-9d86-3231da923b3d"},"vehicle_type_id":"4","last_reported":1712622884,"current_range_meters":8400,"station_id":"ce4bh5p2rcd13ifvqe4g","pricing_plan_id":"cebpf4jnsgd1na2vs0mg"},{"bike_id":"2c6f0fb6-aa47-45ad-b1ec-f1b074d3da97","system_id":"levelo_inurba_marseille","lat":43.290779,"lon":5.371482,"is_reserved":false,"is_disabled":false,"rental_uris":{"android":"levelo://app?vid=2c6f0fb6-aa47-45ad-b1ec-f1b074d3da97","ios":"levelo://app?vid=2c6f0fb6-aa47-45ad-b1ec-f1b074d3da97"},"vehicle_type_id":"4","last_reported":1712622884,"current_range_meters":26800,"station_id":"ce4bh5p2rcd13ifvqe4g","pricing_plan_id":"cebpf4jnsgd1na2vs0mg"},{"bike_id":"d4771de2-40c0-4176-ba50-b95585990fb8","system_id":"levelo_inurba_marseille","lat":43.290779,"lon":5.371482,"is_reserved":false,"is_disabled":false,"rental_uris":{"android":"levelo://app?vid=d4771de2-40c0-4176-ba50-b95585990fb8","ios":"levelo://app?vid=d4771de2-40c0-4176-ba50-b95585990fb8"},"vehicle_type_id":"4","last_reported":1712622884,"current_range_meters":31200,"station_id":"ce4bh5p2rcd13ifvqe4g","pricing_plan_id":"cebpf4jnsgd1na2vs0mg"},{"bike_id":"e52ba8a9-0e98-4240-b560-f853e4ffb17c","system_id":"levelo_inurba_marseille","lat":43.290779,"lon":5.371482,"is_reserved":false,"is_disabled":false,"rental_uris":{"android":"levelo://app?vid=e52ba8a9-0e98-4240-b560-f853e4ffb17c","ios":"levelo://app?vid=e52ba8a9-0e98-4240-b560-f853e4ffb17c"},"vehicle_type_id":"4","last_reported":1712622884,"current_range_meters":31200,"station_id":"ce4bh5p2rcd13ifvqe4g","pricing_plan_id":"cebpf4jnsgd1na2vs0mg"},{"bike_id":"64e157ad-7b48-43d9-a83c-0094ee1ef850","system_id":"levelo_inurba_marseille","lat":43.290631,"lon":5.359244,"is_reserved":false,"is_disabled":false,"rental_uris":{"android":"levelo://app?vid=64e157ad-7b48-43d9-a83c-0094ee1ef850","ios":"levelo://app?vid=64e157ad-7b48-43d9-a83c-0094ee1ef850"},"vehicle_type_id":"4","last_reported":1712622884,"current_range_meters":16400,"station_id":"ce4bha92rcd13ifvqeg0","pricing_plan_id":"cebpf4jnsgd1na2vs0mg"},{"bike_id":"ac33a9d0-f2d1-4e5d-b591-32893e9eab36","system_id":"levelo_inurba_marseille","lat":43.2895,"lon":5.36401,"is_reserved":false,"is_disabled":false,"rental_uris":{"android":"levelo://app?vid=ac33a9d0-f2d1-4e5d-b591-32893e9eab36","ios":"levelo://app?vid=ac33a9d0-f2d1-4e5d-b591-32893e9eab36"},"vehicle_type_id":"4","last_reported":1712622884,"current_range_meters":24800,"station_id":"ce4bhc92rcd13ifvqetg","pricing_plan_id":"cebpf4jnsgd1na2vs0mg"},{"bike_id":"39cb5ce1-e527-4ae9-927e-cafd658fa45d","system_id":"levelo_inurba_marseille","lat":43.289409,"lon":5.364035,"is_reserved":false,"is_disabled":false,"rental_uris":{"android":"levelo://app?vid=39cb5ce1-e527-4ae9-927e-cafd658fa45d","ios":"levelo://app?vid=39cb5ce1-e527-4ae9-927e-cafd658fa45d"},"vehicle_type_id":"4","last_reported":1712622884,"current_range_meters":0,"station_id":"ce4bhc92rcd13ifvqetg","pricing_plan_id":"cebpf4jnsgd1na2vs0mg"},{"bike_id":"63ac70dc-2f69-4dda-8998-887a5cd6ad5f","system_id":"levelo_inurba_marseille","lat":43.28939,"lon":5.363866,"is_reserved":false,"is_disabled":false,"rental_uris":{"android":"levelo://app?vid=63ac70dc-2f69-4dda-8998-887a5cd6ad5f","ios":"levelo://app?vid=63ac70dc-2f69-4dda-8998-887a5cd6ad5f"},"vehicle_type_id":"4","last_reported":1712622884,"current_range_meters":0,"station_id":"ce4bhc92rcd13ifvqetg","pricing_plan_id":"cebpf4jnsgd1na2vs0mg"},{"bike_id":"23bc8d0e-c4cb-4e31-8142-6827bea06369","system_id":"levelo_inurba_marseille","lat":43.289378,"lon":5.364012,"is_reserved":false,"is_disabled":false,"rental_uris":{"android":"levelo://app?vid=23bc8d0e-c4cb-4e31-8142-6827bea06369","ios":"levelo://app?vid=23bc8d0e-c4cb-4e31-8142-6827bea06369"},"vehicle_type_id":"4","last_reported":1712622884,"current_range_meters":20400,"station_id":"ce4bhc92rcd13ifvqetg","pricing_plan_id":"cebpf4jnsgd1na2vs0mg"},{"bike_id":"5a97f9f0-f690-40eb-96f4-ce3a4c5e2965","system_id":"levelo_inurba_marseille","lat":43.289468,"lon":5.363719,"is_reserved":false,"is_disabled":false,"rental_uris":{"android":"levelo://app?vid=5a97f9f0-f690-40eb-96f4-ce3a4c5e2965","ios":"levelo://app?vid=5a97f9f0-f690-40eb-96f4-ce3a4c5e2965"},"vehicle_type_id":"4","last_reported":1712622884,"current_range_meters":27600,"station_id":"ce4bhc92rcd13ifvqetg","pricing_plan_id":"cebpf4jnsgd1na2vs0mg"},{"bike_id":"326fba55-f171-421d-aab3-233ce7de30b7","system_id":"levelo_inurba_marseille","lat":43.289468,"lon":5.363719,"is_reserved":false,"is_disabled":false,"rental_uris":{"android":"levelo://app?vid=326fba55-f171-421d-aab3-233ce7de30b7","ios":"levelo://app?vid=326fba55-f171-421d-aab3-233ce7de30b7"},"vehicle_type_id":"4","last_reported":1712622884,"current_range_meters":30800,"station_id":"ce4bhc92rcd13ifvqetg","pricing_plan_id":"cebpf4jnsgd1na2vs0mg"},{"bike_id":"fed9bc6a-75e8-4d65-9ada-d5f52303f3bf","system_id":"levelo_inurba_marseille","lat":43.28998,"lon":5.35614,"is_reserved":false,"is_disabled":false,"rental_uris":{"android":"levelo://app?vid=fed9bc6a-75e8-4d65-9ada-d5f52303f3bf","ios":"levelo://app?vid=fed9bc6a-75e8-4d65-9ada-d5f52303f3bf"},"vehicle_type_id":"4","last_reported":1712622884,"current_range_meters":23200,"station_id":"ce4bhb92rcd13ifvqen0","pricing_plan_id":"cebpf4jnsgd1na2vs0mg"},{"bike_id":"6334c66b-7706-4b3b-b506-8dbc4389a3bd","system_id":"levelo_inurba_marseille","lat":43.290954,"lon":5.381483,"is_reserved":false,"is_disabled":false,"rental_uris":{"android":"levelo://app?vid=6334c66b-7706-4b3b-b506-8dbc4389a3bd","ios":"levelo://app?vid=6334c66b-7706-4b3b-b506-8dbc4389a3bd"},"vehicle_type_id":"4","last_reported":1712622884,"current_range_meters":22400,"station_id":"ce4bh512rcd13ifvqe2g","pricing_plan_id":"cebpf4jnsgd1na2vs0mg"},{"bike_id":"d4555143-d553-41d4-84e6-58eea37eb437","system_id":"levelo_inurba_marseille","lat":43.289743,"lon":5.378304,"is_reserved":false,"is_disabled":false,"rental_uris":{"android":"levelo://app?vid=d4555143-d553-41d4-84e6-58eea37eb437","ios":"levelo://app?vid=d4555143-d553-41d4-84e6-58eea37eb437"},"vehicle_type_id":"4","last_reported":1712622884,"current_range_meters":8000,"station_id":"ce4bh9p2rcd13ifvqed0","pricing_plan_id":"cebpf4jnsgd1na2vs0mg"},{"bike_id":"8bb410ca-f975-43ca-bae9-6c10491a6e52","system_id":"levelo_inurba_marseille","lat":43.289743,"lon":5.378304,"is_reserved":false,"is_disabled":false,"rental_uris":{"android":"levelo://app?vid=8bb410ca-f975-43ca-bae9-6c10491a6e52","ios":"levelo://app?vid=8bb410ca-f975-43ca-bae9-6c10491a6e52"},"vehicle_type_id":"4","last_reported":1712622884,"current_range_meters":2400,"station_id":"ce4bh9p2rcd13ifvqed0","pricing_plan_id":"cebpf4jnsgd1na2vs0mg"},{"bike_id":"49eecec0-e631-4dbf-bb3c-e192efe731e3","system_id":"levelo_inurba_marseille","lat":43.29791,"lon":5.39343,"is_reserved":false,"is_disabled":false,"rental_uris":{"android":"levelo://app?vid=49eecec0-e631-4dbf-bb3c-e192efe731e3","ios":"levelo://app?vid=49eecec0-e631-4dbf-bb3c-e192efe731e3"},"vehicle_type_id":"4","last_reported":1712622884,"current_range_meters":14000,"station_id":"chh1huq6cuj3fo74tm60","pricing_plan_id":"cebpf4jnsgd1na2vs0mg"},{"bike_id":"55ab37be-ff4f-4d7a-a995-96b296ec2a47","system_id":"levelo_inurba_marseille","lat":43.29787,"lon":5.39339,"is_reserved":false,"is_disabled":false,"rental_uris":{"android":"levelo://app?vid=55ab37be-ff4f-4d7a-a995-96b296ec2a47","ios":"levelo://app?vid=55ab37be-ff4f-4d7a-a995-96b296ec2a47"},"vehicle_type_id":"4","last_reported":1712622884,"current_range_meters":4400,"station_id":"chh1huq6cuj3fo74tm60","pricing_plan_id":"cebpf4jnsgd1na2vs0mg"},{"bike_id":"e75e5901-ce64-4758-b5dc-bb8303f3cac0","system_id":"levelo_inurba_marseille","lat":43.301429,"lon":5.37413,"is_reserved":false,"is_disabled":false,"rental_uris":{"android":"levelo://app?vid=e75e5901-ce64-4758-b5dc-bb8303f3cac0","ios":"levelo://app?vid=e75e5901-ce64-4758-b5dc-bb8303f3cac0"},"vehicle_type_id":"4","last_reported":1712622884,"current_range_meters":3600,"station_id":"ce4bgs92rcd13ifvqcc0","pricing_plan_id":"cebpf4jnsgd1na2vs0mg"},{"bike_id":"7a9890f4-c6d8-4404-b5ea-c9cf213982c4","system_id":"levelo_inurba_marseille","lat":43.3302,"lon":5.39031,"is_reserved":false,"is_disabled":false,"rental_uris":{"android":"levelo://app?vid=7a9890f4-c6d8-4404-b5ea-c9cf213982c4","ios":"levelo://app?vid=7a9890f4-c6d8-4404-b5ea-c9cf213982c4"},"vehicle_type_id":"4","last_reported":1712622884,"current_range_meters":18000,"station_id":"ce4bhr92rcd13ifvqhrg","pricing_plan_id":"cebpf4jnsgd1na2vs0mg"},{"bike_id":"cdd5faaa-aea5-4aea-a3d5-a408c811254d","system_id":"levelo_inurba_marseille","lat":43.297815,"lon":5.393548,"is_reserved":false,"is_disabled":false,"rental_uris":{"android":"levelo://app?vid=cdd5faaa-aea5-4aea-a3d5-a408c811254d","ios":"levelo://app?vid=cdd5faaa-aea5-4aea-a3d5-a408c811254d"},"vehicle_type_id":"4","last_reported":1712622884,"current_range_meters":17600,"station_id":"chh1huq6cuj3fo74tm60","pricing_plan_id":"cebpf4jnsgd1na2vs0mg"},{"bike_id":"47a7873b-a8c5-4064-af3b-6468b8d7ef64","system_id":"levelo_inurba_marseille","lat":43.29526,"lon":5.3903,"is_reserved":false,"is_disabled":false,"rental_uris":{"android":"levelo://app?vid=47a7873b-a8c5-4064-af3b-6468b8d7ef64","ios":"levelo://app?vid=47a7873b-a8c5-4064-af3b-6468b8d7ef64"},"vehicle_type_id":"4","last_reported":1712622884,"current_range_meters":0,"station_id":"ce4bh3p2rcd13ifvqdp0","pricing_plan_id":"cebpf4jnsgd1na2vs0mg"},{"bike_id":"6644b7ff-a469-4d8f-b1cf-77d9f1528d46","system_id":"levelo_inurba_marseille","lat":43.33021,"lon":5.39033,"is_reserved":false,"is_disabled":false,"rental_uris":{"android":"levelo://app?vid=6644b7ff-a469-4d8f-b1cf-77d9f1528d46","ios":"levelo://app?vid=6644b7ff-a469-4d8f-b1cf-77d9f1528d46"},"vehicle_type_id":"4","last_reported":1712622884,"current_range_meters":20000,"station_id":"ce4bhr92rcd13ifvqhrg","pricing_plan_id":"cebpf4jnsgd1na2vs0mg"},{"bike_id":"a283d2d9-0492-48e6-8559-2b3f03e91c5e","system_id":"levelo_inurba_marseille","lat":43.33019,"lon":5.39038,"is_reserved":false,"is_disabled":false,"rental_uris":{"android":"levelo://app?vid=a283d2d9-0492-48e6-8559-2b3f03e91c5e","ios":"levelo://app?vid=a283d2d9-0492-48e6-8559-2b3f03e91c5e"},"vehicle_type_id":"4","last_reported":1712622884,"current_range_meters":3200,"station_id":"ce4bhr92rcd13ifvqhrg","pricing_plan_id":"cebpf4jnsgd1na2vs0mg"},{"bike_id":"e73a6c4b-552f-48d9-8d82-52e87717b710","system_id":"levelo_inurba_marseille","lat":43.297815,"lon":5.393548,"is_reserved":false,"is_disabled":false,"rental_uris":{"android":"levelo://app?vid=e73a6c4b-552f-48d9-8d82-52e87717b710","ios":"levelo://app?vid=e73a6c4b-552f-48d9-8d82-52e87717b710"},"vehicle_type_id":"4","last_reported":1712622884,"current_range_meters":29600,"station_id":"chh1huq6cuj3fo74tm60","pricing_plan_id":"cebpf4jnsgd1na2vs0mg"},{"bike_id":"ab53ab35-ca1b-48c3-8517-9b396b7ab134","system_id":"levelo_inurba_marseille","lat":43.33022,"lon":5.39037,"is_reserved":false,"is_disabled":false,"rental_uris":{"android":"levelo://app?vid=ab53ab35-ca1b-48c3-8517-9b396b7ab134","ios":"levelo://app?vid=ab53ab35-ca1b-48c3-8517-9b396b7ab134"},"vehicle_type_id":"4","last_reported":1712622884,"current_range_meters":3200,"station_id":"ce4bhr92rcd13ifvqhrg","pricing_plan_id":"cebpf4jnsgd1na2vs0mg"},{"bike_id":"cb85f77f-c6fa-4330-8ab5-8d7307a81e1b","system_id":"levelo_inurba_marseille","lat":43.289762,"lon":5.378297,"is_reserved":false,"is_disabled":false,"rental_uris":{"android":"levelo://app?vid=cb85f77f-c6fa-4330-8ab5-8d7307a81e1b","ios":"levelo://app?vid=cb85f77f-c6fa-4330-8ab5-8d7307a81e1b"},"vehicle_type_id":"4","last_reported":1712622884,"current_range_meters":0,"station_id":"ce4bh9p2rcd13ifvqed0","pricing_plan_id":"cebpf4jnsgd1na2vs0mg"},{"bike_id":"2d9da673-89da-408b-9d4b-0ef78ec61664","system_id":"levelo_inurba_marseille","lat":43.330442,"lon":5.389148,"is_reserved":false,"is_disabled":false,"rental_uris":{"android":"levelo://app?vid=2d9da673-89da-408b-9d4b-0ef78ec61664","ios":"levelo://app?vid=2d9da673-89da-408b-9d4b-0ef78ec61664"},"vehicle_type_id":"4","last_reported":1712622884,"current_range_meters":19600,"station_id":"ce4bhr92rcd13ifvqhrg","pricing_plan_id":"cebpf4jnsgd1na2vs0mg"},{"bike_id":"947df8f3-dc66-4447-8f27-8045bb3c8b36","system_id":"levelo_inurba_marseille","lat":43.330442,"lon":5.389148,"is_reserved":false,"is_disabled":false,"rental_uris":{"android":"levelo://app?vid=947df8f3-dc66-4447-8f27-8045bb3c8b36","ios":"levelo://app?vid=947df8f3-dc66-4447-8f27-8045bb3c8b36"},"vehicle_type_id":"4","last_reported":1712622884,"current_range_meters":31200,"station_id":"ce4bhr92rcd13ifvqhrg","pricing_plan_id":"cebpf4jnsgd1na2vs0mg"},{"bike_id":"05bcf905-ed39-4a21-9a97-5eae300b0b2d","system_id":"levelo_inurba_marseille","lat":43.330442,"lon":5.389148,"is_reserved":false,"is_disabled":false,"rental_uris":{"android":"levelo://app?vid=05bcf905-ed39-4a21-9a97-5eae300b0b2d","ios":"levelo://app?vid=05bcf905-ed39-4a21-9a97-5eae300b0b2d"},"vehicle_type_id":"4","last_reported":1712622884,"current_range_meters":25200,"station_id":"ce4bhr92rcd13ifvqhrg","pricing_plan_id":"cebpf4jnsgd1na2vs0mg"},{"bike_id":"82d5c063-5b06-44e8-b101-a1220db0361b","system_id":"levelo_inurba_marseille","lat":43.29514,"lon":5.39025,"is_reserved":false,"is_disabled":false,"rental_uris":{"android":"levelo://app?vid=82d5c063-5b06-44e8-b101-a1220db0361b","ios":"levelo://app?vid=82d5c063-5b06-44e8-b101-a1220db0361b"},"vehicle_type_id":"4","last_reported":1712622884,"current_range_meters":0,"station_id":"ce4bh3p2rcd13ifvqdp0","pricing_plan_id":"cebpf4jnsgd1na2vs0mg"},{"bike_id":"3fc3aaec-65a5-4830-9c5f-29e241cb1301","system_id":"levelo_inurba_marseille","lat":43.330442,"lon":5.389148,"is_reserved":false,"is_disabled":false,"rental_uris":{"android":"levelo://app?vid=3fc3aaec-65a5-4830-9c5f-29e241cb1301","ios":"levelo://app?vid=3fc3aaec-65a5-4830-9c5f-29e241cb1301"},"vehicle_type_id":"4","last_reported":1712622884,"current_range_meters":26000,"station_id":"ce4bhr92rcd13ifvqhrg","pricing_plan_id":"cebpf4jnsgd1na2vs0mg"},{"bike_id":"ab472e87-5bf9-4f70-9c53-b642400a597f","system_id":"levelo_inurba_marseille","lat":43.295169,"lon":5.390426,"is_reserved":false,"is_disabled":false,"rental_uris":{"android":"levelo://app?vid=ab472e87-5bf9-4f70-9c53-b642400a597f","ios":"levelo://app?vid=ab472e87-5bf9-4f70-9c53-b642400a597f"},"vehicle_type_id":"4","last_reported":1712622884,"current_range_meters":27600,"station_id":"ce4bh3p2rcd13ifvqdp0","pricing_plan_id":"cebpf4jnsgd1na2vs0mg"},{"bike_id":"1dce9aa1-5232-4b74-8ce2-5f74a5bbde23","system_id":"levelo_inurba_marseille","lat":43.33113,"lon":5.38923,"is_reserved":false,"is_disabled":false,"rental_uris":{"android":"levelo://app?vid=1dce9aa1-5232-4b74-8ce2-5f74a5bbde23","ios":"levelo://app?vid=1dce9aa1-5232-4b74-8ce2-5f74a5bbde23"},"vehicle_type_id":"4","last_reported":1712622884,"current_range_meters":7600,"station_id":"","pricing_plan_id":"cebpf4jnsgd1na2vs0mg"},{"bike_id":"76f2dacb-948d-42b2-996d-1585fa05458b","system_id":"levelo_inurba_marseille","lat":43.2901,"lon":5.381269,"is_reserved":false,"is_disabled":false,"rental_uris":{"android":"levelo://app?vid=76f2dacb-948d-42b2-996d-1585fa05458b","ios":"levelo://app?vid=76f2dacb-948d-42b2-996d-1585fa05458b"},"vehicle_type_id":"4","last_reported":1712622884,"current_range_meters":30400,"station_id":"ce4bh4p2rcd13ifvqe1g","pricing_plan_id":"cebpf4jnsgd1na2vs0mg"},{"bike_id":"6862007f-4a5f-4bf7-bff6-8ef896312bdd","system_id":"levelo_inurba_marseille","lat":43.312609,"lon":5.401662,"is_reserved":false,"is_disabled":false,"rental_uris":{"android":"levelo://app?vid=6862007f-4a5f-4bf7-bff6-8ef896312bdd","ios":"levelo://app?vid=6862007f-4a5f-4bf7-bff6-8ef896312bdd"},"vehicle_type_id":"4","last_reported":1712622884,"current_range_meters":12800,"station_id":"ce4bh092rcd13ifvqd30","pricing_plan_id":"cebpf4jnsgd1na2vs0mg"},{"bike_id":"947c41ef-9871-4ff0-b6b9-4617f94fd519","system_id":"levelo_inurba_marseille","lat":43.312609,"lon":5.401662,"is_reserved":false,"is_disabled":false,"rental_uris":{"android":"levelo://app?vid=947c41ef-9871-4ff0-b6b9-4617f94fd519","ios":"levelo://app?vid=947c41ef-9871-4ff0-b6b9-4617f94fd519"},"vehicle_type_id":"4","last_reported":1712622884,"current_range_meters":14400,"station_id":"ce4bh092rcd13ifvqd30","pricing_plan_id":"cebpf4jnsgd1na2vs0mg"},{"bike_id":"5320a4ac-3900-404a-8a4e-25db707fb1a7","system_id":"levelo_inurba_marseille","lat":43.312808,"lon":5.401648,"is_reserved":false,"is_disabled":false,"rental_uris":{"android":"levelo://app?vid=5320a4ac-3900-404a-8a4e-25db707fb1a7","ios":"levelo://app?vid=5320a4ac-3900-404a-8a4e-25db707fb1a7"},"vehicle_type_id":"4","last_reported":1712622884,"current_range_meters":0,"station_id":"ce4bh092rcd13ifvqd30","pricing_plan_id":"cebpf4jnsgd1na2vs0mg"},{"bike_id":"a0a4d7d3-e4b3-4ef5-98dc-018daa81ca1c","system_id":"levelo_inurba_marseille","lat":43.312609,"lon":5.401662,"is_reserved":false,"is_disabled":false,"rental_uris":{"android":"levelo://app?vid=a0a4d7d3-e4b3-4ef5-98dc-018daa81ca1c","ios":"levelo://app?vid=a0a4d7d3-e4b3-4ef5-98dc-018daa81ca1c"},"vehicle_type_id":"4","last_reported":1712622884,"current_range_meters":4800,"station_id":"ce4bh092rcd13ifvqd30","pricing_plan_id":"cebpf4jnsgd1na2vs0mg"},{"bike_id":"a5dad889-65ab-47ac-87df-7d36c23fa80a","system_id":"levelo_inurba_marseille","lat":43.312609,"lon":5.401662,"is_reserved":false,"is_disabled":false,"rental_uris":{"android":"levelo://app?vid=a5dad889-65ab-47ac-87df-7d36c23fa80a","ios":"levelo://app?vid=a5dad889-65ab-47ac-87df-7d36c23fa80a"},"vehicle_type_id":"4","last_reported":1712622884,"current_range_meters":26400,"station_id":"ce4bh092rcd13ifvqd30","pricing_plan_id":"cebpf4jnsgd1na2vs0mg"},{"bike_id":"68dd8013-3272-4b72-8e2a-4ad4ddf96dbd","system_id":"levelo_inurba_marseille","lat":43.312609,"lon":5.401662,"is_reserved":false,"is_disabled":false,"rental_uris":{"android":"levelo://app?vid=68dd8013-3272-4b72-8e2a-4ad4ddf96dbd","ios":"levelo://app?vid=68dd8013-3272-4b72-8e2a-4ad4ddf96dbd"},"vehicle_type_id":"4","last_reported":1712622884,"current_range_meters":26800,"station_id":"ce4bh092rcd13ifvqd30","pricing_plan_id":"cebpf4jnsgd1na2vs0mg"},{"bike_id":"08dcdad2-504e-486f-a867-bc1e50fb59ab","system_id":"levelo_inurba_marseille","lat":43.309371,"lon":5.401449,"is_reserved":false,"is_disabled":false,"rental_uris":{"android":"levelo://app?vid=08dcdad2-504e-486f-a867-bc1e50fb59ab","ios":"levelo://app?vid=08dcdad2-504e-486f-a867-bc1e50fb59ab"},"vehicle_type_id":"4","last_reported":1712622884,"current_range_meters":12800,"station_id":"ce4bgvp2rcd13ifvqct0","pricing_plan_id":"cebpf4jnsgd1na2vs0mg"},{"bike_id":"86b4ebc4-0033-4a71-ab16-9dc5b6397886","system_id":"levelo_inurba_marseille","lat":43.309371,"lon":5.401449,"is_reserved":false,"is_disabled":false,"rental_uris":{"android":"levelo://app?vid=86b4ebc4-0033-4a71-ab16-9dc5b6397886","ios":"levelo://app?vid=86b4ebc4-0033-4a71-ab16-9dc5b6397886"},"vehicle_type_id":"4","last_reported":1712622884,"current_range_meters":5200,"station_id":"ce4bgvp2rcd13ifvqct0","pricing_plan_id":"cebpf4jnsgd1na2vs0mg"},{"bike_id":"eb5f6398-105d-44bc-b8f1-b9df5b568630","system_id":"levelo_inurba_marseille","lat":43.30638,"lon":5.40065,"is_reserved":false,"is_disabled":false,"rental_uris":{"android":"levelo://app?vid=eb5f6398-105d-44bc-b8f1-b9df5b568630","ios":"levelo://app?vid=eb5f6398-105d-44bc-b8f1-b9df5b568630"},"vehicle_type_id":"4","last_reported":1712622884,"current_range_meters":28800,"station_id":"ce4bh112rcd13ifvqda0","pricing_plan_id":"cebpf4jnsgd1na2vs0mg"},{"bike_id":"88c3b9ec-4b89-4ebe-8c99-7efd3df43418","system_id":"levelo_inurba_marseille","lat":43.309371,"lon":5.401449,"is_reserved":false,"is_disabled":false,"rental_uris":{"android":"levelo://app?vid=88c3b9ec-4b89-4ebe-8c99-7efd3df43418","ios":"levelo://app?vid=88c3b9ec-4b89-4ebe-8c99-7efd3df43418"},"vehicle_type_id":"4","last_reported":1712622884,"current_range_meters":20800,"station_id":"ce4bgvp2rcd13ifvqct0","pricing_plan_id":"cebpf4jnsgd1na2vs0mg"},{"bike_id":"cd79a864-0df7-4833-a225-155cbae1de27","system_id":"levelo_inurba_marseille","lat":43.309371,"lon":5.401449,"is_reserved":false,"is_disabled":false,"rental_uris":{"android":"levelo://app?vid=cd79a864-0df7-4833-a225-155cbae1de27","ios":"levelo://app?vid=cd79a864-0df7-4833-a225-155cbae1de27"},"vehicle_type_id":"4","last_reported":1712622884,"current_range_meters":19200,"station_id":"ce4bgvp2rcd13ifvqct0","pricing_plan_id":"cebpf4jnsgd1na2vs0mg"},{"bike_id":"8a2d0a23-84ed-4307-8708-ab570db3dc33","system_id":"levelo_inurba_marseille","lat":43.309371,"lon":5.401449,"is_reserved":false,"is_disabled":false,"rental_uris":{"android":"levelo://app?vid=8a2d0a23-84ed-4307-8708-ab570db3dc33","ios":"levelo://app?vid=8a2d0a23-84ed-4307-8708-ab570db3dc33"},"vehicle_type_id":"4","last_reported":1712622884,"current_range_meters":16800,"station_id":"ce4bgvp2rcd13ifvqct0","pricing_plan_id":"cebpf4jnsgd1na2vs0mg"},{"bike_id":"f5d17352-9832-4f54-8fd0-9b30d1fa2303","system_id":"levelo_inurba_marseille","lat":43.306458,"lon":5.400701,"is_reserved":false,"is_disabled":false,"rental_uris":{"android":"levelo://app?vid=f5d17352-9832-4f54-8fd0-9b30d1fa2303","ios":"levelo://app?vid=f5d17352-9832-4f54-8fd0-9b30d1fa2303"},"vehicle_type_id":"4","last_reported":1712622884,"current_range_meters":31200,"station_id":"ce4bh112rcd13ifvqda0","pricing_plan_id":"cebpf4jnsgd1na2vs0mg"},{"bike_id":"63b59ea5-7ef4-4657-ac05-0bc3e550518d","system_id":"levelo_inurba_marseille","lat":43.309371,"lon":5.401449,"is_reserved":false,"is_disabled":false,"rental_uris":{"android":"levelo://app?vid=63b59ea5-7ef4-4657-ac05-0bc3e550518d","ios":"levelo://app?vid=63b59ea5-7ef4-4657-ac05-0bc3e550518d"},"vehicle_type_id":"4","last_reported":1712622884,"current_range_meters":12000,"station_id":"ce4bgvp2rcd13ifvqct0","pricing_plan_id":"cebpf4jnsgd1na2vs0mg"},{"bike_id":"4e95fc62-2332-49fa-af5e-f8e46e672754","system_id":"levelo_inurba_marseille","lat":43.309371,"lon":5.401449,"is_reserved":false,"is_disabled":false,"rental_uris":{"android":"levelo://app?vid=4e95fc62-2332-49fa-af5e-f8e46e672754","ios":"levelo://app?vid=4e95fc62-2332-49fa-af5e-f8e46e672754"},"vehicle_type_id":"4","last_reported":1712622884,"current_range_meters":0,"station_id":"ce4bgvp2rcd13ifvqct0","pricing_plan_id":"cebpf4jnsgd1na2vs0mg"},{"bike_id":"ba6ec954-adcb-4dab-b2e1-c8b5f7e9d938","system_id":"levelo_inurba_marseille","lat":43.30641,"lon":5.40075,"is_reserved":false,"is_disabled":false,"rental_uris":{"android":"levelo://app?vid=ba6ec954-adcb-4dab-b2e1-c8b5f7e9d938","ios":"levelo://app?vid=ba6ec954-adcb-4dab-b2e1-c8b5f7e9d938"},"vehicle_type_id":"4","last_reported":1712622884,"current_range_meters":24800,"station_id":"ce4bh112rcd13ifvqda0","pricing_plan_id":"cebpf4jnsgd1na2vs0mg"},{"bike_id":"d4803f30-408e-4fd4-a595-9eeed3566655","system_id":"levelo_inurba_marseille","lat":43.33755,"lon":5.374532,"is_reserved":false,"is_disabled":false,"rental_uris":{"android":"levelo://app?vid=d4803f30-408e-4fd4-a595-9eeed3566655","ios":"levelo://app?vid=d4803f30-408e-4fd4-a595-9eeed3566655"},"vehicle_type_id":"4","last_reported":1712622884,"current_range_meters":30000,"station_id":"","pricing_plan_id":"cebpf4jnsgd1na2vs0mg"},{"bike_id":"16cff3bc-1a8d-46c4-8899-8154155f5ae3","system_id":"levelo_inurba_marseille","lat":43.306506,"lon":5.400802,"is_reserved":false,"is_disabled":false,"rental_uris":{"android":"levelo://app?vid=16cff3bc-1a8d-46c4-8899-8154155f5ae3","ios":"levelo://app?vid=16cff3bc-1a8d-46c4-8899-8154155f5ae3"},"vehicle_type_id":"4","last_reported":1712622884,"current_range_meters":400,"station_id":"ce4bh112rcd13ifvqda0","pricing_plan_id":"cebpf4jnsgd1na2vs0mg"},{"bike_id":"19a4c795-14fe-4322-9339-bfb3e0934558","system_id":"levelo_inurba_marseille","lat":43.306412,"lon":5.401035,"is_reserved":false,"is_disabled":false,"rental_uris":{"android":"levelo://app?vid=19a4c795-14fe-4322-9339-bfb3e0934558","ios":"levelo://app?vid=19a4c795-14fe-4322-9339-bfb3e0934558"},"vehicle_type_id":"4","last_reported":1712622884,"current_range_meters":27600,"station_id":"ce4bh112rcd13ifvqda0","pricing_plan_id":"cebpf4jnsgd1na2vs0mg"},{"bike_id":"7cc131e5-cbb5-40e9-9301-78f602879135","system_id":"levelo_inurba_marseille","lat":43.306412,"lon":5.401035,"is_reserved":false,"is_disabled":false,"rental_uris":{"android":"levelo://app?vid=7cc131e5-cbb5-40e9-9301-78f602879135","ios":"levelo://app?vid=7cc131e5-cbb5-40e9-9301-78f602879135"},"vehicle_type_id":"4","last_reported":1712622884,"current_range_meters":18400,"station_id":"ce4bh112rcd13ifvqda0","pricing_plan_id":"cebpf4jnsgd1na2vs0mg"},{"bike_id":"98c7ba22-f63c-42c2-a351-38e885a3a0c7","system_id":"levelo_inurba_marseille","lat":43.306443,"lon":5.400817,"is_reserved":false,"is_disabled":false,"rental_uris":{"android":"levelo://app?vid=98c7ba22-f63c-42c2-a351-38e885a3a0c7","ios":"levelo://app?vid=98c7ba22-f63c-42c2-a351-38e885a3a0c7"},"vehicle_type_id":"4","last_reported":1712622884,"current_range_meters":8800,"station_id":"ce4bh112rcd13ifvqda0","pricing_plan_id":"cebpf4jnsgd1na2vs0mg"},{"bike_id":"08fdbdc4-d03a-4c5c-b86f-f6e64cd7162f","system_id":"levelo_inurba_marseille","lat":43.30637,"lon":5.400848,"is_reserved":false,"is_disabled":false,"rental_uris":{"android":"levelo://app?vid=08fdbdc4-d03a-4c5c-b86f-f6e64cd7162f","ios":"levelo://app?vid=08fdbdc4-d03a-4c5c-b86f-f6e64cd7162f"},