{"last_updated":1715548057,"ttl":30,"version":"2.2","data":{"bikes":[{"bike_id":"3a70ba63-25f4-435b-ac9b-fc2c3c10bb91","system_id":"levelo_inurba_marseille","lat":43.31238,"lon":5.36853,"is_reserved":false,"is_disabled":false,"rental_uris":{"android":"levelo://app?vid=3a70ba63-25f4-435b-ac9b-fc2c3c10bb91","ios":"levelo://app?vid=3a70ba63-25f4-435b-ac9b-fc2c3c10bb91"},"vehicle_type_id":"4","last_reported":1715548057,"current_range_meters":22000,"station_id":"ce4bgl92rcd13ifvqbq0","pricing_plan_id":"cebpf4jnsgd1na2vs0mg"},{"bike_id":"ee6ffe7e-a4de-42f2-911f-9f3a8f7d837b","system_id":"levelo_inurba_marseille","lat":43.3122,"lon":5.3686,"is_reserved":false,"is_disabled":false,"rental_uris":{"android":"levelo://app?vid=ee6ffe7e-a4de-42f2-911f-9f3a8f7d837b","ios":"levelo://app?vid=ee6ffe7e-a4de-42f2-911f-9f3a8f7d837b"},"vehicle_type_id":"4","last_reported":1715548057,"current_range_meters":0,"station_id":"ce4bgl92rcd13ifvqbq0","pricing_plan_id":"cebpf4jnsgd1na2vs0mg"},{"bike_id":"a8517e63-4453-4da2-8618-3e0c4b0b8c83","system_id":"levelo_inurba_marseille","lat":43.309076,"lon":5.368465,"is_reserved":false,"is_disabled":false,"rental_uris":{"android":"levelo://app?vid=a8517e63-4453-4da2-8618-3e0c4b0b8c83","ios":"levelo://app?vid=a8517e63-4453-4da2-8618-3e0c4b0b8c83"},"vehicle_type_id":"4","last_reported":1715548057,"current_range_meters":14400,"station_id":"ce4bgn92rcd13ifvqbvg","pricing_plan_id":"cebpf4jnsgd1na2vs0mg"},{"bike_id":"098b0a50-bc7a-49ac-8848-0fc94bc1580c","system_id":"levelo_inurba_marseille","lat":43.309076,"lon":5.368465,"is_reserved":false,"is_disabled":false,"rental_uris":{"android":"levelo://app?vid=098b0a50-bc7a-49ac-8848-0fc94bc1580c","ios":"levelo://app?vid=098b0a50-bc7a-49ac-8848-0fc94bc1580c"},"vehicle_type_id":"4","last_reported":1715548057,"current_range_meters":28400,"station_id":"ce4bgn92rcd13ifvqbvg","pricing_plan_id":"cebpf4jnsgd1na2vs0mg"},{"bike_id":"538925c6-1285-4f12-8bc5-74f08d2f1766","system_id":"levelo_inurba_marseille","lat":43.324771,"lon":5.36557,"is_reserved":false,"is_disabled":false,"rental_uris":{"android":"levelo://app?vid=538925c6-1285-4f12-8bc5-74f08d2f1766","ios":"levelo://app?vid=538925c6-1285-4f12-8bc5-74f08d2f1766"},"vehicle_type_id":"4","last_reported":1715548057,"current_range_meters":0,"station_id":"ce4bhs12rcd13ifvqhvg","pricing_plan_id":"cebpf4jnsgd1na2vs0mg"},{"bike_id":"a8b0cdfc-0d04-4ad4-9d21-404903a8f978","system_id":"levelo_inurba_marseille","lat":43.308917,"lon":5.37185,"is_reserved":false,"is_disabled":false,"rental_uris":{"android":"levelo://app?vid=a8b0cdfc-0d04-4ad4-9d21-404903a8f978","ios":"levelo://app?vid=a8b0cdfc-0d04-4ad4-9d21-404903a8f978"},"vehicle_type_id":"4","last_reported":1715548057,"current_range_meters":0,"station_id":"ce4bguh2rcd13ifvqckg","pricing_plan_id":"cebpf4jnsgd1na2vs0mg"},{"bike_id":"2935aa40-de7f-4992-b122-8030207aae85","system_id":"levelo_inurba_marseille","lat":43.309039,"lon":5.371797,"is_reserved":false,"is_disabled":false,"rental_uris":{"android":"levelo://app?vid=2935aa40-de7f-4992-b122-8030207aae85","ios":"levelo://app?vid=2935aa40-de7f-4992-b122-8030207aae85"},"vehicle_type_id":"4","last_reported":1715548057,"current_range_meters":12400,"station_id":"ce4bguh2rcd13ifvqckg","pricing_plan_id":"cebpf4jnsgd1na2vs0mg"},{"bike_id":"9354b06a-b4d9-4ef5-8ede-cddc184caab1","system_id":"levelo_inurba_marseille","lat":43.308837,"lon":5.371917,"is_reserved":false,"is_disabled":false,"rental_uris":{"android":"levelo://app?vid=9354b06a-b4d9-4ef5-8ede-cddc184caab1","ios":"levelo://app?vid=9354b06a-b4d9-4ef5-8ede-cddc184caab1"},"vehicle_type_id":"4","last_reported":1715548057,"current_range_meters":1200,"station_id":"ce4bguh2rcd13ifvqckg","pricing_plan_id":"cebpf4jnsgd1na2vs0mg"},{"bike_id":"f3332acb-98e2-436d-a1b1-52030c6b2dc9","system_id":"levelo_inurba_marseille","lat":43.309034,"lon":5.371783,"is_reserved":false,"is_disabled":false,"rental_uris":{"android":"levelo://app?vid=f3332acb-98e2-436d-a1b1-52030c6b2dc9","ios":"levelo://app?vid=f3332acb-98e2-436d-a1b1-52030c6b2dc9"},"vehicle_type_id":"4","last_reported":1715548057,"current_range_meters":26000,"station_id":"ce4bguh2rcd13ifvqckg","pricing_plan_id":"cebpf4jnsgd1na2vs0mg"},{"bike_id":"912d6aaf-41aa-4295-8583-f841419c2cee","system_id":"levelo_inurba_marseille","lat":43.3088,"lon":5.37197,"is_reserved":false,"is_disabled":false,"rental_uris":{"android":"levelo://app?vid=912d6aaf-41aa-4295-8583-f841419c2cee","ios":"levelo://app?vid=912d6aaf-41aa-4295-8583-f841419c2cee"},"vehicle_type_id":"4","last_reported":1715548057,"current_range_meters":8000,"station_id":"ce4bguh2rcd13ifvqckg","pricing_plan_id":"cebpf4jnsgd1na2vs0mg"},{"bike_id":"029db4bb-e798-428e-bedb-a9ff4a1fcf4d","system_id":"levelo_inurba_marseille","lat":43.305714,"lon":5.365633,"is_reserved":false,"is_disabled":false,"rental_uris":{"android":"levelo://app?vid=029db4bb-e798-428e-bedb-a9ff4a1fcf4d","ios":"levelo://app?vid=029db4bb-e798-428e-bedb-a9ff4a1fcf4d"},"vehicle_type_id":"4","last_reported":1715548057,"current_range_meters":0,"station_id":"ce4bgs12rcd13ifvqcag","pricing_plan_id":"cebpf4jnsgd1na2vs0mg"},{"bike_id":"7465637f-5501-48ae-a73a-a5ea2a07c5c2","system_id":"levelo_inurba_marseille","lat":43.30537,"lon":5.36703,"is_reserved":false,"is_disabled":false,"rental_uris":{"android":"levelo://app?vid=7465637f-5501-48ae-a73a-a5ea2a07c5c2","ios":"levelo://app?vid=7465637f-5501-48ae-a73a-a5ea2a07c5c2"},"vehicle_type_id":"4","last_reported":1715548057,"current_range_meters":13600,"station_id":"","pricing_plan_id":"cebpf4jnsgd1na2vs0mg"},{"bike_id":"3bc3bdee-a660-4406-b266-436c85a32cbf","system_id":"levelo_inurba_marseille","lat":43.305368,"lon":5.367343,"is_reserved":false,"is_disabled":false,"rental_uris":{"android":"levelo://app?vid=3bc3bdee-a660-4406-b266-436c85a32cbf","ios":"levelo://app?vid=3bc3bdee-a660-4406-b266-436c85a32cbf"},"vehicle_type_id":"4","last_reported":1715548057,"current_range_meters":0,"station_id":"ce4bgrp2rcd13ifvqc9g","pricing_plan_id":"cebpf4jnsgd1na2vs0mg"},{"bike_id":"e774366e-ed6f-41b0-be80-0dbba613a6c1","system_id":"levelo_inurba_marseille","lat":43.30536,"lon":5.36532,"is_reserved":false,"is_disabled":false,"rental_uris":{"android":"levelo://app?vid=e774366e-ed6f-41b0-be80-0dbba613a6c1","ios":"levelo://app?vid=e774366e-ed6f-41b0-be80-0dbba613a6c1"},"vehicle_type_id":"4","last_reported":1715548057,"current_range_meters":0,"station_id":"ce4bgs12rcd13ifvqcag","pricing_plan_id":"cebpf4jnsgd1na2vs0mg"},{"bike_id":"9772bf32-c158-4ec0-8158-6bddf85c326c","system_id":"levelo_inurba_marseille","lat":43.305989,"lon":5.37225,"is_reserved":false,"is_disabled":false,"rental_uris":{"android":"levelo://app?vid=9772bf32-c158-4ec0-8158-6bddf85c326c","ios":"levelo://app?vid=9772bf32-c158-4ec0-8158-6bddf85c326c"},"vehicle_type_id":"4","last_reported":1715548057,"current_range_meters":4400,"station_id":"ce4bgqh2rcd13ifvqc4g","pricing_plan_id":"cebpf4jnsgd1na2vs0mg"},{"bike_id":"5f3ba907-b54c-48c8-8f53-2c10e4f06fa7","system_id":"levelo_inurba_marseille","lat":43.305989,"lon":5.37225,"is_reserved":false,"is_disabled":false,"rental_uris":{"android":"levelo://app?vid=5f3ba907-b54c-48c8-8f53-2c10e4f06fa7","ios":"levelo://app?vid=5f3ba907-b54c-48c8-8f53-2c10e4f06fa7"},"vehicle_type_id":"4","last_reported":1715548057,"current_range_meters":4000,"station_id":"ce4bgqh2rcd13ifvqc4g","pricing_plan_id":"cebpf4jnsgd1na2vs0mg"},{"bike_id":"fcce4d85-3ec6-47b1-9987-28524c6c0e29","system_id":"levelo_inurba_marseille","lat":43.311131,"lon":5.377651,"is_reserved":false,"is_disabled":false,"rental_uris":{"android":"levelo://app?vid=fcce4d85-3ec6-47b1-9987-28524c6c0e29","ios":"levelo://app?vid=fcce4d85-3ec6-47b1-9987-28524c6c0e29"},"vehicle_type_id":"4","last_reported":1715548057,"current_range_meters":28000,"station_id":"ce4bgt92rcd13ifvqcg0","pricing_plan_id":"cebpf4jnsgd1na2vs0mg"},{"bike_id":"a9e964e9-6266-420e-8b6b-9610cc05ba37","system_id":"levelo_inurba_marseille","lat":43.311131,"lon":5.377651,"is_reserved":false,"is_disabled":false,"rental_uris":{"android":"levelo://app?vid=a9e964e9-6266-420e-8b6b-9610cc05ba37","ios":"levelo://app?vid=a9e964e9-6266-420e-8b6b-9610cc05ba37"},"vehicle_type_id":"4","last_reported":1715548057,"current_range_meters":19200,"station_id":"ce4bgt92rcd13ifvqcg0","pricing_plan_id":"cebpf4jnsgd1na2vs0mg"},{"bike_id":"f0285697-ee5c-4e06-9d59-af9dadefd921","system_id":"levelo_inurba_marseille","lat":43.311125,"lon":5.377624,"is_reserved":false,"is_disabled":false,"rental_uris":{"android":"levelo://app?vid=f0285697-ee5c-4e06-9d59-af9dadefd921","ios":"levelo://app?vid=f0285697-ee5c-4e06-9d59-af9dadefd921"},"vehicle_type_id":"4","last_reported":1715548057,"current_range_meters":30400,"station_id":"ce4bgt92rcd13ifvqcg0","pricing_plan_id":"cebpf4jnsgd1na2vs0mg"},{"bike_id":"7f04f73f-373e-4809-8821-6fce7302850c","system_id":"levelo_inurba_marseille","lat":43.311131,"lon":5.377651,"is_reserved":false,"is_disabled":false,"rental_uris":{"android":"levelo://app?vid=7f04f73f-373e-4809-8821-6fce7302850c","ios":"levelo://app?vid=7f04f73f-373e-4809-8821-6fce7302850c"},"vehicle_type_id":"4","last_reported":1715548057,"current_range_meters":31200,"station_id":"ce4bgt92rcd13ifvqcg0","pricing_plan_id":"cebpf4jnsgd1na2vs0mg"},{"bike_id":"8254f7af-a7e3-4fe8-86e4-b562cc4a0625","system_id":"levelo_inurba_marseille","lat":43.311125,"lon":5.377624,"is_reserved":false,"is_disabled":false,"rental_uris":{"android":"levelo://app?vid=8254f7af-a7e3-4fe8-86e4-b562cc4a0625","ios":"levelo://app?vid=8254f7af-a7e3-4fe8-86e4-b562cc4a0625"},"vehicle_type_id":"4","last_reported":1715548057,"current_range_meters":17200,"station_id":"ce4bgt92rcd13ifvqcg0","pricing_plan_id":"cebpf4jnsgd1na2vs0mg"},{"bike_id":"87a5a68a-304b-4f69-986b-0c3c7dcfa944","system_id":"levelo_inurba_marseille","lat":43.311125,"lon":5.377624,"is_reserved":false,"is_disabled":false,"rental_uris":{"android":"levelo://app?vid=87a5a68a-304b-4f69-986b-0c3c7dcfa944","ios":"levelo://app?vid=87a5a68a-304b-4f69-986b-0c3c7dcfa944"},"vehicle_type_id":"4","last_reported":1715548057,"current_range_meters":31200,"station_id":"ce4bgt92rcd13ifvqcg0","pricing_plan_id":"cebpf4jnsgd1na2vs0mg"},{"bike_id":"ca2f41d4-d6ad-4ed6-87d9-aa04d6b5c1d0","system_id":"levelo_inurba_marseille","lat":43.311125,"lon":5.377624,"is_reserved":false,"is_disabled":false,"rental_uris":{"android":"levelo://app?vid=ca2f41d4-d6ad-4ed6-87d9-aa04d6b5c1d0","ios":"levelo://app?vid=ca2f41d4-d6ad-4ed6-87d9-aa04d6b5c1d0"},"vehicle_type_id":"4","last_reported":1715548057,"current_range_meters":12000,"station_id":"ce4bgt92rcd13ifvqcg0","pricing_plan_id":"cebpf4jnsgd1na2vs0mg"},{"bike_id":"3fcac2e0-8338-49d0-a08a-31ea5349fe64","system_id":"levelo_inurba_marseille","lat":43.311125,"lon":5.377624,"is_reserved":false,"is_disabled":false,"rental_uris":{"android":"levelo://app?vid=3fcac2e0-8338-49d0-a08a-31ea5349fe64","ios":"levelo://app?vid=3fcac2e0-8338-49d0-a08a-31ea5349fe64"},"vehicle_type_id":"4","last_reported":1715548057,"current_range_meters":16800,"station_id":"ce4bgt92rcd13ifvqcg0","pricing_plan_id":"cebpf4jnsgd1na2vs0mg"},{"bike_id":"442e3e7a-9389-4674-b2bc-cddf42f482d3","system_id":"levelo_inurba_marseille","lat":43.307945,"lon":5.376487,"is_reserved":false,"is_disabled":false,"rental_uris":{"android":"levelo://app?vid=442e3e7a-9389-4674-b2bc-cddf42f482d3","ios":"levelo://app?vid=442e3e7a-9389-4674-b2bc-cddf42f482d3"},"vehicle_type_id":"4","last_reported":1715548057,"current_range_meters":5600,"station_id":"ce4bgv92rcd13ifvqcq0","pricing_plan_id":"cebpf4jnsgd1na2vs0mg"},{"bike_id":"57148fb8-73dc-4d9f-b6da-ebf6c11b9815","system_id":"levelo_inurba_marseille","lat":43.307945,"lon":5.376487,"is_reserved":false,"is_disabled":false,"rental_uris":{"android":"levelo://app?vid=57148fb8-73dc-4d9f-b6da-ebf6c11b9815","ios":"levelo://app?vid=57148fb8-73dc-4d9f-b6da-ebf6c11b9815"},"vehicle_type_id":"4","last_reported":1715548057,"current_range_meters":25600,"station_id":"ce4bgv92rcd13ifvqcq0","pricing_plan_id":"cebpf4jnsgd1na2vs0mg"},{"bike_id":"a8420d12-5ea1-4553-ba77-74153419b9a1","system_id":"levelo_inurba_marseille","lat":43.307945,"lon":5.376487,"is_reserved":false,"is_disabled":false,"rental_uris":{"android":"levelo://app?vid=a8420d12-5ea1-4553-ba77-74153419b9a1","ios":"levelo://app?vid=a8420d12-5ea1-4553-ba77-74153419b9a1"},"vehicle_type_id":"4","last_reported":1715548057,"current_range_meters":30800,"station_id":"ce4bgv92rcd13ifvqcq0","pricing_plan_id":"cebpf4jnsgd1na2vs0mg"},{"bike_id":"99ed11b8-1697-4fa4-be28-bd9c32eacb12","system_id":"levelo_inurba_marseille","lat":43.307945,"lon":5.376487,"is_reserved":false,"is_disabled":false,"rental_uris":{"android":"levelo://app?vid=99ed11b8-1697-4fa4-be28-bd9c32eacb12","ios":"levelo://app?vid=99ed11b8-1697-4fa4-be28-bd9c32eacb12"},"vehicle_type_id":"4","last_reported":1715548057,"current_range_meters":4000,"station_id":"ce4bgv92rcd13ifvqcq0","pricing_plan_id":"cebpf4jnsgd1na2vs0mg"},{"bike_id":"3d83e1ea-9f6f-49ec-b1af-4bf968092d6d","system_id":"levelo_inurba_marseille","lat":43.31708,"lon":5.37748,"is_reserved":false,"is_disabled":false,"rental_uris":{"android":"levelo://app?vid=3d83e1ea-9f6f-49ec-b1af-4bf968092d6d","ios":"levelo://app?vid=3d83e1ea-9f6f-49ec-b1af-4bf968092d6d"},"vehicle_type_id":"4","last_reported":1715548057,"current_range_meters":18400,"station_id":"ce4bgth2rcd13ifvqch0","pricing_plan_id":"cebpf4jnsgd1na2vs0mg"},{"bike_id":"cd162efa-fed7-444d-876d-848cd42b8e89","system_id":"levelo_inurba_marseille","lat":43.303046,"lon":5.368981,"is_reserved":false,"is_disabled":false,"rental_uris":{"android":"levelo://app?vid=cd162efa-fed7-444d-876d-848cd42b8e89","ios":"levelo://app?vid=cd162efa-fed7-444d-876d-848cd42b8e89"},"vehicle_type_id":"4","last_reported":1715548057,"current_range_meters":5200,"station_id":"ce4bgqh2rcd13ifvqc5g","pricing_plan_id":"cebpf4jnsgd1na2vs0mg"},{"bike_id":"32c346de-db10-453f-a45c-4f32bba0438f","system_id":"levelo_inurba_marseille","lat":43.315293,"lon":5.380349,"is_reserved":false,"is_disabled":false,"rental_uris":{"android":"levelo://app?vid=32c346de-db10-453f-a45c-4f32bba0438f","ios":"levelo://app?vid=32c346de-db10-453f-a45c-4f32bba0438f"},"vehicle_type_id":"4","last_reported":1715548057,"current_range_meters":3600,"station_id":"ce4bhsp2rcd13ifvqi50","pricing_plan_id":"cebpf4jnsgd1na2vs0mg"},{"bike_id":"a37cdda5-216b-490e-9d2b-eead123fc9e0","system_id":"levelo_inurba_marseille","lat":43.315289,"lon":5.380349,"is_reserved":false,"is_disabled":false,"rental_uris":{"android":"levelo://app?vid=a37cdda5-216b-490e-9d2b-eead123fc9e0","ios":"levelo://app?vid=a37cdda5-216b-490e-9d2b-eead123fc9e0"},"vehicle_type_id":"4","last_reported":1715548057,"current_range_meters":8000,"station_id":"ce4bhsp2rcd13ifvqi50","pricing_plan_id":"cebpf4jnsgd1na2vs0mg"},{"bike_id":"c090b4a3-8df5-4222-9fd9-6efab201f20e","system_id":"levelo_inurba_marseille","lat":43.308012,"lon":5.381511,"is_reserved":false,"is_disabled":false,"rental_uris":{"android":"levelo://app?vid=c090b4a3-8df5-4222-9fd9-6efab201f20e","ios":"levelo://app?vid=c090b4a3-8df5-4222-9fd9-6efab201f20e"},"vehicle_type_id":"4","last_reported":1715548057,"current_range_meters":25200,"station_id":"ce4bgt12rcd13ifvqce0","pricing_plan_id":"cebpf4jnsgd1na2vs0mg"},{"bike_id":"c7daeb42-2ecd-4a23-aad0-ac628736bb76","system_id":"levelo_inurba_marseille","lat":43.308012,"lon":5.381511,"is_reserved":false,"is_disabled":false,"rental_uris":{"android":"levelo://app?vid=c7daeb42-2ecd-4a23-aad0-ac628736bb76","ios":"levelo://app?vid=c7daeb42-2ecd-4a23-aad0-ac628736bb76"},"vehicle_type_id":"4","last_reported":1715548057,"current_range_meters":8000,"station_id":"ce4bgt12rcd13ifvqce0","pricing_plan_id":"cebpf4jnsgd1na2vs0mg"},{"bike_id":"e76fafb9-7b95-43f5-aa95-bfe517313c90","system_id":"levelo_inurba_marseille","lat":43.308012,"lon":5.381511,"is_reserved":false,"is_disabled":false,"rental_uris":{"android":"levelo://app?vid=e76fafb9-7b95-43f5-aa95-bfe517313c90","ios":"levelo://app?vid=e76fafb9-7b95-43f5-aa95-bfe517313c90"},"vehicle_type_id":"4","last_reported":1715548057,"current_range_meters":9200,"station_id":"ce4bgt12rcd13ifvqce0","pricing_plan_id":"cebpf4jnsgd1na2vs0mg"},{"bike_id":"b2c7b46d-89cb-40fb-85ad-e4d9451c358d","system_id":"levelo_inurba_marseille","lat":43.308012,"lon":5.381511,"is_reserved":false,"is_disabled":false,"rental_uris":{"android":"levelo://app?vid=b2c7b46d-89cb-40fb-85ad-e4d9451c358d","ios":"levelo://app?vid=b2c7b46d-89cb-40fb-85ad-e4d9451c358d"},"vehicle_type_id":"4","last_reported":1715548057,"current_range_meters":24800,"station_id":"ce4bgt12rcd13ifvqce0","pricing_plan_id":"cebpf4jnsgd1na2vs0mg"},{"bike_id":"e7e281f5-a277-4018-b388-dd9df87eeab7","system_id":"levelo_inurba_marseille","lat":43.308012,"lon":5.381511,"is_reserved":false,"is_disabled":false,"rental_uris":{"android":"levelo://app?vid=e7e281f5-a277-4018-b388-dd9df87eeab7","ios":"levelo://app?vid=e7e281f5-a277-4018-b388-dd9df87eeab7"},"vehicle_type_id":"4","last_reported":1715548057,"current_range_meters":20400,"station_id":"ce4bgt12rcd13ifvqce0","pricing_plan_id":"cebpf4jnsgd1na2vs0mg"},{"bike_id":"e0f7d62c-0a17-4ce0-bb75-7abeb52e8712","system_id":"levelo_inurba_marseille","lat":43.308,"lon":5.38158,"is_reserved":false,"is_disabled":false,"rental_uris":{"android":"levelo://app?vid=e0f7d62c-0a17-4ce0-bb75-7abeb52e8712","ios":"levelo://app?vid=e0f7d62c-0a17-4ce0-bb75-7abeb52e8712"},"vehicle_type_id":"4","last_reported":1715548057,"current_range_meters":16400,"station_id":"ce4bgt12rcd13ifvqce0","pricing_plan_id":"cebpf4jnsgd1na2vs0mg"},{"bike_id":"cb57210d-88a1-4b63-9a11-5e25ee02a113","system_id":"levelo_inurba_marseille","lat":43.308012,"lon":5.381511,"is_reserved":false,"is_disabled":false,"rental_uris":{"android":"levelo://app?vid=cb57210d-88a1-4b63-9a11-5e25ee02a113","ios":"levelo://app?vid=cb57210d-88a1-4b63-9a11-5e25ee02a113"},"vehicle_type_id":"4","last_reported":1715548057,"current_range_meters":11200,"station_id":"ce4bgt12rcd13ifvqce0","pricing_plan_id":"cebpf4jnsgd1na2vs0mg"},{"bike_id":"75940b54-209c-4803-8454-fb29a050465b","system_id":"levelo_inurba_marseille","lat":43.308012,"lon":5.381511,"is_reserved":false,"is_disabled":false,"rental_uris":{"android":"levelo://app?vid=75940b54-209c-4803-8454-fb29a050465b","ios":"levelo://app?vid=75940b54-209c-4803-8454-fb29a050465b"},"vehicle_type_id":"4","last_reported":1715548057,"current_range_meters":17600,"station_id":"ce4bgt12rcd13ifvqce0","pricing_plan_id":"cebpf4jnsgd1na2vs0mg"},{"bike_id":"4c740f02-22e3-45c0-aea9-c48b6972bf03","system_id":"levelo_inurba_marseille","lat":43.308012,"lon":5.381511,"is_reserved":false,"is_disabled":false,"rental_uris":{"android":"levelo://app?vid=4c740f02-22e3-45c0-aea9-c48b6972bf03","ios":"levelo://app?vid=4c740f02-22e3-45c0-aea9-c48b6972bf03"},"vehicle_type_id":"4","last_reported":1715548057,"current_range_meters":18800,"station_id":"ce4bgt12rcd13ifvqce0","pricing_plan_id":"cebpf4jnsgd1na2vs0mg"},{"bike_id":"65bf6066-1445-4c1c-ae08-904ad85ff3ca","system_id":"levelo_inurba_marseille","lat":43.308012,"lon":5.381511,"is_reserved":false,"is_disabled":false,"rental_uris":{"android":"levelo://app?vid=65bf6066-1445-4c1c-ae08-904ad85ff3ca","ios":"levelo://app?vid=65bf6066-1445-4c1c-ae08-904ad85ff3ca"},"vehicle_type_id":"4","last_reported":1715548057,"current_range_meters":22800,"station_id":"ce4bgt12rcd13ifvqce0","pricing_plan_id":"cebpf4jnsgd1na2vs0mg"},{"bike_id":"950062fa-3a7b-463b-9e6c-f55aa078604c","system_id":"levelo_inurba_marseille","lat":43.30304,"lon":5.37633,"is_reserved":false,"is_disabled":false,"rental_uris":{"android":"levelo://app?vid=950062fa-3a7b-463b-9e6c-f55aa078604c","ios":"levelo://app?vid=950062fa-3a7b-463b-9e6c-f55aa078604c"},"vehicle_type_id":"4","last_reported":1715548057,"current_range_meters":16800,"station_id":"","pricing_plan_id":"cebpf4jnsgd1na2vs0mg"},{"bike_id":"d52dad5e-12da-44d4-98b5-9e33fb560810","system_id":"levelo_inurba_marseille","lat":43.304606,"lon":5.379026,"is_reserved":false,"is_disabled":false,"rental_uris":{"android":"levelo://app?vid=d52dad5e-12da-44d4-98b5-9e33fb560810","ios":"levelo://app?vid=d52dad5e-12da-44d4-98b5-9e33fb560810"},"vehicle_type_id":"4","last_reported":1715548057,"current_range_meters":0,"station_id":"ce4bgup2rcd13ifvqcn0","pricing_plan_id":"cebpf4jnsgd1na2vs0mg"},{"bike_id":"4eb37566-cfb5-4c86-a3ea-ad0e279d9efa","system_id":"levelo_inurba_marseille","lat":43.324771,"lon":5.36557,"is_reserved":false,"is_disabled":false,"rental_uris":{"android":"levelo://app?vid=4eb37566-cfb5-4c86-a3ea-ad0e279d9efa","ios":"levelo://app?vid=4eb37566-cfb5-4c86-a3ea-ad0e279d9efa"},"vehicle_type_id":"4","last_reported":1715548057,"current_range_meters":21600,"station_id":"ce4bhs12rcd13ifvqhvg","pricing_plan_id":"cebpf4jnsgd1na2vs0mg"},{"bike_id":"beea5576-ef06-4629-8bbc-af2a52d31cb7","system_id":"levelo_inurba_marseille","lat":43.315293,"lon":5.380349,"is_reserved":false,"is_disabled":false,"rental_uris":{"android":"levelo://app?vid=beea5576-ef06-4629-8bbc-af2a52d31cb7","ios":"levelo://app?vid=beea5576-ef06-4629-8bbc-af2a52d31cb7"},"vehicle_type_id":"4","last_reported":1715548057,"current_range_meters":9600,"station_id":"ce4bhsp2rcd13ifvqi50","pricing_plan_id":"cebpf4jnsgd1na2vs0mg"},{"bike_id":"e462428f-8777-46bf-be71-6ec0eeb2736e","system_id":"levelo_inurba_marseille","lat":43.324771,"lon":5.36557,"is_reserved":false,"is_disabled":false,"rental_uris":{"android":"levelo://app?vid=e462428f-8777-46bf-be71-6ec0eeb2736e","ios":"levelo://app?vid=e462428f-8777-46bf-be71-6ec0eeb2736e"},"vehicle_type_id":"4","last_reported":1715548057,"current_range_meters":10800,"station_id":"ce4bhs12rcd13ifvqhvg","pricing_plan_id":"cebpf4jnsgd1na2vs0mg"},{"bike_id":"1d3de0b0-7934-4fcc-b39a-497c4cf68f7b","system_id":"levelo_inurba_marseille","lat":43.324771,"lon":5.36557,"is_reserved":false,"is_disabled":false,"rental_uris":{"android":"levelo://app?vid=1d3de0b0-7934-4fcc-b39a-497c4cf68f7b","ios":"levelo://app?vid=1d3de0b0-7934-4fcc-b39a-497c4cf68f7b"},"vehicle_type_id":"4","last_reported":1715548057,"current_range_meters":20400,"station_id":"ce4bhs12rcd13ifvqhvg","pricing_plan_id":"cebpf4jnsgd1na2vs0mg"},{"bike_id":"de363a9b-b8dd-4f25-97c4-05ca23eea0b0","system_id":"levelo_inurba_marseille","lat":43.324771,"lon":5.36557,"is_reserved":false,"is_disabled":false,"rental_uris":{"android":"levelo://app?vid=de363a9b-b8dd-4f25-97c4-05ca23eea0b0","ios":"levelo://app?vid=de363a9b-b8dd-4f25-97c4-05ca23eea0b0"},"vehicle_type_id":"4","last_reported":1715548057,"current_range_meters":26000,"station_id":"ce4bhs12rcd13ifvqhvg","pricing_plan_id":"cebpf4jnsgd1na2vs0mg"},{"bike_id":"4a9a9665-1cd2-49ce-8806-5d25ff857789","system_id":"levelo_inurba_marseille","lat":43.324771,"lon":5.36557,"is_reserved":false,"is_disabled":false,"rental_uris":{"android":"levelo://app?vid=4a9a9665-1cd2-49ce-8806-5d25ff857789","ios":"levelo://app?vid=4a9a9665-1cd2-49ce-8806-5d25ff857789"},"vehicle_type_id":"4","last_reported":1715548057,"current_range_meters":16000,"station_id":"ce4bhs12rcd13ifvqhvg","pricing_plan_id":"cebpf4jnsgd1na2vs0mg"},{"bike_id":"68c31631-8922-423d-ab80-6114d95ceaa2","system_id":"levelo_inurba_marseille","lat":43.324771,"lon":5.36557,"is_reserved":false,"is_disabled":false,"rental_uris":{"android":"levelo://app?vid=68c31631-8922-423d-ab80-6114d95ceaa2","ios":"levelo://app?vid=68c31631-8922-423d-ab80-6114d95ceaa2"},"vehicle_type_id":"4","last_reported":1715548057,"current_range_meters":2400,"station_id":"ce4bhs12rcd13ifvqhvg","pricing_plan_id":"cebpf4jnsgd1na2vs0mg"},{"bike_id":"237b19c4-af93-4f0b-8df7-a29b40704832","system_id":"levelo_inurba_marseille","lat":43.324771,"lon":5.36557,"is_reserved":false,"is_disabled":false,"rental_uris":{"android":"levelo://app?vid=237b19c4-af93-4f0b-8df7-a29b40704832","ios":"levelo://app?vid=237b19c4-af93-4f0b-8df7-a29b40704832"},"vehicle_type_id":"4","last_reported":1715548057,"current_range_meters":27200,"station_id":"ce4bhs12rcd13ifvqhvg","pricing_plan_id":"cebpf4jnsgd1na2vs0mg"},{"bike_id":"26bd8217-5511-4bf1-a4d4-7323f3ee6d22","system_id":"levelo_inurba_marseille","lat":43.324771,"lon":5.36557,"is_reserved":false,"is_disabled":false,"rental_uris":{"android":"levelo://app?vid=26bd8217-5511-4bf1-a4d4-7323f3ee6d22","ios":"levelo://app?vid=26bd8217-5511-4bf1-a4d4-7323f3ee6d22"},"vehicle_type_id":"4","last_reported":1715548057,"current_range_meters":14800,"station_id":"ce4bhs12rcd13ifvqhvg","pricing_plan_id":"cebpf4jnsgd1na2vs0mg"},{"bike_id":"43671154-6e2a-41f7-a74e-cc016c296fcd","system_id":"levelo_inurba_marseille","lat":43.324771,"lon":5.36557,"is_reserved":false,"is_disabled":false,"rental_uris":{"android":"levelo://app?vid=43671154-6e2a-41f7-a74e-cc016c296fcd","ios":"levelo://app?vid=43671154-6e2a-41f7-a74e-cc016c296fcd"},"vehicle_type_id":"4","last_reported":1715548057,"current_range_meters":24800,"station_id":"ce4bhs12rcd13ifvqhvg","pricing_plan_id":"cebpf4jnsgd1na2vs0mg"},{"bike_id":"855e19b2-a879-402e-b914-323ad8136d11","system_id":"levelo_inurba_marseille","lat":43.324771,"lon":5.36557,"is_reserved":false,"is_disabled":false,"rental_uris":{"android":"levelo://app?vid=855e19b2-a879-402e-b914-323ad8136d11","ios":"levelo://app?vid=855e19b2-a879-402e-b914-323ad8136d11"},"vehicle_type_id":"4","last_reported":1715548057,"current_range_meters":15600,"station_id":"ce4bhs12rcd13ifvqhvg","pricing_plan_id":"cebpf4jnsgd1na2vs0mg"},{"bike_id":"7279300e-a5c4-4f3b-858a-e2bd296be7c9","system_id":"levelo_inurba_marseille","lat":43.324771,"lon":5.36557,"is_reserved":false,"is_disabled":false,"rental_uris":{"android":"levelo://app?vid=7279300e-a5c4-4f3b-858a-e2bd296be7c9","ios":"levelo://app?vid=7279300e-a5c4-4f3b-858a-e2bd296be7c9"},"vehicle_type_id":"4","last_reported":1715548057,"current_range_meters":13200,"station_id":"ce4bhs12rcd13ifvqhvg","pricing_plan_id":"cebpf4jnsgd1na2vs0mg"},{"bike_id":"ab294a79-14d3-426e-b97b-f105f6a1e37c","system_id":"levelo_inurba_marseille","lat":43.324771,"lon":5.36557,"is_reserved":false,"is_disabled":false,"rental_uris":{"android":"levelo://app?vid=ab294a79-14d3-426e-b97b-f105f6a1e37c","ios":"levelo://app?vid=ab294a79-14d3-426e-b97b-f105f6a1e37c"},"vehicle_type_id":"4","last_reported":1715548057,"current_range_meters":27200,"station_id":"ce4bhs12rcd13ifvqhvg","pricing_plan_id":"cebpf4jnsgd1na2vs0mg"},{"bike_id":"b0ae57a5-47d8-43f1-a382-5843f5a2c0bd","system_id":"levelo_inurba_marseille","lat":43.324771,"lon":5.36557,"is_reserved":false,"is_disabled":false,"rental_uris":{"android":"levelo://app?vid=b0ae57a5-47d8-43f1-a382-5843f5a2c0bd","ios":"levelo://app?vid=b0ae57a5-47d8-43f1-a382-5843f5a2c0bd"},"vehicle_type_id":"4","last_reported":1715548057,"current_range_meters":400,"station_id":"ce4bhs12rcd13ifvqhvg","pricing_plan_id":"cebpf4jnsgd1na2vs0mg"},{"bike_id":"27864151-07c6-46e0-bb7f-76413df57206","system_id":"levelo_inurba_marseille","lat":43.32491,"lon":5.365568,"is_reserved":false,"is_disabled":false,"rental_uris":{"android":"levelo://app?vid=27864151-07c6-46e0-bb7f-76413df57206","ios":"levelo://app?vid=27864151-07c6-46e0-bb7f-76413df57206"},"vehicle_type_id":"4","last_reported":1715548057,"current_range_meters":15600,"station_id":"ce4bhs12rcd13ifvqhvg","pricing_plan_id":"cebpf4jnsgd1na2vs0mg"},{"bike_id":"5d2001a5-13c4-4b3c-a75b-3769e6aaf877","system_id":"levelo_inurba_marseille","lat":43.310804,"lon":5.38359,"is_reserved":false,"is_disabled":false,"rental_uris":{"android":"levelo://app?vid=5d2001a5-13c4-4b3c-a75b-3769e6aaf877","ios":"levelo://app?vid=5d2001a5-13c4-4b3c-a75b-3769e6aaf877"},"vehicle_type_id":"4","last_reported":1715548057,"current_range_meters":3200,"station_id":"ce4bgv92rcd13ifvqcr0","pricing_plan_id":"cebpf4jnsgd1na2vs0mg"},{"bike_id":"8de2c7d2-c3a3-4686-86ad-312a25cb5c9d","system_id":"levelo_inurba_marseille","lat":43.31063,"lon":5.38357,"is_reserved":false,"is_disabled":false,"rental_uris":{"android":"levelo://app?vid=8de2c7d2-c3a3-4686-86ad-312a25cb5c9d","ios":"levelo://app?vid=8de2c7d2-c3a3-4686-86ad-312a25cb5c9d"},"vehicle_type_id":"4","last_reported":1715548057,"current_range_meters":0,"station_id":"ce4bgv92rcd13ifvqcr0","pricing_plan_id":"cebpf4jnsgd1na2vs0mg"},{"bike_id":"33531eb2-a914-4029-9236-a417e697981b","system_id":"levelo_inurba_marseille","lat":43.302784,"lon":5.377158,"is_reserved":false,"is_disabled":false,"rental_uris":{"android":"levelo://app?vid=33531eb2-a914-4029-9236-a417e697981b","ios":"levelo://app?vid=33531eb2-a914-4029-9236-a417e697981b"},"vehicle_type_id":"4","last_reported":1715548057,"current_range_meters":0,"station_id":"ce4bguh2rcd13ifvqcj0","pricing_plan_id":"cebpf4jnsgd1na2vs0mg"},{"bike_id":"5a060ff6-f03d-40f4-bb03-a175c8e25d5e","system_id":"levelo_inurba_marseille","lat":43.310804,"lon":5.38359,"is_reserved":false,"is_disabled":false,"rental_uris":{"android":"levelo://app?vid=5a060ff6-f03d-40f4-bb03-a175c8e25d5e","ios":"levelo://app?vid=5a060ff6-f03d-40f4-bb03-a175c8e25d5e"},"vehicle_type_id":"4","last_reported":1715548057,"current_range_meters":25600,"station_id":"ce4bgv92rcd13ifvqcr0","pricing_plan_id":"cebpf4jnsgd1na2vs0mg"},{"bike_id":"f7c72da1-faab-44e9-a54d-ac8d49185e9f","system_id":"levelo_inurba_marseille","lat":43.301429,"lon":5.37413,"is_reserved":false,"is_disabled":false,"rental_uris":{"android":"levelo://app?vid=f7c72da1-faab-44e9-a54d-ac8d49185e9f","ios":"levelo://app?vid=f7c72da1-faab-44e9-a54d-ac8d49185e9f"},"vehicle_type_id":"4","last_reported":1715548057,"current_range_meters":5600,"station_id":"ce4bgs92rcd13ifvqcc0","pricing_plan_id":"cebpf4jnsgd1na2vs0mg"},{"bike_id":"43e8ad30-42de-455a-a8ec-46e5a6c4c3d8","system_id":"levelo_inurba_marseille","lat":43.301429,"lon":5.37413,"is_reserved":false,"is_disabled":false,"rental_uris":{"android":"levelo://app?vid=43e8ad30-42de-455a-a8ec-46e5a6c4c3d8","ios":"levelo://app?vid=43e8ad30-42de-455a-a8ec-46e5a6c4c3d8"},"vehicle_type_id":"4","last_reported":1715548057,"current_range_meters":1600,"station_id":"ce4bgs92rcd13ifvqcc0","pricing_plan_id":"cebpf4jnsgd1na2vs0mg"},{"bike_id":"8233ab86-192d-47c3-b368-8f7c826a6a45","system_id":"levelo_inurba_marseille","lat":43.302784,"lon":5.377158,"is_reserved":false,"is_disabled":false,"rental_uris":{"android":"levelo://app?vid=8233ab86-192d-47c3-b368-8f7c826a6a45","ios":"levelo://app?vid=8233ab86-192d-47c3-b368-8f7c826a6a45"},"vehicle_type_id":"4","last_reported":1715548057,"current_range_meters":4400,"station_id":"ce4bguh2rcd13ifvqcj0","pricing_plan_id":"cebpf4jnsgd1na2vs0mg"},{"bike_id":"ee0fc8ee-80b1-42c7-96f1-04a2e550f7b7","system_id":"levelo_inurba_marseille","lat":43.319935,"lon":5.381699,"is_reserved":false,"is_disabled":false,"rental_uris":{"android":"levelo://app?vid=ee0fc8ee-80b1-42c7-96f1-04a2e550f7b7","ios":"levelo://app?vid=ee0fc8ee-80b1-42c7-96f1-04a2e550f7b7"},"vehicle_type_id":"4","last_reported":1715548057,"current_range_meters":16000,"station_id":"ce4bhr12rcd13ifvqhpg","pricing_plan_id":"cebpf4jnsgd1na2vs0mg"},{"bike_id":"74c1be8a-5439-4116-8ee0-b58b150fd1e3","system_id":"levelo_inurba_marseille","lat":43.319935,"lon":5.381699,"is_reserved":false,"is_disabled":false,"rental_uris":{"android":"levelo://app?vid=74c1be8a-5439-4116-8ee0-b58b150fd1e3","ios":"levelo://app?vid=74c1be8a-5439-4116-8ee0-b58b150fd1e3"},"vehicle_type_id":"4","last_reported":1715548057,"current_range_meters":3200,"station_id":"ce4bhr12rcd13ifvqhpg","pricing_plan_id":"cebpf4jnsgd1na2vs0mg"},{"bike_id":"51e5688c-3d19-4704-9ccc-c61cbd80ac96","system_id":"levelo_inurba_marseille","lat":43.31997,"lon":5.38159,"is_reserved":false,"is_disabled":false,"rental_uris":{"android":"levelo://app?vid=51e5688c-3d19-4704-9ccc-c61cbd80ac96","ios":"levelo://app?vid=51e5688c-3d19-4704-9ccc-c61cbd80ac96"},"vehicle_type_id":"4","last_reported":1715548057,"current_range_meters":400,"station_id":"ce4bhr12rcd13ifvqhpg","pricing_plan_id":"cebpf4jnsgd1na2vs0mg"},{"bike_id":"473c9ac6-0df0-4f6d-87e5-2d84de1263d1","system_id":"levelo_inurba_marseille","lat":43.319935,"lon":5.381699,"is_reserved":false,"is_disabled":false,"rental_uris":{"android":"levelo://app?vid=473c9ac6-0df0-4f6d-87e5-2d84de1263d1","ios":"levelo://app?vid=473c9ac6-0df0-4f6d-87e5-2d84de1263d1"},"vehicle_type_id":"4","last_reported":1715548057,"current_range_meters":2800,"station_id":"ce4bhr12rcd13ifvqhpg","pricing_plan_id":"cebpf4jnsgd1na2vs0mg"},{"bike_id":"c496c7c4-d2f0-47bb-aa3d-fb2ae458ceac","system_id":"levelo_inurba_marseille","lat":43.313571,"lon":5.384829,"is_reserved":false,"is_disabled":false,"rental_uris":{"android":"levelo://app?vid=c496c7c4-d2f0-47bb-aa3d-fb2ae458ceac","ios":"levelo://app?vid=c496c7c4-d2f0-47bb-aa3d-fb2ae458ceac"},"vehicle_type_id":"4","last_reported":1715548057,"current_range_meters":23600,"station_id":"ce4bgt92rcd13ifvqcf0","pricing_plan_id":"cebpf4jnsgd1na2vs0mg"},{"bike_id":"c5b61f3f-8ad6-416b-a2ca-c0144cdd8adf","system_id":"levelo_inurba_marseille","lat":43.3135,"lon":5.384986,"is_reserved":false,"is_disabled":false,"rental_uris":{"android":"levelo://app?vid=c5b61f3f-8ad6-416b-a2ca-c0144cdd8adf","ios":"levelo://app?vid=c5b61f3f-8ad6-416b-a2ca-c0144cdd8adf"},"vehicle_type_id":"4","last_reported":1715548057,"current_range_meters":25200,"station_id":"ce4bgt92rcd13ifvqcf0","pricing_plan_id":"cebpf4jnsgd1na2vs0mg"},{"bike_id":"a7491aa1-ba86-4c34-850e-77a48fcfbaf0","system_id":"levelo_inurba_marseille","lat":43.299724,"lon":5.371829,"is_reserved":false,"is_disabled":false,"rental_uris":{"android":"levelo://app?vid=a7491aa1-ba86-4c34-850e-77a48fcfbaf0","ios":"levelo://app?vid=a7491aa1-ba86-4c34-850e-77a48fcfbaf0"},"vehicle_type_id":"4","last_reported":1715548057,"current_range_meters":22400,"station_id":"ce4bgr92rcd13ifvqc7g","pricing_plan_id":"cebpf4jnsgd1na2vs0mg"},{"bike_id":"b4ef5481-0c20-4d8a-a118-28a06e18352d","system_id":"levelo_inurba_marseille","lat":43.299724,"lon":5.371829,"is_reserved":false,"is_disabled":false,"rental_uris":{"android":"levelo://app?vid=b4ef5481-0c20-4d8a-a118-28a06e18352d","ios":"levelo://app?vid=b4ef5481-0c20-4d8a-a118-28a06e18352d"},"vehicle_type_id":"4","last_reported":1715548057,"current_range_meters":27200,"station_id":"ce4bgr92rcd13ifvqc7g","pricing_plan_id":"cebpf4jnsgd1na2vs0mg"},{"bike_id":"c4ce9ba5-0d90-4def-be44-66778b5d8a07","system_id":"levelo_inurba_marseille","lat":43.299222,"lon":5.365554,"is_reserved":false,"is_disabled":false,"rental_uris":{"android":"levelo://app?vid=c4ce9ba5-0d90-4def-be44-66778b5d8a07","ios":"levelo://app?vid=c4ce9ba5-0d90-4def-be44-66778b5d8a07"},"vehicle_type_id":"4","last_reported":1715548057,"current_range_meters":31200,"station_id":"ce4bgm92rcd13ifvqbr0","pricing_plan_id":"cebpf4jnsgd1na2vs0mg"},{"bike_id":"097b98ee-97c1-4fe7-ba4a-bbe2ff1c33c9","system_id":"levelo_inurba_marseille","lat":43.299222,"lon":5.365554,"is_reserved":false,"is_disabled":false,"rental_uris":{"android":"levelo://app?vid=097b98ee-97c1-4fe7-ba4a-bbe2ff1c33c9","ios":"levelo://app?vid=097b98ee-97c1-4fe7-ba4a-bbe2ff1c33c9"},"vehicle_type_id":"4","last_reported":1715548057,"current_range_meters":5600,"station_id":"ce4bgm92rcd13ifvqbr0","pricing_plan_id":"cebpf4jnsgd1na2vs0mg"},{"bike_id":"ca59b5d0-aee7-4542-8497-b47ae6a2bfed","system_id":"levelo_inurba_marseille","lat":43.299724,"lon":5.371829,"is_reserved":false,"is_disabled":false,"rental_uris":{"android":"levelo://app?vid=ca59b5d0-aee7-4542-8497-b47ae6a2bfed","ios":"levelo://app?vid=ca59b5d0-aee7-4542-8497-b47ae6a2bfed"},"vehicle_type_id":"4","last_reported":1715548057,"current_range_meters":13200,"station_id":"ce4bgr92rcd13ifvqc7g","pricing_plan_id":"cebpf4jnsgd1na2vs0mg"},{"bike_id":"d1db4f7f-5578-4ada-bee6-e32f339b2aaf","system_id":"levelo_inurba_marseille","lat":43.29977,"lon":5.37175,"is_reserved":false,"is_disabled":false,"rental_uris":{"android":"levelo://app?vid=d1db4f7f-5578-4ada-bee6-e32f339b2aaf","ios":"levelo://app?vid=d1db4f7f-5578-4ada-bee6-e32f339b2aaf"},"vehicle_type_id":"4","last_reported":1715548057,"current_range_meters":31200,"station_id":"","pricing_plan_id":"cebpf4jnsgd1na2vs0mg"},{"bike_id":"6f256ac6-520d-48bf-98b5-42517360cc67","system_id":"levelo_inurba_marseille","lat":43.29977,"lon":5.37178,"is_reserved":false,"is_disabled":false,"rental_uris":{"android":"levelo://app?vid=6f256ac6-520d-48bf-98b5-42517360cc67","ios":"levelo://app?vid=6f256ac6-520d-48bf-98b5-42517360cc67"},"vehicle_type_id":"4","last_reported":1715548057,"current_range_meters":0,"station_id":"ce4bgr92rcd13ifvqc7g","pricing_plan_id":"cebpf4jnsgd1na2vs0mg"},{"bike_id":"df217436-052a-40eb-9f51-a22f186f33db","system_id":"levelo_inurba_marseille","lat":43.299222,"lon":5.365554,"is_reserved":false,"is_disabled":false,"rental_uris":{"android":"levelo://app?vid=df217436-052a-40eb-9f51-a22f186f33db","ios":"levelo://app?vid=df217436-052a-40eb-9f51-a22f186f33db"},"vehicle_type_id":"4","last_reported":1715548057,"current_range_meters":19600,"station_id":"ce4bgm92rcd13ifvqbr0","pricing_plan_id":"cebpf4jnsgd1na2vs0mg"},{"bike_id":"8f079099-8992-4b8a-8b1b-fcb0b1cd7c09","system_id":"levelo_inurba_marseille","lat":43.299222,"lon":5.365554,"is_reserved":false,"is_disabled":false,"rental_uris":{"android":"levelo://app?vid=8f079099-8992-4b8a-8b1b-fcb0b1cd7c09","ios":"levelo://app?vid=8f079099-8992-4b8a-8b1b-fcb0b1cd7c09"},"vehicle_type_id":"4","last_reported":1715548057,"current_range_meters":20000,"station_id":"ce4bgm92rcd13ifvqbr0","pricing_plan_id":"cebpf4jnsgd1na2vs0mg"},{"bike_id":"c3463c40-4d99-4505-9224-42ec4c2531cc","system_id":"levelo_inurba_marseille","lat":43.299222,"lon":5.365554,"is_reserved":false,"is_disabled":false,"rental_uris":{"android":"levelo://app?vid=c3463c40-4d99-4505-9224-42ec4c2531cc","ios":"levelo://app?vid=c3463c40-4d99-4505-9224-42ec4c2531cc"},"vehicle_type_id":"4","last_reported":1715548057,"current_range_meters":20400,"station_id":"ce4bgm92rcd13ifvqbr0","pricing_plan_id":"cebpf4jnsgd1na2vs0mg"},{"bike_id":"99931154-abaf-4d13-83e5-1e1e7c6e73fa","system_id":"levelo_inurba_marseille","lat":43.299724,"lon":5.371829,"is_reserved":false,"is_disabled":false,"rental_uris":{"android":"levelo://app?vid=99931154-abaf-4d13-83e5-1e1e7c6e73fa","ios":"levelo://app?vid=99931154-abaf-4d13-83e5-1e1e7c6e73fa"},"vehicle_type_id":"4","last_reported":1715548057,"current_range_meters":22000,"station_id":"ce4bgr92rcd13ifvqc7g","pricing_plan_id":"cebpf4jnsgd1na2vs0mg"},{"bike_id":"49796e12-97f0-41c5-a2b4-c1b7a292b956","system_id":"levelo_inurba_marseille","lat":43.2997,"lon":5.37186,"is_reserved":false,"is_disabled":false,"rental_uris":{"android":"levelo://app?vid=49796e12-97f0-41c5-a2b4-c1b7a292b956","ios":"levelo://app?vid=49796e12-97f0-41c5-a2b4-c1b7a292b956"},"vehicle_type_id":"4","last_reported":1715548057,"current_range_meters":25200,"station_id":"ce4bgr92rcd13ifvqc7g","pricing_plan_id":"cebpf4jnsgd1na2vs0mg"},{"bike_id":"83a2c810-8ba8-42c4-b4df-0a00fc270c76","system_id":"levelo_inurba_marseille","lat":43.29965,"lon":5.37175,"is_reserved":false,"is_disabled":false,"rental_uris":{"android":"levelo://app?vid=83a2c810-8ba8-42c4-b4df-0a00fc270c76","ios":"levelo://app?vid=83a2c810-8ba8-42c4-b4df-0a00fc270c76"},"vehicle_type_id":"4","last_reported":1715548057,"current_range_meters":26000,"station_id":"ce4bgr92rcd13ifvqc7g","pricing_plan_id":"cebpf4jnsgd1na2vs0mg"},{"bike_id":"be579a79-f5a6-41bd-9f98-edea95c94cdf","system_id":"levelo_inurba_marseille","lat":43.305364,"lon":5.384119,"is_reserved":false,"is_disabled":false,"rental_uris":{"android":"levelo://app?vid=be579a79-f5a6-41bd-9f98-edea95c94cdf","ios":"levelo://app?vid=be579a79-f5a6-41bd-9f98-edea95c94cdf"},"vehicle_type_id":"4","last_reported":1715548057,"current_range_meters":2400,"station_id":"ce4bgg92rcd13ifvqb30","pricing_plan_id":"cebpf4jnsgd1na2vs0mg"},{"bike_id":"860469e0-666f-4082-bf03-0a6e819dc473","system_id":"levelo_inurba_marseille","lat":43.298433,"lon":5.362774,"is_reserved":false,"is_disabled":false,"rental_uris":{"android":"levelo://app?vid=860469e0-666f-4082-bf03-0a6e819dc473","ios":"levelo://app?vid=860469e0-666f-4082-bf03-0a6e819dc473"},"vehicle_type_id":"4","last_reported":1715548057,"current_range_meters":0,"station_id":"ce4bgpp2rcd13ifvqc3g","pricing_plan_id":"cebpf4jnsgd1na2vs0mg"},{"bike_id":"c9c10aab-c195-40b8-a2a5-6556b39f281b","system_id":"levelo_inurba_marseille","lat":43.298433,"lon":5.362774,"is_reserved":false,"is_disabled":false,"rental_uris":{"android":"levelo://app?vid=c9c10aab-c195-40b8-a2a5-6556b39f281b","ios":"levelo://app?vid=c9c10aab-c195-40b8-a2a5-6556b39f281b"},"vehicle_type_id":"4","last_reported":1715548057,"current_range_meters":11600,"station_id":"ce4bgpp2rcd13ifvqc3g","pricing_plan_id":"cebpf4jnsgd1na2vs0mg"},{"bike_id":"b3181f21-d786-4b7f-8ec4-ecefe2bb86c0","system_id":"levelo_inurba_marseille","lat":43.305364,"lon":5.384119,"is_reserved":false,"is_disabled":false,"rental_uris":{"android":"levelo://app?vid=b3181f21-d786-4b7f-8ec4-ecefe2bb86c0","ios":"levelo://app?vid=b3181f21-d786-4b7f-8ec4-ecefe2bb86c0"},"vehicle_type_id":"4","last_reported":1715548057,"current_range_meters":27600,"station_id":"ce4bgg92rcd13ifvqb30","pricing_plan_id":"cebpf4jnsgd1na2vs0mg"},{"bike_id":"cc5d9f74-61e2-41cd-9d36-983d8b1a575e","system_id":"levelo_inurba_marseille","lat":43.305364,"lon":5.384119,"is_reserved":false,"is_disabled":false,"rental_uris":{"android":"levelo://app?vid=cc5d9f74-61e2-41cd-9d36-983d8b1a575e","ios":"levelo://app?vid=cc5d9f74-61e2-41cd-9d36-983d8b1a575e"},"vehicle_type_id":"4","last_reported":1715548057,"current_range_meters":23200,"station_id":"ce4bgg92rcd13ifvqb30","pricing_plan_id":"cebpf4jnsgd1na2vs0mg"},{"bike_id":"0f40a627-ed4f-4649-acd6-2658dd3fd67f","system_id":"levelo_inurba_marseille","lat":43.311722,"lon":5.387247,"is_reserved":false,"is_disabled":false,"rental_uris":{"android":"levelo://app?vid=0f40a627-ed4f-4649-acd6-2658dd3fd67f","ios":"levelo://app?vid=0f40a627-ed4f-4649-acd6-2658dd3fd67f"},"vehicle_type_id":"4","last_reported":1715548057,"current_range_meters":10000,"station_id":"ce4bgv12rcd13ifvqcp0","pricing_plan_id":"cebpf4jnsgd1na2vs0mg"},{"bike_id":"369e8993-b00e-40d9-b74f-7f4273eae57c","system_id":"levelo_inurba_marseille","lat":43.31168,"lon":5.38715,"is_reserved":false,"is_disabled":false,"rental_uris":{"android":"levelo://app?vid=369e8993-b00e-40d9-b74f-7f4273eae57c","ios":"levelo://app?vid=369e8993-b00e-40d9-b74f-7f4273eae57c"},"vehicle_type_id":"4","last_reported":1715548057,"current_range_meters":18800,"station_id":"ce4bgv12rcd13ifvqcp0","pricing_plan_id":"cebpf4jnsgd1na2vs0mg"},{"bike_id":"20098e46-a186-42e9-b8fd-b34e3e438ea3","system_id":"levelo_inurba_marseille","lat":43.311722,"lon":5.387247,"is_reserved":false,"is_disabled":false,"rental_uris":{"android":"levelo://app?vid=20098e46-a186-42e9-b8fd-b34e3e438ea3","ios":"levelo://app?vid=20098e46-a186-42e9-b8fd-b34e3e438ea3"},"vehicle_type_id":"4","last_reported":1715548057,"current_range_meters":20800,"station_id":"ce4bgv12rcd13ifvqcp0","pricing_plan_id":"cebpf4jnsgd1na2vs0mg"},{"bike_id":"b904398a-1d68-4a84-bbc9-ec00af7ecee1","system_id":"levelo_inurba_marseille","lat":43.311722,"lon":5.387247,"is_reserved":false,"is_disabled":false,"rental_uris":{"android":"levelo://app?vid=b904398a-1d68-4a84-bbc9-ec00af7ecee1","ios":"levelo://app?vid=b904398a-1d68-4a84-bbc9-ec00af7ecee1"},"vehicle_type_id":"4","last_reported":1715548057,"current_range_meters":13200,"station_id":"ce4bgv12rcd13ifvqcp0","pricing_plan_id":"cebpf4jnsgd1na2vs0mg"},{"bike_id":"0920afab-d31f-4477-8e6d-26b9f38ded51","system_id":"levelo_inurba_marseille","lat":43.311722,"lon":5.387247,"is_reserved":false,"is_disabled":false,"rental_uris":{"android":"levelo://app?vid=0920afab-d31f-4477-8e6d-26b9f38ded51","ios":"levelo://app?vid=0920afab-d31f-4477-8e6d-26b9f38ded51"},"vehicle_type_id":"4","last_reported":1715548057,"current_range_meters":22800,"station_id":"ce4bgv12rcd13ifvqcp0","pricing_plan_id":"cebpf4jnsgd1na2vs0mg"},{"bike_id":"7070e582-e1a7-4d4d-a48b-77174caa0ccb","system_id":"levelo_inurba_marseille","lat":43.32787,"lon":5.36578,"is_reserved":false,"is_disabled":false,"rental_uris":{"android":"levelo://app?vid=7070e582-e1a7-4d4d-a48b-77174caa0ccb","ios":"levelo://app?vid=7070e582-e1a7-4d4d-a48b-77174caa0ccb"},"vehicle_type_id":"4","last_reported":1715548057,"current_range_meters":3600,"station_id":"","pricing_plan_id":"cebpf4jnsgd1na2vs0mg"},{"bike_id":"25b2c10a-1f15-475c-a410-a8b2c8d46b05","system_id":"levelo_inurba_marseille","lat":43.297794,"lon":5.370888,"is_reserved":false,"is_disabled":false,"rental_uris":{"android":"levelo://app?vid=25b2c10a-1f15-475c-a410-a8b2c8d46b05","ios":"levelo://app?vid=25b2c10a-1f15-475c-a410-a8b2c8d46b05"},"vehicle_type_id":"4","last_reported":1715548057,"current_range_meters":20400,"station_id":"ce4bgop2rcd13ifvqc1g","pricing_plan_id":"cebpf4jnsgd1na2vs0mg"},{"bike_id":"d15d5eeb-b44d-4ccd-98ef-f5c360a966ba","system_id":"levelo_inurba_marseille","lat":43.297794,"lon":5.370888,"is_reserved":false,"is_disabled":false,"rental_uris":{"android":"levelo://app?vid=d15d5eeb-b44d-4ccd-98ef-f5c360a966ba","ios":"levelo://app?vid=d15d5eeb-b44d-4ccd-98ef-f5c360a966ba"},"vehicle_type_id":"4","last_reported":1715548057,"current_range_meters":29200,"station_id":"ce4bgop2rcd13ifvqc1g","pricing_plan_id":"cebpf4jnsgd1na2vs0mg"},{"bike_id":"2c1f8fc3-7f26-4422-81f6-a01276864908","system_id":"levelo_inurba_marseille","lat":43.322872,"lon":5.382756,"is_reserved":false,"is_disabled":false,"rental_uris":{"android":"levelo://app?vid=2c1f8fc3-7f26-4422-81f6-a01276864908","ios":"levelo://app?vid=2c1f8fc3-7f26-4422-81f6-a01276864908"},"vehicle_type_id":"4","last_reported":1715548057,"current_range_meters":17600,"station_id":"ce4bhr12rcd13ifvqhqg","pricing_plan_id":"cebpf4jnsgd1na2vs0mg"},{"bike_id":"e6518aec-4447-4831-9a33-797b739846c3","system_id":"levelo_inurba_marseille","lat":43.322872,"lon":5.382756,"is_reserved":false,"is_disabled":false,"rental_uris":{"android":"levelo://app?vid=e6518aec-4447-4831-9a33-797b739846c3","ios":"levelo://app?vid=e6518aec-4447-4831-9a33-797b739846c3"},"vehicle_type_id":"4","last_reported":1715548057,"current_range_meters":24800,"station_id":"ce4bhr12rcd13ifvqhqg","pricing_plan_id":"cebpf4jnsgd1na2vs0mg"},{"bike_id":"38b1639f-0b7b-4041-8f45-51cfa44eaefb","system_id":"levelo_inurba_marseille","lat":43.297163,"lon":5.365866,"is_reserved":false,"is_disabled":false,"rental_uris":{"android":"levelo://app?vid=38b1639f-0b7b-4041-8f45-51cfa44eaefb","ios":"levelo://app?vid=38b1639f-0b7b-4041-8f45-51cfa44eaefb"},"vehicle_type_id":"4","last_reported":1715548057,"current_range_meters":0,"station_id":"ce4bgn12rcd13ifvqbt0","pricing_plan_id":"cebpf4jnsgd1na2vs0mg"},{"bike_id":"b04bec95-6c6a-4600-976f-f23ecfbbab48","system_id":"levelo_inurba_marseille","lat":43.32807,"lon":5.36089,"is_reserved":false,"is_disabled":false,"rental_uris":{"android":"levelo://app?vid=b04bec95-6c6a-4600-976f-f23ecfbbab48","ios":"levelo://app?vid=b04bec95-6c6a-4600-976f-f23ecfbbab48"},"vehicle_type_id":"4","last_reported":1715548057,"current_range_meters":0,"station_id":"","pricing_plan_id":"cebpf4jnsgd1na2vs0mg"},{"bike_id":"bb8f7e95-afce-4a76-ac3d-9d96aede76a3","system_id":"levelo_inurba_marseille","lat":43.29573,"lon":5.367355,"is_reserved":false,"is_disabled":false,"rental_uris":{"android":"levelo://app?vid=bb8f7e95-afce-4a76-ac3d-9d96aede76a3","ios":"levelo://app?vid=bb8f7e95-afce-4a76-ac3d-9d96aede76a3"},"vehicle_type_id":"4","last_reported":1715548057,"current_range_meters":8800,"station_id":"ce4bgph2rcd13ifvqc2g","pricing_plan_id":"cebpf4jnsgd1na2vs0mg"},{"bike_id":"03559cc2-0e7d-4e18-80ef-75a3877cda9a","system_id":"levelo_inurba_marseille","lat":43.29573,"lon":5.367355,"is_reserved":false,"is_disabled":false,"rental_uris":{"android":"levelo://app?vid=03559cc2-0e7d-4e18-80ef-75a3877cda9a","ios":"levelo://app?vid=03559cc2-0e7d-4e18-80ef-75a3877cda9a"},"vehicle_type_id":"4","last_reported":1715548057,"current_range_meters":21600,"station_id":"ce4bgph2rcd13ifvqc2g","pricing_plan_id":"cebpf4jnsgd1na2vs0mg"},{"bike_id":"f4fe8d2b-76d4-4827-bf30-3a8b122bb4ab","system_id":"levelo_inurba_marseille","lat":43.29573,"lon":5.367355,"is_reserved":false,"is_disabled":false,"rental_uris":{"android":"levelo://app?vid=f4fe8d2b-76d4-4827-bf30-3a8b122bb4ab","ios":"levelo://app?vid=f4fe8d2b-76d4-4827-bf30-3a8b122bb4ab"},"vehicle_type_id":"4","last_reported":1715548057,"current_range_meters":5600,"station_id":"ce4bgph2rcd13ifvqc2g","pricing_plan_id":"cebpf4jnsgd1na2vs0mg"},{"bike_id":"866407fa-832e-4c7a-90b0-cd135701a89f","system_id":"levelo_inurba_marseille","lat":43.296935,"lon":5.376544,"is_reserved":false,"is_disabled":false,"rental_uris":{"android":"levelo://app?vid=866407fa-832e-4c7a-90b0-cd135701a89f","ios":"levelo://app?vid=866407fa-832e-4c7a-90b0-cd135701a89f"},"vehicle_type_id":"4","last_reported":1715548057,"current_range_meters":29600,"station_id":"ce4bgkh2rcd13ifvqbl0","pricing_plan_id":"cebpf4jnsgd1na2vs0mg"},{"bike_id":"cc309202-af59-4f69-9fd3-2a277a3567d4","system_id":"levelo_inurba_marseille","lat":43.29714,"lon":5.37684,"is_reserved":false,"is_disabled":false,"rental_uris":{"android":"levelo://app?vid=cc309202-af59-4f69-9fd3-2a277a3567d4","ios":"levelo://app?vid=cc309202-af59-4f69-9fd3-2a277a3567d4"},"vehicle_type_id":"4","last_reported":1715548057,"current_range_meters":0,"station_id":"ce4bgkh2rcd13ifvqbl0","pricing_plan_id":"cebpf4jnsgd1na2vs0mg"},{"bike_id":"562d5449-37a7-4fea-83ca-4ff084627c17","system_id":"levelo_inurba_marseille","lat":43.299028,"lon":5.381509,"is_reserved":false,"is_disabled":false,"rental_uris":{"android":"levelo://app?vid=562d5449-37a7-4fea-83ca-4ff084627c17","ios":"levelo://app?vid=562d5449-37a7-4fea-83ca-4ff084627c17"},"vehicle_type_id":"4","last_reported":1715548057,"current_range_meters":21600,"station_id":"ce4bgj12rcd13ifvqbc0","pricing_plan_id":"cebpf4jnsgd1na2vs0mg"},{"bike_id":"525a4097-b332-4903-a053-da7101e2d8f3","system_id":"levelo_inurba_marseille","lat":43.299028,"lon":5.381509,"is_reserved":false,"is_disabled":false,"rental_uris":{"android":"levelo://app?vid=525a4097-b332-4903-a053-da7101e2d8f3","ios":"levelo://app?vid=525a4097-b332-4903-a053-da7101e2d8f3"},"vehicle_type_id":"4","last_reported":1715548057,"current_range_meters":31200,"station_id":"ce4bgj12rcd13ifvqbc0","pricing_plan_id":"cebpf4jnsgd1na2vs0mg"},{"bike_id":"99f99814-34e0-48a5-8e12-2d90d04a6862","system_id":"levelo_inurba_marseille","lat":43.309589,"lon":5.390258,"is_reserved":false,"is_disabled":false,"rental_uris":{"android":"levelo://app?vid=99f99814-34e0-48a5-8e12-2d90d04a6862","ios":"levelo://app?vid=99f99814-34e0-48a5-8e12-2d90d04a6862"},"vehicle_type_id":"4","last_reported":1715548057,"current_range_meters":4400,"station_id":"ce4bgup2rcd13ifvqco0","pricing_plan_id":"cebpf4jnsgd1na2vs0mg"},{"bike_id":"889cb231-fb20-46be-8ea4-b9d318ce0b8f","system_id":"levelo_inurba_marseille","lat":43.299028,"lon":5.381509,"is_reserved":false,"is_disabled":false,"rental_uris":{"android":"levelo://app?vid=889cb231-fb20-46be-8ea4-b9d318ce0b8f","ios":"levelo://app?vid=889cb231-fb20-46be-8ea4-b9d318ce0b8f"},"vehicle_type_id":"4","last_reported":1715548057,"current_range_meters":22800,"station_id":"ce4bgj12rcd13ifvqbc0","pricing_plan_id":"cebpf4jnsgd1na2vs0mg"},{"bike_id":"351c40e3-787f-499b-a012-2b1390afad35","system_id":"levelo_inurba_marseille","lat":43.309589,"lon":5.390258,"is_reserved":false,"is_disabled":false,"rental_uris":{"android":"levelo://app?vid=351c40e3-787f-499b-a012-2b1390afad35","ios":"levelo://app?vid=351c40e3-787f-499b-a012-2b1390afad35"},"vehicle_type_id":"4","last_reported":1715548057,"current_range_meters":7200,"station_id":"ce4bgup2rcd13ifvqco0","pricing_plan_id":"cebpf4jnsgd1na2vs0mg"},{"bike_id":"6646d39b-c82e-407c-900f-a7c80d605b67","system_id":"levelo_inurba_marseille","lat":43.299028,"lon":5.381509,"is_reserved":false,"is_disabled":false,"rental_uris":{"android":"levelo://app?vid=6646d39b-c82e-407c-900f-a7c80d605b67","ios":"levelo://app?vid=6646d39b-c82e-407c-900f-a7c80d605b67"},"vehicle_type_id":"4","last_reported":1715548057,"current_range_meters":12000,"station_id":"ce4bgj12rcd13ifvqbc0","pricing_plan_id":"cebpf4jnsgd1na2vs0mg"},{"bike_id":"f27ed227-587c-48f4-9482-b57b12f883e2","system_id":"levelo_inurba_marseille","lat":43.309589,"lon":5.390258,"is_reserved":false,"is_disabled":false,"rental_uris":{"android":"levelo://app?vid=f27ed227-587c-48f4-9482-b57b12f883e2","ios":"levelo://app?vid=f27ed227-587c-48f4-9482-b57b12f883e2"},"vehicle_type_id":"4","last_reported":1715548057,"current_range_meters":16800,"station_id":"ce4bgup2rcd13ifvqco0","pricing_plan_id":"cebpf4jnsgd1na2vs0mg"},{"bike_id":"aad7336c-2093-435d-8731-38a69457a742","system_id":"levelo_inurba_marseille","lat":43.309589,"lon":5.390258,"is_reserved":false,"is_disabled":false,"rental_uris":{"android":"levelo://app?vid=aad7336c-2093-435d-8731-38a69457a742","ios":"levelo://app?vid=aad7336c-2093-435d-8731-38a69457a742"},"vehicle_type_id":"4","last_reported":1715548057,"current_range_meters":0,"station_id":"ce4bgup2rcd13ifvqco0","pricing_plan_id":"cebpf4jnsgd1na2vs0mg"},{"bike_id":"cbe5f818-73fd-41ad-b7e0-f8f18f7a3eca","system_id":"levelo_inurba_marseille","lat":43.317557,"lon":5.390173,"is_reserved":false,"is_disabled":false,"rental_uris":{"android":"levelo://app?vid=cbe5f818-73fd-41ad-b7e0-f8f18f7a3eca","ios":"levelo://app?vid=cbe5f818-73fd-41ad-b7e0-f8f18f7a3eca"},"vehicle_type_id":"4","last_reported":1715548057,"current_range_meters":18800,"station_id":"ce4bhqp2rcd13ifvqhng","pricing_plan_id":"cebpf4jnsgd1na2vs0mg"},{"bike_id":"8c5d0ed8-42ed-40cb-a936-579009a59b9e","system_id":"levelo_inurba_marseille","lat":43.317557,"lon":5.390173,"is_reserved":false,"is_disabled":false,"rental_uris":{"android":"levelo://app?vid=8c5d0ed8-42ed-40cb-a936-579009a59b9e","ios":"levelo://app?vid=8c5d0ed8-42ed-40cb-a936-579009a59b9e"},"vehicle_type_id":"4","last_reported":1715548057,"current_range_meters":7600,"station_id":"ce4bhqp2rcd13ifvqhng","pricing_plan_id":"cebpf4jnsgd1na2vs0mg"},{"bike_id":"f4370606-a28c-45d0-a8c9-82b39a4368a6","system_id":"levelo_inurba_marseille","lat":43.317557,"lon":5.390173,"is_reserved":false,"is_disabled":false,"rental_uris":{"android":"levelo://app?vid=f4370606-a28c-45d0-a8c9-82b39a4368a6","ios":"levelo://app?vid=f4370606-a28c-45d0-a8c9-82b39a4368a6"},"vehicle_type_id":"4","last_reported":1715548057,"current_range_meters":5200,"station_id":"ce4bhqp2rcd13ifvqhng","pricing_plan_id":"cebpf4jnsgd1na2vs0mg"},{"bike_id":"8aa41c21-d1fa-4eb8-a69d-94ab068f2ea2","system_id":"levelo_inurba_marseille","lat":43.317557,"lon":5.390173,"is_reserved":false,"is_disabled":false,"rental_uris":{"android":"levelo://app?vid=8aa41c21-d1fa-4eb8-a69d-94ab068f2ea2","ios":"levelo://app?vid=8aa41c21-d1fa-4eb8-a69d-94ab068f2ea2"},"vehicle_type_id":"4","last_reported":1715548057,"current_range_meters":0,"station_id":"ce4bhqp2rcd13ifvqhng","pricing_plan_id":"cebpf4jnsgd1na2vs0mg"},{"bike_id":"029fdf01-06f3-42d7-b2df-c17e9c250a7e","system_id":"levelo_inurba_marseille","lat":43.29567,"lon":5.37502,"is_reserved":false,"is_disabled":false,"rental_uris":{"android":"levelo://app?vid=029fdf01-06f3-42d7-b2df-c17e9c250a7e","ios":"levelo://app?vid=029fdf01-06f3-42d7-b2df-c17e9c250a7e"},"vehicle_type_id":"4","last_reported":1715548057,"current_range_meters":17200,"station_id":"ce4bgh92rcd13ifvqb50","pricing_plan_id":"cebpf4jnsgd1na2vs0mg"},{"bike_id":"50846057-9e9b-4a86-8982-5b510b936f20","system_id":"levelo_inurba_marseille","lat":43.296921,"lon":5.376579,"is_reserved":false,"is_disabled":false,"rental_uris":{"android":"levelo://app?vid=50846057-9e9b-4a86-8982-5b510b936f20","ios":"levelo://app?vid=50846057-9e9b-4a86-8982-5b510b936f20"},"vehicle_type_id":"4","last_reported":1715548057,"current_range_meters":7200,"station_id":"ce4bgkh2rcd13ifvqbl0","pricing_plan_id":"cebpf4jnsgd1na2vs0mg"},{"bike_id":"6589c4ad-b352-4370-8a09-14aed06739bb","system_id":"levelo_inurba_marseille","lat":43.304278,"lon":5.388868,"is_reserved":false,"is_disabled":false,"rental_uris":{"android":"levelo://app?vid=6589c4ad-b352-4370-8a09-14aed06739bb","ios":"levelo://app?vid=6589c4ad-b352-4370-8a09-14aed06739bb"},"vehicle_type_id":"4","last_reported":1715548057,"current_range_meters":0,"station_id":"ce4bgk12rcd13ifvqbi0","pricing_plan_id":"cebpf4jnsgd1na2vs0mg"},{"bike_id":"5662885b-fbe4-46c0-b34c-27723cbf149f","system_id":"levelo_inurba_marseille","lat":43.295748,"lon":5.37522,"is_reserved":false,"is_disabled":false,"rental_uris":{"android":"levelo://app?vid=5662885b-fbe4-46c0-b34c-27723cbf149f","ios":"levelo://app?vid=5662885b-fbe4-46c0-b34c-27723cbf149f"},"vehicle_type_id":"4","last_reported":1715548057,"current_range_meters":0,"station_id":"ce4bgh92rcd13ifvqb50","pricing_plan_id":"cebpf4jnsgd1na2vs0mg"},{"bike_id":"23a55eb4-be79-42d0-b552-ea7f4e6c8016","system_id":"levelo_inurba_marseille","lat":43.295279,"lon":5.375048,"is_reserved":false,"is_disabled":false,"rental_uris":{"android":"levelo://app?vid=23a55eb4-be79-42d0-b552-ea7f4e6c8016","ios":"levelo://app?vid=23a55eb4-be79-42d0-b552-ea7f4e6c8016"},"vehicle_type_id":"4","last_reported":1715548057,"current_range_meters":12800,"station_id":"ce4bgkp2rcd13ifvqbmg","pricing_plan_id":"cebpf4jnsgd1na2vs0mg"},{"bike_id":"5a9f529d-bd57-4b49-9e53-fe95fa45fe0b","system_id":"levelo_inurba_marseille","lat":43.299707,"lon":5.384859,"is_reserved":false,"is_disabled":false,"rental_uris":{"android":"levelo://app?vid=5a9f529d-bd57-4b49-9e53-fe95fa45fe0b","ios":"levelo://app?vid=5a9f529d-bd57-4b49-9e53-fe95fa45fe0b"},"vehicle_type_id":"4","last_reported":1715548057,"current_range_meters":19600,"station_id":"ce4bgj92rcd13ifvqbd0","pricing_plan_id":"cebpf4jnsgd1na2vs0mg"},{"bike_id":"979d9a85-3770-49dd-b241-414504bcab8f","system_id":"levelo_inurba_marseille","lat":43.29981,"lon":5.38484,"is_reserved":false,"is_disabled":false,"rental_uris":{"android":"levelo://app?vid=979d9a85-3770-49dd-b241-414504bcab8f","ios":"levelo://app?vid=979d9a85-3770-49dd-b241-414504bcab8f"},"vehicle_type_id":"4","last_reported":1715548057,"current_range_meters":0,"station_id":"ce4bgj92rcd13ifvqbd0","pricing_plan_id":"cebpf4jnsgd1na2vs0mg"},{"bike_id":"a7fcbb90-a670-4afd-a2cf-9d278065b257","system_id":"levelo_inurba_marseille","lat":43.295279,"lon":5.375048,"is_reserved":false,"is_disabled":false,"rental_uris":{"android":"levelo://app?vid=a7fcbb90-a670-4afd-a2cf-9d278065b257","ios":"levelo://app?vid=a7fcbb90-a670-4afd-a2cf-9d278065b257"},"vehicle_type_id":"4","last_reported":1715548057,"current_range_meters":4800,"station_id":"ce4bgkp2rcd13ifvqbmg","pricing_plan_id":"cebpf4jnsgd1na2vs0mg"},{"bike_id":"e84adcbe-8e71-4b6d-ae36-eb0f6abd609e","system_id":"levelo_inurba_marseille","lat":43.29974,"lon":5.38489,"is_reserved":false,"is_disabled":false,"rental_uris":{"android":"levelo://app?vid=e84adcbe-8e71-4b6d-ae36-eb0f6abd609e","ios":"levelo://app?vid=e84adcbe-8e71-4b6d-ae36-eb0f6abd609e"},"vehicle_type_id":"4","last_reported":1715548057,"current_range_meters":19600,"station_id":"ce4bgj92rcd13ifvqbd0","pricing_plan_id":"cebpf4jnsgd1na2vs0mg"},{"bike_id":"6372e80e-b654-4d7c-a756-d056c0d90b32","system_id":"levelo_inurba_marseille","lat":43.299724,"lon":5.384848,"is_reserved":false,"is_disabled":false,"rental_uris":{"android":"levelo://app?vid=6372e80e-b654-4d7c-a756-d056c0d90b32","ios":"levelo://app?vid=6372e80e-b654-4d7c-a756-d056c0d90b32"},"vehicle_type_id":"4","last_reported":1715548057,"current_range_meters":6000,"station_id":"ce4bgj92rcd13ifvqbd0","pricing_plan_id":"cebpf4jnsgd1na2vs0mg"},{"bike_id":"6fea19d6-25e3-499f-bf66-4612b07074f2","system_id":"levelo_inurba_marseille","lat":43.299717,"lon":5.384845,"is_reserved":false,"is_disabled":false,"rental_uris":{"android":"levelo://app?vid=6fea19d6-25e3-499f-bf66-4612b07074f2","ios":"levelo://app?vid=6fea19d6-25e3-499f-bf66-4612b07074f2"},"vehicle_type_id":"4","last_reported":1715548057,"current_range_meters":24800,"station_id":"ce4bgj92rcd13ifvqbd0","pricing_plan_id":"cebpf4jnsgd1na2vs0mg"},{"bike_id":"cdabc6dc-0880-452d-b3a5-eac97aaaf2a7","system_id":"levelo_inurba_marseille","lat":43.32367,"lon":5.388836,"is_reserved":false,"is_disabled":false,"rental_uris":{"android":"levelo://app?vid=cdabc6dc-0880-452d-b3a5-eac97aaaf2a7","ios":"levelo://app?vid=cdabc6dc-0880-452d-b3a5-eac97aaaf2a7"},"vehicle_type_id":"4","last_reported":1715548057,"current_range_meters":3600,"station_id":"ce4bhqp2rcd13ifvqhog","pricing_plan_id":"cebpf4jnsgd1na2vs0mg"},{"bike_id":"cfcfe417-fbd7-4a61-bb14-b301e1b66302","system_id":"levelo_inurba_marseille","lat":43.32364,"lon":5.38881,"is_reserved":false,"is_disabled":false,"rental_uris":{"android":"levelo://app?vid=cfcfe417-fbd7-4a61-bb14-b301e1b66302","ios":"levelo://app?vid=cfcfe417-fbd7-4a61-bb14-b301e1b66302"},"vehicle_type_id":"4","last_reported":1715548057,"current_range_meters":0,"station_id":"ce4bhqp2rcd13ifvqhog","pricing_plan_id":"cebpf4jnsgd1na2vs0mg"},{"bike_id":"fe062707-5805-428a-8745-3ae02dc90e84","system_id":"levelo_inurba_marseille","lat":43.32363,"lon":5.38885,"is_reserved":false,"is_disabled":false,"rental_uris":{"android":"levelo://app?vid=fe062707-5805-428a-8745-3ae02dc90e84","ios":"levelo://app?vid=fe062707-5805-428a-8745-3ae02dc90e84"},"vehicle_type_id":"4","last_reported":1715548057,"current_range_meters":8000,"station_id":"ce4bhqp2rcd13ifvqhog","pricing_plan_id":"cebpf4jnsgd1na2vs0mg"},{"bike_id":"5c4a60d5-5b0b-4491-8fbf-ab4d79eaa59c","system_id":"levelo_inurba_marseille","lat":43.32367,"lon":5.388836,"is_reserved":false,"is_disabled":false,"rental_uris":{"android":"levelo://app?vid=5c4a60d5-5b0b-4491-8fbf-ab4d79eaa59c","ios":"levelo://app?vid=5c4a60d5-5b0b-4491-8fbf-ab4d79eaa59c"},"vehicle_type_id":"4","last_reported":1715548057,"current_range_meters":1200,"station_id":"ce4bhqp2rcd13ifvqhog","pricing_plan_id":"cebpf4jnsgd1na2vs0mg"},{"bike_id":"0a2840f3-49a4-400a-9b72-af64ceda5f6c","system_id":"levelo_inurba_marseille","lat":43.32367,"lon":5.388836,"is_reserved":false,"is_disabled":false,"rental_uris":{"android":"levelo://app?vid=0a2840f3-49a4-400a-9b72-af64ceda5f6c","ios":"levelo://app?vid=0a2840f3-49a4-400a-9b72-af64ceda5f6c"},"vehicle_type_id":"4","last_reported":1715548057,"current_range_meters":18400,"station_id":"ce4bhqp2rcd13ifvqhog","pricing_plan_id":"cebpf4jnsgd1na2vs0mg"},{"bike_id":"c1622bd2-2944-4b31-8404-63b86f6e24ec","system_id":"levelo_inurba_marseille","lat":43.29601,"lon":5.381084,"is_reserved":false,"is_disabled":false,"rental_uris":{"android":"levelo://app?vid=c1622bd2-2944-4b31-8404-63b86f6e24ec","ios":"levelo://app?vid=c1622bd2-2944-4b31-8404-63b86f6e24ec"},"vehicle_type_id":"4","last_reported":1715548057,"current_range_meters":25200,"station_id":"ce4bgl12rcd13ifvqbo0","pricing_plan_id":"cebpf4jnsgd1na2vs0mg"},{"bike_id":"8135df87-272a-42ab-851d-3f43978a76a0","system_id":"levelo_inurba_marseille","lat":43.29601,"lon":5.381084,"is_reserved":false,"is_disabled":false,"rental_uris":{"android":"levelo://app?vid=8135df87-272a-42ab-851d-3f43978a76a0","ios":"levelo://app?vid=8135df87-272a-42ab-851d-3f43978a76a0"},"vehicle_type_id":"4","last_reported":1715548057,"current_range_meters":22000,"station_id":"ce4bgl12rcd13ifvqbo0","pricing_plan_id":"cebpf4jnsgd1na2vs0mg"},{"bike_id":"1da20125-539c-4bc6-bf9d-684fdde1f25c","system_id":"levelo_inurba_marseille","lat":43.295903,"lon":5.3811,"is_reserved":false,"is_disabled":false,"rental_uris":{"android":"levelo://app?vid=1da20125-539c-4bc6-bf9d-684fdde1f25c","ios":"levelo://app?vid=1da20125-539c-4bc6-bf9d-684fdde1f25c"},"vehicle_type_id":"4","last_reported":1715548057,"current_range_meters":7200,"station_id":"ce4bgl12rcd13ifvqbo0","pricing_plan_id":"cebpf4jnsgd1na2vs0mg"},{"bike_id":"bc6c0ed8-8178-41e7-bceb-aa30ddf68348","system_id":"levelo_inurba_marseille","lat":43.293259,"lon":5.371586,"is_reserved":false,"is_disabled":false,"rental_uris":{"android":"levelo://app?vid=bc6c0ed8-8178-41e7-bceb-aa30ddf68348","ios":"levelo://app?vid=bc6c0ed8-8178-41e7-bceb-aa30ddf68348"},"vehicle_type_id":"4","last_reported":1715548057,"current_range_meters":9600,"station_id":"ce4bgh92rcd13ifvqb40","pricing_plan_id":"cebpf4jnsgd1na2vs0mg"},{"bike_id":"85ccc75e-c94f-4b3c-b44c-c53921643630","system_id":"levelo_inurba_marseille","lat":43.32871,"lon":5.38359,"is_reserved":false,"is_disabled":false,"rental_uris":{"android":"levelo://app?vid=85ccc75e-c94f-4b3c-b44c-c53921643630","ios":"levelo://app?vid=85ccc75e-c94f-4b3c-b44c-c53921643630"},"vehicle_type_id":"4","last_reported":1715548057,"current_range_meters":9200,"station_id":"","pricing_plan_id":"cebpf4jnsgd1na2vs0mg"},{"bike_id":"cb5e7a31-00fa-43f9-8563-f25bed79e091","system_id":"levelo_inurba_marseille","lat":43.305994,"lon":5.393687,"is_reserved":false,"is_disabled":false,"rental_uris":{"android":"levelo://app?vid=cb5e7a31-00fa-43f9-8563-f25bed79e091","ios":"levelo://app?vid=cb5e7a31-00fa-43f9-8563-f25bed79e091"},"vehicle_type_id":"4","last_reported":1715548057,"current_range_meters":24000,"station_id":"ce4bh0p2rcd13ifvqd80","pricing_plan_id":"cebpf4jnsgd1na2vs0mg"},{"bike_id":"fd2ae0aa-8bb0-4c59-ac63-f7ab75ce6aa8","system_id":"levelo_inurba_marseille","lat":43.293009,"lon":5.374584,"is_reserved":false,"is_disabled":false,"rental_uris":{"android":"levelo://app?vid=fd2ae0aa-8bb0-4c59-ac63-f7ab75ce6aa8","ios":"levelo://app?vid=fd2ae0aa-8bb0-4c59-ac63-f7ab75ce6aa8"},"vehicle_type_id":"4","last_reported":1715548057,"current_range_meters":23200,"station_id":"ce4bgi12rcd13ifvqb70","pricing_plan_id":"cebpf4jnsgd1na2vs0mg"},{"bike_id":"00ca90fb-9dea-49a5-a007-db39dd8eb06a","system_id":"levelo_inurba_marseille","lat":43.302992,"lon":5.392136,"is_reserved":false,"is_disabled":false,"rental_uris":{"android":"levelo://app?vid=00ca90fb-9dea-49a5-a007-db39dd8eb06a","ios":"levelo://app?vid=00ca90fb-9dea-49a5-a007-db39dd8eb06a"},"vehicle_type_id":"4","last_reported":1715548057,"current_range_meters":22800,"station_id":"ce4bgkh2rcd13ifvqbk0","pricing_plan_id":"cebpf4jnsgd1na2vs0mg"},{"bike_id":"a212a663-005a-423a-ac21-2945acf3f9f9","system_id":"levelo_inurba_marseille","lat":43.2936,"lon":5.37835,"is_reserved":false,"is_disabled":false,"rental_uris":{"android":"levelo://app?vid=a212a663-005a-423a-ac21-2945acf3f9f9","ios":"levelo://app?vid=a212a663-005a-423a-ac21-2945acf3f9f9"},"vehicle_type_id":"4","last_reported":1715548057,"current_range_meters":21600,"station_id":"ce4bgjh2rcd13ifvqbf0","pricing_plan_id":"cebpf4jnsgd1na2vs0mg"},{"bike_id":"0d1d5bad-8837-41f9-bdbb-d1d8ec073d6a","system_id":"levelo_inurba_marseille","lat":43.2936,"lon":5.37835,"is_reserved":false,"is_disabled":false,"rental_uris":{"android":"levelo://app?vid=0d1d5bad-8837-41f9-bdbb-d1d8ec073d6a","ios":"levelo://app?vid=0d1d5bad-8837-41f9-bdbb-d1d8ec073d6a"},"vehicle_type_id":"4","last_reported":1715548057,"current_range_meters":4400,"station_id":"ce4bgjh2rcd13ifvqbf0","pricing_plan_id":"cebpf4jnsgd1na2vs0mg"},{"bike_id":"7667ef9c-713d-42b3-ac12-241ec577151d","system_id":"levelo_inurba_marseille","lat":43.302947,"lon":5.39216,"is_reserved":false,"is_disabled":false,"rental_uris":{"android":"levelo://app?vid=7667ef9c-713d-42b3-ac12-241ec577151d","ios":"levelo://app?vid=7667ef9c-713d-42b3-ac12-241ec577151d"},"vehicle_type_id":"4","last_reported":1715548057,"current_range_meters":0,"station_id":"ce4bgkh2rcd13ifvqbk0","pricing_plan_id":"cebpf4jnsgd1na2vs0mg"},{"bike_id":"1cb668b6-dae9-4514-baec-a058d09da2f0","system_id":"levelo_inurba_marseille","lat":43.2936,"lon":5.37835,"is_reserved":false,"is_disabled":false,"rental_uris":{"android":"levelo://app?vid=1cb668b6-dae9-4514-baec-a058d09da2f0","ios":"levelo://app?vid=1cb668b6-dae9-4514-baec-a058d09da2f0"},"vehicle_type_id":"4","last_reported":1715548057,"current_range_meters":14400,"station_id":"ce4bgjh2rcd13ifvqbf0","pricing_plan_id":"cebpf4jnsgd1na2vs0mg"},{"bike_id":"2329a889-1222-49d8-9545-4167b7e088fb","system_id":"levelo_inurba_marseille","lat":43.30085,"lon":5.390856,"is_reserved":false,"is_disabled":false,"rental_uris":{"android":"levelo://app?vid=2329a889-1222-49d8-9545-4167b7e088fb","ios":"levelo://app?vid=2329a889-1222-49d8-9545-4167b7e088fb"},"vehicle_type_id":"4","last_reported":1715548057,"current_range_meters":5200,"station_id":"ce4bh192rcd13ifvqdb0","pricing_plan_id":"cebpf4jnsgd1na2vs0mg"},{"bike_id":"0630f719-530d-460f-a3dc-b6aa96f71703","system_id":"levelo_inurba_marseille","lat":43.30085,"lon":5.390856,"is_reserved":false,"is_disabled":false,"rental_uris":{"android":"levelo://app?vid=0630f719-530d-460f-a3dc-b6aa96f71703","ios":"levelo://app?vid=0630f719-530d-460f-a3dc-b6aa96f71703"},"vehicle_type_id":"4","last_reported":1715548057,"current_range_meters":14800,"station_id":"ce4bh192rcd13ifvqdb0","pricing_plan_id":"cebpf4jnsgd1na2vs0mg"},{"bike_id":"6e1705d9-7e3c-4e2f-841a-759af59a8064","system_id":"levelo_inurba_marseille","lat":43.298764,"lon":5.388973,"is_reserved":false,"is_disabled":false,"rental_uris":{"android":"levelo://app?vid=6e1705d9-7e3c-4e2f-841a-759af59a8064","ios":"levelo://app?vid=6e1705d9-7e3c-4e2f-841a-759af59a8064"},"vehicle_type_id":"4","last_reported":1715548057,"current_range_meters":5600,"station_id":"ce4bh392rcd13ifvqdl0","pricing_plan_id":"cebpf4jnsgd1na2vs0mg"},{"bike_id":"d4f8af21-5847-48cb-9daf-f207c7e8a678","system_id":"levelo_inurba_marseille","lat":43.298764,"lon":5.388973,"is_reserved":false,"is_disabled":false,"rental_uris":{"android":"levelo://app?vid=d4f8af21-5847-48cb-9daf-f207c7e8a678","ios":"levelo://app?vid=d4f8af21-5847-48cb-9daf-f207c7e8a678"},"vehicle_type_id":"4","last_reported":1715548057,"current_range_meters":0,"station_id":"ce4bh392rcd13ifvqdl0","pricing_plan_id":"cebpf4jnsgd1na2vs0mg"},{"bike_id":"8c918c34-f553-4821-8cc1-f2981386e2f9","system_id":"levelo_inurba_marseille","lat":43.298764,"lon":5.388973,"is_reserved":false,"is_disabled":false,"rental_uris":{"android":"levelo://app?vid=8c918c34-f553-4821-8cc1-f2981386e2f9","ios":"levelo://app?vid=8c918c34-f553-4821-8cc1-f2981386e2f9"},"vehicle_type_id":"4","last_reported":1715548057,"current_range_meters":18800,"station_id":"ce4bh392rcd13ifvqdl0","pricing_plan_id":"cebpf4jnsgd1na2vs0mg"},{"bike_id":"264842b1-cb72-44b5-9e74-403c0cf2a3e1","system_id":"levelo_inurba_marseille","lat":43.298764,"lon":5.388973,"is_reserved":false,"is_disabled":false,"rental_uris":{"android":"levelo://app?vid=264842b1-cb72-44b5-9e74-403c0cf2a3e1","ios":"levelo://app?vid=264842b1-cb72-44b5-9e74-403c0cf2a3e1"},"vehicle_type_id":"4","last_reported":1715548057,"current_range_meters":10000,"station_id":"ce4bh392rcd13ifvqdl0","pricing_plan_id":"cebpf4jnsgd1na2vs0mg"},{"bike_id":"c555fec9-640d-4314-8a95-5aa370eaf352","system_id":"levelo_inurba_marseille","lat":43.29875,"lon":5.38906,"is_reserved":false,"is_disabled":false,"rental_uris":{"android":"levelo://app?vid=c555fec9-640d-4314-8a95-5aa370eaf352","ios":"levelo://app?vid=c555fec9-640d-4314-8a95-5aa370eaf352"},"vehicle_type_id":"4","last_reported":1715548057,"current_range_meters":0,"station_id":"ce4bh392rcd13ifvqdl0","pricing_plan_id":"cebpf4jnsgd1na2vs0mg"},{"bike_id":"0386a323-38a3-45a2-b41a-420d0c2f4cb0","system_id":"levelo_inurba_marseille","lat":43.291671,"lon":5.371575,"is_reserved":false,"is_disabled":false,"rental_uris":{"android":"levelo://app?vid=0386a323-38a3-45a2-b41a-420d0c2f4cb0","ios":"levelo://app?vid=0386a323-38a3-45a2-b41a-420d0c2f4cb0"},"vehicle_type_id":"4","last_reported":1715548057,"current_range_meters":0,"station_id":"ce4bha92rcd13ifvqeh0","pricing_plan_id":"cebpf4jnsgd1na2vs0mg"},{"bike_id":"520e972c-0f08-4f2e-b5dd-b7ee1ed552e9","system_id":"levelo_inurba_marseille","lat":43.298764,"lon":5.388973,"is_reserved":false,"is_disabled":false,"rental_uris":{"android":"levelo://app?vid=520e972c-0f08-4f2e-b5dd-b7ee1ed552e9","ios":"levelo://app?vid=520e972c-0f08-4f2e-b5dd-b7ee1ed552e9"},"vehicle_type_id":"4","last_reported":1715548057,"current_range_meters":6000,"station_id":"ce4bh392rcd13ifvqdl0","pricing_plan_id":"cebpf4jnsgd1na2vs0mg"},{"bike_id":"3d6b2480-c345-428a-a4a7-be8d328ca983","system_id":"levelo_inurba_marseille","lat":43.29864,"lon":5.38914,"is_reserved":false,"is_disabled":false,"rental_uris":{"android":"levelo://app?vid=3d6b2480-c345-428a-a4a7-be8d328ca983","ios":"levelo://app?vid=3d6b2480-c345-428a-a4a7-be8d328ca983"},"vehicle_type_id":"4","last_reported":1715548057,"current_range_meters":0,"station_id":"ce4bh392rcd13ifvqdl0","pricing_plan_id":"cebpf4jnsgd1na2vs0mg"},{"bike_id":"c99c2d4d-0244-465a-8fc9-0233344d12f4","system_id":"levelo_inurba_marseille","lat":43.309038,"lon":5.396546,"is_reserved":false,"is_disabled":false,"rental_uris":{"android":"levelo://app?vid=c99c2d4d-0244-465a-8fc9-0233344d12f4","ios":"levelo://app?vid=c99c2d4d-0244-465a-8fc9-0233344d12f4"},"vehicle_type_id":"4","last_reported":1715548057,"current_range_meters":13600,"station_id":"ce4bh012rcd13ifvqcv0","pricing_plan_id":"cebpf4jnsgd1na2vs0mg"},{"bike_id":"085f886e-0ee3-47dc-a422-27cecfe95520","system_id":"levelo_inurba_marseille","lat":43.309038,"lon":5.396546,"is_reserved":false,"is_disabled":false,"rental_uris":{"android":"levelo://app?vid=085f886e-0ee3-47dc-a422-27cecfe95520","ios":"levelo://app?vid=085f886e-0ee3-47dc-a422-27cecfe95520"},"vehicle_type_id":"4","last_reported":1715548057,"current_range_meters":20000,"station_id":"ce4bh012rcd13ifvqcv0","pricing_plan_id":"cebpf4jnsgd1na2vs0mg"},{"bike_id":"9b07692f-8165-4e09-bc27-f2dda30af358","system_id":"levelo_inurba_marseille","lat":43.309038,"lon":5.396546,"is_reserved":false,"is_disabled":false,"rental_uris":{"android":"levelo://app?vid=9b07692f-8165-4e09-bc27-f2dda30af358","ios":"levelo://app?vid=9b07692f-8165-4e09-bc27-f2dda30af358"},"vehicle_type_id":"4","last_reported":1715548057,"current_range_meters":21600,"station_id":"ce4bh012rcd13ifvqcv0","pricing_plan_id":"cebpf4jnsgd1na2vs0mg"},{"bike_id":"0341477d-c258-4ec9-81b1-c321fe3c9ae5","system_id":"levelo_inurba_marseille","lat":43.309038,"lon":5.396546,"is_reserved":false,"is_disabled":false,"rental_uris":{"android":"levelo://app?vid=0341477d-c258-4ec9-81b1-c321fe3c9ae5","ios":"levelo://app?vid=0341477d-c258-4ec9-81b1-c321fe3c9ae5"},"vehicle_type_id":"4","last_reported":1715548057,"current_range_meters":6800,"station_id":"ce4bh012rcd13ifvqcv0","pricing_plan_id":"cebpf4jnsgd1na2vs0mg"},{"bike_id":"ba4ef714-64d4-407f-9a17-b3d32e81ded4","system_id":"levelo_inurba_marseille","lat":43.309038,"lon":5.396546,"is_reserved":false,"is_disabled":false,"rental_uris":{"android":"levelo://app?vid=ba4ef714-64d4-407f-9a17-b3d32e81ded4","ios":"levelo://app?vid=ba4ef714-64d4-407f-9a17-b3d32e81ded4"},"vehicle_type_id":"4","last_reported":1715548057,"current_range_meters":17200,"station_id":"ce4bh012rcd13ifvqcv0","pricing_plan_id":"cebpf4jnsgd1na2vs0mg"},{"bike_id":"959a0992-8fc3-4bc9-b7f5-c770907dbfdf","system_id":"levelo_inurba_marseille","lat":43.309047,"lon":5.396551,"is_reserved":false,"is_disabled":false,"rental_uris":{"android":"levelo://app?vid=959a0992-8fc3-4bc9-b7f5-c770907dbfdf","ios":"levelo://app?vid=959a0992-8fc3-4bc9-b7f5-c770907dbfdf"},"vehicle_type_id":"4","last_reported":1715548057,"current_range_meters":14400,"station_id":"ce4bh012rcd13ifvqcv0","pricing_plan_id":"cebpf4jnsgd1na2vs0mg"},{"bike_id":"e5583c50-8e14-47e9-9a48-c3c1978baffd","system_id":"levelo_inurba_marseille","lat":43.313291,"lon":5.396838,"is_reserved":false,"is_disabled":false,"rental_uris":{"android":"levelo://app?vid=e5583c50-8e14-47e9-9a48-c3c1978baffd","ios":"levelo://app?vid=e5583c50-8e14-47e9-9a48-c3c1978baffd"},"vehicle_type_id":"4","last_reported":1715548057,"current_range_meters":12800,"station_id":"ce4bgvp2rcd13ifvqcu0","pricing_plan_id":"cebpf4jnsgd1na2vs0mg"},{"bike_id":"0c7ebe76-4873-49b7-a5b7-0ed4e1954753","system_id":"levelo_inurba_marseille","lat":43.313291,"lon":5.396838,"is_reserved":false,"is_disabled":false,"rental_uris":{"android":"levelo://app?vid=0c7ebe76-4873-49b7-a5b7-0ed4e1954753","ios":"levelo://app?vid=0c7ebe76-4873-49b7-a5b7-0ed4e1954753"},"vehicle_type_id":"4","last_reported":1715548057,"current_range_meters":6000,"station_id":"ce4bgvp2rcd13ifvqcu0","pricing_plan_id":"cebpf4jnsgd1na2vs0mg"},{"bike_id":"c565bd42-d641-4c50-aae9-6530078fbb05","system_id":"levelo_inurba_marseille","lat":43.309038,"lon":5.396546,"is_reserved":false,"is_disabled":false,"rental_uris":{"android":"levelo://app?vid=c565bd42-d641-4c50-aae9-6530078fbb05","ios":"levelo://app?vid=c565bd42-d641-4c50-aae9-6530078fbb05"},"vehicle_type_id":"4","last_reported":1715548057,"current_range_meters":24800,"station_id":"ce4bh012rcd13ifvqcv0","pricing_plan_id":"cebpf4jnsgd1na2vs0mg"},{"bike_id":"c377eb74-2281-480c-a770-3bf7f3fc0cb2","system_id":"levelo_inurba_marseille","lat":43.309047,"lon":5.396551,"is_reserved":false,"is_disabled":false,"rental_uris":{"android":"levelo://app?vid=c377eb74-2281-480c-a770-3bf7f3fc0cb2","ios":"levelo://app?vid=c377eb74-2281-480c-a770-3bf7f3fc0cb2"},"vehicle_type_id":"4","last_reported":1715548057,"current_range_meters":3600,"station_id":"ce4bh012rcd13ifvqcv0","pricing_plan_id":"cebpf4jnsgd1na2vs0mg"},{"bike_id":"c94ca745-518a-4f1f-9e36-3dace1591ff1","system_id":"levelo_inurba_marseille","lat":43.313291,"lon":5.396838,"is_reserved":false,"is_disabled":false,"rental_uris":{"android":"levelo://app?vid=c94ca745-518a-4f1f-9e36-3dace1591ff1","ios":"levelo://app?vid=c94ca745-518a-4f1f-9e36-3dace1591ff1"},"vehicle_type_id":"4","last_reported":1715548057,"current_range_meters":2800,"station_id":"ce4bgvp2rcd13ifvqcu0","pricing_plan_id":"cebpf4jnsgd1na2vs0mg"},{"bike_id":"cbf65c65-13ba-4912-87a0-7d17c6850fc1","system_id":"levelo_inurba_marseille","lat":43.309047,"lon":5.396551,"is_reserved":false,"is_disabled":false,"rental_uris":{"android":"levelo://app?vid=cbf65c65-13ba-4912-87a0-7d17c6850fc1","ios":"levelo://app?vid=cbf65c65-13ba-4912-87a0-7d17c6850fc1"},"vehicle_type_id":"4","last_reported":1715548057,"current_range_meters":4400,"station_id":"ce4bh012rcd13ifvqcv0","pricing_plan_id":"cebpf4jnsgd1na2vs0mg"},{"bike_id":"aa5bdca4-2c79-457d-a505-d3e8530c9dd3","system_id":"levelo_inurba_marseille","lat":43.309038,"lon":5.396546,"is_reserved":false,"is_disabled":false,"rental_uris":{"android":"levelo://app?vid=aa5bdca4-2c79-457d-a505-d3e8530c9dd3","ios":"levelo://app?vid=aa5bdca4-2c79-457d-a505-d3e8530c9dd3"},"vehicle_type_id":"4","last_reported":1715548057,"current_range_meters":0,"station_id":"ce4bh012rcd13ifvqcv0","pricing_plan_id":"cebpf4jnsgd1na2vs0mg"},{"bike_id":"708d6bee-a0eb-4686-84bc-28eda6d63a4e","system_id":"levelo_inurba_marseille","lat":43.29531,"lon":5.38542,"is_reserved":false,"is_disabled":false,"rental_uris":{"android":"levelo://app?vid=708d6bee-a0eb-4686-84bc-28eda6d63a4e","ios":"levelo://app?vid=708d6bee-a0eb-4686-84bc-28eda6d63a4e"},"vehicle_type_id":"4","last_reported":1715548057,"current_range_meters":31200,"station_id":"ce4bgih2rcd13ifvqba0","pricing_plan_id":"cebpf4jnsgd1na2vs0mg"},{"bike_id":"045828d2-cdb9-49d1-bd04-0995f40997aa","system_id":"levelo_inurba_marseille","lat":43.313291,"lon":5.396838,"is_reserved":false,"is_disabled":false,"rental_uris":{"android":"levelo://app?vid=045828d2-cdb9-49d1-bd04-0995f40997aa","ios":"levelo://app?vid=045828d2-cdb9-49d1-bd04-0995f40997aa"},"vehicle_type_id":"4","last_reported":1715548057,"current_range_meters":12400,"station_id":"ce4bgvp2rcd13ifvqcu0","pricing_plan_id":"cebpf4jnsgd1na2vs0mg"},{"bike_id":"5cd4aa4f-07db-4856-a9b5-27373cba0fe3","system_id":"levelo_inurba_marseille","lat":43.296263,"lon":5.40601,"is_reserved":false,"is_disabled":false,"rental_uris":{"android":"levelo://app?vid=5cd4aa4f-07db-4856-a9b5-27373cba0fe3","ios":"levelo://app?vid=5cd4aa4f-07db-4856-a9b5-27373cba0fe3"},"vehicle_type_id":"4","last_reported":1715548057,"current_range_meters":4400,"station_id":"ce4bh0h2rcd13ifvqd60","pricing_plan_id":"cebpf4jnsgd1na2vs0mg"},{"bike_id":"4eb3a1db-a6b0-4c4b-a888-5cc3f04b6a86","system_id":"levelo_inurba_marseille","lat":43.29055,"lon":5.37154,"is_reserved":false,"is_disabled":false,"rental_uris":{"android":"levelo://app?vid=4eb3a1db-a6b0-4c4b-a888-5cc3f04b6a86","ios":"levelo://app?vid=4eb3a1db-a6b0-4c4b-a888-5cc3f04b6a86"},"vehicle_type_id":"4","last_reported":1715548057,"current_range_meters":0,"station_id":"ce4bh5p2rcd13ifvqe4g","pricing_plan_id":"cebpf4jnsgd1na2vs0mg"},{"bike_id":"b5130a43-3b46-4687-a172-fe2e1ed4a3bb","system_id":"levelo_inurba_marseille","lat":43.302008,"lon":5.394694,"is_reserved":false,"is_disabled":false,"rental_uris":{"android":"levelo://app?vid=b5130a43-3b46-4687-a172-fe2e1ed4a3bb","ios":"levelo://app?vid=b5130a43-3b46-4687-a172-fe2e1ed4a3bb"},"vehicle_type_id":"4","last_reported":1715548057,"current_range_meters":23600,"station_id":"ce4bh0p2rcd13ifvqd70","pricing_plan_id":"cebpf4jnsgd1na2vs0mg"},{"bike_id":"0bcff4e4-98a8-40d9-993b-fe68af0b4422","system_id":"levelo_inurba_marseille","lat":43.302008,"lon":5.394694,"is_reserved":false,"is_disabled":false,"rental_uris":{"android":"levelo://app?vid=0bcff4e4-98a8-40d9-993b-fe68af0b4422","ios":"levelo://app?vid=0bcff4e4-98a8-40d9-993b-fe68af0b4422"},"vehicle_type_id":"4","last_reported":1715548057,"current_range_meters":9200,"station_id":"ce4bh0p2rcd13ifvqd70","pricing_plan_id":"cebpf4jnsgd1na2vs0mg"},{"bike_id":"40570d62-b883-4893-bda0-e75dca3c6e0e","system_id":"levelo_inurba_marseille","lat":43.302008,"lon":5.394694,"is_reserved":false,"is_disabled":false,"rental_uris":{"android":"levelo://app?vid=40570d62-b883-4893-bda0-e75dca3c6e0e","ios":"levelo://app?vid=40570d62-b883-4893-bda0-e75dca3c6e0e"},"vehicle_type_id":"4","last_reported":1715548057,"current_range_meters":22800,"station_id":"ce4bh0p2rcd13ifvqd70","pricing_plan_id":"cebpf4jnsgd1na2vs0mg"},{"bike_id":"4fb9809e-16dd-438d-a0fb-138d63cab4f3","system_id":"levelo_inurba_marseille","lat":43.302008,"lon":5.394694,"is_reserved":false,"is_disabled":false,"rental_uris":{"android":"levelo://app?vid=4fb9809e-16dd-438d-a0fb-138d63cab4f3","ios":"levelo://app?vid=4fb9809e-16dd-438d-a0fb-138d63cab4f3"},"vehicle_type_id":"4","last_reported":1715548057,"current_range_meters":12400,"station_id":"ce4bh0p2rcd13ifvqd70","pricing_plan_id":"cebpf4jnsgd1na2vs0mg"},{"bike_id":"3742d5d1-90f3-4fb8-8dfa-aa804f04c8e6","system_id":"levelo_inurba_marseille","lat":43.290357,"lon":5.35919,"is_reserved":false,"is_disabled":false,"rental_uris":{"android":"levelo://app?vid=3742d5d1-90f3-4fb8-8dfa-aa804f04c8e6","ios":"levelo://app?vid=3742d5d1-90f3-4fb8-8dfa-aa804f04c8e6"},"vehicle_type_id":"4","last_reported":1715548057,"current_range_meters":0,"station_id":"ce4bha92rcd13ifvqeg0","pricing_plan_id":"cebpf4jnsgd1na2vs0mg"},{"bike_id":"608e5e22-62d8-4b14-8ac0-934a3f05afe7","system_id":"levelo_inurba_marseille","lat":43.289444,"lon":5.366501,"is_reserved":false,"is_disabled":false,"rental_uris":{"android":"levelo://app?vid=608e5e22-62d8-4b14-8ac0-934a3f05afe7","ios":"levelo://app?vid=608e5e22-62d8-4b14-8ac0-934a3f05afe7"},"vehicle_type_id":"4","last_reported":1715548057,"current_range_meters":16800,"station_id":"","pricing_plan_id":"cebpf4jnsgd1na2vs0mg"},{"bike_id":"e2ddfd69-cc0a-4c4e-b38b-c14c8618f9e8","system_id":"levelo_inurba_marseille","lat":43.29415,"lon":5.3863,"is_reserved":false,"is_disabled":false,"rental_uris":{"android":"levelo://app?vid=e2ddfd69-cc0a-4c4e-b38b-c14c8618f9e8","ios":"levelo://app?vid=e2ddfd69-cc0a-4c4e-b38b-c14c8618f9e8"},"vehicle_type_id":"4","last_reported":1715548057,"current_range_meters":0,"station_id":"ce4bh2h2rcd13ifvqdh0","pricing_plan_id":"cebpf4jnsgd1na2vs0mg"},{"bike_id":"d739bd51-8ca6-44e5-a8c2-53a5f8764c62","system_id":"levelo_inurba_marseille","lat":43.289184,"lon":5.366408,"is_reserved":false,"is_disabled":false,"rental_uris":{"android":"levelo://app?vid=d739bd51-8ca6-44e5-a8c2-53a5f8764c62","ios":"levelo://app?vid=d739bd51-8ca6-44e5-a8c2-53a5f8764c62"},"vehicle_type_id":"4","last_reported":1715548057,"current_range_meters":20000,"station_id":"ce4bhap2rcd13ifvqek0","pricing_plan_id":"cebpf4jnsgd1na2vs0mg"},{"bike_id":"b8fe7bb0-fd67-468f-9e59-4ddce17ac66f","system_id":"levelo_inurba_marseille","lat":43.289184,"lon":5.366408,"is_reserved":false,"is_disabled":false,"rental_uris":{"android":"levelo://app?vid=b8fe7bb0-fd67-468f-9e59-4ddce17ac66f","ios":"levelo://app?vid=b8fe7bb0-fd67-468f-9e59-4ddce17ac66f"},"vehicle_type_id":"4","last_reported":1715548057,"current_range_meters":3200,"station_id":"ce4bhap2rcd13ifvqek0","pricing_plan_id":"cebpf4jnsgd1na2vs0mg"},{"bike_id":"00c73e74-95f4-4b59-a8ea-4929a5be5c14","system_id":"levelo_inurba_marseille","lat":43.289468,"lon":5.363719,"is_reserved":false,"is_disabled":false,"rental_uris":{"android":"levelo://app?vid=00c73e74-95f4-4b59-a8ea-4929a5be5c14","ios":"levelo://app?vid=00c73e74-95f4-4b59-a8ea-4929a5be5c14"},"vehicle_type_id":"4","last_reported":1715548057,"current_range_meters":2400,"station_id":"ce4bhc92rcd13ifvqetg","pricing_plan_id":"cebpf4jnsgd1na2vs0mg"},{"bike_id":"864103ec-12a0-4d9f-9f65-58b698032638","system_id":"levelo_inurba_marseille","lat":43.304274,"lon":5.397513,"is_reserved":false,"is_disabled":false,"rental_uris":{"android":"levelo://app?vid=864103ec-12a0-4d9f-9f65-58b698032638","ios":"levelo://app?vid=864103ec-12a0-4d9f-9f65-58b698032638"},"vehicle_type_id":"4","last_reported":1715548057,"current_range_meters":10000,"station_id":"ce4bh092rcd13ifvqd20","pricing_plan_id":"cebpf4jnsgd1na2vs0mg"},{"bike_id":"d28d174a-ebc7-4aaa-8473-2295ab5c3f6c","system_id":"levelo_inurba_marseille","lat":43.304274,"lon":5.397513,"is_reserved":false,"is_disabled":false,"rental_uris":{"android":"levelo://app?vid=d28d174a-ebc7-4aaa-8473-2295ab5c3f6c","ios":"levelo://app?vid=d28d174a-ebc7-4aaa-8473-2295ab5c3f6c"},"vehicle_type_id":"4","last_reported":1715548057,"current_range_meters":19200,"station_id":"ce4bh092rcd13ifvqd20","pricing_plan_id":"cebpf4jnsgd1na2vs0mg"},{"bike_id":"ebdf3a06-8b1b-426a-bda1-776051e90932","system_id":"levelo_inurba_marseille","lat":43.304274,"lon":5.397513,"is_reserved":false,"is_disabled":false,"rental_uris":{"android":"levelo://app?vid=ebdf3a06-8b1b-426a-bda1-776051e90932","ios":"levelo://app?vid=ebdf3a06-8b1b-426a-bda1-776051e90932"},"vehicle_type_id":"4","last_reported":1715548057,"current_range_meters":2800,"station_id":"ce4bh092rcd13ifvqd20","pricing_plan_id":"cebpf4jnsgd1na2vs0mg"},{"bike_id":"9b542e82-b442-4c47-99e0-450c6c0b34e0","system_id":"levelo_inurba_marseille","lat":43.289741,"lon":5.378306,"is_reserved":false,"is_disabled":false,"rental_uris":{"android":"levelo://app?vid=9b542e82-b442-4c47-99e0-450c6c0b34e0","ios":"levelo://app?vid=9b542e82-b442-4c47-99e0-450c6c0b34e0"},"vehicle_type_id":"4","last_reported":1715548057,"current_range_meters":11200,"station_id":"ce4bh9p2rcd13ifvqed0","pricing_plan_id":"cebpf4jnsgd1na2vs0mg"},{"bike_id":"96d83050-1089-4ad9-949d-dc652488fd4b","system_id":"levelo_inurba_marseille","lat":43.29262,"lon":5.38446,"is_reserved":false,"is_disabled":false,"rental_uris":{"android":"levelo://app?vid=96d83050-1089-4ad9-949d-dc652488fd4b","ios":"levelo://app?vid=96d83050-1089-4ad9-949d-dc652488fd4b"},"vehicle_type_id":"4","last_reported":1715548057,"current_range_meters":0,"station_id":"ce4bh692rcd13ifvqea0","pricing_plan_id":"cebpf4jnsgd1na2vs0mg"},{"bike_id":"2a68e5a1-3fb5-420d-8e50-09162f39d2d1","system_id":"levelo_inurba_marseille","lat":43.292644,"lon":5.384257,"is_reserved":false,"is_disabled":false,"rental_uris":{"android":"levelo://app?vid=2a68e5a1-3fb5-420d-8e50-09162f39d2d1","ios":"levelo://app?vid=2a68e5a1-3fb5-420d-8e50-09162f39d2d1"},"vehicle_type_id":"4","last_reported":1715548057,"current_range_meters":28000,"station_id":"ce4bh692rcd13ifvqea0","pricing_plan_id":"cebpf4jnsgd1na2vs0mg"},{"bike_id":"1fe2ec13-5e91-49d0-ae7d-2b8b47357326","system_id":"levelo_inurba_marseille","lat":43.290104,"lon":5.356111,"is_reserved":false,"is_disabled":false,"rental_uris":{"android":"levelo://app?vid=1fe2ec13-5e91-49d0-ae7d-2b8b47357326","ios":"levelo://app?vid=1fe2ec13-5e91-49d0-ae7d-2b8b47357326"},"vehicle_type_id":"4","last_reported":1715548057,"current_range_meters":0,"station_id":"ce4bhb92rcd13ifvqen0","pricing_plan_id":"cebpf4jnsgd1na2vs0mg"},{"bike_id":"27df304c-eb85-49a9-8a29-96253c5b4bf8","system_id":"levelo_inurba_marseille","lat":43.290995,"lon":5.381361,"is_reserved":false,"is_disabled":false,"rental_uris":{"android":"levelo://app?vid=27df304c-eb85-49a9-8a29-96253c5b4bf8","ios":"levelo://app?vid=27df304c-eb85-49a9-8a29-96253c5b4bf8"},"vehicle_type_id":"4","last_reported":1715548057,"current_range_meters":0,"station_id":"ce4bh512rcd13ifvqe2g","pricing_plan_id":"cebpf4jnsgd1na2vs0mg"},{"bike_id":"bf48026f-744e-43f8-991d-9fa4a6cdff69","system_id":"levelo_inurba_marseille","lat":43.290995,"lon":5.381361,"is_reserved":false,"is_disabled":false,"rental_uris":{"android":"levelo://app?vid=bf48026f-744e-43f8-991d-9fa4a6cdff69","ios":"levelo://app?vid=bf48026f-744e-43f8-991d-9fa4a6cdff69"},"vehicle_type_id":"4","last_reported":1715548057,"current_range_meters":3600,"station_id":"ce4bh512rcd13ifvqe2g","pricing_plan_id":"cebpf4jnsgd1na2vs0mg"},{"bike_id":"3d23b249-315e-44d6-8b0c-5b3fc588236f","system_id":"levelo_inurba_marseille","lat":43.290995,"lon":5.381361,"is_reserved":false,"is_disabled":false,"rental_uris":{"android":"levelo://app?vid=3d23b249-315e-44d6-8b0c-5b3fc588236f","ios":"levelo://app?vid=3d23b249-315e-44d6-8b0c-5b3fc588236f"},"vehicle_type_id":"4","last_reported":1715548057,"current_range_meters":20800,"station_id":"ce4bh512rcd13ifvqe2g","pricing_plan_id":"cebpf4jnsgd1na2vs0mg"},{"bike_id":"427b9130-d711-46dc-a16d-811006fd7b07","system_id":"levelo_inurba_marseille","lat":43.290995,"lon":5.381361,"is_reserved":false,"is_disabled":false,"rental_uris":{"android":"levelo://app?vid=427b9130-d711-46dc-a16d-811006fd7b07","ios":"levelo://app?vid=427b9130-d711-46dc-a16d-811006fd7b07"},"vehicle_type_id":"4","last_reported":1715548057,"current_range_meters":14800,"station_id":"ce4bh512rcd13ifvqe2g","pricing_plan_id":"cebpf4jnsgd1na2vs0mg"},{"bike_id":"47ac6b1a-5f66-4d3a-9095-12d28a7f7216","system_id":"levelo_inurba_marseille","lat":43.29792,"lon":5.39346,"is_reserved":false,"is_disabled":false,"rental_uris":{"android":"levelo://app?vid=47ac6b1a-5f66-4d3a-9095-12d28a7f7216","ios":"levelo://app?vid=47ac6b1a-5f66-4d3a-9095-12d28a7f7216"},"vehicle_type_id":"4","last_reported":1715548057,"current_range_meters":0,"station_id":"chh1huq6cuj3fo74tm60","pricing_plan_id":"cebpf4jnsgd1na2vs0mg"},{"bike_id":"30451b25-a282-4aaa-9327-d951b85052f8","system_id":"levelo_inurba_marseille","lat":43.297847,"lon":5.393407,"is_reserved":false,"is_disabled":false,"rental_uris":{"android":"levelo://app?vid=30451b25-a282-4aaa-9327-d951b85052f8","ios":"levelo://app?vid=30451b25-a282-4aaa-9327-d951b85052f8"},"vehicle_type_id":"4","last_reported":1715548057,"current_range_meters":8000,"station_id":"chh1huq6cuj3fo74tm60","pricing_plan_id":"cebpf4jnsgd1na2vs0mg"},{"bike_id":"e73e76e2-dd41-4fe9-b191-5528b8019d98","system_id":"levelo_inurba_marseille","lat":43.297815,"lon":5.393548,"is_reserved":false,"is_disabled":false,"rental_uris":{"android":"levelo://app?vid=e73e76e2-dd41-4fe9-b191-5528b8019d98","ios":"levelo://app?vid=e73e76e2-dd41-4fe9-b191-5528b8019d98"},"vehicle_type_id":"4","last_reported":1715548057,"current_range_meters":17200,"station_id":"chh1huq6cuj3fo74tm60","pricing_plan_id":"cebpf4jnsgd1na2vs0mg"},{"bike_id":"9c19c539-cc3e-41e2-97e4-6c5b559fde22","system_id":"levelo_inurba_marseille","lat":43.330442,"lon":5.389148,"is_reserved":false,"is_disabled":false,"rental_uris":{"android":"levelo://app?vid=9c19c539-cc3e-41e2-97e4-6c5b559fde22","ios":"levelo://app?vid=9c19c539-cc3e-41e2-97e4-6c5b559fde22"},"vehicle_type_id":"4","last_reported":1715548057,"current_range_meters":24000,"station_id":"ce4bhr92rcd13ifvqhrg","pricing_plan_id":"cebpf4jnsgd1na2vs0mg"},{"bike_id":"c3b58185-a377-46b3-8c12-a2e38a3aa194","system_id":"levelo_inurba_marseille","lat":43.295169,"lon":5.390426,"is_reserved":false,"is_disabled":false,"rental_uris":{"android":"levelo://app?vid=c3b58185-a377-46b3-8c12-a2e38a3aa194","ios":"levelo://app?vid=c3b58185-a377-46b3-8c12-a2e38a3aa194"},"vehicle_type_id":"4","last_reported":1715548057,"current_range_meters":5600,"station_id":"ce4bh3p2rcd13ifvqdp0","pricing_plan_id":"cebpf4jnsgd1na2vs0mg"},{"bike_id":"6ec6dffd-aa9e-46e4-ae54-cb7b1089ab03","system_id":"levelo_inurba_marseille","lat":43.3302,"lon":5.3904,"is_reserved":false,"is_disabled":false,"rental_uris":{"android":"levelo://app?vid=6ec6dffd-aa9e-46e4-ae54-cb7b1089ab03","ios":"levelo://app?vid=6ec6dffd-aa9e-46e4-ae54-cb7b1089ab03"},"vehicle_type_id":"4","last_reported":1715548057,"current_range_meters":6400,"station_id":"ce4bhr92rcd13ifvqhrg","pricing_plan_id":"cebpf4jnsgd1na2vs0mg"},{"bike_id":"f5bca667-983c-4199-8a77-9d63e9732643","system_id":"levelo_inurba_marseille","lat":43.2881,"lon":5.365358,"is_reserved":false,"is_disabled":false,"rental_uris":{"android":"levelo://app?vid=f5bca667-983c-4199-8a77-9d63e9732643","ios":"levelo://app?vid=f5bca667-983c-4199-8a77-9d63e9732643"},"vehicle_type_id":"4","last_reported":1715548057,"current_range_meters":0,"station_id":"","pricing_plan_id":"cebpf4jnsgd1na2vs0mg"},{"bike_id":"5b358d20-2d54-4b77-a2c0-720fa47043d1","system_id":"levelo_inurba_marseille","lat":43.2901,"lon":5.381269,"is_reserved":false,"is_disabled":false,"rental_uris":{"android":"levelo://app?vid=5b358d20-2d54-4b77-a2c0-720fa47043d1","ios":"levelo://app?vid=5b358d20-2d54-4b77-a2c0-720fa47043d1"},"vehicle_type_id":"4","last_reported":1715548057,"current_range_meters":16000,"station_id":"ce4bh4p2rcd13ifvqe1g","pricing_plan_id":"cebpf4jnsgd1na2vs0mg"},{"bike_id":"a6fe3be9-2ae1-42ce-9d62-911bb3dea5fa","system_id":"levelo_inurba_marseille","lat":43.28843,"lon":5.35855,"is_reserved":false,"is_disabled":false,"rental_uris":{"android":"levelo://app?vid=a6fe3be9-2ae1-42ce-9d62-911bb3dea5fa","ios":"levelo://app?vid=a6fe3be9-2ae1-42ce-9d62-911bb3dea5fa"},"vehicle_type_id":"4","last_reported":1715548057,"current_range_meters":24800,"station_id":"ce4bhb12rcd13ifvqem0","pricing_plan_id":"cebpf4jnsgd1na2vs0mg"},{"bike_id":"abac1c59-0594-419c-9efd-d2a30df071d6","system_id":"levelo_inurba_marseille","lat":43.31267,"lon":5.4017,"is_reserved":false,"is_disabled":false,"rental_uris":{"android":"levelo://app?vid=abac1c59-0594-419c-9efd-d2a30df071d6","ios":"levelo://app?vid=abac1c59-0594-419c-9efd-d2a30df071d6"},"vehicle_type_id":"4","last_reported":1715548057,"current_range_meters":17200,"station_id":"ce4bh092rcd13ifvqd30","pricing_plan_id":"cebpf4jnsgd1na2vs0mg"},{"bike_id":"cec67d2e-905a-4cbd-af4d-3631c4cf4948","system_id":"levelo_inurba_marseille","lat":43.30927,"lon":5.40142,"is_reserved":false,"is_disabled":false,"rental_uris":{"android":"levelo://app?vid=cec67d2e-905a-4cbd-af4d-3631c4cf4948","ios":"levelo://app?vid=cec67d2e-905a-4cbd-af4d-3631c4cf4948"},"vehicle_type_id":"4","last_reported":1715548057,"current_range_meters":30000,"station_id":"ce4bgvp2rcd13ifvqct0","pricing_plan_id":"cebpf4jnsgd1na2vs0mg"},{"bike_id":"db778a2f-6a5b-4823-a042-67267283a514","system_id":"levelo_inurba_marseille","lat":43.312609,"lon":5.401662,"is_reserved":false,"is_disabled":false,"rental_uris":{"android":"levelo://app?vid=db778a2f-6a5b-4823-a042-67267283a514","ios":"levelo://app?vid=db778a2f-6a5b-4823-a042-67267283a514"},"vehicle_type_id":"4","last_reported":1715548057,"current_range_meters":26800,"station_id":"ce4bh092rcd13ifvqd30","pricing_plan_id":"cebpf4jnsgd1na2vs0mg"},{"bike_id":"eaf5587b-3d43-4af3-965e-abc5108b2fe2","system_id":"levelo_inurba_marseille","lat":43.309371,"lon":5.401449,"is_reserved":false,"is_disabled":false,"rental_uris":{"android":"levelo://app?vid=eaf5587b-3d43-4af3-965e-abc5108b2fe2","ios":"levelo://app?vid=eaf5587b-3d43-4af3-965e-abc5108b2fe2"},"vehicle_type_id":"4","last_reported":1715548057,"current_range_meters":18000,"station_id":"ce4bgvp2rcd13ifvqct0","pricing_plan_id":"cebpf4jnsgd1na2vs0mg"},{"bike_id":"4441010b-d104-4d40-a929-21fa3b8cad60","system_id":"levelo_inurba_marseille","lat":43.312609,"lon":5.401662,"is_reserved":false,"is_disabled":false,"rental_uris":{"android":"levelo://app?vid=4441010b-d104-4d40-a929-21fa3b8cad60","ios":"levelo://app?vid=4441010b-d104-4d40-a929-21fa3b8cad60"},"vehicle_type_id":"4","last_reported":1715548057,"current_range_meters":7200,"station_id":"ce4bh092rcd13ifvqd30","pricing_plan_id":"cebpf4jnsgd1na2vs0mg"},{"bike_id":"5b370852-b286-4d2c-944d-115ceaf01be9","system_id":"levelo_inurba_marseille","lat":43.309371,"lon":5.401449,"is_reserved":false,"is_disabled":false,"rental_uris":{"android":"levelo://app?vid=5b370852-b286-4d2c-944d-115ceaf01be9","ios":"levelo://app?vid=5b370852-b286-4d2c-944d-115ceaf01be9"},"vehicle_type_id":"4","last_reported":1715548057,"current_range_meters":22800,"station_id":"ce4bgvp2rcd13ifvqct0","pricing_plan_id":"cebpf4jnsgd1na2vs0mg"},{"bike_id":"3e945e6d-b099-45e4-910b-f9f418c20b4a","system_id":"levelo_inurba_marseille","lat":43.31267,"lon":5.40179,"is_reserved":false,"is_disabled":false,"rental_uris":{"android":"levelo://app?vid=3e945e6d-b099-45e4-910b-f9f418c20b4a","ios":"levelo://app?vid=3e945e6d-b099-45e4-910b-f9f418c20b4a"},"vehicle_type_id":"4","last_reported":1715548057,"current_range_meters":29600,"station_id":"ce4bh092rcd13ifvqd30","pricing_plan_id":"cebpf4jnsgd1na2vs0mg"},{"bike_id":"88ce47d7-4380-4660-adf0-02ea9f6af6c1","system_id":"levelo_inurba_marseille","lat":43.309371,"lon":5.401449,"is_reserved":false,"is_disabled":false,"rental_uris":{"android":"levelo://app?vid=88ce47d7-4380-4660-adf0-02ea9f6af6c1","ios":"levelo://app?vid=88ce47d7-4380-4660-adf0-02ea9f6af6c1"},"vehicle_type_id":"4","last_reported":1715548057,"current_range_meters":10400,"station_id":"ce4bgvp2rcd13ifvqct0","pricing_plan_id":"cebpf4jnsgd1na2vs0mg"},{"bike_id":"495f80fd-2cf5-4229-8f83-92c4277e8fb1","system_id":"levelo_inurba_marseille","lat":43.306412,"lon":5.401035,"is_reserved":false,"is_disabled":false,"rental_uris":{"android":"levelo://app?vid=495f80fd-2cf5-4229-8f83-92c4277e8fb1","ios":"levelo://app?vid=495f80fd-2cf5-4229-8f83-92c4277e8fb1"},"vehicle_type_id":"4","last_reported":1715548057,"current_range_meters":31200,"station_id":"ce4bh112rcd13ifvqda0","pricing_plan_id":"cebpf4jnsgd1na2vs0mg"},{"bike_id":"a4cc72da-ba19-4e7f-b681-6578293aff10","system_id":"levelo_inurba_marseille","lat":43.306412,"lon":5.401035,"is_reserved":false,"is_disabled":false,"rental_uris":{"android":"levelo://app?vid=a4cc72da-ba19-4e7f-b681-6578293aff10","ios":"levelo://app?vid=a4cc72da-ba19-4e7f-b681-6578293aff10"},"vehicle_type_id":"4","last_reported":1715548057,"current_range_meters":23600,"station_id":"ce4bh112rcd13ifvqda0","pricing_plan_id":"cebpf4jnsgd1na2vs0mg"},{"bike_id":"e40cb84b-e137-4382-b8fc-2b5e3c7c819f","system_id":"levelo_inurba_marseille","lat":43.306412,"lon":5.401035,"is_reserved":false,"is_disabled":false,"rental_uris":{"android":"levelo://app?vid=e40cb84b-e137-4382-b8fc-2b5e3c7c819f","ios":"levelo://app?vid=e40cb84b-e137-4382-b8fc-2b5e3c7c819f"},"vehicle_type_id":"4","last_reported":1715548057,"current_range_meters":31200,"station_id":"ce4bh112rcd13ifvqda0","pricing_plan_id":"cebpf4jnsgd1na2vs0mg"},{"bike_id":"f7932a42-aa5c-439b-b535-65dd8ccd41cf","system_id":"levelo_inurba_marseille","lat":43.33751,"lon":5.37493,"is_reserved":false,"is_disabled":false,"rental_uris":{"android":"levelo://app?vid=f7932a42-aa5c-439b-b535-65dd8ccd41cf","ios":"levelo://app?vid=f7932a42-aa5c-439b-b535-65dd8ccd41cf"},"vehicle_type_id":"4","last_reported":1715548057,"current_range_meters":29200,"station_id":"","pricing_plan_id":"cebpf4jnsgd1na2vs0mg"},{"bike_id":"c09d8909-52ff-4c98-b4b5-55d7c0cbe0dc","system_id":"levelo_inurba_marseille","lat":43.306412,"lon":5.401035,"is_reserved":false,"is_disabled":false,"rental_uris":{"android":"levelo://app?vid=c09d8909-52ff-4c98-b4b5-55d7c0cbe0dc","ios":"levelo://app?vid=c09d8909-52ff-4c98-b4b5-55d7c0cbe0dc"},"vehicle_type_id":"4","last_reported":1715548057,"current_range_meters":21600,"station_id":"ce4bh112rcd13ifvqda0","pricing_plan_id":"cebpf4jnsgd1na2vs0mg"},{"bike_id":"91d9714b-b35f-47ce-8f34-022bf351236f","system_id":"levelo_inurba_marseille","lat":43.33762,"lon":5.37436,"is_reserved":false,"is_disabled":false,"rental_uris":{"android":"levelo://app?vid=91d9714b-b35f-47ce-8f34-022bf351236f","ios":"levelo://app?vid=91d9714b-b35f-47ce-8f34-022bf351236f"},"vehicle_type_id":"4","last_reported":1715548057,"current_range_meters":20000,"station_id":"","pricing_plan_id":"cebpf4jnsgd1na2vs0mg"},{"bike_id":"59ae8ca9-3944-4a0a-8371-987d89fa7a8b","system_id":"levelo_inurba_marseille","lat":43.30642,"lon":5.401031,"is_reserved":false,"is_disabled":false,"rental_uris":{"android":"levelo://app?vid=59ae8ca9-3944-4a0a-8371-987d89fa7a8b","ios":"levelo://app?vid=59ae8ca9-3944-4a0a-8371-987d89fa7a8b"},