{"last_updated":1752505928,"ttl":60,"version":"2.2","data":{"bikes":[{"bike_id":"feb1ed1d-b0db-45cc-9e1b-7311a8d72058","system_id":"levelo_inurba_marseille","lat":43.33747,"lon":5.37463,"is_reserved":false,"is_disabled":false,"rental_uris":{"android":"levelo://app?vid=feb1ed1d-b0db-45cc-9e1b-7311a8d72058","ios":"levelo://app?vid=feb1ed1d-b0db-45cc-9e1b-7311a8d72058"},"vehicle_type_id":"1","last_reported":1752505928,"current_range_meters":37600,"station_id":"","pricing_plan_id":"cebpf4jnsgd1na2vs0mg"},{"bike_id":"3d7c83a1-d94c-4aab-95a9-8a04bec43d63","system_id":"levelo_inurba_marseille","lat":43.32372,"lon":5.36786,"is_reserved":false,"is_disabled":false,"rental_uris":{"android":"levelo://app?vid=3d7c83a1-d94c-4aab-95a9-8a04bec43d63","ios":"levelo://app?vid=3d7c83a1-d94c-4aab-95a9-8a04bec43d63"},"vehicle_type_id":"4","last_reported":1752505928,"current_range_meters":2800,"station_id":"ce4bhsh2rcd13ifvqi2g","pricing_plan_id":"cebpf4jnsgd1na2vs0mg"},{"bike_id":"ba4d743f-f88d-45ad-ab98-a2735105ad12","system_id":"levelo_inurba_marseille","lat":43.273746,"lon":5.362615,"is_reserved":false,"is_disabled":false,"rental_uris":{"android":"levelo://app?vid=ba4d743f-f88d-45ad-ab98-a2735105ad12","ios":"levelo://app?vid=ba4d743f-f88d-45ad-ab98-a2735105ad12"},"vehicle_type_id":"4","last_reported":1752505928,"current_range_meters":2800,"station_id":"","pricing_plan_id":"cebpf4jnsgd1na2vs0mg"},{"bike_id":"250a6c0b-d976-49ed-a0c6-94897cb9e7ee","system_id":"levelo_inurba_marseille","lat":43.27383,"lon":5.36262,"is_reserved":false,"is_disabled":false,"rental_uris":{"android":"levelo://app?vid=250a6c0b-d976-49ed-a0c6-94897cb9e7ee","ios":"levelo://app?vid=250a6c0b-d976-49ed-a0c6-94897cb9e7ee"},"vehicle_type_id":"4","last_reported":1752505928,"current_range_meters":2800,"station_id":"ce4bhbh2rcd13ifvqeo0","pricing_plan_id":"cebpf4jnsgd1na2vs0mg"},{"bike_id":"f1875da5-b0a3-4c76-ba1b-0b62778e7058","system_id":"levelo_inurba_marseille","lat":43.23193,"lon":5.35551,"is_reserved":false,"is_disabled":false,"rental_uris":{"android":"levelo://app?vid=f1875da5-b0a3-4c76-ba1b-0b62778e7058","ios":"levelo://app?vid=f1875da5-b0a3-4c76-ba1b-0b62778e7058"},"vehicle_type_id":"4","last_reported":1752505928,"current_range_meters":2800,"station_id":"ce4bhu92rcd13ifvqi70","pricing_plan_id":"cebpf4jnsgd1na2vs0mg"},{"bike_id":"3072785f-89a6-49c2-a78c-29b751730ff4","system_id":"levelo_inurba_marseille","lat":43.273168,"lon":5.39063,"is_reserved":false,"is_disabled":false,"rental_uris":{"android":"levelo://app?vid=3072785f-89a6-49c2-a78c-29b751730ff4","ios":"levelo://app?vid=3072785f-89a6-49c2-a78c-29b751730ff4"},"vehicle_type_id":"4","last_reported":1752505928,"current_range_meters":3200,"station_id":"ce4bhgp2rcd13ifvqfe0","pricing_plan_id":"cebpf4jnsgd1na2vs0mg"},{"bike_id":"9b980559-6c87-4a41-ac1c-270bfc6fc8b0","system_id":"levelo_inurba_marseille","lat":43.29601,"lon":5.38099,"is_reserved":false,"is_disabled":true,"rental_uris":{"android":"levelo://app?vid=9b980559-6c87-4a41-ac1c-270bfc6fc8b0","ios":"levelo://app?vid=9b980559-6c87-4a41-ac1c-270bfc6fc8b0"},"vehicle_type_id":"4","last_reported":1752505928,"current_range_meters":3200,"station_id":"ce4bgl12rcd13ifvqbo0","pricing_plan_id":"cebpf4jnsgd1na2vs0mg"},{"bike_id":"9fb1b93e-4e95-4510-90eb-a8aad615bdc5","system_id":"levelo_inurba_marseille","lat":43.28418,"lon":5.37501,"is_reserved":false,"is_disabled":false,"rental_uris":{"android":"levelo://app?vid=9fb1b93e-4e95-4510-90eb-a8aad615bdc5","ios":"levelo://app?vid=9fb1b93e-4e95-4510-90eb-a8aad615bdc5"},"vehicle_type_id":"4","last_reported":1752505928,"current_range_meters":4400,"station_id":"ce4bh412rcd13ifvqds0","pricing_plan_id":"cebpf4jnsgd1na2vs0mg"},{"bike_id":"3300b435-590f-4b3b-a69e-ecece2234c8c","system_id":"levelo_inurba_marseille","lat":43.272,"lon":5.4101,"is_reserved":false,"is_disabled":false,"rental_uris":{"android":"levelo://app?vid=3300b435-590f-4b3b-a69e-ecece2234c8c","ios":"levelo://app?vid=3300b435-590f-4b3b-a69e-ecece2234c8c"},"vehicle_type_id":"4","last_reported":1752505928,"current_range_meters":4800,"station_id":"ce4bhl12rcd13ifvqgf0","pricing_plan_id":"cebpf4jnsgd1na2vs0mg"},{"bike_id":"470d1e9d-8c05-40b8-a6b2-039f183b9f6a","system_id":"levelo_inurba_marseille","lat":43.231928,"lon":5.355582,"is_reserved":false,"is_disabled":true,"rental_uris":{"android":"levelo://app?vid=470d1e9d-8c05-40b8-a6b2-039f183b9f6a","ios":"levelo://app?vid=470d1e9d-8c05-40b8-a6b2-039f183b9f6a"},"vehicle_type_id":"4","last_reported":1752505928,"current_range_meters":4800,"station_id":"ce4bhu92rcd13ifvqi70","pricing_plan_id":"cebpf4jnsgd1na2vs0mg"},{"bike_id":"f5a5c290-12bb-4646-ab18-b385121f9284","system_id":"levelo_inurba_marseille","lat":43.308043,"lon":5.38159,"is_reserved":false,"is_disabled":true,"rental_uris":{"android":"levelo://app?vid=f5a5c290-12bb-4646-ab18-b385121f9284","ios":"levelo://app?vid=f5a5c290-12bb-4646-ab18-b385121f9284"},"vehicle_type_id":"4","last_reported":1752505928,"current_range_meters":5600,"station_id":"ce4bgt12rcd13ifvqce0","pricing_plan_id":"cebpf4jnsgd1na2vs0mg"},{"bike_id":"e905217c-abda-468b-92f5-fd38a8ede7d5","system_id":"levelo_inurba_marseille","lat":43.22501,"lon":5.34779,"is_reserved":false,"is_disabled":false,"rental_uris":{"android":"levelo://app?vid=e905217c-abda-468b-92f5-fd38a8ede7d5","ios":"levelo://app?vid=e905217c-abda-468b-92f5-fd38a8ede7d5"},"vehicle_type_id":"4","last_reported":1752505928,"current_range_meters":5600,"station_id":"st_cvj5dfep6f1abm77gieg","pricing_plan_id":"cebpf4jnsgd1na2vs0mg"},{"bike_id":"6beb11f7-ba90-458e-af4d-3a11cc8301d0","system_id":"levelo_inurba_marseille","lat":43.281584,"lon":5.423831,"is_reserved":false,"is_disabled":false,"rental_uris":{"android":"levelo://app?vid=6beb11f7-ba90-458e-af4d-3a11cc8301d0","ios":"levelo://app?vid=6beb11f7-ba90-458e-af4d-3a11cc8301d0"},"vehicle_type_id":"4","last_reported":1752505928,"current_range_meters":6000,"station_id":"ce4bhnh2rcd13ifvqgug","pricing_plan_id":"cebpf4jnsgd1na2vs0mg"},{"bike_id":"2c8c47f8-9ac3-4fec-977c-1f63d3a5553e","system_id":"levelo_inurba_marseille","lat":43.29285,"lon":5.4012,"is_reserved":false,"is_disabled":false,"rental_uris":{"android":"levelo://app?vid=2c8c47f8-9ac3-4fec-977c-1f63d3a5553e","ios":"levelo://app?vid=2c8c47f8-9ac3-4fec-977c-1f63d3a5553e"},"vehicle_type_id":"4","last_reported":1752505928,"current_range_meters":6000,"station_id":"ce4bh312rcd13ifvqdk0","pricing_plan_id":"cebpf4jnsgd1na2vs0mg"},{"bike_id":"44dd919c-32df-4fe9-8b1c-c9988fb68d5b","system_id":"levelo_inurba_marseille","lat":43.26932,"lon":5.40335,"is_reserved":false,"is_disabled":true,"rental_uris":{"android":"levelo://app?vid=44dd919c-32df-4fe9-8b1c-c9988fb68d5b","ios":"levelo://app?vid=44dd919c-32df-4fe9-8b1c-c9988fb68d5b"},"vehicle_type_id":"4","last_reported":1752505928,"current_range_meters":6000,"station_id":"cjm6bp8fraef2m0cb0m0","pricing_plan_id":"cebpf4jnsgd1na2vs0mg"},{"bike_id":"9652b5ba-6d74-4fae-99ad-6eadec16f2fa","system_id":"levelo_inurba_marseille","lat":43.28091,"lon":5.39661,"is_reserved":false,"is_disabled":false,"rental_uris":{"android":"levelo://app?vid=9652b5ba-6d74-4fae-99ad-6eadec16f2fa","ios":"levelo://app?vid=9652b5ba-6d74-4fae-99ad-6eadec16f2fa"},"vehicle_type_id":"4","last_reported":1752505928,"current_range_meters":6000,"station_id":"ce4bho12rcd13ifvqh2g","pricing_plan_id":"cebpf4jnsgd1na2vs0mg"},{"bike_id":"9efb8360-8563-45b9-96b2-a06e314abdb2","system_id":"levelo_inurba_marseille","lat":43.21196,"lon":5.35067,"is_reserved":false,"is_disabled":false,"rental_uris":{"android":"levelo://app?vid=9efb8360-8563-45b9-96b2-a06e314abdb2","ios":"levelo://app?vid=9efb8360-8563-45b9-96b2-a06e314abdb2"},"vehicle_type_id":"4","last_reported":1752505928,"current_range_meters":6000,"station_id":"st_cvj6sg6p6f1abm77japg","pricing_plan_id":"cebpf4jnsgd1na2vs0mg"},{"bike_id":"78249168-1256-49f3-8d11-4bfa6f29e6e9","system_id":"levelo_inurba_marseille","lat":43.21751,"lon":5.34604,"is_reserved":false,"is_disabled":false,"rental_uris":{"android":"levelo://app?vid=78249168-1256-49f3-8d11-4bfa6f29e6e9","ios":"levelo://app?vid=78249168-1256-49f3-8d11-4bfa6f29e6e9"},"vehicle_type_id":"4","last_reported":1752505928,"current_range_meters":6800,"station_id":"st_cvj6r9ubvosntc0bgbag","pricing_plan_id":"cebpf4jnsgd1na2vs0mg"},{"bike_id":"dba62f93-2912-4648-9ecf-1002a7ece2c7","system_id":"levelo_inurba_marseille","lat":43.3205,"lon":5.41548,"is_reserved":false,"is_disabled":false,"rental_uris":{"android":"levelo://app?vid=dba62f93-2912-4648-9ecf-1002a7ece2c7","ios":"levelo://app?vid=dba62f93-2912-4648-9ecf-1002a7ece2c7"},"vehicle_type_id":"4","last_reported":1752505928,"current_range_meters":6800,"station_id":"ce4bhq92rcd13ifvqhkg","pricing_plan_id":"cebpf4jnsgd1na2vs0mg"},{"bike_id":"425457d9-97e9-407f-9a0d-d92fdb3a5f51","system_id":"levelo_inurba_marseille","lat":43.23197,"lon":5.35545,"is_reserved":false,"is_disabled":false,"rental_uris":{"android":"levelo://app?vid=425457d9-97e9-407f-9a0d-d92fdb3a5f51","ios":"levelo://app?vid=425457d9-97e9-407f-9a0d-d92fdb3a5f51"},"vehicle_type_id":"4","last_reported":1752505928,"current_range_meters":6800,"station_id":"ce4bhu92rcd13ifvqi70","pricing_plan_id":"cebpf4jnsgd1na2vs0mg"},{"bike_id":"85455be8-1c65-4ef7-b69b-89ee19268f6d","system_id":"levelo_inurba_marseille","lat":43.2871,"lon":5.37382,"is_reserved":false,"is_disabled":false,"rental_uris":{"android":"levelo://app?vid=85455be8-1c65-4ef7-b69b-89ee19268f6d","ios":"levelo://app?vid=85455be8-1c65-4ef7-b69b-89ee19268f6d"},"vehicle_type_id":"4","last_reported":1752505928,"current_range_meters":7200,"station_id":"ce4bh3p2rcd13ifvqdq0","pricing_plan_id":"cebpf4jnsgd1na2vs0mg"},{"bike_id":"b104bf34-11ed-494d-a3af-bf68eb32fb38","system_id":"levelo_inurba_marseille","lat":43.26484,"lon":5.3956,"is_reserved":false,"is_disabled":false,"rental_uris":{"android":"levelo://app?vid=b104bf34-11ed-494d-a3af-bf68eb32fb38","ios":"levelo://app?vid=b104bf34-11ed-494d-a3af-bf68eb32fb38"},"vehicle_type_id":"4","last_reported":1752505928,"current_range_meters":7200,"station_id":"ce4bhi12rcd13ifvqfq0","pricing_plan_id":"cebpf4jnsgd1na2vs0mg"},{"bike_id":"cab0e28c-dcaf-4b65-a821-5fc3bc85a42f","system_id":"levelo_inurba_marseille","lat":43.270721,"lon":5.422818,"is_reserved":false,"is_disabled":false,"rental_uris":{"android":"levelo://app?vid=cab0e28c-dcaf-4b65-a821-5fc3bc85a42f","ios":"levelo://app?vid=cab0e28c-dcaf-4b65-a821-5fc3bc85a42f"},"vehicle_type_id":"4","last_reported":1752505928,"current_range_meters":8000,"station_id":"ce4bhk92rcd13ifvqgb0","pricing_plan_id":"cebpf4jnsgd1na2vs0mg"},{"bike_id":"71d0a528-9ed8-4acd-b87e-7ae0d967fbdc","system_id":"levelo_inurba_marseille","lat":43.21743,"lon":5.34606,"is_reserved":false,"is_disabled":false,"rental_uris":{"android":"levelo://app?vid=71d0a528-9ed8-4acd-b87e-7ae0d967fbdc","ios":"levelo://app?vid=71d0a528-9ed8-4acd-b87e-7ae0d967fbdc"},"vehicle_type_id":"4","last_reported":1752505928,"current_range_meters":8000,"station_id":"st_cvj6r9ubvosntc0bgbag","pricing_plan_id":"cebpf4jnsgd1na2vs0mg"},{"bike_id":"1e8c759b-244a-45b5-946e-fc7541aba8d7","system_id":"levelo_inurba_marseille","lat":43.22504,"lon":5.34793,"is_reserved":false,"is_disabled":false,"rental_uris":{"android":"levelo://app?vid=1e8c759b-244a-45b5-946e-fc7541aba8d7","ios":"levelo://app?vid=1e8c759b-244a-45b5-946e-fc7541aba8d7"},"vehicle_type_id":"4","last_reported":1752505928,"current_range_meters":8000,"station_id":"st_cvj5dfep6f1abm77gieg","pricing_plan_id":"cebpf4jnsgd1na2vs0mg"},{"bike_id":"f23760ff-ab61-4853-aa67-28aac93822c1","system_id":"levelo_inurba_marseille","lat":43.337444,"lon":5.374475,"is_reserved":false,"is_disabled":false,"rental_uris":{"android":"levelo://app?vid=f23760ff-ab61-4853-aa67-28aac93822c1","ios":"levelo://app?vid=f23760ff-ab61-4853-aa67-28aac93822c1"},"vehicle_type_id":"4","last_reported":1752505928,"current_range_meters":8000,"station_id":"","pricing_plan_id":"cebpf4jnsgd1na2vs0mg"},{"bike_id":"999b9d30-855b-489d-9de1-6a44f83d6385","system_id":"levelo_inurba_marseille","lat":43.21187,"lon":5.35073,"is_reserved":false,"is_disabled":false,"rental_uris":{"android":"levelo://app?vid=999b9d30-855b-489d-9de1-6a44f83d6385","ios":"levelo://app?vid=999b9d30-855b-489d-9de1-6a44f83d6385"},"vehicle_type_id":"4","last_reported":1752505928,"current_range_meters":8000,"station_id":"st_cvj6sg6p6f1abm77japg","pricing_plan_id":"cebpf4jnsgd1na2vs0mg"},{"bike_id":"fbcc6b0c-9862-4489-80a9-42545c3f06b7","system_id":"levelo_inurba_marseille","lat":43.2737,"lon":5.36233,"is_reserved":false,"is_disabled":false,"rental_uris":{"android":"levelo://app?vid=fbcc6b0c-9862-4489-80a9-42545c3f06b7","ios":"levelo://app?vid=fbcc6b0c-9862-4489-80a9-42545c3f06b7"},"vehicle_type_id":"4","last_reported":1752505928,"current_range_meters":8400,"station_id":"ce4bhbh2rcd13ifvqeo0","pricing_plan_id":"cebpf4jnsgd1na2vs0mg"},{"bike_id":"f4b2a12a-aa18-4871-b442-20bea75e8c0d","system_id":"levelo_inurba_marseille","lat":43.28667,"lon":5.3636,"is_reserved":false,"is_disabled":false,"rental_uris":{"android":"levelo://app?vid=f4b2a12a-aa18-4871-b442-20bea75e8c0d","ios":"levelo://app?vid=f4b2a12a-aa18-4871-b442-20bea75e8c0d"},"vehicle_type_id":"4","last_reported":1752505928,"current_range_meters":8800,"station_id":"ce4bhah2rcd13ifvqej0","pricing_plan_id":"cebpf4jnsgd1na2vs0mg"},{"bike_id":"fb62ca1b-146e-4f82-b485-190d0f8ca6b2","system_id":"levelo_inurba_marseille","lat":43.21751,"lon":5.34578,"is_reserved":false,"is_disabled":false,"rental_uris":{"android":"levelo://app?vid=fb62ca1b-146e-4f82-b485-190d0f8ca6b2","ios":"levelo://app?vid=fb62ca1b-146e-4f82-b485-190d0f8ca6b2"},"vehicle_type_id":"4","last_reported":1752505928,"current_range_meters":8800,"station_id":"st_cvj6r9ubvosntc0bgbag","pricing_plan_id":"cebpf4jnsgd1na2vs0mg"},{"bike_id":"c9d75e43-c10e-4740-8749-d88bb04f823d","system_id":"levelo_inurba_marseille","lat":43.282684,"lon":5.350591,"is_reserved":false,"is_disabled":false,"rental_uris":{"android":"levelo://app?vid=c9d75e43-c10e-4740-8749-d88bb04f823d","ios":"levelo://app?vid=c9d75e43-c10e-4740-8749-d88bb04f823d"},"vehicle_type_id":"4","last_reported":1752505928,"current_range_meters":8800,"station_id":"ce4bhbp2rcd13ifvqerg","pricing_plan_id":"cebpf4jnsgd1na2vs0mg"},{"bike_id":"992dd73f-39d7-465a-b879-d9ca4575a5ad","system_id":"levelo_inurba_marseille","lat":43.28943,"lon":5.36637,"is_reserved":false,"is_disabled":false,"rental_uris":{"android":"levelo://app?vid=992dd73f-39d7-465a-b879-d9ca4575a5ad","ios":"levelo://app?vid=992dd73f-39d7-465a-b879-d9ca4575a5ad"},"vehicle_type_id":"4","last_reported":1752505928,"current_range_meters":8800,"station_id":"ce4bhap2rcd13ifvqek0","pricing_plan_id":"cebpf4jnsgd1na2vs0mg"},{"bike_id":"347e3ee9-32e5-4d14-9f72-f85eebd29741","system_id":"levelo_inurba_marseille","lat":43.27379,"lon":5.36251,"is_reserved":false,"is_disabled":false,"rental_uris":{"android":"levelo://app?vid=347e3ee9-32e5-4d14-9f72-f85eebd29741","ios":"levelo://app?vid=347e3ee9-32e5-4d14-9f72-f85eebd29741"},"vehicle_type_id":"4","last_reported":1752505928,"current_range_meters":9200,"station_id":"ce4bhbh2rcd13ifvqeo0","pricing_plan_id":"cebpf4jnsgd1na2vs0mg"},{"bike_id":"3e6bc0d8-5839-4f0d-8852-8599a5e95410","system_id":"levelo_inurba_marseille","lat":43.27919,"lon":5.40925,"is_reserved":false,"is_disabled":false,"rental_uris":{"android":"levelo://app?vid=3e6bc0d8-5839-4f0d-8852-8599a5e95410","ios":"levelo://app?vid=3e6bc0d8-5839-4f0d-8852-8599a5e95410"},"vehicle_type_id":"4","last_reported":1752505928,"current_range_meters":9200,"station_id":"ce4bhnp2rcd13ifvqh0g","pricing_plan_id":"cebpf4jnsgd1na2vs0mg"},{"bike_id":"0eadb807-73f6-424a-bcd7-3b07bd18ff50","system_id":"levelo_inurba_marseille","lat":43.32113,"lon":5.36768,"is_reserved":false,"is_disabled":false,"rental_uris":{"android":"levelo://app?vid=0eadb807-73f6-424a-bcd7-3b07bd18ff50","ios":"levelo://app?vid=0eadb807-73f6-424a-bcd7-3b07bd18ff50"},"vehicle_type_id":"4","last_reported":1752505928,"current_range_meters":9200,"station_id":"ce4bhrh2rcd13ifvqhug","pricing_plan_id":"cebpf4jnsgd1na2vs0mg"},{"bike_id":"dc5a63d7-38a4-4f4a-ad94-b0230f5d2665","system_id":"levelo_inurba_marseille","lat":43.28612,"lon":5.35109,"is_reserved":false,"is_disabled":false,"rental_uris":{"android":"levelo://app?vid=dc5a63d7-38a4-4f4a-ad94-b0230f5d2665","ios":"levelo://app?vid=dc5a63d7-38a4-4f4a-ad94-b0230f5d2665"},"vehicle_type_id":"4","last_reported":1752505928,"current_range_meters":9600,"station_id":"ce4bhch2rcd13ifvqeug","pricing_plan_id":"cebpf4jnsgd1na2vs0mg"},{"bike_id":"e3b686d1-f0b1-4887-9c05-4bc370c43021","system_id":"levelo_inurba_marseille","lat":43.27202,"lon":5.40991,"is_reserved":false,"is_disabled":true,"rental_uris":{"android":"levelo://app?vid=e3b686d1-f0b1-4887-9c05-4bc370c43021","ios":"levelo://app?vid=e3b686d1-f0b1-4887-9c05-4bc370c43021"},"vehicle_type_id":"4","last_reported":1752505928,"current_range_meters":9600,"station_id":"ce4bhl12rcd13ifvqgf0","pricing_plan_id":"cebpf4jnsgd1na2vs0mg"},{"bike_id":"3938cd44-ff88-4013-ad12-1436b01693f2","system_id":"levelo_inurba_marseille","lat":43.23197,"lon":5.35551,"is_reserved":false,"is_disabled":false,"rental_uris":{"android":"levelo://app?vid=3938cd44-ff88-4013-ad12-1436b01693f2","ios":"levelo://app?vid=3938cd44-ff88-4013-ad12-1436b01693f2"},"vehicle_type_id":"4","last_reported":1752505928,"current_range_meters":9600,"station_id":"ce4bhu92rcd13ifvqi70","pricing_plan_id":"cebpf4jnsgd1na2vs0mg"},{"bike_id":"f6b7dba1-0d7e-4b53-b7a6-5948bcf9a181","system_id":"levelo_inurba_marseille","lat":43.26195,"lon":5.3745,"is_reserved":false,"is_disabled":false,"rental_uris":{"android":"levelo://app?vid=f6b7dba1-0d7e-4b53-b7a6-5948bcf9a181","ios":"levelo://app?vid=f6b7dba1-0d7e-4b53-b7a6-5948bcf9a181"},"vehicle_type_id":"4","last_reported":1752505928,"current_range_meters":9600,"station_id":"ce4bhgp2rcd13ifvqfc0","pricing_plan_id":"cebpf4jnsgd1na2vs0mg"},{"bike_id":"9c03b589-5c2e-40ab-ac34-d4b2eeae458e","system_id":"levelo_inurba_marseille","lat":43.28837,"lon":5.35867,"is_reserved":false,"is_disabled":false,"rental_uris":{"android":"levelo://app?vid=9c03b589-5c2e-40ab-ac34-d4b2eeae458e","ios":"levelo://app?vid=9c03b589-5c2e-40ab-ac34-d4b2eeae458e"},"vehicle_type_id":"4","last_reported":1752505928,"current_range_meters":9600,"station_id":"ce4bhb12rcd13ifvqem0","pricing_plan_id":"cebpf4jnsgd1na2vs0mg"},{"bike_id":"2ed99470-4e5b-4376-875b-1ecf99b5686e","system_id":"levelo_inurba_marseille","lat":43.29265,"lon":5.3763,"is_reserved":false,"is_disabled":false,"rental_uris":{"android":"levelo://app?vid=2ed99470-4e5b-4376-875b-1ecf99b5686e","ios":"levelo://app?vid=2ed99470-4e5b-4376-875b-1ecf99b5686e"},"vehicle_type_id":"4","last_reported":1752505928,"current_range_meters":9600,"station_id":"ce4bgi12rcd13ifvqb80","pricing_plan_id":"cebpf4jnsgd1na2vs0mg"},{"bike_id":"07b80ba8-94f7-4006-b883-d44157aa02a8","system_id":"levelo_inurba_marseille","lat":43.21189,"lon":5.35072,"is_reserved":false,"is_disabled":false,"rental_uris":{"android":"levelo://app?vid=07b80ba8-94f7-4006-b883-d44157aa02a8","ios":"levelo://app?vid=07b80ba8-94f7-4006-b883-d44157aa02a8"},"vehicle_type_id":"4","last_reported":1752505928,"current_range_meters":10000,"station_id":"st_cvj6sg6p6f1abm77japg","pricing_plan_id":"cebpf4jnsgd1na2vs0mg"},{"bike_id":"a44f68aa-b920-4eb6-845e-df1183944a6b","system_id":"levelo_inurba_marseille","lat":43.28576,"lon":5.35074,"is_reserved":false,"is_disabled":false,"rental_uris":{"android":"levelo://app?vid=a44f68aa-b920-4eb6-845e-df1183944a6b","ios":"levelo://app?vid=a44f68aa-b920-4eb6-845e-df1183944a6b"},"vehicle_type_id":"4","last_reported":1752505928,"current_range_meters":10000,"station_id":"","pricing_plan_id":"cebpf4jnsgd1na2vs0mg"},{"bike_id":"58375fde-ca97-4dab-be52-59caf98323d3","system_id":"levelo_inurba_marseille","lat":43.26569,"lon":5.37291,"is_reserved":false,"is_disabled":true,"rental_uris":{"android":"levelo://app?vid=58375fde-ca97-4dab-be52-59caf98323d3","ios":"levelo://app?vid=58375fde-ca97-4dab-be52-59caf98323d3"},"vehicle_type_id":"4","last_reported":1752505928,"current_range_meters":10800,"station_id":"ce4bhg12rcd13ifvqf70","pricing_plan_id":"cebpf4jnsgd1na2vs0mg"},{"bike_id":"9d31d9a3-9360-47cc-9360-3d8ed75b64a4","system_id":"levelo_inurba_marseille","lat":43.329113,"lon":5.367075,"is_reserved":false,"is_disabled":false,"rental_uris":{"android":"levelo://app?vid=9d31d9a3-9360-47cc-9360-3d8ed75b64a4","ios":"levelo://app?vid=9d31d9a3-9360-47cc-9360-3d8ed75b64a4"},"vehicle_type_id":"4","last_reported":1752505928,"current_range_meters":10800,"station_id":"","pricing_plan_id":"cebpf4jnsgd1na2vs0mg"},{"bike_id":"1700fcd6-30ad-4b74-a158-50e5dcb60b9b","system_id":"levelo_inurba_marseille","lat":43.28934,"lon":5.36637,"is_reserved":false,"is_disabled":true,"rental_uris":{"android":"levelo://app?vid=1700fcd6-30ad-4b74-a158-50e5dcb60b9b","ios":"levelo://app?vid=1700fcd6-30ad-4b74-a158-50e5dcb60b9b"},"vehicle_type_id":"4","last_reported":1752505928,"current_range_meters":10800,"station_id":"ce4bhap2rcd13ifvqek0","pricing_plan_id":"cebpf4jnsgd1na2vs0mg"},{"bike_id":"7d8c67ad-3e66-42f9-8c6e-098cca666cf3","system_id":"levelo_inurba_marseille","lat":43.32378,"lon":5.36748,"is_reserved":false,"is_disabled":false,"rental_uris":{"android":"levelo://app?vid=7d8c67ad-3e66-42f9-8c6e-098cca666cf3","ios":"levelo://app?vid=7d8c67ad-3e66-42f9-8c6e-098cca666cf3"},"vehicle_type_id":"4","last_reported":1752505928,"current_range_meters":10800,"station_id":"ce4bhsh2rcd13ifvqi2g","pricing_plan_id":"cebpf4jnsgd1na2vs0mg"},{"bike_id":"d916aace-830c-451e-a376-c1312f1fc6af","system_id":"levelo_inurba_marseille","lat":43.22512,"lon":5.34782,"is_reserved":false,"is_disabled":false,"rental_uris":{"android":"levelo://app?vid=d916aace-830c-451e-a376-c1312f1fc6af","ios":"levelo://app?vid=d916aace-830c-451e-a376-c1312f1fc6af"},"vehicle_type_id":"4","last_reported":1752505928,"current_range_meters":10800,"station_id":"","pricing_plan_id":"cebpf4jnsgd1na2vs0mg"},{"bike_id":"bcfc573e-ab90-4e96-b150-22e0f61f1cc9","system_id":"levelo_inurba_marseille","lat":43.32056,"lon":5.41543,"is_reserved":false,"is_disabled":false,"rental_uris":{"android":"levelo://app?vid=bcfc573e-ab90-4e96-b150-22e0f61f1cc9","ios":"levelo://app?vid=bcfc573e-ab90-4e96-b150-22e0f61f1cc9"},"vehicle_type_id":"4","last_reported":1752505928,"current_range_meters":11200,"station_id":"ce4bhq92rcd13ifvqhkg","pricing_plan_id":"cebpf4jnsgd1na2vs0mg"},{"bike_id":"60ed3002-13ee-4630-9f08-f75fc169df39","system_id":"levelo_inurba_marseille","lat":43.25716,"lon":5.41115,"is_reserved":false,"is_disabled":false,"rental_uris":{"android":"levelo://app?vid=60ed3002-13ee-4630-9f08-f75fc169df39","ios":"levelo://app?vid=60ed3002-13ee-4630-9f08-f75fc169df39"},"vehicle_type_id":"4","last_reported":1752505928,"current_range_meters":11200,"station_id":"ce4bhkp2rcd13ifvqgd0","pricing_plan_id":"cebpf4jnsgd1na2vs0mg"},{"bike_id":"ad5eb277-50fe-4683-8834-d753b852b58a","system_id":"levelo_inurba_marseille","lat":43.27849,"lon":5.38522,"is_reserved":false,"is_disabled":false,"rental_uris":{"android":"levelo://app?vid=ad5eb277-50fe-4683-8834-d753b852b58a","ios":"levelo://app?vid=ad5eb277-50fe-4683-8834-d753b852b58a"},"vehicle_type_id":"4","last_reported":1752505928,"current_range_meters":11600,"station_id":"","pricing_plan_id":"cebpf4jnsgd1na2vs0mg"},{"bike_id":"fc9ece3c-2950-4e4b-b33b-c71498877273","system_id":"levelo_inurba_marseille","lat":43.299165,"lon":5.374634,"is_reserved":false,"is_disabled":false,"rental_uris":{"android":"levelo://app?vid=fc9ece3c-2950-4e4b-b33b-c71498877273","ios":"levelo://app?vid=fc9ece3c-2950-4e4b-b33b-c71498877273"},"vehicle_type_id":"4","last_reported":1752505928,"current_range_meters":11600,"station_id":"ce4bgjh2rcd13ifvqbg0","pricing_plan_id":"cebpf4jnsgd1na2vs0mg"},{"bike_id":"b2464811-ed1c-444d-b5b2-f0f5cb56794f","system_id":"levelo_inurba_marseille","lat":43.287028,"lon":5.352062,"is_reserved":false,"is_disabled":false,"rental_uris":{"android":"levelo://app?vid=b2464811-ed1c-444d-b5b2-f0f5cb56794f","ios":"levelo://app?vid=b2464811-ed1c-444d-b5b2-f0f5cb56794f"},"vehicle_type_id":"4","last_reported":1752505928,"current_range_meters":11600,"station_id":"","pricing_plan_id":"cebpf4jnsgd1na2vs0mg"},{"bike_id":"fa9dbf7f-71a7-477f-8a9d-e6d2f8a71c84","system_id":"levelo_inurba_marseille","lat":43.28459,"lon":5.35883,"is_reserved":false,"is_disabled":false,"rental_uris":{"android":"levelo://app?vid=fa9dbf7f-71a7-477f-8a9d-e6d2f8a71c84","ios":"levelo://app?vid=fa9dbf7f-71a7-477f-8a9d-e6d2f8a71c84"},"vehicle_type_id":"4","last_reported":1752505928,"current_range_meters":11600,"station_id":"ce4bhah2rcd13ifvqei0","pricing_plan_id":"cebpf4jnsgd1na2vs0mg"},{"bike_id":"c14947c2-7b5b-4c03-b04b-d7f22fccfd67","system_id":"levelo_inurba_marseille","lat":43.21189,"lon":5.35067,"is_reserved":false,"is_disabled":false,"rental_uris":{"android":"levelo://app?vid=c14947c2-7b5b-4c03-b04b-d7f22fccfd67","ios":"levelo://app?vid=c14947c2-7b5b-4c03-b04b-d7f22fccfd67"},"vehicle_type_id":"4","last_reported":1752505928,"current_range_meters":11600,"station_id":"st_cvj6sg6p6f1abm77japg","pricing_plan_id":"cebpf4jnsgd1na2vs0mg"},{"bike_id":"05986455-6d6b-459a-8d9f-7557e6025543","system_id":"levelo_inurba_marseille","lat":43.26205,"lon":5.37448,"is_reserved":false,"is_disabled":false,"rental_uris":{"android":"levelo://app?vid=05986455-6d6b-459a-8d9f-7557e6025543","ios":"levelo://app?vid=05986455-6d6b-459a-8d9f-7557e6025543"},"vehicle_type_id":"4","last_reported":1752505928,"current_range_meters":11600,"station_id":"ce4bhgp2rcd13ifvqfc0","pricing_plan_id":"cebpf4jnsgd1na2vs0mg"},{"bike_id":"8f5fef96-8f46-4bdd-bf7c-206d528a0d0c","system_id":"levelo_inurba_marseille","lat":43.229355,"lon":5.353745,"is_reserved":false,"is_disabled":false,"rental_uris":{"android":"levelo://app?vid=8f5fef96-8f46-4bdd-bf7c-206d528a0d0c","ios":"levelo://app?vid=8f5fef96-8f46-4bdd-bf7c-206d528a0d0c"},"vehicle_type_id":"4","last_reported":1752505928,"current_range_meters":11600,"station_id":"cpo3532slgdg3j2ikp40","pricing_plan_id":"cebpf4jnsgd1na2vs0mg"},{"bike_id":"5a8a87a7-1367-41c6-ba9b-8b3d2da37c5f","system_id":"levelo_inurba_marseille","lat":43.31539,"lon":5.38027,"is_reserved":false,"is_disabled":false,"rental_uris":{"android":"levelo://app?vid=5a8a87a7-1367-41c6-ba9b-8b3d2da37c5f","ios":"levelo://app?vid=5a8a87a7-1367-41c6-ba9b-8b3d2da37c5f"},"vehicle_type_id":"4","last_reported":1752505928,"current_range_meters":11600,"station_id":"ce4bhsp2rcd13ifvqi50","pricing_plan_id":"cebpf4jnsgd1na2vs0mg"},{"bike_id":"1385c92b-800b-46ee-bb29-02790bad46db","system_id":"levelo_inurba_marseille","lat":43.26214,"lon":5.3745,"is_reserved":false,"is_disabled":false,"rental_uris":{"android":"levelo://app?vid=1385c92b-800b-46ee-bb29-02790bad46db","ios":"levelo://app?vid=1385c92b-800b-46ee-bb29-02790bad46db"},"vehicle_type_id":"4","last_reported":1752505928,"current_range_meters":11600,"station_id":"ce4bhgp2rcd13ifvqfc0","pricing_plan_id":"cebpf4jnsgd1na2vs0mg"},{"bike_id":"f2dbbcf5-4a99-44c0-87ac-22f691e8367b","system_id":"levelo_inurba_marseille","lat":43.2407,"lon":5.37765,"is_reserved":false,"is_disabled":false,"rental_uris":{"android":"levelo://app?vid=f2dbbcf5-4a99-44c0-87ac-22f691e8367b","ios":"levelo://app?vid=f2dbbcf5-4a99-44c0-87ac-22f691e8367b"},"vehicle_type_id":"4","last_reported":1752505928,"current_range_meters":11600,"station_id":"ce4bhnp2rcd13ifvqgvg","pricing_plan_id":"cebpf4jnsgd1na2vs0mg"},{"bike_id":"9ac1728d-a63b-49f8-9c4f-aaf3df008b54","system_id":"levelo_inurba_marseille","lat":43.28246,"lon":5.35066,"is_reserved":false,"is_disabled":false,"rental_uris":{"android":"levelo://app?vid=9ac1728d-a63b-49f8-9c4f-aaf3df008b54","ios":"levelo://app?vid=9ac1728d-a63b-49f8-9c4f-aaf3df008b54"},"vehicle_type_id":"4","last_reported":1752505928,"current_range_meters":11600,"station_id":"ce4bhbp2rcd13ifvqerg","pricing_plan_id":"cebpf4jnsgd1na2vs0mg"},{"bike_id":"b8c553e4-b2e9-4e55-941a-763a5e49b796","system_id":"levelo_inurba_marseille","lat":43.29006,"lon":5.35614,"is_reserved":false,"is_disabled":false,"rental_uris":{"android":"levelo://app?vid=b8c553e4-b2e9-4e55-941a-763a5e49b796","ios":"levelo://app?vid=b8c553e4-b2e9-4e55-941a-763a5e49b796"},"vehicle_type_id":"4","last_reported":1752505928,"current_range_meters":12000,"station_id":"ce4bhb92rcd13ifvqen0","pricing_plan_id":"cebpf4jnsgd1na2vs0mg"},{"bike_id":"ef8e33cb-bf94-465f-b2ff-8e9a95b8ebe3","system_id":"levelo_inurba_marseille","lat":43.24807,"lon":5.37459,"is_reserved":false,"is_disabled":false,"rental_uris":{"android":"levelo://app?vid=ef8e33cb-bf94-465f-b2ff-8e9a95b8ebe3","ios":"levelo://app?vid=ef8e33cb-bf94-465f-b2ff-8e9a95b8ebe3"},"vehicle_type_id":"4","last_reported":1752505928,"current_range_meters":12000,"station_id":"ce4bhgh2rcd13ifvqfb0","pricing_plan_id":"cebpf4jnsgd1na2vs0mg"},{"bike_id":"f5227d4c-3f10-4b3e-9225-4de4f8032cec","system_id":"levelo_inurba_marseille","lat":43.29936,"lon":5.36557,"is_reserved":false,"is_disabled":false,"rental_uris":{"android":"levelo://app?vid=f5227d4c-3f10-4b3e-9225-4de4f8032cec","ios":"levelo://app?vid=f5227d4c-3f10-4b3e-9225-4de4f8032cec"},"vehicle_type_id":"4","last_reported":1752505928,"current_range_meters":12000,"station_id":"ce4bgm92rcd13ifvqbr0","pricing_plan_id":"cebpf4jnsgd1na2vs0mg"},{"bike_id":"f6f148f0-2f05-4db8-b926-21b337e0a35a","system_id":"levelo_inurba_marseille","lat":43.271034,"lon":5.389427,"is_reserved":false,"is_disabled":false,"rental_uris":{"android":"levelo://app?vid=f6f148f0-2f05-4db8-b926-21b337e0a35a","ios":"levelo://app?vid=f6f148f0-2f05-4db8-b926-21b337e0a35a"},"vehicle_type_id":"4","last_reported":1752505928,"current_range_meters":12000,"station_id":"","pricing_plan_id":"cebpf4jnsgd1na2vs0mg"},{"bike_id":"21263678-e098-428b-b660-7ee48e919adf","system_id":"levelo_inurba_marseille","lat":43.284,"lon":5.34989,"is_reserved":false,"is_disabled":false,"rental_uris":{"android":"levelo://app?vid=21263678-e098-428b-b660-7ee48e919adf","ios":"levelo://app?vid=21263678-e098-428b-b660-7ee48e919adf"},"vehicle_type_id":"4","last_reported":1752505928,"current_range_meters":12000,"station_id":"ce4bhbh2rcd13ifvqepg","pricing_plan_id":"cebpf4jnsgd1na2vs0mg"},{"bike_id":"8c8b0306-b9d1-4c03-8eae-90b3221c3151","system_id":"levelo_inurba_marseille","lat":43.31727,"lon":5.42393,"is_reserved":false,"is_disabled":false,"rental_uris":{"android":"levelo://app?vid=8c8b0306-b9d1-4c03-8eae-90b3221c3151","ios":"levelo://app?vid=8c8b0306-b9d1-4c03-8eae-90b3221c3151"},"vehicle_type_id":"4","last_reported":1752505928,"current_range_meters":12400,"station_id":"ce4bhp92rcd13ifvqhbg","pricing_plan_id":"cebpf4jnsgd1na2vs0mg"},{"bike_id":"4a19e4ee-cbbe-4fd8-9e6c-310afa6ee6c9","system_id":"levelo_inurba_marseille","lat":43.23193,"lon":5.39985,"is_reserved":false,"is_disabled":true,"rental_uris":{"android":"levelo://app?vid=4a19e4ee-cbbe-4fd8-9e6c-310afa6ee6c9","ios":"levelo://app?vid=4a19e4ee-cbbe-4fd8-9e6c-310afa6ee6c9"},"vehicle_type_id":"4","last_reported":1752505928,"current_range_meters":12400,"station_id":"ce4bhn12rcd13ifvqgqg","pricing_plan_id":"cebpf4jnsgd1na2vs0mg"},{"bike_id":"05f30485-dc90-4763-9dd4-c12f63ae43a2","system_id":"levelo_inurba_marseille","lat":43.30322,"lon":5.36908,"is_reserved":false,"is_disabled":true,"rental_uris":{"android":"levelo://app?vid=05f30485-dc90-4763-9dd4-c12f63ae43a2","ios":"levelo://app?vid=05f30485-dc90-4763-9dd4-c12f63ae43a2"},"vehicle_type_id":"4","last_reported":1752505928,"current_range_meters":12400,"station_id":"ce4bgqh2rcd13ifvqc5g","pricing_plan_id":"cebpf4jnsgd1na2vs0mg"},{"bike_id":"e9d8f86f-58da-4083-b5c0-de417486e0f9","system_id":"levelo_inurba_marseille","lat":43.28411,"lon":5.34993,"is_reserved":false,"is_disabled":false,"rental_uris":{"android":"levelo://app?vid=e9d8f86f-58da-4083-b5c0-de417486e0f9","ios":"levelo://app?vid=e9d8f86f-58da-4083-b5c0-de417486e0f9"},"vehicle_type_id":"4","last_reported":1752505928,"current_range_meters":12400,"station_id":"ce4bhbh2rcd13ifvqepg","pricing_plan_id":"cebpf4jnsgd1na2vs0mg"},{"bike_id":"0fc2b25c-4d08-4960-a012-f8605b0826e2","system_id":"levelo_inurba_marseille","lat":43.25115,"lon":5.40325,"is_reserved":false,"is_disabled":false,"rental_uris":{"android":"levelo://app?vid=0fc2b25c-4d08-4960-a012-f8605b0826e2","ios":"levelo://app?vid=0fc2b25c-4d08-4960-a012-f8605b0826e2"},"vehicle_type_id":"4","last_reported":1752505928,"current_range_meters":12400,"station_id":"ce4bhlh2rcd13ifvqgig","pricing_plan_id":"cebpf4jnsgd1na2vs0mg"},{"bike_id":"86e01488-9bd5-4653-bfb1-9c62a6d0fee2","system_id":"levelo_inurba_marseille","lat":43.30137,"lon":5.38784,"is_reserved":false,"is_disabled":false,"rental_uris":{"android":"levelo://app?vid=86e01488-9bd5-4653-bfb1-9c62a6d0fee2","ios":"levelo://app?vid=86e01488-9bd5-4653-bfb1-9c62a6d0fee2"},"vehicle_type_id":"4","last_reported":1752505928,"current_range_meters":12400,"station_id":"ce4bghh2rcd13ifvqb60","pricing_plan_id":"cebpf4jnsgd1na2vs0mg"},{"bike_id":"fa7fb764-c5ec-4d35-a197-bbac264a3629","system_id":"levelo_inurba_marseille","lat":43.26555,"lon":5.37291,"is_reserved":false,"is_disabled":false,"rental_uris":{"android":"levelo://app?vid=fa7fb764-c5ec-4d35-a197-bbac264a3629","ios":"levelo://app?vid=fa7fb764-c5ec-4d35-a197-bbac264a3629"},"vehicle_type_id":"4","last_reported":1752505928,"current_range_meters":12400,"station_id":"ce4bhg12rcd13ifvqf70","pricing_plan_id":"cebpf4jnsgd1na2vs0mg"},{"bike_id":"2ec427da-b403-4a7e-86be-3f48ba535d18","system_id":"levelo_inurba_marseille","lat":43.21198,"lon":5.35033,"is_reserved":false,"is_disabled":false,"rental_uris":{"android":"levelo://app?vid=2ec427da-b403-4a7e-86be-3f48ba535d18","ios":"levelo://app?vid=2ec427da-b403-4a7e-86be-3f48ba535d18"},"vehicle_type_id":"4","last_reported":1752505928,"current_range_meters":12800,"station_id":"st_cvj6sg6p6f1abm77japg","pricing_plan_id":"cebpf4jnsgd1na2vs0mg"},{"bike_id":"62170e5f-c038-44f4-abd1-577ff6bc5e80","system_id":"levelo_inurba_marseille","lat":43.30136,"lon":5.38787,"is_reserved":false,"is_disabled":false,"rental_uris":{"android":"levelo://app?vid=62170e5f-c038-44f4-abd1-577ff6bc5e80","ios":"levelo://app?vid=62170e5f-c038-44f4-abd1-577ff6bc5e80"},"vehicle_type_id":"4","last_reported":1752505928,"current_range_meters":12800,"station_id":"ce4bghh2rcd13ifvqb60","pricing_plan_id":"cebpf4jnsgd1na2vs0mg"},{"bike_id":"8a01e88a-8371-4085-9838-47ae11897cd3","system_id":"levelo_inurba_marseille","lat":43.28167,"lon":5.42646,"is_reserved":false,"is_disabled":true,"rental_uris":{"android":"levelo://app?vid=8a01e88a-8371-4085-9838-47ae11897cd3","ios":"levelo://app?vid=8a01e88a-8371-4085-9838-47ae11897cd3"},"vehicle_type_id":"4","last_reported":1752505928,"current_range_meters":12800,"station_id":"ce4bhnh2rcd13ifvqgug","pricing_plan_id":"cebpf4jnsgd1na2vs0mg"},{"bike_id":"c8c4de1a-846f-4f5b-aace-9fb14bf7ad52","system_id":"levelo_inurba_marseille","lat":43.2119,"lon":5.35071,"is_reserved":false,"is_disabled":false,"rental_uris":{"android":"levelo://app?vid=c8c4de1a-846f-4f5b-aace-9fb14bf7ad52","ios":"levelo://app?vid=c8c4de1a-846f-4f5b-aace-9fb14bf7ad52"},"vehicle_type_id":"4","last_reported":1752505928,"current_range_meters":12800,"station_id":"st_cvj6sg6p6f1abm77japg","pricing_plan_id":"cebpf4jnsgd1na2vs0mg"},{"bike_id":"c95e69db-c279-4e26-832d-b98d42e4e80e","system_id":"levelo_inurba_marseille","lat":43.21759,"lon":5.34603,"is_reserved":false,"is_disabled":false,"rental_uris":{"android":"levelo://app?vid=c95e69db-c279-4e26-832d-b98d42e4e80e","ios":"levelo://app?vid=c95e69db-c279-4e26-832d-b98d42e4e80e"},"vehicle_type_id":"4","last_reported":1752505928,"current_range_meters":13600,"station_id":"st_cvj6r9ubvosntc0bgbag","pricing_plan_id":"cebpf4jnsgd1na2vs0mg"},{"bike_id":"c89808e0-90fe-4bed-b0de-71eb01d1540d","system_id":"levelo_inurba_marseille","lat":43.273656,"lon":5.362512,"is_reserved":false,"is_disabled":false,"rental_uris":{"android":"levelo://app?vid=c89808e0-90fe-4bed-b0de-71eb01d1540d","ios":"levelo://app?vid=c89808e0-90fe-4bed-b0de-71eb01d1540d"},"vehicle_type_id":"4","last_reported":1752505928,"current_range_meters":13600,"station_id":"ce4bhbh2rcd13ifvqeo0","pricing_plan_id":"cebpf4jnsgd1na2vs0mg"},{"bike_id":"9b1afee0-5d71-42b1-bfb3-0f11fa1e097d","system_id":"levelo_inurba_marseille","lat":43.292534,"lon":5.376396,"is_reserved":false,"is_disabled":false,"rental_uris":{"android":"levelo://app?vid=9b1afee0-5d71-42b1-bfb3-0f11fa1e097d","ios":"levelo://app?vid=9b1afee0-5d71-42b1-bfb3-0f11fa1e097d"},"vehicle_type_id":"4","last_reported":1752505928,"current_range_meters":13600,"station_id":"","pricing_plan_id":"cebpf4jnsgd1na2vs0mg"},{"bike_id":"ef1fd2c8-5c67-46db-9ae8-09aba4fbf04a","system_id":"levelo_inurba_marseille","lat":43.2761,"lon":5.36184,"is_reserved":false,"is_disabled":false,"rental_uris":{"android":"levelo://app?vid=ef1fd2c8-5c67-46db-9ae8-09aba4fbf04a","ios":"levelo://app?vid=ef1fd2c8-5c67-46db-9ae8-09aba4fbf04a"},"vehicle_type_id":"4","last_reported":1752505928,"current_range_meters":13600,"station_id":"ce4bgj92rcd13ifvqbe0","pricing_plan_id":"cebpf4jnsgd1na2vs0mg"},{"bike_id":"35884dc0-d497-4210-b677-d7600e0441f9","system_id":"levelo_inurba_marseille","lat":43.254971,"lon":5.376501,"is_reserved":false,"is_disabled":false,"rental_uris":{"android":"levelo://app?vid=35884dc0-d497-4210-b677-d7600e0441f9","ios":"levelo://app?vid=35884dc0-d497-4210-b677-d7600e0441f9"},"vehicle_type_id":"4","last_reported":1752505928,"current_range_meters":13600,"station_id":"ce4bhjp2rcd13ifvqg90","pricing_plan_id":"cebpf4jnsgd1na2vs0mg"},{"bike_id":"3af9fab0-ae4c-4037-928e-7c8f1ec82fad","system_id":"levelo_inurba_marseille","lat":43.28434,"lon":5.35005,"is_reserved":false,"is_disabled":false,"rental_uris":{"android":"levelo://app?vid=3af9fab0-ae4c-4037-928e-7c8f1ec82fad","ios":"levelo://app?vid=3af9fab0-ae4c-4037-928e-7c8f1ec82fad"},"vehicle_type_id":"4","last_reported":1752505928,"current_range_meters":13600,"station_id":"ce4bhbh2rcd13ifvqepg","pricing_plan_id":"cebpf4jnsgd1na2vs0mg"},{"bike_id":"e3538395-ba1b-423d-a35d-ffeae75b2194","system_id":"levelo_inurba_marseille","lat":43.23195,"lon":5.35544,"is_reserved":false,"is_disabled":false,"rental_uris":{"android":"levelo://app?vid=e3538395-ba1b-423d-a35d-ffeae75b2194","ios":"levelo://app?vid=e3538395-ba1b-423d-a35d-ffeae75b2194"},"vehicle_type_id":"4","last_reported":1752505928,"current_range_meters":13600,"station_id":"ce4bhu92rcd13ifvqi70","pricing_plan_id":"cebpf4jnsgd1na2vs0mg"},{"bike_id":"a5354cf8-269d-4386-b360-f6bcc46fa353","system_id":"levelo_inurba_marseille","lat":43.2621,"lon":5.37444,"is_reserved":false,"is_disabled":false,"rental_uris":{"android":"levelo://app?vid=a5354cf8-269d-4386-b360-f6bcc46fa353","ios":"levelo://app?vid=a5354cf8-269d-4386-b360-f6bcc46fa353"},"vehicle_type_id":"4","last_reported":1752505928,"current_range_meters":13600,"station_id":"ce4bhgp2rcd13ifvqfc0","pricing_plan_id":"cebpf4jnsgd1na2vs0mg"},{"bike_id":"088e6b1d-8a81-47e0-9ad0-36233ed399c0","system_id":"levelo_inurba_marseille","lat":43.27922,"lon":5.39571,"is_reserved":false,"is_disabled":true,"rental_uris":{"android":"levelo://app?vid=088e6b1d-8a81-47e0-9ad0-36233ed399c0","ios":"levelo://app?vid=088e6b1d-8a81-47e0-9ad0-36233ed399c0"},"vehicle_type_id":"4","last_reported":1752505928,"current_range_meters":13600,"station_id":"ce4bhf92rcd13ifvqf40","pricing_plan_id":"cebpf4jnsgd1na2vs0mg"},{"bike_id":"cf2d344d-7322-4e49-83be-c37b8074518a","system_id":"levelo_inurba_marseille","lat":43.32642,"lon":5.41002,"is_reserved":false,"is_disabled":false,"rental_uris":{"android":"levelo://app?vid=cf2d344d-7322-4e49-83be-c37b8074518a","ios":"levelo://app?vid=cf2d344d-7322-4e49-83be-c37b8074518a"},"vehicle_type_id":"4","last_reported":1752505928,"current_range_meters":14000,"station_id":"ce4bhpp2rcd13ifvqhgg","pricing_plan_id":"cebpf4jnsgd1na2vs0mg"},{"bike_id":"047f3c36-f3db-42d0-83d7-3ebf40563c40","system_id":"levelo_inurba_marseille","lat":43.24807,"lon":5.37456,"is_reserved":false,"is_disabled":false,"rental_uris":{"android":"levelo://app?vid=047f3c36-f3db-42d0-83d7-3ebf40563c40","ios":"levelo://app?vid=047f3c36-f3db-42d0-83d7-3ebf40563c40"},"vehicle_type_id":"4","last_reported":1752505928,"current_range_meters":14000,"station_id":"ce4bhgh2rcd13ifvqfb0","pricing_plan_id":"cebpf4jnsgd1na2vs0mg"},{"bike_id":"135a97c2-3476-4b89-a08a-b18b13e586db","system_id":"levelo_inurba_marseille","lat":43.281022,"lon":5.392687,"is_reserved":false,"is_disabled":false,"rental_uris":{"android":"levelo://app?vid=135a97c2-3476-4b89-a08a-b18b13e586db","ios":"levelo://app?vid=135a97c2-3476-4b89-a08a-b18b13e586db"},"vehicle_type_id":"4","last_reported":1752505928,"current_range_meters":14000,"station_id":"ce4bhf92rcd13ifvqf40","pricing_plan_id":"cebpf4jnsgd1na2vs0mg"},{"bike_id":"f5a47db5-6fb2-46bd-a2de-efa4ad13bf60","system_id":"levelo_inurba_marseille","lat":43.21191,"lon":5.3507,"is_reserved":false,"is_disabled":false,"rental_uris":{"android":"levelo://app?vid=f5a47db5-6fb2-46bd-a2de-efa4ad13bf60","ios":"levelo://app?vid=f5a47db5-6fb2-46bd-a2de-efa4ad13bf60"},"vehicle_type_id":"4","last_reported":1752505928,"current_range_meters":14000,"station_id":"st_cvj6sg6p6f1abm77japg","pricing_plan_id":"cebpf4jnsgd1na2vs0mg"},{"bike_id":"e621ebbb-dc33-4e76-8e92-d3fd339da2a3","system_id":"levelo_inurba_marseille","lat":43.27376,"lon":5.36256,"is_reserved":false,"is_disabled":false,"rental_uris":{"android":"levelo://app?vid=e621ebbb-dc33-4e76-8e92-d3fd339da2a3","ios":"levelo://app?vid=e621ebbb-dc33-4e76-8e92-d3fd339da2a3"},"vehicle_type_id":"4","last_reported":1752505928,"current_range_meters":14000,"station_id":"ce4bhbh2rcd13ifvqeo0","pricing_plan_id":"cebpf4jnsgd1na2vs0mg"},{"bike_id":"a4d07f45-19f9-4df9-9728-be6623530a64","system_id":"levelo_inurba_marseille","lat":43.23722,"lon":5.38873,"is_reserved":false,"is_disabled":false,"rental_uris":{"android":"levelo://app?vid=a4d07f45-19f9-4df9-9728-be6623530a64","ios":"levelo://app?vid=a4d07f45-19f9-4df9-9728-be6623530a64"},"vehicle_type_id":"4","last_reported":1752505928,"current_range_meters":14000,"station_id":"","pricing_plan_id":"cebpf4jnsgd1na2vs0mg"},{"bike_id":"1aedaa42-1f03-48cc-8e38-d983e72f730b","system_id":"levelo_inurba_marseille","lat":43.27132,"lon":5.42367,"is_reserved":false,"is_disabled":false,"rental_uris":{"android":"levelo://app?vid=1aedaa42-1f03-48cc-8e38-d983e72f730b","ios":"levelo://app?vid=1aedaa42-1f03-48cc-8e38-d983e72f730b"},"vehicle_type_id":"4","last_reported":1752505928,"current_range_meters":14000,"station_id":"","pricing_plan_id":"cebpf4jnsgd1na2vs0mg"},{"bike_id":"3cdf7207-d77b-4ad1-a2f8-9575fb02e238","system_id":"levelo_inurba_marseille","lat":43.21757,"lon":5.34596,"is_reserved":false,"is_disabled":false,"rental_uris":{"android":"levelo://app?vid=3cdf7207-d77b-4ad1-a2f8-9575fb02e238","ios":"levelo://app?vid=3cdf7207-d77b-4ad1-a2f8-9575fb02e238"},"vehicle_type_id":"4","last_reported":1752505928,"current_range_meters":14000,"station_id":"st_cvj6r9ubvosntc0bgbag","pricing_plan_id":"cebpf4jnsgd1na2vs0mg"},{"bike_id":"8ff1dce8-e6d2-4132-8984-02a5d21c45a3","system_id":"levelo_inurba_marseille","lat":43.31069,"lon":5.38349,"is_reserved":false,"is_disabled":false,"rental_uris":{"android":"levelo://app?vid=8ff1dce8-e6d2-4132-8984-02a5d21c45a3","ios":"levelo://app?vid=8ff1dce8-e6d2-4132-8984-02a5d21c45a3"},"vehicle_type_id":"4","last_reported":1752505928,"current_range_meters":14000,"station_id":"ce4bgv92rcd13ifvqcr0","pricing_plan_id":"cebpf4jnsgd1na2vs0mg"},{"bike_id":"651dce3a-2249-46d7-a220-d413497d4b2a","system_id":"levelo_inurba_marseille","lat":43.2465,"lon":5.38889,"is_reserved":false,"is_disabled":false,"rental_uris":{"android":"levelo://app?vid=651dce3a-2249-46d7-a220-d413497d4b2a","ios":"levelo://app?vid=651dce3a-2249-46d7-a220-d413497d4b2a"},"vehicle_type_id":"4","last_reported":1752505928,"current_range_meters":14000,"station_id":"ce4bhg12rcd13ifvqf60","pricing_plan_id":"cebpf4jnsgd1na2vs0mg"},{"bike_id":"697d5fc4-b988-4a4e-8323-c1ce5ed61a61","system_id":"levelo_inurba_marseille","lat":43.2118,"lon":5.351,"is_reserved":false,"is_disabled":false,"rental_uris":{"android":"levelo://app?vid=697d5fc4-b988-4a4e-8323-c1ce5ed61a61","ios":"levelo://app?vid=697d5fc4-b988-4a4e-8323-c1ce5ed61a61"},"vehicle_type_id":"4","last_reported":1752505928,"current_range_meters":14400,"station_id":"st_cvj6sg6p6f1abm77japg","pricing_plan_id":"cebpf4jnsgd1na2vs0mg"},{"bike_id":"12d48e4d-a291-49bb-ab45-967804b53d7b","system_id":"levelo_inurba_marseille","lat":43.27616,"lon":5.36123,"is_reserved":false,"is_disabled":true,"rental_uris":{"android":"levelo://app?vid=12d48e4d-a291-49bb-ab45-967804b53d7b","ios":"levelo://app?vid=12d48e4d-a291-49bb-ab45-967804b53d7b"},"vehicle_type_id":"4","last_reported":1752505928,"current_range_meters":14400,"station_id":"ce4bgj92rcd13ifvqbe0","pricing_plan_id":"cebpf4jnsgd1na2vs0mg"},{"bike_id":"dde7650e-4dab-4d29-a893-b819865e6dcd","system_id":"levelo_inurba_marseille","lat":43.29544,"lon":5.38547,"is_reserved":false,"is_disabled":false,"rental_uris":{"android":"levelo://app?vid=dde7650e-4dab-4d29-a893-b819865e6dcd","ios":"levelo://app?vid=dde7650e-4dab-4d29-a893-b819865e6dcd"},"vehicle_type_id":"4","last_reported":1752505928,"current_range_meters":14400,"station_id":"ce4bgih2rcd13ifvqba0","pricing_plan_id":"cebpf4jnsgd1na2vs0mg"},{"bike_id":"e1928b01-bff5-4cea-b60c-f8d9223daef3","system_id":"levelo_inurba_marseille","lat":43.27104,"lon":5.42282,"is_reserved":false,"is_disabled":false,"rental_uris":{"android":"levelo://app?vid=e1928b01-bff5-4cea-b60c-f8d9223daef3","ios":"levelo://app?vid=e1928b01-bff5-4cea-b60c-f8d9223daef3"},"vehicle_type_id":"4","last_reported":1752505928,"current_range_meters":14400,"station_id":"ce4bhk92rcd13ifvqgb0","pricing_plan_id":"cebpf4jnsgd1na2vs0mg"},{"bike_id":"dd8e569c-f209-4690-ad54-84fbf8997a83","system_id":"levelo_inurba_marseille","lat":43.225108,"lon":5.347887,"is_reserved":false,"is_disabled":false,"rental_uris":{"android":"levelo://app?vid=dd8e569c-f209-4690-ad54-84fbf8997a83","ios":"levelo://app?vid=dd8e569c-f209-4690-ad54-84fbf8997a83"},"vehicle_type_id":"4","last_reported":1752505928,"current_range_meters":14400,"station_id":"","pricing_plan_id":"cebpf4jnsgd1na2vs0mg"},{"bike_id":"e23346fb-21bf-43f9-8584-5f807f9973cf","system_id":"levelo_inurba_marseille","lat":43.27386,"lon":5.36257,"is_reserved":false,"is_disabled":false,"rental_uris":{"android":"levelo://app?vid=e23346fb-21bf-43f9-8584-5f807f9973cf","ios":"levelo://app?vid=e23346fb-21bf-43f9-8584-5f807f9973cf"},"vehicle_type_id":"4","last_reported":1752505928,"current_range_meters":14400,"station_id":"ce4bhbh2rcd13ifvqeo0","pricing_plan_id":"cebpf4jnsgd1na2vs0mg"},{"bike_id":"08dbf31c-b540-4ca6-b57d-3481ea73d97b","system_id":"levelo_inurba_marseille","lat":43.22505,"lon":5.34785,"is_reserved":false,"is_disabled":false,"rental_uris":{"android":"levelo://app?vid=08dbf31c-b540-4ca6-b57d-3481ea73d97b","ios":"levelo://app?vid=08dbf31c-b540-4ca6-b57d-3481ea73d97b"},"vehicle_type_id":"4","last_reported":1752505928,"current_range_meters":14400,"station_id":"st_cvj5dfep6f1abm77gieg","pricing_plan_id":"cebpf4jnsgd1na2vs0mg"},{"bike_id":"974a8c9e-9e0c-4fb0-9089-f03c1ea978b7","system_id":"levelo_inurba_marseille","lat":43.25576,"lon":5.38239,"is_reserved":false,"is_disabled":false,"rental_uris":{"android":"levelo://app?vid=974a8c9e-9e0c-4fb0-9089-f03c1ea978b7","ios":"levelo://app?vid=974a8c9e-9e0c-4fb0-9089-f03c1ea978b7"},"vehicle_type_id":"4","last_reported":1752505928,"current_range_meters":14400,"station_id":"ce4bhih2rcd13ifvqfs0","pricing_plan_id":"cebpf4jnsgd1na2vs0mg"},{"bike_id":"e1442ff3-c767-4bb3-901d-e5f60873ad13","system_id":"levelo_inurba_marseille","lat":43.23189,"lon":5.39999,"is_reserved":false,"is_disabled":false,"rental_uris":{"android":"levelo://app?vid=e1442ff3-c767-4bb3-901d-e5f60873ad13","ios":"levelo://app?vid=e1442ff3-c767-4bb3-901d-e5f60873ad13"},"vehicle_type_id":"4","last_reported":1752505928,"current_range_meters":14800,"station_id":"ce4bhn12rcd13ifvqgqg","pricing_plan_id":"cebpf4jnsgd1na2vs0mg"},{"bike_id":"0f606afd-ff83-4fec-a31d-c47880618a11","system_id":"levelo_inurba_marseille","lat":43.27372,"lon":5.3626,"is_reserved":false,"is_disabled":false,"rental_uris":{"android":"levelo://app?vid=0f606afd-ff83-4fec-a31d-c47880618a11","ios":"levelo://app?vid=0f606afd-ff83-4fec-a31d-c47880618a11"},"vehicle_type_id":"4","last_reported":1752505928,"current_range_meters":14800,"station_id":"ce4bhbh2rcd13ifvqeo0","pricing_plan_id":"cebpf4jnsgd1na2vs0mg"},{"bike_id":"6ac174d4-75c5-4a9c-9699-97cd631c6e65","system_id":"levelo_inurba_marseille","lat":43.25565,"lon":5.40138,"is_reserved":false,"is_disabled":false,"rental_uris":{"android":"levelo://app?vid=6ac174d4-75c5-4a9c-9699-97cd631c6e65","ios":"levelo://app?vid=6ac174d4-75c5-4a9c-9699-97cd631c6e65"},"vehicle_type_id":"4","last_reported":1752505928,"current_range_meters":14800,"station_id":"","pricing_plan_id":"cebpf4jnsgd1na2vs0mg"},{"bike_id":"23a0fc67-4c39-4b74-8a86-2903d79b1606","system_id":"levelo_inurba_marseille","lat":43.23188,"lon":5.35554,"is_reserved":false,"is_disabled":false,"rental_uris":{"android":"levelo://app?vid=23a0fc67-4c39-4b74-8a86-2903d79b1606","ios":"levelo://app?vid=23a0fc67-4c39-4b74-8a86-2903d79b1606"},"vehicle_type_id":"4","last_reported":1752505928,"current_range_meters":14800,"station_id":"ce4bhu92rcd13ifvqi70","pricing_plan_id":"cebpf4jnsgd1na2vs0mg"},{"bike_id":"e91ced2f-2041-4b38-8446-0d5d97adec95","system_id":"levelo_inurba_marseille","lat":43.25566,"lon":5.38243,"is_reserved":false,"is_disabled":true,"rental_uris":{"android":"levelo://app?vid=e91ced2f-2041-4b38-8446-0d5d97adec95","ios":"levelo://app?vid=e91ced2f-2041-4b38-8446-0d5d97adec95"},"vehicle_type_id":"4","last_reported":1752505928,"current_range_meters":14800,"station_id":"ce4bhih2rcd13ifvqfs0","pricing_plan_id":"cebpf4jnsgd1na2vs0mg"},{"bike_id":"164f4c86-61e2-403b-b2fb-77ac6c735b51","system_id":"levelo_inurba_marseille","lat":43.27209,"lon":5.39182,"is_reserved":false,"is_disabled":false,"rental_uris":{"android":"levelo://app?vid=164f4c86-61e2-403b-b2fb-77ac6c735b51","ios":"levelo://app?vid=164f4c86-61e2-403b-b2fb-77ac6c735b51"},"vehicle_type_id":"4","last_reported":1752505928,"current_range_meters":15200,"station_id":"ce4bhhp2rcd13ifvqfm0","pricing_plan_id":"cebpf4jnsgd1na2vs0mg"},{"bike_id":"2c81c752-b139-48bc-a4ee-7fa7f8526278","system_id":"levelo_inurba_marseille","lat":43.21736,"lon":5.34607,"is_reserved":false,"is_disabled":false,"rental_uris":{"android":"levelo://app?vid=2c81c752-b139-48bc-a4ee-7fa7f8526278","ios":"levelo://app?vid=2c81c752-b139-48bc-a4ee-7fa7f8526278"},"vehicle_type_id":"4","last_reported":1752505928,"current_range_meters":15200,"station_id":"st_cvj6r9ubvosntc0bgbag","pricing_plan_id":"cebpf4jnsgd1na2vs0mg"},{"bike_id":"c4394d8c-8102-4300-bdb5-758262918af2","system_id":"levelo_inurba_marseille","lat":43.30924,"lon":5.40138,"is_reserved":false,"is_disabled":true,"rental_uris":{"android":"levelo://app?vid=c4394d8c-8102-4300-bdb5-758262918af2","ios":"levelo://app?vid=c4394d8c-8102-4300-bdb5-758262918af2"},"vehicle_type_id":"4","last_reported":1752505928,"current_range_meters":15200,"station_id":"ce4bgvp2rcd13ifvqct0","pricing_plan_id":"cebpf4jnsgd1na2vs0mg"},{"bike_id":"04ac1456-9549-4c49-bb54-c911df1dcd8d","system_id":"levelo_inurba_marseille","lat":43.26949,"lon":5.40219,"is_reserved":false,"is_disabled":false,"rental_uris":{"android":"levelo://app?vid=04ac1456-9549-4c49-bb54-c911df1dcd8d","ios":"levelo://app?vid=04ac1456-9549-4c49-bb54-c911df1dcd8d"},"vehicle_type_id":"4","last_reported":1752505928,"current_range_meters":15200,"station_id":"cjm6bp8fraef2m0cb0m0","pricing_plan_id":"cebpf4jnsgd1na2vs0mg"},{"bike_id":"aa260077-cb0d-43c9-8e67-329c1b69779f","system_id":"levelo_inurba_marseille","lat":43.21196,"lon":5.35067,"is_reserved":false,"is_disabled":false,"rental_uris":{"android":"levelo://app?vid=aa260077-cb0d-43c9-8e67-329c1b69779f","ios":"levelo://app?vid=aa260077-cb0d-43c9-8e67-329c1b69779f"},"vehicle_type_id":"4","last_reported":1752505928,"current_range_meters":15200,"station_id":"st_cvj6sg6p6f1abm77japg","pricing_plan_id":"cebpf4jnsgd1na2vs0mg"},{"bike_id":"ed74f810-226b-4edb-a7d8-2c9a86d071a4","system_id":"levelo_inurba_marseille","lat":43.21189,"lon":5.35069,"is_reserved":false,"is_disabled":false,"rental_uris":{"android":"levelo://app?vid=ed74f810-226b-4edb-a7d8-2c9a86d071a4","ios":"levelo://app?vid=ed74f810-226b-4edb-a7d8-2c9a86d071a4"},"vehicle_type_id":"4","last_reported":1752505928,"current_range_meters":15200,"station_id":"st_cvj6sg6p6f1abm77japg","pricing_plan_id":"cebpf4jnsgd1na2vs0mg"},{"bike_id":"5f8354b6-3ba0-4e58-b732-8a9dc8f2077c","system_id":"levelo_inurba_marseille","lat":43.30333,"lon":5.40433,"is_reserved":false,"is_disabled":false,"rental_uris":{"android":"levelo://app?vid=5f8354b6-3ba0-4e58-b732-8a9dc8f2077c","ios":"levelo://app?vid=5f8354b6-3ba0-4e58-b732-8a9dc8f2077c"},"vehicle_type_id":"4","last_reported":1752505928,"current_range_meters":15200,"station_id":"ce4bh012rcd13ifvqd10","pricing_plan_id":"cebpf4jnsgd1na2vs0mg"},{"bike_id":"420a1952-2142-445c-856b-7e164280a385","system_id":"levelo_inurba_marseille","lat":43.28349,"lon":5.381,"is_reserved":false,"is_disabled":false,"rental_uris":{"android":"levelo://app?vid=420a1952-2142-445c-856b-7e164280a385","ios":"levelo://app?vid=420a1952-2142-445c-856b-7e164280a385"},"vehicle_type_id":"4","last_reported":1752505928,"current_range_meters":15200,"station_id":"ce4bh412rcd13ifvqdr0","pricing_plan_id":"cebpf4jnsgd1na2vs0mg"},{"bike_id":"5fa858c5-b668-473d-980c-66352519635e","system_id":"levelo_inurba_marseille","lat":43.24088,"lon":5.37744,"is_reserved":false,"is_disabled":false,"rental_uris":{"android":"levelo://app?vid=5fa858c5-b668-473d-980c-66352519635e","ios":"levelo://app?vid=5fa858c5-b668-473d-980c-66352519635e"},"vehicle_type_id":"4","last_reported":1752505928,"current_range_meters":16000,"station_id":"ce4bhnp2rcd13ifvqgvg","pricing_plan_id":"cebpf4jnsgd1na2vs0mg"},{"bike_id":"2c5a0a8d-b80f-43a1-91ae-93c8cb7cac46","system_id":"levelo_inurba_marseille","lat":43.290249,"lon":5.381227,"is_reserved":false,"is_disabled":false,"rental_uris":{"android":"levelo://app?vid=2c5a0a8d-b80f-43a1-91ae-93c8cb7cac46","ios":"levelo://app?vid=2c5a0a8d-b80f-43a1-91ae-93c8cb7cac46"},"vehicle_type_id":"4","last_reported":1752505928,"current_range_meters":16000,"station_id":"","pricing_plan_id":"cebpf4jnsgd1na2vs0mg"},{"bike_id":"4c68a4e8-1762-4d65-8098-26a5fa1a6fa8","system_id":"levelo_inurba_marseille","lat":43.28633,"lon":5.35107,"is_reserved":false,"is_disabled":false,"rental_uris":{"android":"levelo://app?vid=4c68a4e8-1762-4d65-8098-26a5fa1a6fa8","ios":"levelo://app?vid=4c68a4e8-1762-4d65-8098-26a5fa1a6fa8"},"vehicle_type_id":"4","last_reported":1752505928,"current_range_meters":16000,"station_id":"ce4bhch2rcd13ifvqeug","pricing_plan_id":"cebpf4jnsgd1na2vs0mg"},{"bike_id":"b6771d12-4d0b-4004-8d85-15a22b02cf35","system_id":"levelo_inurba_marseille","lat":43.2558,"lon":5.38227,"is_reserved":false,"is_disabled":false,"rental_uris":{"android":"levelo://app?vid=b6771d12-4d0b-4004-8d85-15a22b02cf35","ios":"levelo://app?vid=b6771d12-4d0b-4004-8d85-15a22b02cf35"},"vehicle_type_id":"4","last_reported":1752505928,"current_range_meters":16000,"station_id":"ce4bhih2rcd13ifvqfs0","pricing_plan_id":"cebpf4jnsgd1na2vs0mg"},{"bike_id":"328fdc6d-b36f-4007-94a0-c32a63e1fcc0","system_id":"levelo_inurba_marseille","lat":43.28683,"lon":5.36345,"is_reserved":false,"is_disabled":false,"rental_uris":{"android":"levelo://app?vid=328fdc6d-b36f-4007-94a0-c32a63e1fcc0","ios":"levelo://app?vid=328fdc6d-b36f-4007-94a0-c32a63e1fcc0"},"vehicle_type_id":"4","last_reported":1752505928,"current_range_meters":16400,"station_id":"ce4bhah2rcd13ifvqej0","pricing_plan_id":"cebpf4jnsgd1na2vs0mg"},{"bike_id":"3945caf1-a3ed-4500-a05f-e4d3291f48da","system_id":"levelo_inurba_marseille","lat":43.28258,"lon":5.35088,"is_reserved":false,"is_disabled":false,"rental_uris":{"android":"levelo://app?vid=3945caf1-a3ed-4500-a05f-e4d3291f48da","ios":"levelo://app?vid=3945caf1-a3ed-4500-a05f-e4d3291f48da"},"vehicle_type_id":"4","last_reported":1752505928,"current_range_meters":16400,"station_id":"ce4bhbp2rcd13ifvqerg","pricing_plan_id":"cebpf4jnsgd1na2vs0mg"},{"bike_id":"6167cd48-73d5-46fe-b460-468441b6a8a6","system_id":"levelo_inurba_marseille","lat":43.32484,"lon":5.36587,"is_reserved":false,"is_disabled":false,"rental_uris":{"android":"levelo://app?vid=6167cd48-73d5-46fe-b460-468441b6a8a6","ios":"levelo://app?vid=6167cd48-73d5-46fe-b460-468441b6a8a6"},"vehicle_type_id":"4","last_reported":1752505928,"current_range_meters":16400,"station_id":"ce4bhs12rcd13ifvqhvg","pricing_plan_id":"cebpf4jnsgd1na2vs0mg"},{"bike_id":"0be8b6ff-89df-4994-876a-5f9632d04ae6","system_id":"levelo_inurba_marseille","lat":43.25111,"lon":5.40318,"is_reserved":false,"is_disabled":false,"rental_uris":{"android":"levelo://app?vid=0be8b6ff-89df-4994-876a-5f9632d04ae6","ios":"levelo://app?vid=0be8b6ff-89df-4994-876a-5f9632d04ae6"},"vehicle_type_id":"4","last_reported":1752505928,"current_range_meters":16400,"station_id":"ce4bhlh2rcd13ifvqgig","pricing_plan_id":"cebpf4jnsgd1na2vs0mg"},{"bike_id":"16f9f5bf-04a0-4696-8476-0285f29d36ac","system_id":"levelo_inurba_marseille","lat":43.26553,"lon":5.37286,"is_reserved":false,"is_disabled":false,"rental_uris":{"android":"levelo://app?vid=16f9f5bf-04a0-4696-8476-0285f29d36ac","ios":"levelo://app?vid=16f9f5bf-04a0-4696-8476-0285f29d36ac"},"vehicle_type_id":"4","last_reported":1752505928,"current_range_meters":16400,"station_id":"ce4bhg12rcd13ifvqf70","pricing_plan_id":"cebpf4jnsgd1na2vs0mg"},{"bike_id":"fe16567f-c5f3-45fd-a6a6-60506abcbad9","system_id":"levelo_inurba_marseille","lat":43.28618,"lon":5.35104,"is_reserved":false,"is_disabled":false,"rental_uris":{"android":"levelo://app?vid=fe16567f-c5f3-45fd-a6a6-60506abcbad9","ios":"levelo://app?vid=fe16567f-c5f3-45fd-a6a6-60506abcbad9"},"vehicle_type_id":"4","last_reported":1752505928,"current_range_meters":16400,"station_id":"ce4bhch2rcd13ifvqeug","pricing_plan_id":"cebpf4jnsgd1na2vs0mg"},{"bike_id":"e0b88937-0cb8-4374-8110-357b6a1974b9","system_id":"levelo_inurba_marseille","lat":43.24067,"lon":5.37744,"is_reserved":false,"is_disabled":false,"rental_uris":{"android":"levelo://app?vid=e0b88937-0cb8-4374-8110-357b6a1974b9","ios":"levelo://app?vid=e0b88937-0cb8-4374-8110-357b6a1974b9"},"vehicle_type_id":"4","last_reported":1752505928,"current_range_meters":16400,"station_id":"ce4bhnp2rcd13ifvqgvg","pricing_plan_id":"cebpf4jnsgd1na2vs0mg"},{"bike_id":"96404d04-512d-4e45-b57c-350a79134d38","system_id":"levelo_inurba_marseille","lat":43.21196,"lon":5.35062,"is_reserved":false,"is_disabled":false,"rental_uris":{"android":"levelo://app?vid=96404d04-512d-4e45-b57c-350a79134d38","ios":"levelo://app?vid=96404d04-512d-4e45-b57c-350a79134d38"},"vehicle_type_id":"4","last_reported":1752505928,"current_range_meters":16400,"station_id":"st_cvj6sg6p6f1abm77japg","pricing_plan_id":"cebpf4jnsgd1na2vs0mg"},{"bike_id":"c2857b8a-2544-48ae-936c-90bab1dd6ab6","system_id":"levelo_inurba_marseille","lat":43.21214,"lon":5.35078,"is_reserved":false,"is_disabled":false,"rental_uris":{"android":"levelo://app?vid=c2857b8a-2544-48ae-936c-90bab1dd6ab6","ios":"levelo://app?vid=c2857b8a-2544-48ae-936c-90bab1dd6ab6"},"vehicle_type_id":"4","last_reported":1752505928,"current_range_meters":16400,"station_id":"st_cvj6sg6p6f1abm77japg","pricing_plan_id":"cebpf4jnsgd1na2vs0mg"},{"bike_id":"b3d91d55-4018-458d-9a89-7eb0a77408e4","system_id":"levelo_inurba_marseille","lat":43.238811,"lon":5.365377,"is_reserved":false,"is_disabled":false,"rental_uris":{"android":"levelo://app?vid=b3d91d55-4018-458d-9a89-7eb0a77408e4","ios":"levelo://app?vid=b3d91d55-4018-458d-9a89-7eb0a77408e4"},"vehicle_type_id":"4","last_reported":1752505928,"current_range_meters":16400,"station_id":"ce4bhi12rcd13ifvqfp0","pricing_plan_id":"cebpf4jnsgd1na2vs0mg"},{"bike_id":"ce4d14d7-9e5a-40df-9fcf-5fd8b2e9178f","system_id":"levelo_inurba_marseille","lat":43.25732,"lon":5.41107,"is_reserved":false,"is_disabled":false,"rental_uris":{"android":"levelo://app?vid=ce4d14d7-9e5a-40df-9fcf-5fd8b2e9178f","ios":"levelo://app?vid=ce4d14d7-9e5a-40df-9fcf-5fd8b2e9178f"},"vehicle_type_id":"4","last_reported":1752505928,"current_range_meters":16800,"station_id":"ce4bhkp2rcd13ifvqgd0","pricing_plan_id":"cebpf4jnsgd1na2vs0mg"},{"bike_id":"fc63a067-9cf2-4c58-bfdd-3270ab1898f2","system_id":"levelo_inurba_marseille","lat":43.229279,"lon":5.353948,"is_reserved":false,"is_disabled":false,"rental_uris":{"android":"levelo://app?vid=fc63a067-9cf2-4c58-bfdd-3270ab1898f2","ios":"levelo://app?vid=fc63a067-9cf2-4c58-bfdd-3270ab1898f2"},"vehicle_type_id":"4","last_reported":1752505928,"current_range_meters":16800,"station_id":"cpo3532slgdg3j2ikp40","pricing_plan_id":"cebpf4jnsgd1na2vs0mg"},{"bike_id":"44e10618-e1b8-4569-bc24-980853c4bf04","system_id":"levelo_inurba_marseille","lat":43.22946,"lon":5.35408,"is_reserved":false,"is_disabled":true,"rental_uris":{"android":"levelo://app?vid=44e10618-e1b8-4569-bc24-980853c4bf04","ios":"levelo://app?vid=44e10618-e1b8-4569-bc24-980853c4bf04"},"vehicle_type_id":"4","last_reported":1752505928,"current_range_meters":16800,"station_id":"cpo3532slgdg3j2ikp40","pricing_plan_id":"cebpf4jnsgd1na2vs0mg"},{"bike_id":"070d9938-5e5c-4b04-b979-6a8c0ebc7255","system_id":"levelo_inurba_marseille","lat":43.28415,"lon":5.34991,"is_reserved":false,"is_disabled":false,"rental_uris":{"android":"levelo://app?vid=070d9938-5e5c-4b04-b979-6a8c0ebc7255","ios":"levelo://app?vid=070d9938-5e5c-4b04-b979-6a8c0ebc7255"},"vehicle_type_id":"4","last_reported":1752505928,"current_range_meters":16800,"station_id":"ce4bhbh2rcd13ifvqepg","pricing_plan_id":"cebpf4jnsgd1na2vs0mg"},{"bike_id":"d0f90c24-dd03-411b-9731-55305f76b7c8","system_id":"levelo_inurba_marseille","lat":43.21182,"lon":5.35084,"is_reserved":false,"is_disabled":false,"rental_uris":{"android":"levelo://app?vid=d0f90c24-dd03-411b-9731-55305f76b7c8","ios":"levelo://app?vid=d0f90c24-dd03-411b-9731-55305f76b7c8"},"vehicle_type_id":"4","last_reported":1752505928,"current_range_meters":16800,"station_id":"st_cvj6sg6p6f1abm77japg","pricing_plan_id":"cebpf4jnsgd1na2vs0mg"},{"bike_id":"b5867013-ff37-4282-8749-d643a22865f7","system_id":"levelo_inurba_marseille","lat":43.29545,"lon":5.38535,"is_reserved":false,"is_disabled":false,"rental_uris":{"android":"levelo://app?vid=b5867013-ff37-4282-8749-d643a22865f7","ios":"levelo://app?vid=b5867013-ff37-4282-8749-d643a22865f7"},"vehicle_type_id":"4","last_reported":1752505928,"current_range_meters":16800,"station_id":"ce4bgih2rcd13ifvqba0","pricing_plan_id":"cebpf4jnsgd1na2vs0mg"},{"bike_id":"242f78ae-d900-4f7f-87e9-c90499a40f41","system_id":"levelo_inurba_marseille","lat":43.2621,"lon":5.37444,"is_reserved":false,"is_disabled":false,"rental_uris":{"android":"levelo://app?vid=242f78ae-d900-4f7f-87e9-c90499a40f41","ios":"levelo://app?vid=242f78ae-d900-4f7f-87e9-c90499a40f41"},"vehicle_type_id":"4","last_reported":1752505928,"current_range_meters":16800,"station_id":"ce4bhgp2rcd13ifvqfc0","pricing_plan_id":"cebpf4jnsgd1na2vs0mg"},{"bike_id":"49e98656-994d-4953-9b86-0408c94f8920","system_id":"levelo_inurba_marseille","lat":43.27886,"lon":5.37968,"is_reserved":false,"is_disabled":false,"rental_uris":{"android":"levelo://app?vid=49e98656-994d-4953-9b86-0408c94f8920","ios":"levelo://app?vid=49e98656-994d-4953-9b86-0408c94f8920"},"vehicle_type_id":"4","last_reported":1752505928,"current_range_meters":16800,"station_id":"ce4bhf92rcd13ifvqf50","pricing_plan_id":"cebpf4jnsgd1na2vs0mg"},{"bike_id":"3e9e8c3d-5f1f-4564-a4c4-86972c2dd72f","system_id":"levelo_inurba_marseille","lat":43.27639,"lon":5.36101,"is_reserved":false,"is_disabled":false,"rental_uris":{"android":"levelo://app?vid=3e9e8c3d-5f1f-4564-a4c4-86972c2dd72f","ios":"levelo://app?vid=3e9e8c3d-5f1f-4564-a4c4-86972c2dd72f"},"vehicle_type_id":"4","last_reported":1752505928,"current_range_meters":16800,"station_id":"ce4bgj92rcd13ifvqbe0","pricing_plan_id":"cebpf4jnsgd1na2vs0mg"},{"bike_id":"16052414-82ed-4d61-a572-6e80377b0d18","system_id":"levelo_inurba_marseille","lat":43.27831,"lon":5.4072,"is_reserved":false,"is_disabled":false,"rental_uris":{"android":"levelo://app?vid=16052414-82ed-4d61-a572-6e80377b0d18","ios":"levelo://app?vid=16052414-82ed-4d61-a572-6e80377b0d18"},"vehicle_type_id":"4","last_reported":1752505928,"current_range_meters":16800,"station_id":"ce4bhnh2rcd13ifvqgtg","pricing_plan_id":"cebpf4jnsgd1na2vs0mg"},{"bike_id":"403880bc-8bea-46f6-8a81-b7f6860118ac","system_id":"levelo_inurba_marseille","lat":43.29262,"lon":5.38435,"is_reserved":false,"is_disabled":true,"rental_uris":{"android":"levelo://app?vid=403880bc-8bea-46f6-8a81-b7f6860118ac","ios":"levelo://app?vid=403880bc-8bea-46f6-8a81-b7f6860118ac"},"vehicle_type_id":"4","last_reported":1752505928,"current_range_meters":16800,"station_id":"ce4bh692rcd13ifvqea0","pricing_plan_id":"cebpf4jnsgd1na2vs0mg"},{"bike_id":"56b18f82-6a98-4866-8883-4e793f17b0b2","system_id":"levelo_inurba_marseille","lat":43.29303,"lon":5.37454,"is_reserved":false,"is_disabled":false,"rental_uris":{"android":"levelo://app?vid=56b18f82-6a98-4866-8883-4e793f17b0b2","ios":"levelo://app?vid=56b18f82-6a98-4866-8883-4e793f17b0b2"},"vehicle_type_id":"4","last_reported":1752505928,"current_range_meters":17200,"station_id":"ce4bgi12rcd13ifvqb70","pricing_plan_id":"cebpf4jnsgd1na2vs0mg"},{"bike_id":"6c6d4d9a-6141-481c-9c1a-8e61054bdc43","system_id":"levelo_inurba_marseille","lat":43.247784,"lon":5.418132,"is_reserved":false,"is_disabled":false,"rental_uris":{"android":"levelo://app?vid=6c6d4d9a-6141-481c-9c1a-8e61054bdc43","ios":"levelo://app?vid=6c6d4d9a-6141-481c-9c1a-8e61054bdc43"},"vehicle_type_id":"4","last_reported":1752505928,"current_range_meters":17200,"station_id":"","pricing_plan_id":"cebpf4jnsgd1na2vs0mg"},{"bike_id":"5c604cee-8163-4508-b1f3-ec8c5d644770","system_id":"levelo_inurba_marseille","lat":43.2318,"lon":5.35577,"is_reserved":false,"is_disabled":false,"rental_uris":{"android":"levelo://app?vid=5c604cee-8163-4508-b1f3-ec8c5d644770","ios":"levelo://app?vid=5c604cee-8163-4508-b1f3-ec8c5d644770"},"vehicle_type_id":"4","last_reported":1752505928,"current_range_meters":17200,"station_id":"ce4bhu92rcd13ifvqi70","pricing_plan_id":"cebpf4jnsgd1na2vs0mg"},{"bike_id":"48a72147-d63a-4fad-9403-9184689656c8","system_id":"levelo_inurba_marseille","lat":43.2441,"lon":5.37086,"is_reserved":false,"is_disabled":true,"rental_uris":{"android":"levelo://app?vid=48a72147-d63a-4fad-9403-9184689656c8","ios":"levelo://app?vid=48a72147-d63a-4fad-9403-9184689656c8"},"vehicle_type_id":"4","last_reported":1752505928,"current_range_meters":17200,"station_id":"ce4bhhh2rcd13ifvqfk0","pricing_plan_id":"cebpf4jnsgd1na2vs0mg"},{"bike_id":"75753b66-3b46-441c-b699-a9bf8ccd05f2","system_id":"levelo_inurba_marseille","lat":43.24174,"lon":5.36397,"is_reserved":false,"is_disabled":false,"rental_uris":{"android":"levelo://app?vid=75753b66-3b46-441c-b699-a9bf8ccd05f2","ios":"levelo://app?vid=75753b66-3b46-441c-b699-a9bf8ccd05f2"},"vehicle_type_id":"4","last_reported":1752505928,"current_range_meters":17200,"station_id":"cpo36qri1sfpv3e86is0","pricing_plan_id":"cebpf4jnsgd1na2vs0mg"},{"bike_id":"0755cb70-08ea-4ee0-9fc0-1b832c502a85","system_id":"levelo_inurba_marseille","lat":43.21752,"lon":5.3461,"is_reserved":false,"is_disabled":false,"rental_uris":{"android":"levelo://app?vid=0755cb70-08ea-4ee0-9fc0-1b832c502a85","ios":"levelo://app?vid=0755cb70-08ea-4ee0-9fc0-1b832c502a85"},"vehicle_type_id":"4","last_reported":1752505928,"current_range_meters":17200,"station_id":"st_cvj6r9ubvosntc0bgbag","pricing_plan_id":"cebpf4jnsgd1na2vs0mg"},{"bike_id":"def3d27f-26a3-4eb1-a992-b40bce4396e0","system_id":"levelo_inurba_marseille","lat":43.21731,"lon":5.34609,"is_reserved":false,"is_disabled":false,"rental_uris":{"android":"levelo://app?vid=def3d27f-26a3-4eb1-a992-b40bce4396e0","ios":"levelo://app?vid=def3d27f-26a3-4eb1-a992-b40bce4396e0"},"vehicle_type_id":"4","last_reported":1752505928,"current_range_meters":17600,"station_id":"st_cvj6r9ubvosntc0bgbag","pricing_plan_id":"cebpf4jnsgd1na2vs0mg"},{"bike_id":"96ed74ba-f19a-4585-9e69-166e23403ece","system_id":"levelo_inurba_marseille","lat":43.25469,"lon":5.37657,"is_reserved":false,"is_disabled":false,"rental_uris":{"android":"levelo://app?vid=96ed74ba-f19a-4585-9e69-166e23403ece","ios":"levelo://app?vid=96ed74ba-f19a-4585-9e69-166e23403ece"},"vehicle_type_id":"4","last_reported":1752505928,"current_range_meters":17600,"station_id":"ce4bhh12rcd13ifvqff0","pricing_plan_id":"cebpf4jnsgd1na2vs0mg"},{"bike_id":"be823f9c-3f94-4d21-8417-93b1f1be43f1","system_id":"levelo_inurba_marseille","lat":43.22944,"lon":5.35381,"is_reserved":false,"is_disabled":false,"rental_uris":{"android":"levelo://app?vid=be823f9c-3f94-4d21-8417-93b1f1be43f1","ios":"levelo://app?vid=be823f9c-3f94-4d21-8417-93b1f1be43f1"},"vehicle_type_id":"4","last_reported":1752505928,"current_range_meters":17600,"station_id":"cpo3532slgdg3j2ikp40","pricing_plan_id":"cebpf4jnsgd1na2vs0mg"},{"bike_id":"5084babc-9e40-4691-99c4-778b7e48f00b","system_id":"levelo_inurba_marseille","lat":43.23955,"lon":5.36651,"is_reserved":false,"is_disabled":false,"rental_uris":{"android":"levelo://app?vid=5084babc-9e40-4691-99c4-778b7e48f00b","ios":"levelo://app?vid=5084babc-9e40-4691-99c4-778b7e48f00b"},"vehicle_type_id":"4","last_reported":1752505928,"current_range_meters":17600,"station_id":"ce4bhi12rcd13ifvqfp0","pricing_plan_id":"cebpf4jnsgd1na2vs0mg"},{"bike_id":"a891b4d9-5a3a-4260-b7ee-53a4d3749320","system_id":"levelo_inurba_marseille","lat":43.30541,"lon":5.36727,"is_reserved":false,"is_disabled":false,"rental_uris":{"android":"levelo://app?vid=a891b4d9-5a3a-4260-b7ee-53a4d3749320","ios":"levelo://app?vid=a891b4d9-5a3a-4260-b7ee-53a4d3749320"},"vehicle_type_id":"4","last_reported":1752505928,"current_range_meters":17200,"station_id":"ce4bgrp2rcd13ifvqc9g","pricing_plan_id":"cebpf4jnsgd1na2vs0mg"},{"bike_id":"9ec7ded0-07a0-4052-88cd-c68cfaa8fdd7","system_id":"levelo_inurba_marseille","lat":43.21761,"lon":5.34638,"is_reserved":false,"is_disabled":false,"rental_uris":{"android":"levelo://app?vid=9ec7ded0-07a0-4052-88cd-c68cfaa8fdd7","ios":"levelo://app?vid=9ec7ded0-07a0-4052-88cd-c68cfaa8fdd7"},"vehicle_type_id":"4","last_reported":1752505928,"current_range_meters":17600,"station_id":"st_cvj6r9ubvosntc0bgbag","pricing_plan_id":"cebpf4jnsgd1na2vs0mg"},{"bike_id":"2f9043b4-5875-4794-a682-a6a782090c68","system_id":"levelo_inurba_marseille","lat":43.23238,"lon":5.35596,"is_reserved":false,"is_disabled":false,"rental_uris":{"android":"levelo://app?vid=2f9043b4-5875-4794-a682-a6a782090c68","ios":"levelo://app?vid=2f9043b4-5875-4794-a682-a6a782090c68"},"vehicle_type_id":"4","last_reported":1752505928,"current_range_meters":17600,"station_id":"","pricing_plan_id":"cebpf4jnsgd1na2vs0mg"},{"bike_id":"c2862a14-dfd5-4c32-aabc-3333495cb3b1","system_id":"levelo_inurba_marseille","lat":43.27313,"lon":5.3908,"is_reserved":false,"is_disabled":false,"rental_uris":{"android":"levelo://app?vid=c2862a14-dfd5-4c32-aabc-3333495cb3b1","ios":"levelo://app?vid=c2862a14-dfd5-4c32-aabc-3333495cb3b1"},"vehicle_type_id":"4","last_reported":1752505928,"current_range_meters":17600,"station_id":"ce4bhgp2rcd13ifvqfe0","pricing_plan_id":"cebpf4jnsgd1na2vs0mg"},{"bike_id":"f10941ce-d19a-4475-b0ba-1c38d332727e","system_id":"levelo_inurba_marseille","lat":43.32162,"lon":5.38705,"is_reserved":false,"is_disabled":false,"rental_uris":{"android":"levelo://app?vid=f10941ce-d19a-4475-b0ba-1c38d332727e","ios":"levelo://app?vid=f10941ce-d19a-4475-b0ba-1c38d332727e"},"vehicle_type_id":"4","last_reported":1752505928,"current_range_meters":17600,"station_id":"","pricing_plan_id":"cebpf4jnsgd1na2vs0mg"},{"bike_id":"c3eb31c9-e106-4cd2-bb91-f2d0ee3e7a6f","system_id":"levelo_inurba_marseille","lat":43.24025,"lon":5.36243,"is_reserved":false,"is_disabled":false,"rental_uris":{"android":"levelo://app?vid=c3eb31c9-e106-4cd2-bb91-f2d0ee3e7a6f","ios":"levelo://app?vid=c3eb31c9-e106-4cd2-bb91-f2d0ee3e7a6f"},"vehicle_type_id":"4","last_reported":1752505928,"current_range_meters":17600,"station_id":"","pricing_plan_id":"cebpf4jnsgd1na2vs0mg"},{"bike_id":"a1f0c7e1-0bdc-4118-b503-84f5f7fdb140","system_id":"levelo_inurba_marseille","lat":43.287,"lon":5.35241,"is_reserved":false,"is_disabled":false,"rental_uris":{"android":"levelo://app?vid=a1f0c7e1-0bdc-4118-b503-84f5f7fdb140","ios":"levelo://app?vid=a1f0c7e1-0bdc-4118-b503-84f5f7fdb140"},"vehicle_type_id":"4","last_reported":1752505928,"current_range_meters":17600,"station_id":"","pricing_plan_id":"cebpf4jnsgd1na2vs0mg"},{"bike_id":"40bded1f-8528-4065-aa77-d57a5dad68bd","system_id":"levelo_inurba_marseille","lat":43.281048,"lon":5.378323,"is_reserved":false,"is_disabled":false,"rental_uris":{"android":"levelo://app?vid=40bded1f-8528-4065-aa77-d57a5dad68bd","ios":"levelo://app?vid=40bded1f-8528-4065-aa77-d57a5dad68bd"},"vehicle_type_id":"4","last_reported":1752505928,"current_range_meters":17600,"station_id":"ce4bha12rcd13ifvqee0","pricing_plan_id":"cebpf4jnsgd1na2vs0mg"},{"bike_id":"67ea8ef4-3aa6-4fb1-8ad1-e242eb4ada30","system_id":"levelo_inurba_marseille","lat":43.23192,"lon":5.35557,"is_reserved":false,"is_disabled":false,"rental_uris":{"android":"levelo://app?vid=67ea8ef4-3aa6-4fb1-8ad1-e242eb4ada30","ios":"levelo://app?vid=67ea8ef4-3aa6-4fb1-8ad1-e242eb4ada30"},"vehicle_type_id":"4","last_reported":1752505928,"current_range_meters":17600,"station_id":"ce4bhu92rcd13ifvqi70","pricing_plan_id":"cebpf4jnsgd1na2vs0mg"},{"bike_id":"60cd0578-222b-4cea-93a9-5ed6e663f65d","system_id":"levelo_inurba_marseille","lat":43.21748,"lon":5.34598,"is_reserved":false,"is_disabled":false,"rental_uris":{"android":"levelo://app?vid=60cd0578-222b-4cea-93a9-5ed6e663f65d","ios":"levelo://app?vid=60cd0578-222b-4cea-93a9-5ed6e663f65d"},"vehicle_type_id":"4","last_reported":1752505928,"current_range_meters":17600,"station_id":"st_cvj6r9ubvosntc0bgbag","pricing_plan_id":"cebpf4jnsgd1na2vs0mg"},{"bike_id":"08e67338-a2ff-42fc-a939-92ad435f118e","system_id":"levelo_inurba_marseille","lat":43.27674,"lon":5.35714,"is_reserved":false,"is_disabled":false,"rental_uris":{"android":"levelo://app?vid=08e67338-a2ff-42fc-a939-92ad435f118e","ios":"levelo://app?vid=08e67338-a2ff-42fc-a939-92ad435f118e"},"vehicle_type_id":"4","last_reported":1752505928,"current_range_meters":17600,"station_id":"","pricing_plan_id":"cebpf4jnsgd1na2vs0mg"},{"bike_id":"002126f6-737b-4641-9e75-1e3a41731156","system_id":"levelo_inurba_marseille","lat":43.217533,"lon":5.345999,"is_reserved":false,"is_disabled":false,"rental_uris":{"android":"levelo://app?vid=002126f6-737b-4641-9e75-1e3a41731156","ios":"levelo://app?vid=002126f6-737b-4641-9e75-1e3a41731156"},"vehicle_type_id":"4","last_reported":1752505928,"current_range_meters":17600,"station_id":"st_cvj6r9ubvosntc0bgbag","pricing_plan_id":"cebpf4jnsgd1na2vs0mg"},{"bike_id":"17911de8-6634-4c0a-81e9-2a901f8423b6","system_id":"levelo_inurba_marseille","lat":43.28267,"lon":5.3507,"is_reserved":false,"is_disabled":false,"rental_uris":{"android":"levelo://app?vid=17911de8-6634-4c0a-81e9-2a901f8423b6","ios":"levelo://app?vid=17911de8-6634-4c0a-81e9-2a901f8423b6"},"vehicle_type_id":"4","last_reported":1752505928,"current_range_meters":18000,"station_id":"ce4bhbp2rcd13ifvqerg","pricing_plan_id":"cebpf4jnsgd1na2vs0mg"},{"bike_id":"01beb3f2-c54f-4f68-af15-b28ae7c75196","system_id":"levelo_inurba_marseille","lat":43.30126,"lon":5.39907,"is_reserved":false,"is_disabled":true,"rental_uris":{"android":"levelo://app?vid=01beb3f2-c54f-4f68-af15-b28ae7c75196","ios":"levelo://app?vid=01beb3f2-c54f-4f68-af15-b28ae7c75196"},"vehicle_type_id":"4","last_reported":1752505928,"current_range_meters":18000,"station_id":"ce4bh0h2rcd13ifvqd40","pricing_plan_id":"cebpf4jnsgd1na2vs0mg"},{"bike_id":"44745ac3-4df9-409c-9422-194cd101e66b","system_id":"levelo_inurba_marseille","lat":43.28733,"lon":5.36083,"is_reserved":false,"is_disabled":false,"rental_uris":{"android":"levelo://app?vid=44745ac3-4df9-409c-9422-194cd101e66b","ios":"levelo://app?vid=44745ac3-4df9-409c-9422-194cd101e66b"},"vehicle_type_id":"4","last_reported":1752505928,"current_range_meters":18000,"station_id":"cki0cbj6b192h4jlfktg","pricing_plan_id":"cebpf4jnsgd1na2vs0mg"},{"bike_id":"f2052e77-2392-4735-a8f6-84f745fd6486","system_id":"levelo_inurba_marseille","lat":43.27391,"lon":5.36252,"is_reserved":false,"is_disabled":false,"rental_uris":{"android":"levelo://app?vid=f2052e77-2392-4735-a8f6-84f745fd6486","ios":"levelo://app?vid=f2052e77-2392-4735-a8f6-84f745fd6486"},"vehicle_type_id":"4","last_reported":1752505928,"current_range_meters":18000,"station_id":"ce4bhbh2rcd13ifvqeo0","pricing_plan_id":"cebpf4jnsgd1na2vs0mg"},{"bike_id":"6b6619c5-6cd2-4092-aacb-23aa7b5e47c6","system_id":"levelo_inurba_marseille","lat":43.24174,"lon":5.36397,"is_reserved":false,"is_disabled":false,"rental_uris":{"android":"levelo://app?vid=6b6619c5-6cd2-4092-aacb-23aa7b5e47c6","ios":"levelo://app?vid=6b6619c5-6cd2-4092-aacb-23aa7b5e47c6"},"vehicle_type_id":"4","last_reported":1752505928,"current_range_meters":18000,"station_id":"cpo36qri1sfpv3e86is0","pricing_plan_id":"cebpf4jnsgd1na2vs0mg"},{"bike_id":"e1f42b85-56a7-4e05-91d7-127276a443a3","system_id":"levelo_inurba_marseille","lat":43.27389,"lon":5.36275,"is_reserved":false,"is_disabled":false,"rental_uris":{"android":"levelo://app?vid=e1f42b85-56a7-4e05-91d7-127276a443a3","ios":"levelo://app?vid=e1f42b85-56a7-4e05-91d7-127276a443a3"},"vehicle_type_id":"4","last_reported":1752505928,"current_range_meters":18800,"station_id":"ce4bhbh2rcd13ifvqeo0","pricing_plan_id":"cebpf4jnsgd1na2vs0mg"},{"bike_id":"949cac28-1e79-45e2-a946-5e224b739cae","system_id":"levelo_inurba_marseille","lat":43.24165,"lon":5.36423,"is_reserved":false,"is_disabled":false,"rental_uris":{"android":"levelo://app?vid=949cac28-1e79-45e2-a946-5e224b739cae","ios":"levelo://app?vid=949cac28-1e79-45e2-a946-5e224b739cae"},"vehicle_type_id":"4","last_reported":1752505928,"current_range_meters":18800,"station_id":"cpo36qri1sfpv3e86is0","pricing_plan_id":"cebpf4jnsgd1na2vs0mg"},{"bike_id":"c9601b75-1189-4dc2-869e-ec1fa6096933","system_id":"levelo_inurba_marseille","lat":43.21764,"lon":5.34596,"is_reserved":false,"is_disabled":false,"rental_uris":{"android":"levelo://app?vid=c9601b75-1189-4dc2-869e-ec1fa6096933","ios":"levelo://app?vid=c9601b75-1189-4dc2-869e-ec1fa6096933"},"vehicle_type_id":"4","last_reported":1752505928,"current_range_meters":18800,"station_id":"st_cvj6r9ubvosntc0bgbag","pricing_plan_id":"cebpf4jnsgd1na2vs0mg"},{"bike_id":"7bce7a34-5113-458d-9330-3d00164f4612","system_id":"levelo_inurba_marseille","lat":43.21197,"lon":5.35077,"is_reserved":false,"is_disabled":false,"rental_uris":{"android":"levelo://app?vid=7bce7a34-5113-458d-9330-3d00164f4612","ios":"levelo://app?vid=7bce7a34-5113-458d-9330-3d00164f4612"},"vehicle_type_id":"4","last_reported":1752505928,"current_range_meters":18800,"station_id":"st_cvj6sg6p6f1abm77japg","pricing_plan_id":"cebpf4jnsgd1na2vs0mg"},{"bike_id":"cd700f17-9c20-4b8c-b060-5a541f4a78ef","system_id":"levelo_inurba_marseille","lat":43.24161,"lon":5.36399,"is_reserved":false,"is_disabled":false,"rental_uris":{"android":"levelo://app?vid=cd700f17-9c20-4b8c-b060-5a541f4a78ef","ios":"levelo://app?vid=cd700f17-9c20-4b8c-b060-5a541f4a78ef"},"vehicle_type_id":"4","last_reported":1752505928,"current_range_meters":18800,"station_id":"cpo36qri1sfpv3e86is0","pricing_plan_id":"cebpf4jnsgd1na2vs0mg"},{"bike_id":"bc01775b-e496-4423-90ac-0cb22b6b4b16","system_id":"levelo_inurba_marseille","lat":43.27382,"lon":5.36263,"is_reserved":false,"is_disabled":false,"rental_uris":{"android":"levelo://app?vid=bc01775b-e496-4423-90ac-0cb22b6b4b16","ios":"levelo://app?vid=bc01775b-e496-4423-90ac-0cb22b6b4b16"},"vehicle_type_id":"4","last_reported":1752505928,"current_range_meters":18800,"station_id":"ce4bhbh2rcd13ifvqeo0","pricing_plan_id":"cebpf4jnsgd1na2vs0mg"},{"bike_id":"d7159adf-94a3-498c-948b-458c9b026277","system_id":"levelo_inurba_marseille","lat":43.225036,"lon":5.347845,"is_reserved":false,"is_disabled":false,"rental_uris":{"android":"levelo://app?vid=d7159adf-94a3-498c-948b-458c9b026277","ios":"levelo://app?vid=d7159adf-94a3-498c-948b-458c9b026277"},"vehicle_type_id":"4","last_reported":1752505928,"current_range_meters":18800,"station_id":"","pricing_plan_id":"cebpf4jnsgd1na2vs0mg"},{"bike_id":"1aaa7e29-8268-4a68-b982-06e4cb580b86","system_id":"levelo_inurba_marseille","lat":43.3366,"lon":5.41028,"is_reserved":false,"is_disabled":false,"rental_uris":{"android":"levelo://app?vid=1aaa7e29-8268-4a68-b982-06e4cb580b86","ios":"levelo://app?vid=1aaa7e29-8268-4a68-b982-06e4cb580b86"},"vehicle_type_id":"4","last_reported":1752505928,"current_range_meters":18800,"station_id":"","pricing_plan_id":"cebpf4jnsgd1na2vs0mg"},{"bike_id":"4e6d904c-d311-49e0-b6db-d6d55faf70cb","system_id":"levelo_inurba_marseille","lat":43.272426,"lon":5.36263,"is_reserved":false,"is_disabled":false,"rental_uris":{"android":"levelo://app?vid=4e6d904c-d311-49e0-b6db-d6d55faf70cb","ios":"levelo://app?vid=4e6d904c-d311-49e0-b6db-d6d55faf70cb"},"vehicle_type_id":"4","last_reported":1752505928,"current_range_meters":18800,"station_id":"","pricing_plan_id":"cebpf4jnsgd1na2vs0mg"},{"bike_id":"f2c37524-4a91-46ab-98fb-97b4d32d795b","system_id":"levelo_inurba_marseille","lat":43.21785,"lon":5.3461,"is_reserved":false,"is_disabled":false,"rental_uris":{"android":"levelo://app?vid=f2c37524-4a91-46ab-98fb-97b4d32d795b","ios":"levelo://app?vid=f2c37524-4a91-46ab-98fb-97b4d32d795b"},"vehicle_type_id":"4","last_reported":1752505928,"current_range_meters":18800,"station_id":"","pricing_plan_id":"cebpf4jnsgd1na2vs0mg"},{"bike_id":"903197e4-3da2-471b-9537-d88bae7e31c4","system_id":"levelo_inurba_marseille","lat":43.26503,"lon":5.39552,"is_reserved":false,"is_disabled":true,"rental_uris":{"android":"levelo://app?vid=903197e4-3da2-471b-9537-d88bae7e31c4","ios":"levelo://app?vid=903197e4-3da2-471b-9537-d88bae7e31c4"},"vehicle_type_id":"4","last_reported":1752505928,"current_range_meters":19200,"station_id":"ce4bhi12rcd13ifvqfq0","pricing_plan_id":"cebpf4jnsgd1na2vs0mg"},{"bike_id":"6a7552a0-5ec3-4c94-a706-a88953603656","system_id":"levelo_inurba_marseille","lat":43.29578,"lon":5.39968,"is_reserved":false,"is_disabled":false,"rental_uris":{"android":"levelo://app?vid=6a7552a0-5ec3-4c94-a706-a88953603656","ios":"levelo://app?vid=6a7552a0-5ec3-4c94-a706-a88953603656"},"vehicle_type_id":"4","last_reported":1752505928,"current_range_meters":19200,"station_id":"ce4bh312rcd13ifvqdj0","pricing_plan_id":"cebpf4jnsgd1na2vs0mg"},{"bike_id":"4c8f7305-a0c2-45ff-97e5-99ff127e3c5e","system_id":"levelo_inurba_marseille","lat":43.23961,"lon":5.36642,"is_reserved":false,"is_disabled":false,"rental_uris":{"android":"levelo://app?vid=4c8f7305-a0c2-45ff-97e5-99ff127e3c5e","ios":"levelo://app?vid=4c8f7305-a0c2-45ff-97e5-99ff127e3c5e"},"vehicle_type_id":"4","last_reported":1752505928,"current_range_meters":19200,"station_id":"ce4bhi12rcd13ifvqfp0","pricing_plan_id":"cebpf4jnsgd1na2vs0mg"},{"bike_id":"2f5aaa8d-0d33-4752-a6c6-81e6afaba5aa","system_id":"levelo_inurba_marseille","lat":43.30249,"lon":5.4007,"is_reserved":false,"is_disabled":false,"rental_uris":{"android":"levelo://app?vid=2f5aaa8d-0d33-4752-a6c6-81e6afaba5aa","ios":"levelo://app?vid=2f5aaa8d-0d33-4752-a6c6-81e6afaba5aa"},"vehicle_type_id":"4","last_reported":1752505928,"current_range_meters":19200,"station_id":"ce4bgvh2rcd13ifvqcs0","pricing_plan_id":"cebpf4jnsgd1na2vs0mg"},{"bike_id":"489e603b-6303-4c5a-a3da-d47c39cd6b15","system_id":"levelo_inurba_marseille","lat":43.21726,"lon":5.34607,"is_reserved":false,"is_disabled":false,"rental_uris":{"android":"levelo://app?vid=489e603b-6303-4c5a-a3da-d47c39cd6b15","ios":"levelo://app?vid=489e603b-6303-4c5a-a3da-d47c39cd6b15"},"vehicle_type_id":"4","last_reported":1752505928,"current_range_meters":19200,"station_id":"st_cvj6r9ubvosntc0bgbag","pricing_plan_id":"cebpf4jnsgd1na2vs0mg"},{"bike_id":"c26b5803-1934-443f-a178-b5a6c19165be","system_id":"levelo_inurba_marseille","lat":43.298904,"lon":5.381363,"is_reserved":false,"is_disabled":true,"rental_uris":{"android":"levelo://app?vid=c26b5803-1934-443f-a178-b5a6c19165be","ios":"levelo://app?vid=c26b5803-1934-443f-a178-b5a6c19165be"},"vehicle_type_id":"4","last_reported":1752505928,"current_range_meters":19200,"station_id":"ce4bgj12rcd13ifvqbc0","pricing_plan_id":"cebpf4jnsgd1na2vs0mg"},{"bike_id":"1228fbbd-4fb1-4f5b-89d2-46fd73d3f7bb","system_id":"levelo_inurba_marseille","lat":43.23959,"lon":5.36646,"is_reserved":false,"is_disabled":false,"rental_uris":{"android":"levelo://app?vid=1228fbbd-4fb1-4f5b-89d2-46fd73d3f7bb","ios":"levelo://app?vid=1228fbbd-4fb1-4f5b-89d2-46fd73d3f7bb"},"vehicle_type_id":"4","last_reported":1752505928,"current_range_meters":19200,"station_id":"ce4bhi12rcd13ifvqfp0","pricing_plan_id":"cebpf4jnsgd1na2vs0mg"},{"bike_id":"ae7773cd-625c-4187-9d99-0b7c8d4f6553","system_id":"levelo_inurba_marseille","lat":43.292634,"lon":5.384339,"is_reserved":false,"is_disabled":false,"rental_uris":{"android":"levelo://app?vid=ae7773cd-625c-4187-9d99-0b7c8d4f6553","ios":"levelo://app?vid=ae7773cd-625c-4187-9d99-0b7c8d4f6553"},"vehicle_type_id":"4","last_reported":1752505928,"current_range_meters":19200,"station_id":"","pricing_plan_id":"cebpf4jnsgd1na2vs0mg"},{"bike_id":"c5f9e3e1-6e24-4b41-8eb2-8b168d75fc3a","system_id":"levelo_inurba_marseille","lat":43.28426,"lon":5.34991,"is_reserved":false,"is_disabled":false,"rental_uris":{"android":"levelo://app?vid=c5f9e3e1-6e24-4b41-8eb2-8b168d75fc3a","ios":"levelo://app?vid=c5f9e3e1-6e24-4b41-8eb2-8b168d75fc3a"},"vehicle_type_id":"4","last_reported":1752505928,"current_range_meters":19200,"station_id":"ce4bhbh2rcd13ifvqepg","pricing_plan_id":"cebpf4jnsgd1na2vs0mg"},{"bike_id":"f27027a6-2a25-4193-9f89-90e958769b0a","system_id":"levelo_inurba_marseille","lat":43.27641,"lon":5.36108,"is_reserved":false,"is_disabled":false,"rental_uris":{"android":"levelo://app?vid=f27027a6-2a25-4193-9f89-90e958769b0a","ios":"levelo://app?vid=f27027a6-2a25-4193-9f89-90e958769b0a"},"vehicle_type_id":"4","last_reported":1752505928,"current_range_meters":19200,"station_id":"ce4bgj92rcd13ifvqbe0","pricing_plan_id":"cebpf4jnsgd1na2vs0mg"},{"bike_id":"74b145b4-5ddd-48db-a2ec-c61b6b5cb914","system_id":"levelo_inurba_marseille","lat":43.21752,"lon":5.34596,"is_reserved":false,"is_disabled":false,"rental_uris":{"android":"levelo://app?vid=74b145b4-5ddd-48db-a2ec-c61b6b5cb914","ios":"levelo://app?vid=74b145b4-5ddd-48db-a2ec-c61b6b5cb914"},"vehicle_type_id":"4","last_reported":1752505928,"current_range_meters":19200,"station_id":"st_cvj6r9ubvosntc0bgbag","pricing_plan_id":"cebpf4jnsgd1na2vs0mg"},{"bike_id":"09a93a64-fbb1-49a9-be1f-f86a34310e71","system_id":"levelo_inurba_marseille","lat":43.21205,"lon":5.35058,"is_reserved":false,"is_disabled":false,"rental_uris":{"android":"levelo://app?vid=09a93a64-fbb1-49a9-be1f-f86a34310e71","ios":"levelo://app?vid=09a93a64-fbb1-49a9-be1f-f86a34310e71"},"vehicle_type_id":"4","last_reported":1752505928,"current_range_meters":19200,"station_id":"st_cvj6sg6p6f1abm77japg","pricing_plan_id":"cebpf4jnsgd1na2vs0mg"},{"bike_id":"d55936d3-f1e2-487f-9e25-7c87293f7888","system_id":"levelo_inurba_marseille","lat":43.2738,"lon":5.36253,"is_reserved":false,"is_disabled":false,"rental_uris":{"android":"levelo://app?vid=d55936d3-f1e2-487f-9e25-7c87293f7888","ios":"levelo://app?vid=d55936d3-f1e2-487f-9e25-7c87293f7888"},"vehicle_type_id":"4","last_reported":1752505928,"current_range_meters":19200,"station_id":"ce4bhbh2rcd13ifvqeo0","pricing_plan_id":"cebpf4jnsgd1na2vs0mg"},{"bike_id":"de3c7479-ad03-448f-a78e-88898eddd51a","system_id":"levelo_inurba_marseille","lat":43.32966,"lon":5.39741,"is_reserved":false,"is_disabled":false,"rental_uris":{"android":"levelo://app?vid=de3c7479-ad03-448f-a78e-88898eddd51a","ios":"levelo://app?vid=de3c7479-ad03-448f-a78e-88898eddd51a"},"vehicle_type_id":"4","last_reported":1752505928,"current_range_meters":19600,"station_id":"","pricing_plan_id":"cebpf4jnsgd1na2vs0mg"},{"bike_id":"956a60b1-c7b1-467a-9bc0-643f1072d0ce","system_id":"levelo_inurba_marseille","lat":43.27375,"lon":5.36254,"is_reserved":false,"is_disabled":false,"rental_uris":{"android":"levelo://app?vid=956a60b1-c7b1-467a-9bc0-643f1072d0ce","ios":"levelo://app?vid=956a60b1-c7b1-467a-9bc0-643f1072d0ce"},"vehicle_type_id":"4","last_reported":1752505928,"current_range_meters":19600,"station_id":"ce4bhbh2rcd13ifvqeo0","pricing_plan_id":"cebpf4jnsgd1na2vs0mg"},{"bike_id":"9b3c3223-8111-48a9-9029-1956b7fdc2a0","system_id":"levelo_inurba_marseille","lat":43.28658,"lon":5.36354,"is_reserved":false,"is_disabled":false,"rental_uris":{"android":"levelo://app?vid=9b3c3223-8111-48a9-9029-1956b7fdc2a0","ios":"levelo://app?vid=9b3c3223-8111-48a9-9029-1956b7fdc2a0"},"vehicle_type_id":"4","last_reported":1752505928,"current_range_meters":19600,"station_id":"ce4bhah2rcd13ifvqej0","pricing_plan_id":"cebpf4jnsgd1na2vs0mg"},{"bike_id":"263f6f53-1897-411c-8ea7-f127f93436c4","system_id":"levelo_inurba_marseille","lat":43.21749,"lon":5.34607,"is_reserved":false,"is_disabled":false,"rental_uris":{"android":"levelo://app?vid=263f6f53-1897-411c-8ea7-f127f93436c4","ios":"levelo://app?vid=263f6f53-1897-411c-8ea7-f127f93436c4"},"vehicle_type_id":"4","last_reported":1752505928,"current_range_meters":19600,"station_id":"st_cvj6r9ubvosntc0bgbag","pricing_plan_id":"cebpf4jnsgd1na2vs0mg"},{"bike_id":"90d8578f-7619-4279-84b6-4ed88aa377e2","system_id":"levelo_inurba_marseille","lat":43.21191,"lon":5.35069,"is_reserved":false,"is_disabled":false,"rental_uris":{"android":"levelo://app?vid=90d8578f-7619-4279-84b6-4ed88aa377e2","ios":"levelo://app?vid=90d8578f-7619-4279-84b6-4ed88aa377e2"},"vehicle_type_id":"4","last_reported":1752505928,"current_range_meters":19600,"station_id":"st_cvj6sg6p6f1abm77japg","pricing_plan_id":"cebpf4jnsgd1na2vs0mg"},{"bike_id":"16791fd1-a2b9-4945-a58e-b17376873d4d","system_id":"levelo_inurba_marseille","lat":43.28486,"lon":5.38416,"is_reserved":false,"is_disabled":false,"rental_uris":{"android":"levelo://app?vid=16791fd1-a2b9-4945-a58e-b17376873d4d","ios":"levelo://app?vid=16791fd1-a2b9-4945-a58e-b17376873d4d"},"vehicle_type_id":"4","last_reported":1752505928,"current_range_meters":19600,"station_id":"ce4bh512rcd13ifvqe3g","pricing_plan_id":"cebpf4jnsgd1na2vs0mg"},{"bike_id":"4852acc5-0cd4-4ac5-bd4c-3f245414b4fd","system_id":"levelo_inurba_marseille","lat":43.22507,"lon":5.34771,"is_reserved":false,"is_disabled":false,"rental_uris":{"android":"levelo://app?vid=4852acc5-0cd4-4ac5-bd4c-3f245414b4fd","ios":"levelo://app?vid=4852acc5-0cd4-4ac5-bd4c-3f245414b4fd"},"vehicle_type_id":"4","last_reported":1752505928,"current_range_meters":19600,"station_id":"st_cvj5dfep6f1abm77gieg","pricing_plan_id":"cebpf4jnsgd1na2vs0mg"},{"bike_id":"7344a727-b91f-481e-b08a-0f3465e83901","system_id":"levelo_inurba_marseille","lat":43.276763,"lon":5.416858,"is_reserved":false,"is_disabled":false,"rental_uris":{"android":"levelo://app?vid=7344a727-b91f-481e-b08a-0f3465e83901","ios":"levelo://app?vid=7344a727-b91f-481e-b08a-0f3465e83901"},"vehicle_type_id":"4","last_reported":1752505928,"current_range_meters":19600,"station_id":"","pricing_plan_id":"cebpf4jnsgd1na2vs0mg"},{"bike_id":"b9c91357-c4bf-43a7-b374-877fe1bc181f","system_id":"levelo_inurba_marseille","lat":43.25499,"lon":5.3765,"is_reserved":false,"is_disabled":false,"rental_uris":{"android":"levelo://app?vid=b9c91357-c4bf-43a7-b374-877fe1bc181f","ios":"levelo://app?vid=b9c91357-c4bf-43a7-b374-877fe1bc181f"},"vehicle_type_id":"4","last_reported":1752505928,"current_range_meters":19600,"station_id":"ce4bhh12rcd13ifvqff0","pricing_plan_id":"cebpf4jnsgd1na2vs0mg"},{"bike_id":"9894e6b8-bde6-4e58-b954-8cb2bba9caaa","system_id":"levelo_inurba_marseille","lat":43.28415,"lon":5.34974,"is_reserved":false,"is_disabled":false,"rental_uris":{"android":"levelo://app?vid=9894e6b8-bde6-4e58-b954-8cb2bba9caaa","ios":"levelo://app?vid=9894e6b8-bde6-4e58-b954-8cb2bba9caaa"},"vehicle_type_id":"4","last_reported":1752505928,"current_range_meters":19600,"station_id":"ce4bhbh2rcd13ifvqepg","pricing_plan_id":"cebpf4jnsgd1na2vs0mg"},{"bike_id":"70e99ac6-c5f8-4a24-b517-2afb9240895c","system_id":"levelo_inurba_marseille","lat":43.24184,"lon":5.3973,"is_reserved":false,"is_disabled":false,"rental_uris":{"android":"levelo://app?vid=70e99ac6-c5f8-4a24-b517-2afb9240895c","ios":"levelo://app?vid=70e99ac6-c5f8-4a24-b517-2afb9240895c"},"vehicle_type_id":"4","last_reported":1752505928,"current_range_meters":19600,"station_id":"ce4bhn12rcd13ifvqgpg","pricing_plan_id":"cebpf4jnsgd1na2vs0mg"},{"bike_id":"acf7b912-75ee-45f8-8a0e-d05d9b3eb660","system_id":"levelo_inurba_marseille","lat":43.265131,"lon":5.390772,"is_reserved":false,"is_disabled":false,"rental_uris":{"android":"levelo://app?vid=acf7b912-75ee-45f8-8a0e-d05d9b3eb660","ios":"levelo://app?vid=acf7b912-75ee-45f8-8a0e-d05d9b3eb660"},"vehicle_type_id":"4","last_reported":1752505928,"current_range_meters":19600,"station_id":"ce4bhdp2rcd13ifvqf20","pricing_plan_id":"cebpf4jnsgd1na2vs0mg"},{"bike_id":"ed3a226b-4ec7-465a-b998-9c1369112c1f","system_id":"levelo_inurba_marseille","lat":43.23154,"lon":5.43714,"is_reserved":false,"is_disabled":false,"rental_uris":{"android":"levelo://app?vid=ed3a226b-4ec7-465a-b998-9c1369112c1f","ios":"levelo://app?vid=ed3a226b-4ec7-465a-b998-9c1369112c1f"},"vehicle_type_id":"4","last_reported":1752505928,"current_range_meters":19600,"station_id":"ce4bhmp2rcd13ifvqgog","pricing_plan_id":"cebpf4jnsgd1na2vs0mg"},{"bike_id":"8577aaca-7915-49c3-b3eb-bc84fe946baf","system_id":"levelo_inurba_marseille","lat":43.27579,"lon":5.41684,"is_reserved":false,"is_disabled":false,"rental_uris":{"android":"levelo://app?vid=8577aaca-7915-49c3-b3eb-bc84fe946baf","ios":"levelo://app?vid=8577aaca-7915-49c3-b3eb-bc84fe946baf"},"vehicle_type_id":"4","last_reported":1752505928,"current_range_meters":20000,"station_id":"","pricing_plan_id":"cebpf4jnsgd1na2vs0mg"},{"bike_id":"edfe6ed1-73c7-41ab-9084-1d612d3b5e32","system_id":"levelo_inurba_marseille","lat":43.21747,"lon":5.34601,"is_reserved":false,"is_disabled":false,"rental_uris":{"android":"levelo://app?vid=edfe6ed1-73c7-41ab-9084-1d612d3b5e32","ios":"levelo://app?vid=edfe6ed1-73c7-41ab-9084-1d612d3b5e32"},"vehicle_type_id":"4","last_reported":1752505928,"current_range_meters":20000,"station_id":"","pricing_plan_id":"cebpf4jnsgd1na2vs0mg"},{"bike_id":"20768683-174b-43b2-8f71-9c3b891ec89d","system_id":"levelo_inurba_marseille","lat":43.28044,"lon":5.36957,"is_reserved":false,"is_disabled":false,"rental_uris":{"android":"levelo://app?vid=20768683-174b-43b2-8f71-9c3b891ec89d","ios":"levelo://app?vid=20768683-174b-43b2-8f71-9c3b891ec89d"},"vehicle_type_id":"4","last_reported":1752505928,"current_range_meters":20000,"station_id":"ce4bha12rcd13ifvqef0","pricing_plan_id":"cebpf4jnsgd1na2vs0mg"},{"bike_id":"c42593f7-23e4-4609-a8d3-3a610b305a13","system_id":"levelo_inurba_marseille","lat":43.25501,"lon":5.3765,"is_reserved":false,"is_disabled":false,"rental_uris":{"android":"levelo://app?vid=c42593f7-23e4-4609-a8d3-3a610b305a13","ios":"levelo://app?vid=c42593f7-23e4-4609-a8d3-3a610b305a13"},"vehicle_type_id":"4","last_reported":1752505928,"current_range_meters":20000,"station_id":"ce4bhh12rcd13ifvqff0","pricing_plan_id":"cebpf4jnsgd1na2vs0mg"},{"bike_id":"a087ab4f-8a7f-43ec-bab5-8df0bc2f9583","system_id":"levelo_inurba_marseille","lat":43.286201,"lon":5.351149,"is_reserved":false,"is_disabled":false,"rental_uris":{"android":"levelo://app?vid=a087ab4f-8a7f-43ec-bab5-8df0bc2f9583","ios":"levelo://app?vid=a087ab4f-8a7f-43ec-bab5-8df0bc2f9583"},"vehicle_type_id":"4","last_reported":1752505928,"current_range_meters":20000,"station_id":"ce4bhch2rcd13ifvqeug","pricing_plan_id":"cebpf4jnsgd1na2vs0mg"},{"bike_id":"0d59d516-5bd5-444b-9c9f-3425b328b901","system_id":"levelo_inurba_marseille","lat":43.32373,"lon":5.36787,"is_reserved":false,"is_disabled":false,"rental_uris":{"android":"levelo://app?vid=0d59d516-5bd5-444b-9c9f-3425b328b901","ios":"levelo://app?vid=0d59d516-5bd5-444b-9c9f-3425b328b901"},"vehicle_type_id":"4","last_reported":1752505928,"current_range_meters":20400,"station_id":"ce4bhsh2rcd13ifvqi2g","pricing_plan_id":"cebpf4jnsgd1na2vs0mg"},{"bike_id":"58a1e4d0-e1c5-4d21-a585-de246fbbf665","system_id":"levelo_inurba_marseille","lat":43.29295,"lon":5.37456,"is_reserved":false,"is_disabled":false,"rental_uris":{"android":"levelo://app?vid=58a1e4d0-e1c5-4d21-a585-de246fbbf665","ios":"levelo://app?vid=58a1e4d0-e1c5-4d21-a585-de246fbbf665"},"vehicle_type_id":"4","last_reported":1752505928,"current_range_meters":20400,"station_id":"ce4bgi12rcd13ifvqb70","pricing_plan_id":"cebpf4jnsgd1na2vs0mg"},{"bike_id":"090926e5-0828-4061-b33a-68b197ead5f5","system_id":"levelo_inurba_marseille","lat":43.28723,"lon":5.36094,"is_reserved":false,"is_disabled":false,"rental_uris":{"android":"levelo://app?vid=090926e5-0828-4061-b33a-68b197ead5f5","ios":"levelo://app?vid=090926e5-0828-4061-b33a-68b197ead5f5"},"vehicle_type_id":"4","last_reported":1752505928,"current_range_meters":20400,"station_id":"cki0cbj6b192h4jlfktg","pricing_plan_id":"cebpf4jnsgd1na2vs0mg"},{"bike_id":"649fc212-7d4f-4733-9534-152899998408","system_id":"levelo_inurba_marseille","lat":43.31533,"lon":5.3803,"is_reserved":false,"is_disabled":false,"rental_uris":{"android":"levelo://app?vid=649fc212-7d4f-4733-9534-152899998408","ios":"levelo://app?vid=649fc212-7d4f-4733-9534-152899998408"},"vehicle_type_id":"4","last_reported":1752505928,"current_range_meters":20400,"station_id":"ce4bhsp2rcd13ifvqi50","pricing_plan_id":"cebpf4jnsgd1na2vs0mg"},{"bike_id":"c8890f1c-5581-4877-9949-8907c8ab1706","system_id":"levelo_inurba_marseille","lat":43.28623,"lon":5.35106,"is_reserved":false,"is_disabled":false,"rental_uris":{"android":"levelo://app?vid=c8890f1c-5581-4877-9949-8907c8ab1706","ios":"levelo://app?vid=c8890f1c-5581-4877-9949-8907c8ab1706"},"vehicle_type_id":"4","last_reported":1752505928,"current_range_meters":20400,"station_id":"ce4bhch2rcd13ifvqeug","pricing_plan_id":"cebpf4jnsgd1na2vs0mg"},{"bike_id":"553697d0-2c29-488e-9b00-46e604fe98c9","system_id":"levelo_inurba_marseille","lat":43.273744,"lon":5.362527,"is_reserved":false,"is_disabled":false,"rental_uris":{"android":"levelo://app?vid=553697d0-2c29-488e-9b00-46e604fe98c9","ios":"levelo://app?vid=553697d0-2c29-488e-9b00-46e604fe98c9"},"vehicle_type_id":"4","last_reported":1752505928,"current_range_meters":20400,"station_id":"ce4bhbh2rcd13ifvqeo0","pricing_plan_id":"cebpf4jnsgd1na2vs0mg"},{"bike_id":"293be91b-607c-4a44-b21c-9e16ac4d4dc0","system_id":"levelo_inurba_marseille","lat":43.31165,"lon":5.38725,"is_reserved":false,"is_disabled":false,"rental_uris":{"android":"levelo://app?vid=293be91b-607c-4a44-b21c-9e16ac4d4dc0","ios":"levelo://app?vid=293be91b-607c-4a44-b21c-9e16ac4d4dc0"},"vehicle_type_id":"4","last_reported":1752505928,"current_range_meters":20800,"station_id":"ce4bgv12rcd13ifvqcp0","pricing_plan_id":"cebpf4jnsgd1na2vs0mg"},{"bike_id":"3c813064-c0e7-4cce-8e88-66dd5da77bac","system_id":"levelo_inurba_marseille","lat":43.284149,"lon":5.375021,"is_reserved":false,"is_disabled":false,"rental_uris":{"android":"levelo://app?vid=3c813064-c0e7-4cce-8e88-66dd5da77bac","ios":"levelo://app?vid=3c813064-c0e7-4cce-8e88-66dd5da77bac"},"vehicle_type_id":"4","last_reported":1752505928,"current_range_meters":20800,"station_id":"ce4bh412rcd13ifvqds0","pricing_plan_id":"cebpf4jnsgd1na2vs0mg"},{"bike_id":"1be775c0-b763-4b2b-8a49-1e6bad97e082","system_id":"levelo_inurba_marseille","lat":43.28407,"lon":5.34995,"is_reserved":false,"is_disabled":false,"rental_uris":{"android":"levelo://app?vid=1be775c0-b763-4b2b-8a49-1e6bad97e082","ios":"levelo://app?vid=1be775c0-b763-4b2b-8a49-1e6bad97e082"},"vehicle_type_id":"4","last_reported":1752505928,"current_range_meters":21600,"station_id":"ce4bhbh2rcd13ifvqepg","pricing_plan_id":"cebpf4jnsgd1na2vs0mg"},{"bike_id":"cbe6e5c3-a680-49a2-baca-b1201f7b4890","system_id":"levelo_inurba_marseille","lat":43.27997,"lon":5.40025,"is_reserved":false,"is_disabled":false,"rental_uris":{"android":"levelo://app?vid=cbe6e5c3-a680-49a2-baca-b1201f7b4890","ios":"levelo://app?vid=cbe6e5c3-a680-49a2-baca-b1201f7b4890"},