{"last_updated":1724605786,"ttl":30,"version":"2.2","data":{"bikes":[{"bike_id":"f2a83316-41de-4a11-b686-eac587e45ef3","system_id":"levelo_inurba_marseille","lat":43.314811,"lon":5.373103,"is_reserved":false,"is_disabled":false,"rental_uris":{"android":"levelo://app?vid=f2a83316-41de-4a11-b686-eac587e45ef3","ios":"levelo://app?vid=f2a83316-41de-4a11-b686-eac587e45ef3"},"vehicle_type_id":"4","last_reported":1724605786,"current_range_meters":29200,"station_id":"ce4bgt12rcd13ifvqcd0","pricing_plan_id":"cebpf4jnsgd1na2vs0mg"},{"bike_id":"7d168ac3-7ad5-4526-9e69-644d2e91fefc","system_id":"levelo_inurba_marseille","lat":43.309039,"lon":5.371797,"is_reserved":false,"is_disabled":false,"rental_uris":{"android":"levelo://app?vid=7d168ac3-7ad5-4526-9e69-644d2e91fefc","ios":"levelo://app?vid=7d168ac3-7ad5-4526-9e69-644d2e91fefc"},"vehicle_type_id":"4","last_reported":1724605786,"current_range_meters":24000,"station_id":"ce4bguh2rcd13ifvqckg","pricing_plan_id":"cebpf4jnsgd1na2vs0mg"},{"bike_id":"cc621f22-0226-40b4-8a8d-0506d06749e3","system_id":"levelo_inurba_marseille","lat":43.30143,"lon":5.37413,"is_reserved":false,"is_disabled":false,"rental_uris":{"android":"levelo://app?vid=cc621f22-0226-40b4-8a8d-0506d06749e3","ios":"levelo://app?vid=cc621f22-0226-40b4-8a8d-0506d06749e3"},"vehicle_type_id":"4","last_reported":1724605786,"current_range_meters":30000,"station_id":"ce4bgs92rcd13ifvqcc0","pricing_plan_id":"cebpf4jnsgd1na2vs0mg"},{"bike_id":"d72f0ba4-62bd-4c7e-ae69-a50e79031557","system_id":"levelo_inurba_marseille","lat":43.305593,"lon":5.365519,"is_reserved":false,"is_disabled":false,"rental_uris":{"android":"levelo://app?vid=d72f0ba4-62bd-4c7e-ae69-a50e79031557","ios":"levelo://app?vid=d72f0ba4-62bd-4c7e-ae69-a50e79031557"},"vehicle_type_id":"4","last_reported":1724605786,"current_range_meters":0,"station_id":"ce4bgs12rcd13ifvqcag","pricing_plan_id":"cebpf4jnsgd1na2vs0mg"},{"bike_id":"9f06c489-2536-406c-a7d6-75f89486062e","system_id":"levelo_inurba_marseille","lat":43.30559,"lon":5.36538,"is_reserved":false,"is_disabled":false,"rental_uris":{"android":"levelo://app?vid=9f06c489-2536-406c-a7d6-75f89486062e","ios":"levelo://app?vid=9f06c489-2536-406c-a7d6-75f89486062e"},"vehicle_type_id":"4","last_reported":1724605786,"current_range_meters":23600,"station_id":"","pricing_plan_id":"cebpf4jnsgd1na2vs0mg"},{"bike_id":"e63e437e-5b31-4292-b24c-ade92ff63013","system_id":"levelo_inurba_marseille","lat":43.30537,"lon":5.367345,"is_reserved":false,"is_disabled":false,"rental_uris":{"android":"levelo://app?vid=e63e437e-5b31-4292-b24c-ade92ff63013","ios":"levelo://app?vid=e63e437e-5b31-4292-b24c-ade92ff63013"},"vehicle_type_id":"4","last_reported":1724605786,"current_range_meters":2000,"station_id":"ce4bgrp2rcd13ifvqc9g","pricing_plan_id":"cebpf4jnsgd1na2vs0mg"},{"bike_id":"23c173cb-f5b1-4603-9e49-58caaaba109f","system_id":"levelo_inurba_marseille","lat":43.30536,"lon":5.36525,"is_reserved":false,"is_disabled":false,"rental_uris":{"android":"levelo://app?vid=23c173cb-f5b1-4603-9e49-58caaaba109f","ios":"levelo://app?vid=23c173cb-f5b1-4603-9e49-58caaaba109f"},"vehicle_type_id":"4","last_reported":1724605786,"current_range_meters":0,"station_id":"ce4bgs12rcd13ifvqcag","pricing_plan_id":"cebpf4jnsgd1na2vs0mg"},{"bike_id":"b378dcea-e75e-4519-b33f-05b12bfed91a","system_id":"levelo_inurba_marseille","lat":43.305989,"lon":5.37225,"is_reserved":false,"is_disabled":false,"rental_uris":{"android":"levelo://app?vid=b378dcea-e75e-4519-b33f-05b12bfed91a","ios":"levelo://app?vid=b378dcea-e75e-4519-b33f-05b12bfed91a"},"vehicle_type_id":"4","last_reported":1724605786,"current_range_meters":25200,"station_id":"ce4bgqh2rcd13ifvqc4g","pricing_plan_id":"cebpf4jnsgd1na2vs0mg"},{"bike_id":"fd08add2-18cb-4a1a-9ca5-aeacb8bbd0e4","system_id":"levelo_inurba_marseille","lat":43.30607,"lon":5.37227,"is_reserved":false,"is_disabled":false,"rental_uris":{"android":"levelo://app?vid=fd08add2-18cb-4a1a-9ca5-aeacb8bbd0e4","ios":"levelo://app?vid=fd08add2-18cb-4a1a-9ca5-aeacb8bbd0e4"},"vehicle_type_id":"4","last_reported":1724605786,"current_range_meters":26400,"station_id":"ce4bgqh2rcd13ifvqc4g","pricing_plan_id":"cebpf4jnsgd1na2vs0mg"},{"bike_id":"20995455-7ddf-4039-9cde-82c3aa2044ca","system_id":"levelo_inurba_marseille","lat":43.30604,"lon":5.37226,"is_reserved":false,"is_disabled":false,"rental_uris":{"android":"levelo://app?vid=20995455-7ddf-4039-9cde-82c3aa2044ca","ios":"levelo://app?vid=20995455-7ddf-4039-9cde-82c3aa2044ca"},"vehicle_type_id":"4","last_reported":1724605786,"current_range_meters":29600,"station_id":"ce4bgqh2rcd13ifvqc4g","pricing_plan_id":"cebpf4jnsgd1na2vs0mg"},{"bike_id":"86e87d7b-7827-4463-aee1-bf483cebae8f","system_id":"levelo_inurba_marseille","lat":43.311125,"lon":5.377624,"is_reserved":false,"is_disabled":false,"rental_uris":{"android":"levelo://app?vid=86e87d7b-7827-4463-aee1-bf483cebae8f","ios":"levelo://app?vid=86e87d7b-7827-4463-aee1-bf483cebae8f"},"vehicle_type_id":"4","last_reported":1724605786,"current_range_meters":18400,"station_id":"ce4bgt92rcd13ifvqcg0","pricing_plan_id":"cebpf4jnsgd1na2vs0mg"},{"bike_id":"39c64957-f84e-4b24-8807-2f6f99988974","system_id":"levelo_inurba_marseille","lat":43.31131,"lon":5.37753,"is_reserved":false,"is_disabled":false,"rental_uris":{"android":"levelo://app?vid=39c64957-f84e-4b24-8807-2f6f99988974","ios":"levelo://app?vid=39c64957-f84e-4b24-8807-2f6f99988974"},"vehicle_type_id":"4","last_reported":1724605786,"current_range_meters":0,"station_id":"ce4bgt92rcd13ifvqcg0","pricing_plan_id":"cebpf4jnsgd1na2vs0mg"},{"bike_id":"6261db01-175e-410c-ae14-e74f98f8d7d5","system_id":"levelo_inurba_marseille","lat":43.305989,"lon":5.37225,"is_reserved":false,"is_disabled":false,"rental_uris":{"android":"levelo://app?vid=6261db01-175e-410c-ae14-e74f98f8d7d5","ios":"levelo://app?vid=6261db01-175e-410c-ae14-e74f98f8d7d5"},"vehicle_type_id":"4","last_reported":1724605786,"current_range_meters":24400,"station_id":"ce4bgqh2rcd13ifvqc4g","pricing_plan_id":"cebpf4jnsgd1na2vs0mg"},{"bike_id":"a0defa5d-3cbd-4b71-8e6d-a7e609f0935f","system_id":"levelo_inurba_marseille","lat":43.31706,"lon":5.37757,"is_reserved":false,"is_disabled":false,"rental_uris":{"android":"levelo://app?vid=a0defa5d-3cbd-4b71-8e6d-a7e609f0935f","ios":"levelo://app?vid=a0defa5d-3cbd-4b71-8e6d-a7e609f0935f"},"vehicle_type_id":"4","last_reported":1724605786,"current_range_meters":13600,"station_id":"ce4bgth2rcd13ifvqch0","pricing_plan_id":"cebpf4jnsgd1na2vs0mg"},{"bike_id":"f8866dbd-8e34-4b7a-9157-45f59ffcda26","system_id":"levelo_inurba_marseille","lat":43.279742,"lon":5.38744,"is_reserved":false,"is_disabled":false,"rental_uris":{"android":"levelo://app?vid=f8866dbd-8e34-4b7a-9157-45f59ffcda26","ios":"levelo://app?vid=f8866dbd-8e34-4b7a-9157-45f59ffcda26"},"vehicle_type_id":"4","last_reported":1724605786,"current_range_meters":22800,"station_id":"ce4bhg12rcd13ifvqf80","pricing_plan_id":"cebpf4jnsgd1na2vs0mg"},{"bike_id":"bb8750b3-e033-4013-85a6-82ca57fd6434","system_id":"levelo_inurba_marseille","lat":43.303046,"lon":5.368981,"is_reserved":false,"is_disabled":false,"rental_uris":{"android":"levelo://app?vid=bb8750b3-e033-4013-85a6-82ca57fd6434","ios":"levelo://app?vid=bb8750b3-e033-4013-85a6-82ca57fd6434"},"vehicle_type_id":"4","last_reported":1724605786,"current_range_meters":25600,"station_id":"ce4bgqh2rcd13ifvqc5g","pricing_plan_id":"cebpf4jnsgd1na2vs0mg"},{"bike_id":"817c323e-9d90-441b-97a8-a7cf9bee1c1b","system_id":"levelo_inurba_marseille","lat":43.301939,"lon":5.366286,"is_reserved":false,"is_disabled":false,"rental_uris":{"android":"levelo://app?vid=817c323e-9d90-441b-97a8-a7cf9bee1c1b","ios":"levelo://app?vid=817c323e-9d90-441b-97a8-a7cf9bee1c1b"},"vehicle_type_id":"4","last_reported":1724605786,"current_range_meters":15200,"station_id":"ce4bgrh2rcd13ifvqc8g","pricing_plan_id":"cebpf4jnsgd1na2vs0mg"},{"bike_id":"0a886396-f95b-4db2-a272-3cbe88f54580","system_id":"levelo_inurba_marseille","lat":43.30193,"lon":5.36613,"is_reserved":false,"is_disabled":false,"rental_uris":{"android":"levelo://app?vid=0a886396-f95b-4db2-a272-3cbe88f54580","ios":"levelo://app?vid=0a886396-f95b-4db2-a272-3cbe88f54580"},"vehicle_type_id":"4","last_reported":1724605786,"current_range_meters":0,"station_id":"ce4bgrh2rcd13ifvqc8g","pricing_plan_id":"cebpf4jnsgd1na2vs0mg"},{"bike_id":"dc3cc16c-1f50-4d3a-8180-7b5819db3eb3","system_id":"levelo_inurba_marseille","lat":43.301939,"lon":5.366286,"is_reserved":false,"is_disabled":false,"rental_uris":{"android":"levelo://app?vid=dc3cc16c-1f50-4d3a-8180-7b5819db3eb3","ios":"levelo://app?vid=dc3cc16c-1f50-4d3a-8180-7b5819db3eb3"},"vehicle_type_id":"4","last_reported":1724605786,"current_range_meters":12800,"station_id":"ce4bgrh2rcd13ifvqc8g","pricing_plan_id":"cebpf4jnsgd1na2vs0mg"},{"bike_id":"df6054bf-dce9-4651-a683-866e3d51354d","system_id":"levelo_inurba_marseille","lat":43.308012,"lon":5.381511,"is_reserved":false,"is_disabled":false,"rental_uris":{"android":"levelo://app?vid=df6054bf-dce9-4651-a683-866e3d51354d","ios":"levelo://app?vid=df6054bf-dce9-4651-a683-866e3d51354d"},"vehicle_type_id":"4","last_reported":1724605786,"current_range_meters":8800,"station_id":"ce4bgt12rcd13ifvqce0","pricing_plan_id":"cebpf4jnsgd1na2vs0mg"},{"bike_id":"271dee4d-25b8-4b30-8c0a-8909d1bdaf8d","system_id":"levelo_inurba_marseille","lat":43.304606,"lon":5.379026,"is_reserved":false,"is_disabled":false,"rental_uris":{"android":"levelo://app?vid=271dee4d-25b8-4b30-8c0a-8909d1bdaf8d","ios":"levelo://app?vid=271dee4d-25b8-4b30-8c0a-8909d1bdaf8d"},"vehicle_type_id":"4","last_reported":1724605786,"current_range_meters":3200,"station_id":"ce4bgup2rcd13ifvqcn0","pricing_plan_id":"cebpf4jnsgd1na2vs0mg"},{"bike_id":"3edd5b79-aeaf-4c14-892c-c44accd4cd5a","system_id":"levelo_inurba_marseille","lat":43.304606,"lon":5.379026,"is_reserved":false,"is_disabled":false,"rental_uris":{"android":"levelo://app?vid=3edd5b79-aeaf-4c14-892c-c44accd4cd5a","ios":"levelo://app?vid=3edd5b79-aeaf-4c14-892c-c44accd4cd5a"},"vehicle_type_id":"4","last_reported":1724605786,"current_range_meters":800,"station_id":"ce4bgup2rcd13ifvqcn0","pricing_plan_id":"cebpf4jnsgd1na2vs0mg"},{"bike_id":"cf617790-0c14-41c3-9ad7-d0dff208655d","system_id":"levelo_inurba_marseille","lat":43.324771,"lon":5.36557,"is_reserved":false,"is_disabled":false,"rental_uris":{"android":"levelo://app?vid=cf617790-0c14-41c3-9ad7-d0dff208655d","ios":"levelo://app?vid=cf617790-0c14-41c3-9ad7-d0dff208655d"},"vehicle_type_id":"4","last_reported":1724605786,"current_range_meters":7600,"station_id":"ce4bhs12rcd13ifvqhvg","pricing_plan_id":"cebpf4jnsgd1na2vs0mg"},{"bike_id":"bf0ef93c-03cb-4e52-8f37-5eca3f88f403","system_id":"levelo_inurba_marseille","lat":43.324771,"lon":5.36557,"is_reserved":false,"is_disabled":false,"rental_uris":{"android":"levelo://app?vid=bf0ef93c-03cb-4e52-8f37-5eca3f88f403","ios":"levelo://app?vid=bf0ef93c-03cb-4e52-8f37-5eca3f88f403"},"vehicle_type_id":"4","last_reported":1724605786,"current_range_meters":24800,"station_id":"ce4bhs12rcd13ifvqhvg","pricing_plan_id":"cebpf4jnsgd1na2vs0mg"},{"bike_id":"d6a551e6-9641-42d5-be53-a905abbe0129","system_id":"levelo_inurba_marseille","lat":43.324771,"lon":5.36557,"is_reserved":false,"is_disabled":false,"rental_uris":{"android":"levelo://app?vid=d6a551e6-9641-42d5-be53-a905abbe0129","ios":"levelo://app?vid=d6a551e6-9641-42d5-be53-a905abbe0129"},"vehicle_type_id":"4","last_reported":1724605786,"current_range_meters":29200,"station_id":"ce4bhs12rcd13ifvqhvg","pricing_plan_id":"cebpf4jnsgd1na2vs0mg"},{"bike_id":"c30c57e5-e6a4-4301-8c1f-bb1d7a5e5a91","system_id":"levelo_inurba_marseille","lat":43.324852,"lon":5.36576,"is_reserved":false,"is_disabled":false,"rental_uris":{"android":"levelo://app?vid=c30c57e5-e6a4-4301-8c1f-bb1d7a5e5a91","ios":"levelo://app?vid=c30c57e5-e6a4-4301-8c1f-bb1d7a5e5a91"},"vehicle_type_id":"4","last_reported":1724605786,"current_range_meters":21200,"station_id":"ce4bhs12rcd13ifvqhvg","pricing_plan_id":"cebpf4jnsgd1na2vs0mg"},{"bike_id":"f74c7ab2-b71e-4c31-8284-4841f6584271","system_id":"levelo_inurba_marseille","lat":43.32486,"lon":5.36564,"is_reserved":false,"is_disabled":false,"rental_uris":{"android":"levelo://app?vid=f74c7ab2-b71e-4c31-8284-4841f6584271","ios":"levelo://app?vid=f74c7ab2-b71e-4c31-8284-4841f6584271"},"vehicle_type_id":"4","last_reported":1724605786,"current_range_meters":16400,"station_id":"ce4bhs12rcd13ifvqhvg","pricing_plan_id":"cebpf4jnsgd1na2vs0mg"},{"bike_id":"83d7180c-2f2f-4526-afd8-bf89c1839d1d","system_id":"levelo_inurba_marseille","lat":43.324873,"lon":5.365631,"is_reserved":false,"is_disabled":false,"rental_uris":{"android":"levelo://app?vid=83d7180c-2f2f-4526-afd8-bf89c1839d1d","ios":"levelo://app?vid=83d7180c-2f2f-4526-afd8-bf89c1839d1d"},"vehicle_type_id":"4","last_reported":1724605786,"current_range_meters":8800,"station_id":"ce4bhs12rcd13ifvqhvg","pricing_plan_id":"cebpf4jnsgd1na2vs0mg"},{"bike_id":"4b068ad2-1221-4476-9487-2b7eb5619d8a","system_id":"levelo_inurba_marseille","lat":43.31366,"lon":5.38364,"is_reserved":false,"is_disabled":false,"rental_uris":{"android":"levelo://app?vid=4b068ad2-1221-4476-9487-2b7eb5619d8a","ios":"levelo://app?vid=4b068ad2-1221-4476-9487-2b7eb5619d8a"},"vehicle_type_id":"4","last_reported":1724605786,"current_range_meters":0,"station_id":"","pricing_plan_id":"cebpf4jnsgd1na2vs0mg"},{"bike_id":"e04553fe-9f5f-4919-9fb2-609515637607","system_id":"levelo_inurba_marseille","lat":43.310804,"lon":5.38359,"is_reserved":false,"is_disabled":false,"rental_uris":{"android":"levelo://app?vid=e04553fe-9f5f-4919-9fb2-609515637607","ios":"levelo://app?vid=e04553fe-9f5f-4919-9fb2-609515637607"},"vehicle_type_id":"4","last_reported":1724605786,"current_range_meters":30000,"station_id":"ce4bgv92rcd13ifvqcr0","pricing_plan_id":"cebpf4jnsgd1na2vs0mg"},{"bike_id":"64819027-916b-4f1c-ad44-19d00ef98a08","system_id":"levelo_inurba_marseille","lat":43.30141,"lon":5.37416,"is_reserved":false,"is_disabled":false,"rental_uris":{"android":"levelo://app?vid=64819027-916b-4f1c-ad44-19d00ef98a08","ios":"levelo://app?vid=64819027-916b-4f1c-ad44-19d00ef98a08"},"vehicle_type_id":"4","last_reported":1724605786,"current_range_meters":0,"station_id":"ce4bgs92rcd13ifvqcc0","pricing_plan_id":"cebpf4jnsgd1na2vs0mg"},{"bike_id":"16706660-1a76-4dc3-a9dd-39655f1d642a","system_id":"levelo_inurba_marseille","lat":43.302784,"lon":5.377158,"is_reserved":false,"is_disabled":false,"rental_uris":{"android":"levelo://app?vid=16706660-1a76-4dc3-a9dd-39655f1d642a","ios":"levelo://app?vid=16706660-1a76-4dc3-a9dd-39655f1d642a"},"vehicle_type_id":"4","last_reported":1724605786,"current_range_meters":3600,"station_id":"ce4bguh2rcd13ifvqcj0","pricing_plan_id":"cebpf4jnsgd1na2vs0mg"},{"bike_id":"0e766717-db28-4b0b-833a-923c936ee174","system_id":"levelo_inurba_marseille","lat":43.30011,"lon":5.36401,"is_reserved":false,"is_disabled":false,"rental_uris":{"android":"levelo://app?vid=0e766717-db28-4b0b-833a-923c936ee174","ios":"levelo://app?vid=0e766717-db28-4b0b-833a-923c936ee174"},"vehicle_type_id":"4","last_reported":1724605786,"current_range_meters":10400,"station_id":"","pricing_plan_id":"cebpf4jnsgd1na2vs0mg"},{"bike_id":"8ff63057-2623-4c54-a212-9e85c6fb3c05","system_id":"levelo_inurba_marseille","lat":43.319935,"lon":5.381699,"is_reserved":false,"is_disabled":false,"rental_uris":{"android":"levelo://app?vid=8ff63057-2623-4c54-a212-9e85c6fb3c05","ios":"levelo://app?vid=8ff63057-2623-4c54-a212-9e85c6fb3c05"},"vehicle_type_id":"4","last_reported":1724605786,"current_range_meters":20800,"station_id":"ce4bhr12rcd13ifvqhpg","pricing_plan_id":"cebpf4jnsgd1na2vs0mg"},{"bike_id":"820defe7-e862-46e2-acaa-f5030965a1fa","system_id":"levelo_inurba_marseille","lat":43.313571,"lon":5.384829,"is_reserved":false,"is_disabled":false,"rental_uris":{"android":"levelo://app?vid=820defe7-e862-46e2-acaa-f5030965a1fa","ios":"levelo://app?vid=820defe7-e862-46e2-acaa-f5030965a1fa"},"vehicle_type_id":"4","last_reported":1724605786,"current_range_meters":11600,"station_id":"ce4bgt92rcd13ifvqcf0","pricing_plan_id":"cebpf4jnsgd1na2vs0mg"},{"bike_id":"e9a13772-694b-4068-9b2c-543d2ef64f38","system_id":"levelo_inurba_marseille","lat":43.29984,"lon":5.37183,"is_reserved":false,"is_disabled":false,"rental_uris":{"android":"levelo://app?vid=e9a13772-694b-4068-9b2c-543d2ef64f38","ios":"levelo://app?vid=e9a13772-694b-4068-9b2c-543d2ef64f38"},"vehicle_type_id":"4","last_reported":1724605786,"current_range_meters":31200,"station_id":"ce4bgr92rcd13ifvqc7g","pricing_plan_id":"cebpf4jnsgd1na2vs0mg"},{"bike_id":"d6dce370-a37f-49b1-bf1c-1042212d9f17","system_id":"levelo_inurba_marseille","lat":43.299724,"lon":5.371829,"is_reserved":false,"is_disabled":false,"rental_uris":{"android":"levelo://app?vid=d6dce370-a37f-49b1-bf1c-1042212d9f17","ios":"levelo://app?vid=d6dce370-a37f-49b1-bf1c-1042212d9f17"},"vehicle_type_id":"4","last_reported":1724605786,"current_range_meters":800,"station_id":"ce4bgr92rcd13ifvqc7g","pricing_plan_id":"cebpf4jnsgd1na2vs0mg"},{"bike_id":"5d7a5669-f06a-4898-8233-92dda335bc43","system_id":"levelo_inurba_marseille","lat":43.299222,"lon":5.365554,"is_reserved":false,"is_disabled":false,"rental_uris":{"android":"levelo://app?vid=5d7a5669-f06a-4898-8233-92dda335bc43","ios":"levelo://app?vid=5d7a5669-f06a-4898-8233-92dda335bc43"},"vehicle_type_id":"4","last_reported":1724605786,"current_range_meters":10800,"station_id":"ce4bgm92rcd13ifvqbr0","pricing_plan_id":"cebpf4jnsgd1na2vs0mg"},{"bike_id":"4066ae48-40de-40e1-9eda-df2c0c0e6bb0","system_id":"levelo_inurba_marseille","lat":43.29849,"lon":5.36291,"is_reserved":false,"is_disabled":false,"rental_uris":{"android":"levelo://app?vid=4066ae48-40de-40e1-9eda-df2c0c0e6bb0","ios":"levelo://app?vid=4066ae48-40de-40e1-9eda-df2c0c0e6bb0"},"vehicle_type_id":"4","last_reported":1724605786,"current_range_meters":2400,"station_id":"ce4bgpp2rcd13ifvqc3g","pricing_plan_id":"cebpf4jnsgd1na2vs0mg"},{"bike_id":"3fdf8177-4ecb-457d-8886-2a83b7ede395","system_id":"levelo_inurba_marseille","lat":43.311722,"lon":5.387247,"is_reserved":false,"is_disabled":false,"rental_uris":{"android":"levelo://app?vid=3fdf8177-4ecb-457d-8886-2a83b7ede395","ios":"levelo://app?vid=3fdf8177-4ecb-457d-8886-2a83b7ede395"},"vehicle_type_id":"4","last_reported":1724605786,"current_range_meters":9600,"station_id":"ce4bgv12rcd13ifvqcp0","pricing_plan_id":"cebpf4jnsgd1na2vs0mg"},{"bike_id":"2692b859-03ce-4c86-8b09-14e3858e8d07","system_id":"levelo_inurba_marseille","lat":43.311722,"lon":5.387247,"is_reserved":false,"is_disabled":false,"rental_uris":{"android":"levelo://app?vid=2692b859-03ce-4c86-8b09-14e3858e8d07","ios":"levelo://app?vid=2692b859-03ce-4c86-8b09-14e3858e8d07"},"vehicle_type_id":"4","last_reported":1724605786,"current_range_meters":20400,"station_id":"ce4bgv12rcd13ifvqcp0","pricing_plan_id":"cebpf4jnsgd1na2vs0mg"},{"bike_id":"26e4dcfd-62a0-4086-a21c-e24094596ced","system_id":"levelo_inurba_marseille","lat":43.29918,"lon":5.37526,"is_reserved":false,"is_disabled":false,"rental_uris":{"android":"levelo://app?vid=26e4dcfd-62a0-4086-a21c-e24094596ced","ios":"levelo://app?vid=26e4dcfd-62a0-4086-a21c-e24094596ced"},"vehicle_type_id":"4","last_reported":1724605786,"current_range_meters":22800,"station_id":"","pricing_plan_id":"cebpf4jnsgd1na2vs0mg"},{"bike_id":"1600b445-4c74-401c-8ded-fbe3246e677e","system_id":"levelo_inurba_marseille","lat":43.32292,"lon":5.38258,"is_reserved":false,"is_disabled":false,"rental_uris":{"android":"levelo://app?vid=1600b445-4c74-401c-8ded-fbe3246e677e","ios":"levelo://app?vid=1600b445-4c74-401c-8ded-fbe3246e677e"},"vehicle_type_id":"4","last_reported":1724605786,"current_range_meters":24800,"station_id":"ce4bhr12rcd13ifvqhqg","pricing_plan_id":"cebpf4jnsgd1na2vs0mg"},{"bike_id":"43637faa-bc57-4af9-9031-ccf7137dafc6","system_id":"levelo_inurba_marseille","lat":43.322954,"lon":5.382619,"is_reserved":false,"is_disabled":false,"rental_uris":{"android":"levelo://app?vid=43637faa-bc57-4af9-9031-ccf7137dafc6","ios":"levelo://app?vid=43637faa-bc57-4af9-9031-ccf7137dafc6"},"vehicle_type_id":"4","last_reported":1724605786,"current_range_meters":18400,"station_id":"ce4bhr12rcd13ifvqhqg","pricing_plan_id":"cebpf4jnsgd1na2vs0mg"},{"bike_id":"32bbbaf0-7ae0-4a82-bf36-d26451a37a3c","system_id":"levelo_inurba_marseille","lat":43.29703,"lon":5.36608,"is_reserved":false,"is_disabled":false,"rental_uris":{"android":"levelo://app?vid=32bbbaf0-7ae0-4a82-bf36-d26451a37a3c","ios":"levelo://app?vid=32bbbaf0-7ae0-4a82-bf36-d26451a37a3c"},"vehicle_type_id":"4","last_reported":1724605786,"current_range_meters":800,"station_id":"ce4bgn12rcd13ifvqbt0","pricing_plan_id":"cebpf4jnsgd1na2vs0mg"},{"bike_id":"9b27aca0-2bbf-4afc-92f3-6c845669063d","system_id":"levelo_inurba_marseille","lat":43.32337,"lon":5.384176,"is_reserved":false,"is_disabled":false,"rental_uris":{"android":"levelo://app?vid=9b27aca0-2bbf-4afc-92f3-6c845669063d","ios":"levelo://app?vid=9b27aca0-2bbf-4afc-92f3-6c845669063d"},"vehicle_type_id":"4","last_reported":1724605786,"current_range_meters":11200,"station_id":"","pricing_plan_id":"cebpf4jnsgd1na2vs0mg"},{"bike_id":"5a25dd36-05fa-4d72-9438-3cf4234ef78d","system_id":"levelo_inurba_marseille","lat":43.32338,"lon":5.3842,"is_reserved":false,"is_disabled":false,"rental_uris":{"android":"levelo://app?vid=5a25dd36-05fa-4d72-9438-3cf4234ef78d","ios":"levelo://app?vid=5a25dd36-05fa-4d72-9438-3cf4234ef78d"},"vehicle_type_id":"4","last_reported":1724605786,"current_range_meters":9200,"station_id":"","pricing_plan_id":"cebpf4jnsgd1na2vs0mg"},{"bike_id":"95a6c97c-379e-401a-859e-a2bbed1aa0ac","system_id":"levelo_inurba_marseille","lat":43.29621,"lon":5.37165,"is_reserved":false,"is_disabled":false,"rental_uris":{"android":"levelo://app?vid=95a6c97c-379e-401a-859e-a2bbed1aa0ac","ios":"levelo://app?vid=95a6c97c-379e-401a-859e-a2bbed1aa0ac"},"vehicle_type_id":"4","last_reported":1724605786,"current_range_meters":400,"station_id":"ce4bgnh2rcd13ifvqc0g","pricing_plan_id":"cebpf4jnsgd1na2vs0mg"},{"bike_id":"068147af-6711-4ed4-80b1-77a9eb89ce16","system_id":"levelo_inurba_marseille","lat":43.29573,"lon":5.367355,"is_reserved":false,"is_disabled":false,"rental_uris":{"android":"levelo://app?vid=068147af-6711-4ed4-80b1-77a9eb89ce16","ios":"levelo://app?vid=068147af-6711-4ed4-80b1-77a9eb89ce16"},"vehicle_type_id":"4","last_reported":1724605786,"current_range_meters":1600,"station_id":"ce4bgph2rcd13ifvqc2g","pricing_plan_id":"cebpf4jnsgd1na2vs0mg"},{"bike_id":"0f80e4a7-dd24-4bcb-898e-d82ea20cfec9","system_id":"levelo_inurba_marseille","lat":43.2963,"lon":5.36031,"is_reserved":false,"is_disabled":false,"rental_uris":{"android":"levelo://app?vid=0f80e4a7-dd24-4bcb-898e-d82ea20cfec9","ios":"levelo://app?vid=0f80e4a7-dd24-4bcb-898e-d82ea20cfec9"},"vehicle_type_id":"4","last_reported":1724605786,"current_range_meters":0,"station_id":"","pricing_plan_id":"cebpf4jnsgd1na2vs0mg"},{"bike_id":"73aefbc4-09c7-45f0-960e-56d15e60ec96","system_id":"levelo_inurba_marseille","lat":43.309589,"lon":5.390258,"is_reserved":false,"is_disabled":false,"rental_uris":{"android":"levelo://app?vid=73aefbc4-09c7-45f0-960e-56d15e60ec96","ios":"levelo://app?vid=73aefbc4-09c7-45f0-960e-56d15e60ec96"},"vehicle_type_id":"4","last_reported":1724605786,"current_range_meters":11600,"station_id":"ce4bgup2rcd13ifvqco0","pricing_plan_id":"cebpf4jnsgd1na2vs0mg"},{"bike_id":"b9c1d2a0-3196-4b0a-8b86-6a19f682029a","system_id":"levelo_inurba_marseille","lat":43.309589,"lon":5.390258,"is_reserved":false,"is_disabled":false,"rental_uris":{"android":"levelo://app?vid=b9c1d2a0-3196-4b0a-8b86-6a19f682029a","ios":"levelo://app?vid=b9c1d2a0-3196-4b0a-8b86-6a19f682029a"},"vehicle_type_id":"4","last_reported":1724605786,"current_range_meters":22000,"station_id":"ce4bgup2rcd13ifvqco0","pricing_plan_id":"cebpf4jnsgd1na2vs0mg"},{"bike_id":"ec16ce93-5371-4023-949c-5bca3894af6a","system_id":"levelo_inurba_marseille","lat":43.29622,"lon":5.37391,"is_reserved":false,"is_disabled":false,"rental_uris":{"android":"levelo://app?vid=ec16ce93-5371-4023-949c-5bca3894af6a","ios":"levelo://app?vid=ec16ce93-5371-4023-949c-5bca3894af6a"},"vehicle_type_id":"4","last_reported":1724605786,"current_range_meters":0,"station_id":"","pricing_plan_id":"cebpf4jnsgd1na2vs0mg"},{"bike_id":"4075f8c9-6049-4470-8b33-733e81a1183b","system_id":"levelo_inurba_marseille","lat":43.309589,"lon":5.390258,"is_reserved":false,"is_disabled":false,"rental_uris":{"android":"levelo://app?vid=4075f8c9-6049-4470-8b33-733e81a1183b","ios":"levelo://app?vid=4075f8c9-6049-4470-8b33-733e81a1183b"},"vehicle_type_id":"4","last_reported":1724605786,"current_range_meters":1600,"station_id":"ce4bgup2rcd13ifvqco0","pricing_plan_id":"cebpf4jnsgd1na2vs0mg"},{"bike_id":"79e33076-9a02-43a4-abea-d98ae14b9e54","system_id":"levelo_inurba_marseille","lat":43.309589,"lon":5.390258,"is_reserved":false,"is_disabled":false,"rental_uris":{"android":"levelo://app?vid=79e33076-9a02-43a4-abea-d98ae14b9e54","ios":"levelo://app?vid=79e33076-9a02-43a4-abea-d98ae14b9e54"},"vehicle_type_id":"4","last_reported":1724605786,"current_range_meters":0,"station_id":"ce4bgup2rcd13ifvqco0","pricing_plan_id":"cebpf4jnsgd1na2vs0mg"},{"bike_id":"e6fd205d-6a33-4337-837d-c3b0ba2eac92","system_id":"levelo_inurba_marseille","lat":43.317557,"lon":5.390173,"is_reserved":false,"is_disabled":false,"rental_uris":{"android":"levelo://app?vid=e6fd205d-6a33-4337-837d-c3b0ba2eac92","ios":"levelo://app?vid=e6fd205d-6a33-4337-837d-c3b0ba2eac92"},"vehicle_type_id":"4","last_reported":1724605786,"current_range_meters":18400,"station_id":"ce4bhqp2rcd13ifvqhng","pricing_plan_id":"cebpf4jnsgd1na2vs0mg"},{"bike_id":"169c8dd2-efd6-4549-9d53-fb0724182b85","system_id":"levelo_inurba_marseille","lat":43.295279,"lon":5.375048,"is_reserved":false,"is_disabled":false,"rental_uris":{"android":"levelo://app?vid=169c8dd2-efd6-4549-9d53-fb0724182b85","ios":"levelo://app?vid=169c8dd2-efd6-4549-9d53-fb0724182b85"},"vehicle_type_id":"4","last_reported":1724605786,"current_range_meters":24000,"station_id":"ce4bgkp2rcd13ifvqbmg","pricing_plan_id":"cebpf4jnsgd1na2vs0mg"},{"bike_id":"359c7209-d125-4976-87da-3d548c08c97d","system_id":"levelo_inurba_marseille","lat":43.297957,"lon":5.38091,"is_reserved":false,"is_disabled":false,"rental_uris":{"android":"levelo://app?vid=359c7209-d125-4976-87da-3d548c08c97d","ios":"levelo://app?vid=359c7209-d125-4976-87da-3d548c08c97d"},"vehicle_type_id":"4","last_reported":1724605786,"current_range_meters":26800,"station_id":"ce4bgip2rcd13ifvqbb0","pricing_plan_id":"cebpf4jnsgd1na2vs0mg"},{"bike_id":"178afe1d-fa9b-44c9-a1da-f0d6e694e2eb","system_id":"levelo_inurba_marseille","lat":43.29898,"lon":5.3829,"is_reserved":false,"is_disabled":false,"rental_uris":{"android":"levelo://app?vid=178afe1d-fa9b-44c9-a1da-f0d6e694e2eb","ios":"levelo://app?vid=178afe1d-fa9b-44c9-a1da-f0d6e694e2eb"},"vehicle_type_id":"4","last_reported":1724605786,"current_range_meters":1600,"station_id":"","pricing_plan_id":"cebpf4jnsgd1na2vs0mg"},{"bike_id":"250b3c11-6c36-4c55-b401-40eabb5efce4","system_id":"levelo_inurba_marseille","lat":43.295748,"lon":5.37522,"is_reserved":false,"is_disabled":false,"rental_uris":{"android":"levelo://app?vid=250b3c11-6c36-4c55-b401-40eabb5efce4","ios":"levelo://app?vid=250b3c11-6c36-4c55-b401-40eabb5efce4"},"vehicle_type_id":"4","last_reported":1724605786,"current_range_meters":1200,"station_id":"ce4bgh92rcd13ifvqb50","pricing_plan_id":"cebpf4jnsgd1na2vs0mg"},{"bike_id":"fa497d05-06fe-48d7-b6ee-c50216b5919f","system_id":"levelo_inurba_marseille","lat":43.295748,"lon":5.37522,"is_reserved":false,"is_disabled":false,"rental_uris":{"android":"levelo://app?vid=fa497d05-06fe-48d7-b6ee-c50216b5919f","ios":"levelo://app?vid=fa497d05-06fe-48d7-b6ee-c50216b5919f"},"vehicle_type_id":"4","last_reported":1724605786,"current_range_meters":6000,"station_id":"ce4bgh92rcd13ifvqb50","pricing_plan_id":"cebpf4jnsgd1na2vs0mg"},{"bike_id":"94d0ad5e-998d-4fed-a499-e40b2f49ad67","system_id":"levelo_inurba_marseille","lat":43.304278,"lon":5.388868,"is_reserved":false,"is_disabled":false,"rental_uris":{"android":"levelo://app?vid=94d0ad5e-998d-4fed-a499-e40b2f49ad67","ios":"levelo://app?vid=94d0ad5e-998d-4fed-a499-e40b2f49ad67"},"vehicle_type_id":"4","last_reported":1724605786,"current_range_meters":23600,"station_id":"ce4bgk12rcd13ifvqbi0","pricing_plan_id":"cebpf4jnsgd1na2vs0mg"},{"bike_id":"14b102eb-0976-4cf3-9bc7-f33b98aa820a","system_id":"levelo_inurba_marseille","lat":43.304274,"lon":5.388873,"is_reserved":false,"is_disabled":false,"rental_uris":{"android":"levelo://app?vid=14b102eb-0976-4cf3-9bc7-f33b98aa820a","ios":"levelo://app?vid=14b102eb-0976-4cf3-9bc7-f33b98aa820a"},"vehicle_type_id":"4","last_reported":1724605786,"current_range_meters":22800,"station_id":"ce4bgk12rcd13ifvqbi0","pricing_plan_id":"cebpf4jnsgd1na2vs0mg"},{"bike_id":"3ec41ef3-7815-4dbd-871e-0d8bd83d3e4d","system_id":"levelo_inurba_marseille","lat":43.296263,"lon":5.377094,"is_reserved":false,"is_disabled":false,"rental_uris":{"android":"levelo://app?vid=3ec41ef3-7815-4dbd-871e-0d8bd83d3e4d","ios":"levelo://app?vid=3ec41ef3-7815-4dbd-871e-0d8bd83d3e4d"},"vehicle_type_id":"4","last_reported":1724605786,"current_range_meters":28000,"station_id":"ce4bgi92rcd13ifvqb90","pricing_plan_id":"cebpf4jnsgd1na2vs0mg"},{"bike_id":"fb422cd4-54ca-4616-955b-cb0f9d4edb53","system_id":"levelo_inurba_marseille","lat":43.295279,"lon":5.375048,"is_reserved":false,"is_disabled":false,"rental_uris":{"android":"levelo://app?vid=fb422cd4-54ca-4616-955b-cb0f9d4edb53","ios":"levelo://app?vid=fb422cd4-54ca-4616-955b-cb0f9d4edb53"},"vehicle_type_id":"4","last_reported":1724605786,"current_range_meters":23600,"station_id":"ce4bgkp2rcd13ifvqbmg","pricing_plan_id":"cebpf4jnsgd1na2vs0mg"},{"bike_id":"260f089a-ace4-41a4-9ed5-49d5f61aec01","system_id":"levelo_inurba_marseille","lat":43.32365,"lon":5.38883,"is_reserved":false,"is_disabled":false,"rental_uris":{"android":"levelo://app?vid=260f089a-ace4-41a4-9ed5-49d5f61aec01","ios":"levelo://app?vid=260f089a-ace4-41a4-9ed5-49d5f61aec01"},"vehicle_type_id":"4","last_reported":1724605786,"current_range_meters":12400,"station_id":"ce4bhqp2rcd13ifvqhog","pricing_plan_id":"cebpf4jnsgd1na2vs0mg"},{"bike_id":"a1ee482f-2a7a-407c-90ad-26034a19fdf3","system_id":"levelo_inurba_marseille","lat":43.32367,"lon":5.388836,"is_reserved":false,"is_disabled":false,"rental_uris":{"android":"levelo://app?vid=a1ee482f-2a7a-407c-90ad-26034a19fdf3","ios":"levelo://app?vid=a1ee482f-2a7a-407c-90ad-26034a19fdf3"},"vehicle_type_id":"4","last_reported":1724605786,"current_range_meters":15200,"station_id":"ce4bhqp2rcd13ifvqhog","pricing_plan_id":"cebpf4jnsgd1na2vs0mg"},{"bike_id":"907b84a9-0c1b-48d7-908b-117cec298329","system_id":"levelo_inurba_marseille","lat":43.29935,"lon":5.38609,"is_reserved":false,"is_disabled":false,"rental_uris":{"android":"levelo://app?vid=907b84a9-0c1b-48d7-908b-117cec298329","ios":"levelo://app?vid=907b84a9-0c1b-48d7-908b-117cec298329"},"vehicle_type_id":"4","last_reported":1724605786,"current_range_meters":2000,"station_id":"","pricing_plan_id":"cebpf4jnsgd1na2vs0mg"},{"bike_id":"39f6d18d-2055-4169-b0da-dc62af062014","system_id":"levelo_inurba_marseille","lat":43.32366,"lon":5.38886,"is_reserved":false,"is_disabled":false,"rental_uris":{"android":"levelo://app?vid=39f6d18d-2055-4169-b0da-dc62af062014","ios":"levelo://app?vid=39f6d18d-2055-4169-b0da-dc62af062014"},"vehicle_type_id":"4","last_reported":1724605786,"current_range_meters":24400,"station_id":"ce4bhqp2rcd13ifvqhog","pricing_plan_id":"cebpf4jnsgd1na2vs0mg"},{"bike_id":"1c3a457d-be74-4cc1-9de1-0e9064514343","system_id":"levelo_inurba_marseille","lat":43.32367,"lon":5.388836,"is_reserved":false,"is_disabled":false,"rental_uris":{"android":"levelo://app?vid=1c3a457d-be74-4cc1-9de1-0e9064514343","ios":"levelo://app?vid=1c3a457d-be74-4cc1-9de1-0e9064514343"},"vehicle_type_id":"4","last_reported":1724605786,"current_range_meters":2800,"station_id":"ce4bhqp2rcd13ifvqhog","pricing_plan_id":"cebpf4jnsgd1na2vs0mg"},{"bike_id":"8105f870-27f6-4436-8ed4-f4bd1bf519c8","system_id":"levelo_inurba_marseille","lat":43.29602,"lon":5.381084,"is_reserved":false,"is_disabled":false,"rental_uris":{"android":"levelo://app?vid=8105f870-27f6-4436-8ed4-f4bd1bf519c8","ios":"levelo://app?vid=8105f870-27f6-4436-8ed4-f4bd1bf519c8"},"vehicle_type_id":"4","last_reported":1724605786,"current_range_meters":28400,"station_id":"ce4bgl12rcd13ifvqbo0","pricing_plan_id":"cebpf4jnsgd1na2vs0mg"},{"bike_id":"8d7c6691-58be-49ce-ac15-6cda09bc30c8","system_id":"levelo_inurba_marseille","lat":43.29602,"lon":5.381084,"is_reserved":false,"is_disabled":false,"rental_uris":{"android":"levelo://app?vid=8d7c6691-58be-49ce-ac15-6cda09bc30c8","ios":"levelo://app?vid=8d7c6691-58be-49ce-ac15-6cda09bc30c8"},"vehicle_type_id":"4","last_reported":1724605786,"current_range_meters":0,"station_id":"ce4bgl12rcd13ifvqbo0","pricing_plan_id":"cebpf4jnsgd1na2vs0mg"},{"bike_id":"82a22ea9-5a77-451e-a113-f15bed369a4d","system_id":"levelo_inurba_marseille","lat":43.29602,"lon":5.381084,"is_reserved":false,"is_disabled":false,"rental_uris":{"android":"levelo://app?vid=82a22ea9-5a77-451e-a113-f15bed369a4d","ios":"levelo://app?vid=82a22ea9-5a77-451e-a113-f15bed369a4d"},"vehicle_type_id":"4","last_reported":1724605786,"current_range_meters":17600,"station_id":"ce4bgl12rcd13ifvqbo0","pricing_plan_id":"cebpf4jnsgd1na2vs0mg"},{"bike_id":"0509c888-846b-4ef0-bea6-9b36817e7760","system_id":"levelo_inurba_marseille","lat":43.32387,"lon":5.38919,"is_reserved":false,"is_disabled":false,"rental_uris":{"android":"levelo://app?vid=0509c888-846b-4ef0-bea6-9b36817e7760","ios":"levelo://app?vid=0509c888-846b-4ef0-bea6-9b36817e7760"},"vehicle_type_id":"4","last_reported":1724605786,"current_range_meters":6800,"station_id":"ce4bhqp2rcd13ifvqhog","pricing_plan_id":"cebpf4jnsgd1na2vs0mg"},{"bike_id":"5a2b5d31-e8d4-4e0f-bf38-11cd33272538","system_id":"levelo_inurba_marseille","lat":43.29326,"lon":5.37096,"is_reserved":false,"is_disabled":false,"rental_uris":{"android":"levelo://app?vid=5a2b5d31-e8d4-4e0f-bf38-11cd33272538","ios":"levelo://app?vid=5a2b5d31-e8d4-4e0f-bf38-11cd33272538"},"vehicle_type_id":"4","last_reported":1724605786,"current_range_meters":800,"station_id":"","pricing_plan_id":"cebpf4jnsgd1na2vs0mg"},{"bike_id":"cd4c46e6-2a31-4454-b099-7a05d57e3f69","system_id":"levelo_inurba_marseille","lat":43.292749,"lon":5.368402,"is_reserved":false,"is_disabled":false,"rental_uris":{"android":"levelo://app?vid=cd4c46e6-2a31-4454-b099-7a05d57e3f69","ios":"levelo://app?vid=cd4c46e6-2a31-4454-b099-7a05d57e3f69"},"vehicle_type_id":"4","last_reported":1724605786,"current_range_meters":17600,"station_id":"ce4bhbp2rcd13ifvqesg","pricing_plan_id":"cebpf4jnsgd1na2vs0mg"},{"bike_id":"6f0c9d74-28e1-4ed9-af93-7ff22edf1acb","system_id":"levelo_inurba_marseille","lat":43.292749,"lon":5.368402,"is_reserved":false,"is_disabled":false,"rental_uris":{"android":"levelo://app?vid=6f0c9d74-28e1-4ed9-af93-7ff22edf1acb","ios":"levelo://app?vid=6f0c9d74-28e1-4ed9-af93-7ff22edf1acb"},"vehicle_type_id":"4","last_reported":1724605786,"current_range_meters":11200,"station_id":"ce4bhbp2rcd13ifvqesg","pricing_plan_id":"cebpf4jnsgd1na2vs0mg"},{"bike_id":"97989f32-2396-4db9-b50b-3d1712202871","system_id":"levelo_inurba_marseille","lat":43.293259,"lon":5.371586,"is_reserved":false,"is_disabled":false,"rental_uris":{"android":"levelo://app?vid=97989f32-2396-4db9-b50b-3d1712202871","ios":"levelo://app?vid=97989f32-2396-4db9-b50b-3d1712202871"},"vehicle_type_id":"4","last_reported":1724605786,"current_range_meters":14000,"station_id":"ce4bgh92rcd13ifvqb40","pricing_plan_id":"cebpf4jnsgd1na2vs0mg"},{"bike_id":"eafdb343-5898-4052-b5a0-77e416cb9f76","system_id":"levelo_inurba_marseille","lat":43.292749,"lon":5.368402,"is_reserved":false,"is_disabled":false,"rental_uris":{"android":"levelo://app?vid=eafdb343-5898-4052-b5a0-77e416cb9f76","ios":"levelo://app?vid=eafdb343-5898-4052-b5a0-77e416cb9f76"},"vehicle_type_id":"4","last_reported":1724605786,"current_range_meters":2400,"station_id":"ce4bhbp2rcd13ifvqesg","pricing_plan_id":"cebpf4jnsgd1na2vs0mg"},{"bike_id":"611325ee-0954-4013-8983-8cfe1a2a47cb","system_id":"levelo_inurba_marseille","lat":43.293009,"lon":5.374584,"is_reserved":false,"is_disabled":false,"rental_uris":{"android":"levelo://app?vid=611325ee-0954-4013-8983-8cfe1a2a47cb","ios":"levelo://app?vid=611325ee-0954-4013-8983-8cfe1a2a47cb"},"vehicle_type_id":"4","last_reported":1724605786,"current_range_meters":2400,"station_id":"ce4bgi12rcd13ifvqb70","pricing_plan_id":"cebpf4jnsgd1na2vs0mg"},{"bike_id":"6bf0c7df-fa90-4923-995a-fe24785b76b0","system_id":"levelo_inurba_marseille","lat":43.30302,"lon":5.39207,"is_reserved":false,"is_disabled":false,"rental_uris":{"android":"levelo://app?vid=6bf0c7df-fa90-4923-995a-fe24785b76b0","ios":"levelo://app?vid=6bf0c7df-fa90-4923-995a-fe24785b76b0"},"vehicle_type_id":"4","last_reported":1724605786,"current_range_meters":20800,"station_id":"ce4bgkh2rcd13ifvqbk0","pricing_plan_id":"cebpf4jnsgd1na2vs0mg"},{"bike_id":"f5150ffd-1d46-4d73-bddf-8349e1750d53","system_id":"levelo_inurba_marseille","lat":43.293743,"lon":5.378523,"is_reserved":false,"is_disabled":false,"rental_uris":{"android":"levelo://app?vid=f5150ffd-1d46-4d73-bddf-8349e1750d53","ios":"levelo://app?vid=f5150ffd-1d46-4d73-bddf-8349e1750d53"},"vehicle_type_id":"4","last_reported":1724605786,"current_range_meters":0,"station_id":"ce4bgjh2rcd13ifvqbf0","pricing_plan_id":"cebpf4jnsgd1na2vs0mg"},{"bike_id":"2e7bc981-5467-4097-b374-de17a22e30de","system_id":"levelo_inurba_marseille","lat":43.302992,"lon":5.392136,"is_reserved":false,"is_disabled":false,"rental_uris":{"android":"levelo://app?vid=2e7bc981-5467-4097-b374-de17a22e30de","ios":"levelo://app?vid=2e7bc981-5467-4097-b374-de17a22e30de"},"vehicle_type_id":"4","last_reported":1724605786,"current_range_meters":29600,"station_id":"ce4bgkh2rcd13ifvqbk0","pricing_plan_id":"cebpf4jnsgd1na2vs0mg"},{"bike_id":"c60cb974-e482-4f65-b1ba-d28a4b9ee74e","system_id":"levelo_inurba_marseille","lat":43.302976,"lon":5.39222,"is_reserved":false,"is_disabled":false,"rental_uris":{"android":"levelo://app?vid=c60cb974-e482-4f65-b1ba-d28a4b9ee74e","ios":"levelo://app?vid=c60cb974-e482-4f65-b1ba-d28a4b9ee74e"},"vehicle_type_id":"4","last_reported":1724605786,"current_range_meters":0,"station_id":"","pricing_plan_id":"cebpf4jnsgd1na2vs0mg"},{"bike_id":"993eb861-405c-43f3-b178-fb2f9b44f613","system_id":"levelo_inurba_marseille","lat":43.30085,"lon":5.390856,"is_reserved":false,"is_disabled":false,"rental_uris":{"android":"levelo://app?vid=993eb861-405c-43f3-b178-fb2f9b44f613","ios":"levelo://app?vid=993eb861-405c-43f3-b178-fb2f9b44f613"},"vehicle_type_id":"4","last_reported":1724605786,"current_range_meters":8400,"station_id":"ce4bh192rcd13ifvqdb0","pricing_plan_id":"cebpf4jnsgd1na2vs0mg"},{"bike_id":"a3c0ccae-fa6c-4312-93fd-03eeabd76339","system_id":"levelo_inurba_marseille","lat":43.30085,"lon":5.390856,"is_reserved":false,"is_disabled":false,"rental_uris":{"android":"levelo://app?vid=a3c0ccae-fa6c-4312-93fd-03eeabd76339","ios":"levelo://app?vid=a3c0ccae-fa6c-4312-93fd-03eeabd76339"},"vehicle_type_id":"4","last_reported":1724605786,"current_range_meters":17600,"station_id":"ce4bh192rcd13ifvqdb0","pricing_plan_id":"cebpf4jnsgd1na2vs0mg"},{"bike_id":"a64113f8-1596-4069-bb63-f702cb74781f","system_id":"levelo_inurba_marseille","lat":43.291675,"lon":5.371583,"is_reserved":false,"is_disabled":false,"rental_uris":{"android":"levelo://app?vid=a64113f8-1596-4069-bb63-f702cb74781f","ios":"levelo://app?vid=a64113f8-1596-4069-bb63-f702cb74781f"},"vehicle_type_id":"4","last_reported":1724605786,"current_range_meters":0,"station_id":"ce4bha92rcd13ifvqeh0","pricing_plan_id":"cebpf4jnsgd1na2vs0mg"},{"bike_id":"b951dbc4-322c-4c5a-b9ba-ac057a26a4d9","system_id":"levelo_inurba_marseille","lat":43.292005,"lon":5.357875,"is_reserved":false,"is_disabled":false,"rental_uris":{"android":"levelo://app?vid=b951dbc4-322c-4c5a-b9ba-ac057a26a4d9","ios":"levelo://app?vid=b951dbc4-322c-4c5a-b9ba-ac057a26a4d9"},"vehicle_type_id":"4","last_reported":1724605786,"current_range_meters":18000,"station_id":"ce4bhb12rcd13ifvqel0","pricing_plan_id":"cebpf4jnsgd1na2vs0mg"},{"bike_id":"ed5593a1-95ba-4122-902b-edeb0a3216c7","system_id":"levelo_inurba_marseille","lat":43.309038,"lon":5.396546,"is_reserved":false,"is_disabled":false,"rental_uris":{"android":"levelo://app?vid=ed5593a1-95ba-4122-902b-edeb0a3216c7","ios":"levelo://app?vid=ed5593a1-95ba-4122-902b-edeb0a3216c7"},"vehicle_type_id":"4","last_reported":1724605786,"current_range_meters":26400,"station_id":"ce4bh012rcd13ifvqcv0","pricing_plan_id":"cebpf4jnsgd1na2vs0mg"},{"bike_id":"db4f7a99-cdba-4a05-83c5-99852b25130f","system_id":"levelo_inurba_marseille","lat":43.309047,"lon":5.396551,"is_reserved":false,"is_disabled":false,"rental_uris":{"android":"levelo://app?vid=db4f7a99-cdba-4a05-83c5-99852b25130f","ios":"levelo://app?vid=db4f7a99-cdba-4a05-83c5-99852b25130f"},"vehicle_type_id":"4","last_reported":1724605786,"current_range_meters":8000,"station_id":"ce4bh012rcd13ifvqcv0","pricing_plan_id":"cebpf4jnsgd1na2vs0mg"},{"bike_id":"e8f7369f-7e22-4299-b8bb-316b52888ef4","system_id":"levelo_inurba_marseille","lat":43.309038,"lon":5.396546,"is_reserved":false,"is_disabled":false,"rental_uris":{"android":"levelo://app?vid=e8f7369f-7e22-4299-b8bb-316b52888ef4","ios":"levelo://app?vid=e8f7369f-7e22-4299-b8bb-316b52888ef4"},"vehicle_type_id":"4","last_reported":1724605786,"current_range_meters":4400,"station_id":"ce4bh012rcd13ifvqcv0","pricing_plan_id":"cebpf4jnsgd1na2vs0mg"},{"bike_id":"745328b1-110e-4231-ad3f-81bd6684be53","system_id":"levelo_inurba_marseille","lat":43.309038,"lon":5.396546,"is_reserved":false,"is_disabled":false,"rental_uris":{"android":"levelo://app?vid=745328b1-110e-4231-ad3f-81bd6684be53","ios":"levelo://app?vid=745328b1-110e-4231-ad3f-81bd6684be53"},"vehicle_type_id":"4","last_reported":1724605786,"current_range_meters":30800,"station_id":"ce4bh012rcd13ifvqcv0","pricing_plan_id":"cebpf4jnsgd1na2vs0mg"},{"bike_id":"6a177940-d368-4791-b12c-bb5bafd8d5fc","system_id":"levelo_inurba_marseille","lat":43.29529,"lon":5.385581,"is_reserved":false,"is_disabled":false,"rental_uris":{"android":"levelo://app?vid=6a177940-d368-4791-b12c-bb5bafd8d5fc","ios":"levelo://app?vid=6a177940-d368-4791-b12c-bb5bafd8d5fc"},"vehicle_type_id":"4","last_reported":1724605786,"current_range_meters":30800,"station_id":"ce4bgih2rcd13ifvqba0","pricing_plan_id":"cebpf4jnsgd1na2vs0mg"},{"bike_id":"a16acc18-3b9d-45e9-b947-bd31c57a1241","system_id":"levelo_inurba_marseille","lat":43.29529,"lon":5.385581,"is_reserved":false,"is_disabled":false,"rental_uris":{"android":"levelo://app?vid=a16acc18-3b9d-45e9-b947-bd31c57a1241","ios":"levelo://app?vid=a16acc18-3b9d-45e9-b947-bd31c57a1241"},"vehicle_type_id":"4","last_reported":1724605786,"current_range_meters":29200,"station_id":"ce4bgih2rcd13ifvqba0","pricing_plan_id":"cebpf4jnsgd1na2vs0mg"},{"bike_id":"638bff9f-f13e-45b3-b5f8-ec8efd2a1f45","system_id":"levelo_inurba_marseille","lat":43.29529,"lon":5.385581,"is_reserved":false,"is_disabled":false,"rental_uris":{"android":"levelo://app?vid=638bff9f-f13e-45b3-b5f8-ec8efd2a1f45","ios":"levelo://app?vid=638bff9f-f13e-45b3-b5f8-ec8efd2a1f45"},"vehicle_type_id":"4","last_reported":1724605786,"current_range_meters":31200,"station_id":"ce4bgih2rcd13ifvqba0","pricing_plan_id":"cebpf4jnsgd1na2vs0mg"},{"bike_id":"ae71d523-70aa-42d7-bcb3-b01b8ea7b8b9","system_id":"levelo_inurba_marseille","lat":43.29532,"lon":5.38541,"is_reserved":false,"is_disabled":false,"rental_uris":{"android":"levelo://app?vid=ae71d523-70aa-42d7-bcb3-b01b8ea7b8b9","ios":"levelo://app?vid=ae71d523-70aa-42d7-bcb3-b01b8ea7b8b9"},"vehicle_type_id":"4","last_reported":1724605786,"current_range_meters":30800,"station_id":"ce4bgih2rcd13ifvqba0","pricing_plan_id":"cebpf4jnsgd1na2vs0mg"},{"bike_id":"2cde5bf6-6bad-4859-bab4-0bbe83b16545","system_id":"levelo_inurba_marseille","lat":43.29529,"lon":5.385581,"is_reserved":false,"is_disabled":false,"rental_uris":{"android":"levelo://app?vid=2cde5bf6-6bad-4859-bab4-0bbe83b16545","ios":"levelo://app?vid=2cde5bf6-6bad-4859-bab4-0bbe83b16545"},"vehicle_type_id":"4","last_reported":1724605786,"current_range_meters":13600,"station_id":"ce4bgih2rcd13ifvqba0","pricing_plan_id":"cebpf4jnsgd1na2vs0mg"},{"bike_id":"5b701af5-3271-463b-96c1-7d50391cc6cb","system_id":"levelo_inurba_marseille","lat":43.29529,"lon":5.385581,"is_reserved":false,"is_disabled":false,"rental_uris":{"android":"levelo://app?vid=5b701af5-3271-463b-96c1-7d50391cc6cb","ios":"levelo://app?vid=5b701af5-3271-463b-96c1-7d50391cc6cb"},"vehicle_type_id":"4","last_reported":1724605786,"current_range_meters":27200,"station_id":"ce4bgih2rcd13ifvqba0","pricing_plan_id":"cebpf4jnsgd1na2vs0mg"},{"bike_id":"9de109c2-dea9-4217-81b2-3eb085caf99a","system_id":"levelo_inurba_marseille","lat":43.33467,"lon":5.36113,"is_reserved":false,"is_disabled":false,"rental_uris":{"android":"levelo://app?vid=9de109c2-dea9-4217-81b2-3eb085caf99a","ios":"levelo://app?vid=9de109c2-dea9-4217-81b2-3eb085caf99a"},"vehicle_type_id":"4","last_reported":1724605786,"current_range_meters":14800,"station_id":"","pricing_plan_id":"cebpf4jnsgd1na2vs0mg"},{"bike_id":"7a581509-b498-46d9-9319-5a63def57081","system_id":"levelo_inurba_marseille","lat":43.290779,"lon":5.371482,"is_reserved":false,"is_disabled":false,"rental_uris":{"android":"levelo://app?vid=7a581509-b498-46d9-9319-5a63def57081","ios":"levelo://app?vid=7a581509-b498-46d9-9319-5a63def57081"},"vehicle_type_id":"4","last_reported":1724605786,"current_range_meters":2800,"station_id":"ce4bh5p2rcd13ifvqe4g","pricing_plan_id":"cebpf4jnsgd1na2vs0mg"},{"bike_id":"48c1c01f-8da2-483c-8e7e-1beac97dbb01","system_id":"levelo_inurba_marseille","lat":43.290631,"lon":5.359244,"is_reserved":false,"is_disabled":false,"rental_uris":{"android":"levelo://app?vid=48c1c01f-8da2-483c-8e7e-1beac97dbb01","ios":"levelo://app?vid=48c1c01f-8da2-483c-8e7e-1beac97dbb01"},"vehicle_type_id":"4","last_reported":1724605786,"current_range_meters":0,"station_id":"ce4bha92rcd13ifvqeg0","pricing_plan_id":"cebpf4jnsgd1na2vs0mg"},{"bike_id":"a0d34f5f-db7f-4a5e-a9a7-162c7b0b5de4","system_id":"levelo_inurba_marseille","lat":43.294153,"lon":5.386305,"is_reserved":false,"is_disabled":false,"rental_uris":{"android":"levelo://app?vid=a0d34f5f-db7f-4a5e-a9a7-162c7b0b5de4","ios":"levelo://app?vid=a0d34f5f-db7f-4a5e-a9a7-162c7b0b5de4"},"vehicle_type_id":"4","last_reported":1724605786,"current_range_meters":21200,"station_id":"ce4bh2h2rcd13ifvqdh0","pricing_plan_id":"cebpf4jnsgd1na2vs0mg"},{"bike_id":"aafdf228-897d-4714-a252-5cda38a160bd","system_id":"levelo_inurba_marseille","lat":43.294153,"lon":5.386305,"is_reserved":false,"is_disabled":false,"rental_uris":{"android":"levelo://app?vid=aafdf228-897d-4714-a252-5cda38a160bd","ios":"levelo://app?vid=aafdf228-897d-4714-a252-5cda38a160bd"},"vehicle_type_id":"4","last_reported":1724605786,"current_range_meters":28000,"station_id":"ce4bh2h2rcd13ifvqdh0","pricing_plan_id":"cebpf4jnsgd1na2vs0mg"},{"bike_id":"dd4dee14-4c1a-4482-9e36-8949cd086236","system_id":"levelo_inurba_marseille","lat":43.289473,"lon":5.366327,"is_reserved":false,"is_disabled":false,"rental_uris":{"android":"levelo://app?vid=dd4dee14-4c1a-4482-9e36-8949cd086236","ios":"levelo://app?vid=dd4dee14-4c1a-4482-9e36-8949cd086236"},"vehicle_type_id":"4","last_reported":1724605786,"current_range_meters":3600,"station_id":"ce4bhap2rcd13ifvqek0","pricing_plan_id":"cebpf4jnsgd1na2vs0mg"},{"bike_id":"fe33d4e5-79a5-404f-8f19-47f44e9f40ec","system_id":"levelo_inurba_marseille","lat":43.294153,"lon":5.386305,"is_reserved":false,"is_disabled":false,"rental_uris":{"android":"levelo://app?vid=fe33d4e5-79a5-404f-8f19-47f44e9f40ec","ios":"levelo://app?vid=fe33d4e5-79a5-404f-8f19-47f44e9f40ec"},"vehicle_type_id":"4","last_reported":1724605786,"current_range_meters":4400,"station_id":"ce4bh2h2rcd13ifvqdh0","pricing_plan_id":"cebpf4jnsgd1na2vs0mg"},{"bike_id":"599d068e-2938-40fa-a987-8a9abd36ede4","system_id":"levelo_inurba_marseille","lat":43.29417,"lon":5.38621,"is_reserved":false,"is_disabled":false,"rental_uris":{"android":"levelo://app?vid=599d068e-2938-40fa-a987-8a9abd36ede4","ios":"levelo://app?vid=599d068e-2938-40fa-a987-8a9abd36ede4"},"vehicle_type_id":"4","last_reported":1724605786,"current_range_meters":0,"station_id":"ce4bh2h2rcd13ifvqdh0","pricing_plan_id":"cebpf4jnsgd1na2vs0mg"},{"bike_id":"cd1e4c37-63a9-460d-9c3e-aa49a09dc6f0","system_id":"levelo_inurba_marseille","lat":43.294162,"lon":5.386292,"is_reserved":false,"is_disabled":false,"rental_uris":{"android":"levelo://app?vid=cd1e4c37-63a9-460d-9c3e-aa49a09dc6f0","ios":"levelo://app?vid=cd1e4c37-63a9-460d-9c3e-aa49a09dc6f0"},"vehicle_type_id":"4","last_reported":1724605786,"current_range_meters":0,"station_id":"ce4bh2h2rcd13ifvqdh0","pricing_plan_id":"cebpf4jnsgd1na2vs0mg"},{"bike_id":"f2f413b3-fad1-496e-a949-3bcfee578dd3","system_id":"levelo_inurba_marseille","lat":43.294162,"lon":5.386292,"is_reserved":false,"is_disabled":false,"rental_uris":{"android":"levelo://app?vid=f2f413b3-fad1-496e-a949-3bcfee578dd3","ios":"levelo://app?vid=f2f413b3-fad1-496e-a949-3bcfee578dd3"},"vehicle_type_id":"4","last_reported":1724605786,"current_range_meters":0,"station_id":"ce4bh2h2rcd13ifvqdh0","pricing_plan_id":"cebpf4jnsgd1na2vs0mg"},{"bike_id":"6172db39-11c1-48f0-b7b6-9d5499b865fa","system_id":"levelo_inurba_marseille","lat":43.294153,"lon":5.386305,"is_reserved":false,"is_disabled":false,"rental_uris":{"android":"levelo://app?vid=6172db39-11c1-48f0-b7b6-9d5499b865fa","ios":"levelo://app?vid=6172db39-11c1-48f0-b7b6-9d5499b865fa"},"vehicle_type_id":"4","last_reported":1724605786,"current_range_meters":23200,"station_id":"ce4bh2h2rcd13ifvqdh0","pricing_plan_id":"cebpf4jnsgd1na2vs0mg"},{"bike_id":"fa53369f-3201-4079-bade-5149fbac33d5","system_id":"levelo_inurba_marseille","lat":43.289184,"lon":5.366408,"is_reserved":false,"is_disabled":false,"rental_uris":{"android":"levelo://app?vid=fa53369f-3201-4079-bade-5149fbac33d5","ios":"levelo://app?vid=fa53369f-3201-4079-bade-5149fbac33d5"},"vehicle_type_id":"4","last_reported":1724605786,"current_range_meters":28800,"station_id":"ce4bhap2rcd13ifvqek0","pricing_plan_id":"cebpf4jnsgd1na2vs0mg"},{"bike_id":"e52dcf4c-cd77-40e2-b3b1-cf75f4151bf0","system_id":"levelo_inurba_marseille","lat":43.28935,"lon":5.36637,"is_reserved":false,"is_disabled":false,"rental_uris":{"android":"levelo://app?vid=e52dcf4c-cd77-40e2-b3b1-cf75f4151bf0","ios":"levelo://app?vid=e52dcf4c-cd77-40e2-b3b1-cf75f4151bf0"},"vehicle_type_id":"4","last_reported":1724605786,"current_range_meters":0,"station_id":"ce4bhap2rcd13ifvqek0","pricing_plan_id":"cebpf4jnsgd1na2vs0mg"},{"bike_id":"f9b0d340-ce44-496c-8943-d0208adc9800","system_id":"levelo_inurba_marseille","lat":43.28933,"lon":5.364,"is_reserved":false,"is_disabled":false,"rental_uris":{"android":"levelo://app?vid=f9b0d340-ce44-496c-8943-d0208adc9800","ios":"levelo://app?vid=f9b0d340-ce44-496c-8943-d0208adc9800"},"vehicle_type_id":"4","last_reported":1724605786,"current_range_meters":24800,"station_id":"ce4bhc92rcd13ifvqetg","pricing_plan_id":"cebpf4jnsgd1na2vs0mg"},{"bike_id":"18653427-3219-48ee-849b-a4b8b713b0cb","system_id":"levelo_inurba_marseille","lat":43.292644,"lon":5.384257,"is_reserved":false,"is_disabled":false,"rental_uris":{"android":"levelo://app?vid=18653427-3219-48ee-849b-a4b8b713b0cb","ios":"levelo://app?vid=18653427-3219-48ee-849b-a4b8b713b0cb"},"vehicle_type_id":"4","last_reported":1724605786,"current_range_meters":0,"station_id":"ce4bh692rcd13ifvqea0","pricing_plan_id":"cebpf4jnsgd1na2vs0mg"},{"bike_id":"a6da1747-11ea-4e55-b49d-8f676025ec3d","system_id":"levelo_inurba_marseille","lat":43.292642,"lon":5.384254,"is_reserved":false,"is_disabled":false,"rental_uris":{"android":"levelo://app?vid=a6da1747-11ea-4e55-b49d-8f676025ec3d","ios":"levelo://app?vid=a6da1747-11ea-4e55-b49d-8f676025ec3d"},"vehicle_type_id":"4","last_reported":1724605786,"current_range_meters":17200,"station_id":"ce4bh692rcd13ifvqea0","pricing_plan_id":"cebpf4jnsgd1na2vs0mg"},{"bike_id":"485e37db-41be-426b-8ed1-98b5c32bcf68","system_id":"levelo_inurba_marseille","lat":43.292644,"lon":5.384257,"is_reserved":false,"is_disabled":false,"rental_uris":{"android":"levelo://app?vid=485e37db-41be-426b-8ed1-98b5c32bcf68","ios":"levelo://app?vid=485e37db-41be-426b-8ed1-98b5c32bcf68"},"vehicle_type_id":"4","last_reported":1724605786,"current_range_meters":25200,"station_id":"ce4bh692rcd13ifvqea0","pricing_plan_id":"cebpf4jnsgd1na2vs0mg"},{"bike_id":"7f0ed1c6-99f4-42e1-9f10-9e3a3a4e077e","system_id":"levelo_inurba_marseille","lat":43.292644,"lon":5.384257,"is_reserved":false,"is_disabled":false,"rental_uris":{"android":"levelo://app?vid=7f0ed1c6-99f4-42e1-9f10-9e3a3a4e077e","ios":"levelo://app?vid=7f0ed1c6-99f4-42e1-9f10-9e3a3a4e077e"},"vehicle_type_id":"4","last_reported":1724605786,"current_range_meters":9600,"station_id":"ce4bh692rcd13ifvqea0","pricing_plan_id":"cebpf4jnsgd1na2vs0mg"},{"bike_id":"9ab0f7a1-07a5-4b35-9004-5674baab859e","system_id":"levelo_inurba_marseille","lat":43.292642,"lon":5.384254,"is_reserved":false,"is_disabled":false,"rental_uris":{"android":"levelo://app?vid=9ab0f7a1-07a5-4b35-9004-5674baab859e","ios":"levelo://app?vid=9ab0f7a1-07a5-4b35-9004-5674baab859e"},"vehicle_type_id":"4","last_reported":1724605786,"current_range_meters":8400,"station_id":"ce4bh692rcd13ifvqea0","pricing_plan_id":"cebpf4jnsgd1na2vs0mg"},{"bike_id":"312b301d-5fc2-4803-a802-fb6b28c077bb","system_id":"levelo_inurba_marseille","lat":43.292644,"lon":5.384257,"is_reserved":false,"is_disabled":false,"rental_uris":{"android":"levelo://app?vid=312b301d-5fc2-4803-a802-fb6b28c077bb","ios":"levelo://app?vid=312b301d-5fc2-4803-a802-fb6b28c077bb"},"vehicle_type_id":"4","last_reported":1724605786,"current_range_meters":16000,"station_id":"ce4bh692rcd13ifvqea0","pricing_plan_id":"cebpf4jnsgd1na2vs0mg"},{"bike_id":"82cede9a-cb5f-45b6-b57a-40c9619ca343","system_id":"levelo_inurba_marseille","lat":43.292644,"lon":5.384257,"is_reserved":false,"is_disabled":false,"rental_uris":{"android":"levelo://app?vid=82cede9a-cb5f-45b6-b57a-40c9619ca343","ios":"levelo://app?vid=82cede9a-cb5f-45b6-b57a-40c9619ca343"},"vehicle_type_id":"4","last_reported":1724605786,"current_range_meters":2400,"station_id":"ce4bh692rcd13ifvqea0","pricing_plan_id":"cebpf4jnsgd1na2vs0mg"},{"bike_id":"513c45c4-e7ac-416a-816b-5511f8fb3e80","system_id":"levelo_inurba_marseille","lat":43.292593,"lon":5.384383,"is_reserved":false,"is_disabled":false,"rental_uris":{"android":"levelo://app?vid=513c45c4-e7ac-416a-816b-5511f8fb3e80","ios":"levelo://app?vid=513c45c4-e7ac-416a-816b-5511f8fb3e80"},"vehicle_type_id":"4","last_reported":1724605786,"current_range_meters":4000,"station_id":"ce4bh692rcd13ifvqea0","pricing_plan_id":"cebpf4jnsgd1na2vs0mg"},{"bike_id":"de9c211c-6618-4bfd-8470-ee42557d5c2c","system_id":"levelo_inurba_marseille","lat":43.292642,"lon":5.384254,"is_reserved":false,"is_disabled":false,"rental_uris":{"android":"levelo://app?vid=de9c211c-6618-4bfd-8470-ee42557d5c2c","ios":"levelo://app?vid=de9c211c-6618-4bfd-8470-ee42557d5c2c"},"vehicle_type_id":"4","last_reported":1724605786,"current_range_meters":6000,"station_id":"ce4bh692rcd13ifvqea0","pricing_plan_id":"cebpf4jnsgd1na2vs0mg"},{"bike_id":"4d4f4702-dc37-42b2-8a94-bb0cad704545","system_id":"levelo_inurba_marseille","lat":43.290104,"lon":5.356111,"is_reserved":false,"is_disabled":false,"rental_uris":{"android":"levelo://app?vid=4d4f4702-dc37-42b2-8a94-bb0cad704545","ios":"levelo://app?vid=4d4f4702-dc37-42b2-8a94-bb0cad704545"},"vehicle_type_id":"4","last_reported":1724605786,"current_range_meters":0,"station_id":"ce4bhb92rcd13ifvqen0","pricing_plan_id":"cebpf4jnsgd1na2vs0mg"},{"bike_id":"207e9e54-507d-471f-ba7d-8510177895d6","system_id":"levelo_inurba_marseille","lat":43.290104,"lon":5.356111,"is_reserved":false,"is_disabled":false,"rental_uris":{"android":"levelo://app?vid=207e9e54-507d-471f-ba7d-8510177895d6","ios":"levelo://app?vid=207e9e54-507d-471f-ba7d-8510177895d6"},"vehicle_type_id":"4","last_reported":1724605786,"current_range_meters":31200,"station_id":"ce4bhb92rcd13ifvqen0","pricing_plan_id":"cebpf4jnsgd1na2vs0mg"},{"bike_id":"997fc1bc-f20e-4efa-9b60-7b70277c6447","system_id":"levelo_inurba_marseille","lat":43.29005,"lon":5.35609,"is_reserved":false,"is_disabled":false,"rental_uris":{"android":"levelo://app?vid=997fc1bc-f20e-4efa-9b60-7b70277c6447","ios":"levelo://app?vid=997fc1bc-f20e-4efa-9b60-7b70277c6447"},"vehicle_type_id":"4","last_reported":1724605786,"current_range_meters":31200,"station_id":"ce4bhb92rcd13ifvqen0","pricing_plan_id":"cebpf4jnsgd1na2vs0mg"},{"bike_id":"94c8019c-2f1d-4912-9de7-a84bd8c87712","system_id":"levelo_inurba_marseille","lat":43.290104,"lon":5.356111,"is_reserved":false,"is_disabled":false,"rental_uris":{"android":"levelo://app?vid=94c8019c-2f1d-4912-9de7-a84bd8c87712","ios":"levelo://app?vid=94c8019c-2f1d-4912-9de7-a84bd8c87712"},"vehicle_type_id":"4","last_reported":1724605786,"current_range_meters":31200,"station_id":"ce4bhb92rcd13ifvqen0","pricing_plan_id":"cebpf4jnsgd1na2vs0mg"},{"bike_id":"389a8f5c-44ce-47e2-971c-b25031092edc","system_id":"levelo_inurba_marseille","lat":43.29003,"lon":5.35611,"is_reserved":false,"is_disabled":false,"rental_uris":{"android":"levelo://app?vid=389a8f5c-44ce-47e2-971c-b25031092edc","ios":"levelo://app?vid=389a8f5c-44ce-47e2-971c-b25031092edc"},"vehicle_type_id":"4","last_reported":1724605786,"current_range_meters":31200,"station_id":"ce4bhb92rcd13ifvqen0","pricing_plan_id":"cebpf4jnsgd1na2vs0mg"},{"bike_id":"c811da77-5f3c-4551-ab27-f1eb624c843f","system_id":"levelo_inurba_marseille","lat":43.290995,"lon":5.381361,"is_reserved":false,"is_disabled":false,"rental_uris":{"android":"levelo://app?vid=c811da77-5f3c-4551-ab27-f1eb624c843f","ios":"levelo://app?vid=c811da77-5f3c-4551-ab27-f1eb624c843f"},"vehicle_type_id":"4","last_reported":1724605786,"current_range_meters":4000,"station_id":"ce4bh512rcd13ifvqe2g","pricing_plan_id":"cebpf4jnsgd1na2vs0mg"},{"bike_id":"f616826b-5e3a-4c0f-a5a2-eee8ea3b44f9","system_id":"levelo_inurba_marseille","lat":43.295169,"lon":5.390426,"is_reserved":false,"is_disabled":false,"rental_uris":{"android":"levelo://app?vid=f616826b-5e3a-4c0f-a5a2-eee8ea3b44f9","ios":"levelo://app?vid=f616826b-5e3a-4c0f-a5a2-eee8ea3b44f9"},"vehicle_type_id":"4","last_reported":1724605786,"current_range_meters":18400,"station_id":"ce4bh3p2rcd13ifvqdp0","pricing_plan_id":"cebpf4jnsgd1na2vs0mg"},{"bike_id":"e79a1cc9-15bd-4ea0-82c4-c7898b87ddd5","system_id":"levelo_inurba_marseille","lat":43.330442,"lon":5.389148,"is_reserved":false,"is_disabled":false,"rental_uris":{"android":"levelo://app?vid=e79a1cc9-15bd-4ea0-82c4-c7898b87ddd5","ios":"levelo://app?vid=e79a1cc9-15bd-4ea0-82c4-c7898b87ddd5"},"vehicle_type_id":"4","last_reported":1724605786,"current_range_meters":28800,"station_id":"ce4bhr92rcd13ifvqhrg","pricing_plan_id":"cebpf4jnsgd1na2vs0mg"},{"bike_id":"0356e7c6-107c-487e-a391-99a355aae6be","system_id":"levelo_inurba_marseille","lat":43.330442,"lon":5.389148,"is_reserved":false,"is_disabled":false,"rental_uris":{"android":"levelo://app?vid=0356e7c6-107c-487e-a391-99a355aae6be","ios":"levelo://app?vid=0356e7c6-107c-487e-a391-99a355aae6be"},"vehicle_type_id":"4","last_reported":1724605786,"current_range_meters":11200,"station_id":"ce4bhr92rcd13ifvqhrg","pricing_plan_id":"cebpf4jnsgd1na2vs0mg"},{"bike_id":"2f411b73-7e20-4c3b-abf8-0c2d4968564a","system_id":"levelo_inurba_marseille","lat":43.33026,"lon":5.39046,"is_reserved":false,"is_disabled":false,"rental_uris":{"android":"levelo://app?vid=2f411b73-7e20-4c3b-abf8-0c2d4968564a","ios":"levelo://app?vid=2f411b73-7e20-4c3b-abf8-0c2d4968564a"},"vehicle_type_id":"4","last_reported":1724605786,"current_range_meters":6800,"station_id":"ce4bhr92rcd13ifvqhrg","pricing_plan_id":"cebpf4jnsgd1na2vs0mg"},{"bike_id":"df1bd676-60ff-4958-8c90-1872467d8f27","system_id":"levelo_inurba_marseille","lat":43.2901,"lon":5.381269,"is_reserved":false,"is_disabled":false,"rental_uris":{"android":"levelo://app?vid=df1bd676-60ff-4958-8c90-1872467d8f27","ios":"levelo://app?vid=df1bd676-60ff-4958-8c90-1872467d8f27"},"vehicle_type_id":"4","last_reported":1724605786,"current_range_meters":0,"station_id":"ce4bh4p2rcd13ifvqe1g","pricing_plan_id":"cebpf4jnsgd1na2vs0mg"},{"bike_id":"de0b70f2-a648-4fb6-8f16-58c7d324133b","system_id":"levelo_inurba_marseille","lat":43.28856,"lon":5.358371,"is_reserved":false,"is_disabled":false,"rental_uris":{"android":"levelo://app?vid=de0b70f2-a648-4fb6-8f16-58c7d324133b","ios":"levelo://app?vid=de0b70f2-a648-4fb6-8f16-58c7d324133b"},"vehicle_type_id":"4","last_reported":1724605786,"current_range_meters":0,"station_id":"ce4bhb12rcd13ifvqem0","pricing_plan_id":"cebpf4jnsgd1na2vs0mg"},{"bike_id":"c6d22410-0f48-4d76-a262-1be6ffe7681a","system_id":"levelo_inurba_marseille","lat":43.28856,"lon":5.358371,"is_reserved":false,"is_disabled":false,"rental_uris":{"android":"levelo://app?vid=c6d22410-0f48-4d76-a262-1be6ffe7681a","ios":"levelo://app?vid=c6d22410-0f48-4d76-a262-1be6ffe7681a"},"vehicle_type_id":"4","last_reported":1724605786,"current_range_meters":24400,"station_id":"ce4bhb12rcd13ifvqem0","pricing_plan_id":"cebpf4jnsgd1na2vs0mg"},{"bike_id":"c594b3e3-1ba6-43b9-a1c1-be8533666e55","system_id":"levelo_inurba_marseille","lat":43.33751,"lon":5.37441,"is_reserved":false,"is_disabled":false,"rental_uris":{"android":"levelo://app?vid=c594b3e3-1ba6-43b9-a1c1-be8533666e55","ios":"levelo://app?vid=c594b3e3-1ba6-43b9-a1c1-be8533666e55"},"vehicle_type_id":"4","last_reported":1724605786,"current_range_meters":22800,"station_id":"","pricing_plan_id":"cebpf4jnsgd1na2vs0mg"},{"bike_id":"957eccb4-4bdf-4d76-b268-2b4f0632f4df","system_id":"levelo_inurba_marseille","lat":43.30945,"lon":5.40155,"is_reserved":false,"is_disabled":false,"rental_uris":{"android":"levelo://app?vid=957eccb4-4bdf-4d76-b268-2b4f0632f4df","ios":"levelo://app?vid=957eccb4-4bdf-4d76-b268-2b4f0632f4df"},"vehicle_type_id":"4","last_reported":1724605786,"current_range_meters":2800,"station_id":"ce4bgvp2rcd13ifvqct0","pricing_plan_id":"cebpf4jnsgd1na2vs0mg"},{"bike_id":"dfa062e6-965a-46e3-86c5-1dc86503ede5","system_id":"levelo_inurba_marseille","lat":43.287805,"lon":5.373689,"is_reserved":false,"is_disabled":false,"rental_uris":{"android":"levelo://app?vid=dfa062e6-965a-46e3-86c5-1dc86503ede5","ios":"levelo://app?vid=dfa062e6-965a-46e3-86c5-1dc86503ede5"},"vehicle_type_id":"4","last_reported":1724605786,"current_range_meters":29600,"station_id":"","pricing_plan_id":"cebpf4jnsgd1na2vs0mg"},{"bike_id":"db399c75-49ad-4419-a288-38737e32025d","system_id":"levelo_inurba_marseille","lat":43.337552,"lon":5.374572,"is_reserved":false,"is_disabled":false,"rental_uris":{"android":"levelo://app?vid=db399c75-49ad-4419-a288-38737e32025d","ios":"levelo://app?vid=db399c75-49ad-4419-a288-38737e32025d"},"vehicle_type_id":"4","last_reported":1724605786,"current_range_meters":24400,"station_id":"","pricing_plan_id":"cebpf4jnsgd1na2vs0mg"},{"bike_id":"a6de0161-1a37-4484-af54-217f3b7611b4","system_id":"levelo_inurba_marseille","lat":43.3375,"lon":5.37493,"is_reserved":false,"is_disabled":false,"rental_uris":{"android":"levelo://app?vid=a6de0161-1a37-4484-af54-217f3b7611b4","ios":"levelo://app?vid=a6de0161-1a37-4484-af54-217f3b7611b4"},"vehicle_type_id":"4","last_reported":1724605786,"current_range_meters":28800,"station_id":"","pricing_plan_id":"cebpf4jnsgd1na2vs0mg"},{"bike_id":"cdc35d34-57e9-43e1-ac36-c0218dd5a9e1","system_id":"levelo_inurba_marseille","lat":43.337512,"lon":5.374915,"is_reserved":false,"is_disabled":false,"rental_uris":{"android":"levelo://app?vid=cdc35d34-57e9-43e1-ac36-c0218dd5a9e1","ios":"levelo://app?vid=cdc35d34-57e9-43e1-ac36-c0218dd5a9e1"},"vehicle_type_id":"4","last_reported":1724605786,"current_range_meters":17600,"station_id":"","pricing_plan_id":"cebpf4jnsgd1na2vs0mg"},{"bike_id":"1b635017-1f6d-4ccf-887c-5535d999fc49","system_id":"levelo_inurba_marseille","lat":43.33768,"lon":5.37436,"is_reserved":false,"is_disabled":false,"rental_uris":{"android":"levelo://app?vid=1b635017-1f6d-4ccf-887c-5535d999fc49","ios":"levelo://app?vid=1b635017-1f6d-4ccf-887c-5535d999fc49"},"vehicle_type_id":"4","last_reported":1724605786,"current_range_meters":10000,"station_id":"","pricing_plan_id":"cebpf4jnsgd1na2vs0mg"},{"bike_id":"3f413c88-de09-4ae2-ad3f-7c015aabc29a","system_id":"levelo_inurba_marseille","lat":43.28727,"lon":5.36078,"is_reserved":false,"is_disabled":false,"rental_uris":{"android":"levelo://app?vid=3f413c88-de09-4ae2-ad3f-7c015aabc29a","ios":"levelo://app?vid=3f413c88-de09-4ae2-ad3f-7c015aabc29a"},"vehicle_type_id":"4","last_reported":1724605786,"current_range_meters":23200,"station_id":"cki0cbj6b192h4jlfktg","pricing_plan_id":"cebpf4jnsgd1na2vs0mg"},{"bike_id":"03348415-bcac-4396-9fc2-d5a6f9e9b72d","system_id":"levelo_inurba_marseille","lat":43.301117,"lon":5.398795,"is_reserved":false,"is_disabled":false,"rental_uris":{"android":"levelo://app?vid=03348415-bcac-4396-9fc2-d5a6f9e9b72d","ios":"levelo://app?vid=03348415-bcac-4396-9fc2-d5a6f9e9b72d"},"vehicle_type_id":"4","last_reported":1724605786,"current_range_meters":6800,"station_id":"ce4bh0h2rcd13ifvqd40","pricing_plan_id":"cebpf4jnsgd1na2vs0mg"},{"bike_id":"ac620f7a-7793-4f63-9b36-9254485e4af1","system_id":"levelo_inurba_marseille","lat":43.298681,"lon":5.397225,"is_reserved":false,"is_disabled":false,"rental_uris":{"android":"levelo://app?vid=ac620f7a-7793-4f63-9b36-9254485e4af1","ios":"levelo://app?vid=ac620f7a-7793-4f63-9b36-9254485e4af1"},"vehicle_type_id":"4","last_reported":1724605786,"current_range_meters":400,"station_id":"ce4bh0h2rcd13ifvqd50","pricing_plan_id":"cebpf4jnsgd1na2vs0mg"},{"bike_id":"f0761860-38eb-4d3b-b391-648c739ed150","system_id":"levelo_inurba_marseille","lat":43.298681,"lon":5.397225,"is_reserved":false,"is_disabled":false,"rental_uris":{"android":"levelo://app?vid=f0761860-38eb-4d3b-b391-648c739ed150","ios":"levelo://app?vid=f0761860-38eb-4d3b-b391-648c739ed150"},"vehicle_type_id":"4","last_reported":1724605786,"current_range_meters":12000,"station_id":"ce4bh0h2rcd13ifvqd50","pricing_plan_id":"cebpf4jnsgd1na2vs0mg"},{"bike_id":"28bb859a-8365-43d7-a157-5ca7e7c109ea","system_id":"levelo_inurba_marseille","lat":43.286593,"lon":5.363346,"is_reserved":false,"is_disabled":false,"rental_uris":{"android":"levelo://app?vid=28bb859a-8365-43d7-a157-5ca7e7c109ea","ios":"levelo://app?vid=28bb859a-8365-43d7-a157-5ca7e7c109ea"},"vehicle_type_id":"4","last_reported":1724605786,"current_range_meters":0,"station_id":"ce4bhah2rcd13ifvqej0","pricing_plan_id":"cebpf4jnsgd1na2vs0mg"},{"bike_id":"ddee536f-725b-4855-bb69-d79c6b115357","system_id":"levelo_inurba_marseille","lat":43.28661,"lon":5.36346,"is_reserved":false,"is_disabled":false,"rental_uris":{"android":"levelo://app?vid=ddee536f-725b-4855-bb69-d79c6b115357","ios":"levelo://app?vid=ddee536f-725b-4855-bb69-d79c6b115357"},"vehicle_type_id":"4","last_reported":1724605786,"current_range_meters":0,"station_id":"ce4bhah2rcd13ifvqej0","pricing_plan_id":"cebpf4jnsgd1na2vs0mg"},{"bike_id":"1976e650-95cf-4075-ba9c-f26e6bda3729","system_id":"levelo_inurba_marseille","lat":43.286961,"lon":5.373785,"is_reserved":false,"is_disabled":false,"rental_uris":{"android":"levelo://app?vid=1976e650-95cf-4075-ba9c-f26e6bda3729","ios":"levelo://app?vid=1976e650-95cf-4075-ba9c-f26e6bda3729"},"vehicle_type_id":"4","last_reported":1724605786,"current_range_meters":0,"station_id":"ce4bh3p2rcd13ifvqdq0","pricing_plan_id":"cebpf4jnsgd1na2vs0mg"},{"bike_id":"2af06dd1-7e9b-4918-816a-7b4cca77cbe5","system_id":"levelo_inurba_marseille","lat":43.28773,"lon":5.37799,"is_reserved":false,"is_disabled":false,"rental_uris":{"android":"levelo://app?vid=2af06dd1-7e9b-4918-816a-7b4cca77cbe5","ios":"levelo://app?vid=2af06dd1-7e9b-4918-816a-7b4cca77cbe5"},"vehicle_type_id":"4","last_reported":1724605786,"current_range_meters":15200,"station_id":"","pricing_plan_id":"cebpf4jnsgd1na2vs0mg"},{"bike_id":"fe7ed0bb-2a7f-4389-86bc-1c0b083c88e7","system_id":"levelo_inurba_marseille","lat":43.302759,"lon":5.400793,"is_reserved":false,"is_disabled":false,"rental_uris":{"android":"levelo://app?vid=fe7ed0bb-2a7f-4389-86bc-1c0b083c88e7","ios":"levelo://app?vid=fe7ed0bb-2a7f-4389-86bc-1c0b083c88e7"},"vehicle_type_id":"4","last_reported":1724605786,"current_range_meters":8400,"station_id":"ce4bgvh2rcd13ifvqcs0","pricing_plan_id":"cebpf4jnsgd1na2vs0mg"},{"bike_id":"b0cb9dfc-ceb5-441d-a2b9-34a81c1280b6","system_id":"levelo_inurba_marseille","lat":43.289307,"lon":5.38406,"is_reserved":false,"is_disabled":false,"rental_uris":{"android":"levelo://app?vid=b0cb9dfc-ceb5-441d-a2b9-34a81c1280b6","ios":"levelo://app?vid=b0cb9dfc-ceb5-441d-a2b9-34a81c1280b6"},"vehicle_type_id":"4","last_reported":1724605786,"current_range_meters":20400,"station_id":"ce4bh612rcd13ifvqe6g","pricing_plan_id":"cebpf4jnsgd1na2vs0mg"},{"bike_id":"1aaaf6aa-4325-4cad-99cf-3c222bdb1a26","system_id":"levelo_inurba_marseille","lat":43.289307,"lon":5.38406,"is_reserved":false,"is_disabled":false,"rental_uris":{"android":"levelo://app?vid=1aaaf6aa-4325-4cad-99cf-3c222bdb1a26","ios":"levelo://app?vid=1aaaf6aa-4325-4cad-99cf-3c222bdb1a26"},"vehicle_type_id":"4","last_reported":1724605786,"current_range_meters":18400,"station_id":"ce4bh612rcd13ifvqe6g","pricing_plan_id":"cebpf4jnsgd1na2vs0mg"},{"bike_id":"6d157c60-f644-446c-b08d-f803c6bee39e","system_id":"levelo_inurba_marseille","lat":43.29028,"lon":5.38646,"is_reserved":false,"is_disabled":false,"rental_uris":{"android":"levelo://app?vid=6d157c60-f644-446c-b08d-f803c6bee39e","ios":"levelo://app?vid=6d157c60-f644-446c-b08d-f803c6bee39e"},"vehicle_type_id":"4","last_reported":1724605786,"current_range_meters":10400,"station_id":"","pricing_plan_id":"cebpf4jnsgd1na2vs0mg"},{"bike_id":"3f1a0a1d-5273-4c60-9379-00200244c651","system_id":"levelo_inurba_marseille","lat":43.290336,"lon":5.386425,"is_reserved":false,"is_disabled":false,"rental_uris":{"android":"levelo://app?vid=3f1a0a1d-5273-4c60-9379-00200244c651","ios":"levelo://app?vid=3f1a0a1d-5273-4c60-9379-00200244c651"},"vehicle_type_id":"4","last_reported":1724605786,"current_range_meters":28800,"station_id":"ce4bh4p2rcd13ifvqe0g","pricing_plan_id":"cebpf4jnsgd1na2vs0mg"},{"bike_id":"82886b39-b930-4341-9ea0-c1aa57499e3b","system_id":"levelo_inurba_marseille","lat":43.290336,"lon":5.386425,"is_reserved":false,"is_disabled":false,"rental_uris":{"android":"levelo://app?vid=82886b39-b930-4341-9ea0-c1aa57499e3b","ios":"levelo://app?vid=82886b39-b930-4341-9ea0-c1aa57499e3b"},"vehicle_type_id":"4","last_reported":1724605786,"current_range_meters":0,"station_id":"ce4bh4p2rcd13ifvqe0g","pricing_plan_id":"cebpf4jnsgd1na2vs0mg"},{"bike_id":"d89f6b0e-d565-499f-9a26-885dc837f480","system_id":"levelo_inurba_marseille","lat":43.290336,"lon":5.386425,"is_reserved":false,"is_disabled":false,"rental_uris":{"android":"levelo://app?vid=d89f6b0e-d565-499f-9a26-885dc837f480","ios":"levelo://app?vid=d89f6b0e-d565-499f-9a26-885dc837f480"},"vehicle_type_id":"4","last_reported":1724605786,"current_range_meters":1200,"station_id":"ce4bh4p2rcd13ifvqe0g","pricing_plan_id":"cebpf4jnsgd1na2vs0mg"},{"bike_id":"ea697f73-738c-434e-b556-77ffe1f8b8b9","system_id":"levelo_inurba_marseille","lat":43.289307,"lon":5.38406,"is_reserved":false,"is_disabled":false,"rental_uris":{"android":"levelo://app?vid=ea697f73-738c-434e-b556-77ffe1f8b8b9","ios":"levelo://app?vid=ea697f73-738c-434e-b556-77ffe1f8b8b9"},"vehicle_type_id":"4","last_reported":1724605786,"current_range_meters":28000,"station_id":"ce4bh612rcd13ifvqe6g","pricing_plan_id":"cebpf4jnsgd1na2vs0mg"},{"bike_id":"a702a863-a683-4216-a96e-333a027395a5","system_id":"levelo_inurba_marseille","lat":43.302759,"lon":5.400793,"is_reserved":false,"is_disabled":false,"rental_uris":{"android":"levelo://app?vid=a702a863-a683-4216-a96e-333a027395a5","ios":"levelo://app?vid=a702a863-a683-4216-a96e-333a027395a5"},"vehicle_type_id":"4","last_reported":1724605786,"current_range_meters":19600,"station_id":"ce4bgvh2rcd13ifvqcs0","pricing_plan_id":"cebpf4jnsgd1na2vs0mg"},{"bike_id":"61faf906-c065-4d69-a829-c9358b09292f","system_id":"levelo_inurba_marseille","lat":43.290336,"lon":5.386425,"is_reserved":false,"is_disabled":false,"rental_uris":{"android":"levelo://app?vid=61faf906-c065-4d69-a829-c9358b09292f","ios":"levelo://app?vid=61faf906-c065-4d69-a829-c9358b09292f"},"vehicle_type_id":"4","last_reported":1724605786,"current_range_meters":4800,"station_id":"ce4bh4p2rcd13ifvqe0g","pricing_plan_id":"cebpf4jnsgd1na2vs0mg"},{"bike_id":"02b4dc01-bc43-4197-9165-7c1dcf7a99a1","system_id":"levelo_inurba_marseille","lat":43.286039,"lon":5.370679,"is_reserved":false,"is_disabled":false,"rental_uris":{"android":"levelo://app?vid=02b4dc01-bc43-4197-9165-7c1dcf7a99a1","ios":"levelo://app?vid=02b4dc01-bc43-4197-9165-7c1dcf7a99a1"},"vehicle_type_id":"4","last_reported":1724605786,"current_range_meters":0,"station_id":"ce4bht12rcd13ifvqi60","pricing_plan_id":"cebpf4jnsgd1na2vs0mg"},{"bike_id":"6d88fe53-6afa-46e5-9170-0b944f51ceb2","system_id":"levelo_inurba_marseille","lat":43.286039,"lon":5.370681,"is_reserved":false,"is_disabled":false,"rental_uris":{"android":"levelo://app?vid=6d88fe53-6afa-46e5-9170-0b944f51ceb2","ios":"levelo://app?vid=6d88fe53-6afa-46e5-9170-0b944f51ceb2"},"vehicle_type_id":"4","last_reported":1724605786,"current_range_meters":0,"station_id":"ce4bht12rcd13ifvqi60","pricing_plan_id":"cebpf4jnsgd1na2vs0mg"},{"bike_id":"aa0572f0-26e6-4e68-9f8b-4d04db40d120","system_id":"levelo_inurba_marseille","lat":43.290336,"lon":5.386425,"is_reserved":false,"is_disabled":false,"rental_uris":{"android":"levelo://app?vid=aa0572f0-26e6-4e68-9f8b-4d04db40d120","ios":"levelo://app?vid=aa0572f0-26e6-4e68-9f8b-4d04db40d120"},"vehicle_type_id":"4","last_reported":1724605786,"current_range_meters":10400,"station_id":"ce4bh4p2rcd13ifvqe0g","pricing_plan_id":"cebpf4jnsgd1na2vs0mg"},{"bike_id":"e8a99d03-f68c-4320-929a-fccdf4871165","system_id":"levelo_inurba_marseille","lat":43.287667,"lon":5.381757,"is_reserved":false,"is_disabled":false,"rental_uris":{"android":"levelo://app?vid=e8a99d03-f68c-4320-929a-fccdf4871165","ios":"levelo://app?vid=e8a99d03-f68c-4320-929a-fccdf4871165"},"vehicle_type_id":"4","last_reported":1724605786,"current_range_meters":23600,"station_id":"","pricing_plan_id":"cebpf4jnsgd1na2vs0mg"},{"bike_id":"e242bd31-23b8-4aa4-a974-b9b701b0ba43","system_id":"levelo_inurba_marseille","lat":43.289307,"lon":5.38406,"is_reserved":false,"is_disabled":false,"rental_uris":{"android":"levelo://app?vid=e242bd31-23b8-4aa4-a974-b9b701b0ba43","ios":"levelo://app?vid=e242bd31-23b8-4aa4-a974-b9b701b0ba43"},"vehicle_type_id":"4","last_reported":1724605786,"current_range_meters":1600,"station_id":"ce4bh612rcd13ifvqe6g","pricing_plan_id":"cebpf4jnsgd1na2vs0mg"},{"bike_id":"5af60b9c-919b-4203-a0b6-2ffd11b8a0f5","system_id":"levelo_inurba_marseille","lat":43.316828,"lon":5.404723,"is_reserved":false,"is_disabled":false,"rental_uris":{"android":"levelo://app?vid=5af60b9c-919b-4203-a0b6-2ffd11b8a0f5","ios":"levelo://app?vid=5af60b9c-919b-4203-a0b6-2ffd11b8a0f5"},"vehicle_type_id":"4","last_reported":1724605786,"current_range_meters":6800,"station_id":"ce4bh012rcd13ifvqd00","pricing_plan_id":"cebpf4jnsgd1na2vs0mg"},{"bike_id":"bd961085-a2cf-4d80-acc8-968683df8a0f","system_id":"levelo_inurba_marseille","lat":43.316821,"lon":5.404737,"is_reserved":false,"is_disabled":false,"rental_uris":{"android":"levelo://app?vid=bd961085-a2cf-4d80-acc8-968683df8a0f","ios":"levelo://app?vid=bd961085-a2cf-4d80-acc8-968683df8a0f"},"vehicle_type_id":"4","last_reported":1724605786,"current_range_meters":31200,"station_id":"ce4bh012rcd13ifvqd00","pricing_plan_id":"cebpf4jnsgd1na2vs0mg"},{"bike_id":"bc1573d9-d32f-4829-b052-6c62a48761c2","system_id":"levelo_inurba_marseille","lat":43.316828,"lon":5.404723,"is_reserved":false,"is_disabled":false,"rental_uris":{"android":"levelo://app?vid=bc1573d9-d32f-4829-b052-6c62a48761c2","ios":"levelo://app?vid=bc1573d9-d32f-4829-b052-6c62a48761c2"},"vehicle_type_id":"4","last_reported":1724605786,"current_range_meters":20000,"station_id":"ce4bh012rcd13ifvqd00","pricing_plan_id":"cebpf4jnsgd1na2vs0mg"},{"bike_id":"16c103f3-b973-47e0-a251-bf12f3893c64","system_id":"levelo_inurba_marseille","lat":43.316828,"lon":5.404723,"is_reserved":false,"is_disabled":false,"rental_uris":{"android":"levelo://app?vid=16c103f3-b973-47e0-a251-bf12f3893c64","ios":"levelo://app?vid=16c103f3-b973-47e0-a251-bf12f3893c64"},"vehicle_type_id":"4","last_reported":1724605786,"current_range_meters":5600,"station_id":"ce4bh012rcd13ifvqd00","pricing_plan_id":"cebpf4jnsgd1na2vs0mg"},{"bike_id":"fcf2ce3f-fba3-47f1-9c03-5f7fadaec220","system_id":"levelo_inurba_marseille","lat":43.28461,"lon":5.3588,"is_reserved":false,"is_disabled":false,"rental_uris":{"android":"levelo://app?vid=fcf2ce3f-fba3-47f1-9c03-5f7fadaec220","ios":"levelo://app?vid=fcf2ce3f-fba3-47f1-9c03-5f7fadaec220"},"vehicle_type_id":"4","last_reported":1724605786,"current_range_meters":4000,"station_id":"ce4bhah2rcd13ifvqei0","pricing_plan_id":"cebpf4jnsgd1na2vs0mg"},{"bike_id":"7e633976-790d-47a7-81b6-9d30b673c6f9","system_id":"levelo_inurba_marseille","lat":43.303256,"lon":5.404389,"is_reserved":false,"is_disabled":false,"rental_uris":{"android":"levelo://app?vid=7e633976-790d-47a7-81b6-9d30b673c6f9","ios":"levelo://app?vid=7e633976-790d-47a7-81b6-9d30b673c6f9"},"vehicle_type_id":"4","last_reported":1724605786,"current_range_meters":7600,"station_id":"ce4bh012rcd13ifvqd10","pricing_plan_id":"cebpf4jnsgd1na2vs0mg"},{"bike_id":"84ed84ac-8188-4b1f-a2bc-ce139244d2b2","system_id":"levelo_inurba_marseille","lat":43.294314,"lon":5.397498,"is_reserved":false,"is_disabled":false,"rental_uris":{"android":"levelo://app?vid=84ed84ac-8188-4b1f-a2bc-ce139244d2b2","ios":"levelo://app?vid=84ed84ac-8188-4b1f-a2bc-ce139244d2b2"},"vehicle_type_id":"4","last_reported":1724605786,"current_range_meters":18800,"station_id":"ce4bh3h2rcd13ifvqdo0","pricing_plan_id":"cebpf4jnsgd1na2vs0mg"},{"bike_id":"5211b993-d6b0-4bae-bf11-6a64647ead5c","system_id":"levelo_inurba_marseille","lat":43.303256,"lon":5.404389,"is_reserved":false,"is_disabled":false,"rental_uris":{"android":"levelo://app?vid=5211b993-d6b0-4bae-bf11-6a64647ead5c","ios":"levelo://app?vid=5211b993-d6b0-4bae-bf11-6a64647ead5c"},"vehicle_type_id":"4","last_reported":1724605786,"current_range_meters":26000,"station_id":"ce4bh012rcd13ifvqd10","pricing_plan_id":"cebpf4jnsgd1na2vs0mg"},{"bike_id":"fc5f5f17-20d1-45e5-b7b5-3a81ae7753c6","system_id":"levelo_inurba_marseille","lat":43.303256,"lon":5.404389,"is_reserved":false,"is_disabled":false,"rental_uris":{"android":"levelo://app?vid=fc5f5f17-20d1-45e5-b7b5-3a81ae7753c6","ios":"levelo://app?vid=fc5f5f17-20d1-45e5-b7b5-3a81ae7753c6"},"vehicle_type_id":"4","last_reported":1724605786,"current_range_meters":24800,"station_id":"ce4bh012rcd13ifvqd10","pricing_plan_id":"cebpf4jnsgd1na2vs0mg"},{"bike_id":"b2458112-3115-426d-8e8d-a4f0855d793c","system_id":"levelo_inurba_marseille","lat":43.28616,"lon":5.35105,"is_reserved":false,"is_disabled":false,"rental_uris":{"android":"levelo://app?vid=b2458112-3115-426d-8e8d-a4f0855d793c","ios":"levelo://app?vid=b2458112-3115-426d-8e8d-a4f0855d793c"},"vehicle_type_id":"4","last_reported":1724605786,"current_range_meters":14400,"station_id":"ce4bhch2rcd13ifvqeug","pricing_plan_id":"cebpf4jnsgd1na2vs0mg"},{"bike_id":"b4a40555-a177-43f9-9a5a-ef2b874e4e2c","system_id":"levelo_inurba_marseille","lat":43.28616,"lon":5.351,"is_reserved":false,"is_disabled":false,"rental_uris":{"android":"levelo://app?vid=b4a40555-a177-43f9-9a5a-ef2b874e4e2c","ios":"levelo://app?vid=b4a40555-a177-43f9-9a5a-ef2b874e4e2c"},"vehicle_type_id":"4","last_reported":1724605786,"current_range_meters":0,"station_id":"ce4bhch2rcd13ifvqeug","pricing_plan_id":"cebpf4jnsgd1na2vs0mg"},{"bike_id":"d0cbc7c8-22cd-4d60-a390-9faedf8d53ab","system_id":"levelo_inurba_marseille","lat":43.28617,"lon":5.35095,"is_reserved":false,"is_disabled":false,"rental_uris":{"android":"levelo://app?vid=d0cbc7c8-22cd-4d60-a390-9faedf8d53ab","ios":"levelo://app?vid=d0cbc7c8-22cd-4d60-a390-9faedf8d53ab"},"vehicle_type_id":"4","last_reported":1724605786,"current_range_meters":0,"station_id":"ce4bhch2rcd13ifvqeug","pricing_plan_id":"cebpf4jnsgd1na2vs0mg"},{"bike_id":"90911c80-70e1-4cc6-bb5d-0d45a22156fb","system_id":"levelo_inurba_marseille","lat":43.28614,"lon":5.351,"is_reserved":false,"is_disabled":false,"rental_uris":{"android":"levelo://app?vid=90911c80-70e1-4cc6-bb5d-0d45a22156fb","ios":"levelo://app?vid=90911c80-70e1-4cc6-bb5d-0d45a22156fb"},"vehicle_type_id":"4","last_reported":1724605786,"current_range_meters":7200,"station_id":"ce4bhch2rcd13ifvqeug","pricing_plan_id":"cebpf4jnsgd1na2vs0mg"},{"bike_id":"99d202f4-f395-441d-ac48-00990664ea7a","system_id":"levelo_inurba_marseille","lat":43.28612,"lon":5.35105,"is_reserved":false,"is_disabled":false,"rental_uris":{"android":"levelo://app?vid=99d202f4-f395-441d-ac48-00990664ea7a","ios":"levelo://app?vid=99d202f4-f395-441d-ac48-00990664ea7a"},"vehicle_type_id":"4","last_reported":1724605786,"current_range_meters":31200,"station_id":"ce4bhch2rcd13ifvqeug","pricing_plan_id":"cebpf4jnsgd1na2vs0mg"},{"bike_id":"a8100671-20f3-4a54-a48e-393a9f6a2d29","system_id":"levelo_inurba_marseille","lat":43.286117,"lon":5.350993,"is_reserved":false,"is_disabled":false,"rental_uris":{"android":"levelo://app?vid=a8100671-20f3-4a54-a48e-393a9f6a2d29","ios":"levelo://app?vid=a8100671-20f3-4a54-a48e-393a9f6a2d29"},"vehicle_type_id":"4","last_reported":1724605786,"current_range_meters":31600,"station_id":"ce4bhch2rcd13ifvqeug","pricing_plan_id":"cebpf4jnsgd1na2vs0mg"},{"bike_id":"7fb22d72-5a30-4936-841f-ccef33a1ca80","system_id":"levelo_inurba_marseille","lat":43.28609,"lon":5.35097,"is_reserved":false,"is_disabled":false,"rental_uris":{"android":"levelo://app?vid=7fb22d72-5a30-4936-841f-ccef33a1ca80","ios":"levelo://app?vid=7fb22d72-5a30-4936-841f-ccef33a1ca80"},"vehicle_type_id":"4","last_reported":1724605786,"current_range_meters":5600,"station_id":"ce4bhch2rcd13ifvqeug","pricing_plan_id":"cebpf4jnsgd1na2vs0mg"},{"bike_id":"e0a40cf7-ed67-449f-a52e-e759ff6c7077","system_id":"levelo_inurba_marseille","lat":43.28411,"lon":5.3752,"is_reserved":false,"is_disabled":false,"rental_uris":{"android":"levelo://app?vid=e0a40cf7-ed67-449f-a52e-e759ff6c7077","ios":"levelo://app?vid=e0a40cf7-ed67-449f-a52e-e759ff6c7077"},"vehicle_type_id":"4","last_reported":1724605786,"current_range_meters":0,"station_id":"ce4bh412rcd13ifvqds0","pricing_plan_id":"cebpf4jnsgd1na2vs0mg"},{"bike_id":"31afd34a-83fb-421d-99d5-98f09c206010","system_id":"levelo_inurba_marseille","lat":43.284087,"lon":5.37508,"is_reserved":false,"is_disabled":false,"rental_uris":{"android":"levelo://app?vid=31afd34a-83fb-421d-99d5-98f09c206010","ios":"levelo://app?vid=31afd34a-83fb-421d-99d5-98f09c206010"},"vehicle_type_id":"4","last_reported":1724605786,"current_range_meters":0,"station_id":"ce4bh412rcd13ifvqds0","pricing_plan_id":"cebpf4jnsgd1na2vs0mg"},{"bike_id":"a0fbf594-9102-4a01-ac5c-a649f2dd65b9","system_id":"levelo_inurba_marseille","lat":43.295713,"lon":5.399639,"is_reserved":false,"is_disabled":false,"rental_uris":{"android":"levelo://app?vid=a0fbf594-9102-4a01-ac5c-a649f2dd65b9","ios":"levelo://app?vid=a0fbf594-9102-4a01-ac5c-a649f2dd65b9"},"vehicle_type_id":"4","last_reported":1724605786,"current_range_meters":5200,"station_id":"ce4bh312rcd13ifvqdj0","pricing_plan_id":"cebpf4jnsgd1na2vs0mg"},{"bike_id":"c87221be-143e-48ea-9c41-4ca1fc85c2a0","system_id":"levelo_inurba_marseille","lat":43.28408,"lon":5.37521,"is_reserved":false,"is_disabled":false,"rental_uris":{"android":"levelo://app?vid=c87221be-143e-48ea-9c41-4ca1fc85c2a0","ios":"levelo://app?vid=c87221be-143e-48ea-9c41-4ca1fc85c2a0"},"vehicle_type_id":"4","last_reported":1724605786,"current_range_meters":0,"station_id":"ce4bh412rcd13ifvqds0","pricing_plan_id":"cebpf4jnsgd1na2vs0mg"},{"bike_id":"85bc420a-4c3a-42df-87ca-af165c7247bf","system_id":"levelo_inurba_marseille","lat":43.28679,"lon":5.38663,"is_reserved":false,"is_disabled":false,"rental_uris":{"android":"levelo://app?vid=85bc420a-4c3a-42df-87ca-af165c7247bf","ios":"levelo://app?vid=85bc420a-4c3a-42df-87ca-af165c7247bf"},"vehicle_type_id":"4","last_reported":1724605786,"current_range_meters":0,"station_id":"ce4bh492rcd13ifvqdug","pricing_plan_id":"cebpf4jnsgd1na2vs0mg"},{"bike_id":"cf839d12-ce24-4f91-9e61-ddc29bf38761","system_id":"levelo_inurba_marseille","lat":43.28672,"lon":5.38659,"is_reserved":false,"is_disabled":false,"rental_uris":{"android":"levelo://app?vid=cf839d12-ce24-4f91-9e61-ddc29bf38761","ios":"levelo://app?vid=cf839d12-ce24-4f91-9e61-ddc29bf38761"},"vehicle_type_id":"4","last_reported":1724605786,"current_range_meters":0,"station_id":"ce4bh492rcd13ifvqdug","pricing_plan_id":"cebpf4jnsgd1na2vs0mg"},{"bike_id":"c4decce0-8939-4d2f-899a-62f9437b7005","system_id":"levelo_inurba_marseille","lat":43.283494,"lon":5.380945,"is_reserved":false,"is_disabled":false,"rental_uris":{"android":"levelo://app?vid=c4decce0-8939-4d2f-899a-62f9437b7005","ios":"levelo://app?vid=c4decce0-8939-4d2f-899a-62f9437b7005"},"vehicle_type_id":"4","last_reported":1724605786,"current_range_meters":30400,"station_id":"ce4bh412rcd13ifvqdr0","pricing_plan_id":"cebpf4jnsgd1na2vs0mg"},{"bike_id":"2c21bd71-c8bf-42a1-b716-84c70414e4e2","system_id":"levelo_inurba_marseille","lat":43.319179,"lon":5.407725,"is_reserved":false,"is_disabled":false,"rental_uris":{"android":"levelo://app?vid=2c21bd71-c8bf-42a1-b716-84c70414e4e2","ios":"levelo://app?vid=2c21bd71-c8bf-42a1-b716-84c70414e4e2"},"vehicle_type_id":"4","last_reported":1724605786,"current_range_meters":29200,"station_id":"ce4bhq12rcd13ifvqhig","pricing_plan_id":"cebpf4jnsgd1na2vs0mg"},{"bike_id":"f44d98d6-08b8-4116-adb7-5136712180bb","system_id":"levelo_inurba_marseille","lat":43.319179,"lon":5.407725,"is_reserved":false,"is_disabled":false,"rental_uris":{"android":"levelo://app?vid=f44d98d6-08b8-4116-adb7-5136712180bb","ios":"levelo://app?vid=f44d98d6-08b8-4116-adb7-5136712180bb"},"vehicle_type_id":"4","last_reported":1724605786,"current_range_meters":0,"station_id":"ce4bhq12rcd13ifvqhig","pricing_plan_id":"cebpf4jnsgd1na2vs0mg"},{"bike_id":"7ec96f85-cc18-4f9d-aa92-54c18475cf7e","system_id":"levelo_inurba_marseille","lat":43.33717,"lon":5.391857,"is_reserved":false,"is_disabled":false,"rental_uris":{"android":"levelo://app?vid=7ec96f85-cc18-4f9d-aa92-54c18475cf7e","ios":"levelo://app?vid=7ec96f85-cc18-4f9d-aa92-54c18475cf7e"},"vehicle_type_id":"4","last_reported":1724605786,"current_range_meters":10000,"station_id":"ce4bhr92rcd13ifvqhsg","pricing_plan_id":"cebpf4jnsgd1na2vs0mg"},{"bike_id":"3970429f-1265-4558-a239-0249096e0731","system_id":"levelo_inurba_marseille","lat":43.323464,"lon":5.406297,"is_reserved":false,"is_disabled":false,"rental_uris":{"android":"levelo://app?vid=3970429f-1265-4558-a239-0249096e0731","ios":"levelo://app?vid=3970429f-1265-4558-a239-0249096e0731"},"vehicle_type_id":"4","last_reported":1724605786,"current_range_meters":15200,"station_id":"ce4bhq92rcd13ifvqhjg","pricing_plan_id":"cebpf4jnsgd1na2vs0mg"},{"bike_id":"c0f3abac-04ec-4839-bc94-1b7c76bf4933","system_id":"levelo_inurba_marseille","lat":43.33724,"lon":5.39189,"is_reserved":false,"is_disabled":false,"rental_uris":{"android":"levelo://app?vid=c0f3abac-04ec-4839-bc94-1b7c76bf4933","ios":"levelo://app?vid=c0f3abac-04ec-4839-bc94-1b7c76bf4933"},"vehicle_type_id":"4","last_reported":1724605786,"current_range_meters":20400,"station_id":"ce4bhr92rcd13ifvqhsg","pricing_plan_id":"cebpf4jnsgd1na2vs0mg"},{"bike_id":"eb5c3286-bbd2-46f8-9eb4-16fcc385476f","system_id":"levelo_inurba_marseille","lat":43.337168,"lon":5.391825,"is_reserved":false,"is_disabled":false,"rental_uris":{"android":"levelo://app?vid=eb5c3286-bbd2-46f8-9eb4-16fcc385476f","ios":"levelo://app?vid=eb5c3286-bbd2-46f8-9eb4-16fcc385476f"},"vehicle_type_id":"4","last_reported":1724605786,"current_range_meters":30800,"station_id":"ce4bhr92rcd13ifvqhsg","pricing_plan_id":"cebpf4jnsgd1na2vs0mg"},{"bike_id":"2a7eaa3a-82b6-4b8b-b567-8a70853c2243","system_id":"levelo_inurba_marseille","lat":43.32337,"lon":5.40627,"is_reserved":false,"is_disabled":false,"rental_uris":{"android":"levelo://app?vid=2a7eaa3a-82b6-4b8b-b567-8a70853c2243","ios":"levelo://app?vid=2a7eaa3a-82b6-4b8b-b567-8a70853c2243"},"vehicle_type_id":"4","last_reported":1724605786,"current_range_meters":20400,"station_id":"ce4bhq92rcd13ifvqhjg","pricing_plan_id":"cebpf4jnsgd1na2vs0mg"},{"bike_id":"72a2ac18-7bda-4b5d-9d36-8069da54650d","system_id":"levelo_inurba_marseille","lat":43.284793,"lon":5.384113,"is_reserved":false,"is_disabled":false,"rental_uris":{"android":"levelo://app?vid=72a2ac18-7bda-4b5d-9d36-8069da54650d","ios":"levelo://app?vid=72a2ac18-7bda-4b5d-9d36-8069da54650d"},"vehicle_type_id":"4","last_reported":1724605786,"current_range_meters":8800,"station_id":"ce4bh512rcd13ifvqe3g","pricing_plan_id":"cebpf4jnsgd1na2vs0mg"},{"bike_id":"634259e2-0292-4202-8953-85ffa6a33c09","system_id":"levelo_inurba_marseille","lat":43.284793,"lon":5.384113,"is_reserved":false,"is_disabled":false,"rental_uris":{"android":"levelo://app?vid=634259e2-0292-4202-8953-85ffa6a33c09","ios":"levelo://app?vid=634259e2-0292-4202-8953-85ffa6a33c09"},"vehicle_type_id":"4","last_reported":1724605786,"current_range_meters":9200,"station_id":"ce4bh512rcd13ifvqe3g","pricing_plan_id":"cebpf4jnsgd1na2vs0mg"},{"bike_id":"9c794782-60da-43f7-b56c-8fd83308e1c0","system_id":"levelo_inurba_marseille","lat":43.284793,"lon":5.384113,"is_reserved":false,"is_disabled":false,"rental_uris":{"android":"levelo://app?vid=9c794782-60da-43f7-b56c-8fd83308e1c0","ios":"levelo://app?vid=9c794782-60da-43f7-b56c-8fd83308e1c0"},"vehicle_type_id":"4","last_reported":1724605786,"current_range_meters":0,"station_id":"ce4bh512rcd13ifvqe3g","pricing_plan_id":"cebpf4jnsgd1na2vs0mg"},{"bike_id":"6d4a81de-fdea-4559-b6b4-c0cbfd79b4aa","system_id":"levelo_inurba_marseille","lat":43.284793,"lon":5.384113,"is_reserved":false,"is_disabled":false,"rental_uris":{"android":"levelo://app?vid=6d4a81de-fdea-4559-b6b4-c0cbfd79b4aa","ios":"levelo://app?vid=6d4a81de-fdea-4559-b6b4-c0cbfd79b4aa"},"vehicle_type_id":"4","last_reported":1724605786,"current_range_meters":27200,"station_id":"ce4bh512rcd13ifvqe3g","pricing_plan_id":"cebpf4jnsgd1na2vs0mg"},{"bike_id":"fce88502-200d-46f0-9de8-182dc2832bf2","system_id":"levelo_inurba_marseille","lat":43.284793,"lon":5.384113,"is_reserved":false,"is_disabled":false,"rental_uris":{"android":"levelo://app?vid=fce88502-200d-46f0-9de8-182dc2832bf2","ios":"levelo://app?vid=fce88502-200d-46f0-9de8-182dc2832bf2"},"vehicle_type_id":"4","last_reported":1724605786,"current_range_meters":19600,"station_id":"ce4bh512rcd13ifvqe3g","pricing_plan_id":"cebpf4jnsgd1na2vs0mg"},{"bike_id":"aaa27aa5-77a5-4dae-9645-0d7a372a7379","system_id":"levelo_inurba_marseille","lat":43.284787,"lon":5.384116,"is_reserved":false,"is_disabled":false,"rental_uris":{"android":"levelo://app?vid=aaa27aa5-77a5-4dae-9645-0d7a372a7379","ios":"levelo://app?vid=aaa27aa5-77a5-4dae-9645-0d7a372a7379"},"vehicle_type_id":"4","last_reported":1724605786,"current_range_meters":22000,"station_id":"ce4bh512rcd13ifvqe3g","pricing_plan_id":"cebpf4jnsgd1na2vs0mg"},{"bike_id":"ce83c4c7-a5e5-4e84-90c3-a498044eaa8b","system_id":"levelo_inurba_marseille","lat":43.284793,"lon":5.384119,"is_reserved":false,"is_disabled":false,"rental_uris":{"android":"levelo://app?vid=ce83c4c7-a5e5-4e84-90c3-a498044eaa8b","ios":"levelo://app?vid=ce83c4c7-a5e5-4e84-90c3-a498044eaa8b"},"vehicle_type_id":"4","last_reported":1724605786,"current_range_meters":1600,"station_id":"ce4bh512rcd13ifvqe3g","pricing_plan_id":"cebpf4jnsgd1na2vs0mg"},{"bike_id":"0057c7ad-ba0c-4de9-821e-5cb310694b06","system_id":"levelo_inurba_marseille","lat":43.283633,"lon":5.380958,"is_reserved":false,"is_disabled":false,"rental_uris":{"android":"levelo://app?vid=0057c7ad-ba0c-4de9-821e-5cb310694b06","ios":"levelo://app?vid=0057c7ad-ba0c-4de9-821e-5cb310694b06"},"vehicle_type_id":"4","last_reported":1724605786,"current_range_meters":15200,"station_id":"","pricing_plan_id":"cebpf4jnsgd1na2vs0mg"},{"bike_id":"97bcfcae-3305-47c2-92c8-b9e27d046c52","system_id":"levelo_inurba_marseille","lat":43.283494,"lon":5.380945,"is_reserved":false,"is_disabled":false,"rental_uris":{"android":"levelo://app?vid=97bcfcae-3305-47c2-92c8-b9e27d046c52","ios":"levelo://app?vid=97bcfcae-3305-47c2-92c8-b9e27d046c52"},"vehicle_type_id":"4","last_reported":1724605786,"current_range_meters":10000,"station_id":"ce4bh412rcd13ifvqdr0","pricing_plan_id":"cebpf4jnsgd1na2vs0mg"},{"bike_id":"19bb41cf-927c-4efa-9062-8bb7b7803c45","system_id":"levelo_inurba_marseille","lat":43.28355,"lon":5.38098,"is_reserved":false,"is_disabled":false,"rental_uris":{"android":"levelo://app?vid=19bb41cf-927c-4efa-9062-8bb7b7803c45","ios":"levelo://app?vid=19bb41cf-927c-4efa-9062-8bb7b7803c45"},"vehicle_type_id":"4","last_reported":1724605786,"current_range_meters":11600,"station_id":"ce4bh412rcd13ifvqdr0","pricing_plan_id":"cebpf4jnsgd1na2vs0mg"},{"bike_id":"b803f8ab-8a2a-4b35-955d-9a0dd1eb3492","system_id":"levelo_inurba_marseille","lat":43.283494,"lon":5.380945,"is_reserved":false,"is_disabled":false,"rental_uris":{"android":"levelo://app?vid=b803f8ab-8a2a-4b35-955d-9a0dd1eb3492","ios":"levelo://app?vid=b803f8ab-8a2a-4b35-955d-9a0dd1eb3492"},"vehicle_type_id":"4","last_reported":1724605786,"current_range_meters":4800,"station_id":"ce4bh412rcd13ifvqdr0","pricing_plan_id":"cebpf4jnsgd1na2vs0mg"},{"bike_id":"0e063f8f-9cc7-4a85-909d-e86e0c57f8a2","system_id":"levelo_inurba_marseille","lat":43.283498,"lon":5.380948,"is_reserved":false,"is_disabled":false,"rental_uris":{"android":"levelo://app?vid=0e063f8f-9cc7-4a85-909d-e86e0c57f8a2","ios":"levelo://app?vid=0e063f8f-9cc7-4a85-909d-e86e0c57f8a2"},"vehicle_type_id":"4","last_reported":1724605786,"current_range_meters":29600,"station_id":"ce4bh412rcd13ifvqdr0","pricing_plan_id":"cebpf4jnsgd1na2vs0mg"},{"bike_id":"5641da9e-ee25-4870-855d-0703433c6143","system_id":"levelo_inurba_marseille","lat":43.32199,"lon":5.40768,"is_reserved":false,"is_disabled":false,"rental_uris":{"android":"levelo://app?vid=5641da9e-ee25-4870-855d-0703433c6143","ios":"levelo://app?vid=5641da9e-ee25-4870-855d-0703433c6143"},"vehicle_type_id":"4","last_reported":1724605786,"current_range_meters":23600,"station_id":"","pricing_plan_id":"cebpf4jnsgd1na2vs0mg"},{"bike_id":"ff76cca0-fb22-4cf2-af25-f62a4ec35b20","system_id":"levelo_inurba_marseille","lat":43.28421,"lon":5.34987,"is_reserved":false,"is_disabled":false,"rental_uris":{"android":"levelo://app?vid=ff76cca0-fb22-4cf2-af25-f62a4ec35b20","ios":"levelo://app?vid=ff76cca0-fb22-4cf2-af25-f62a4ec35b20"},"vehicle_type_id":"4","last_reported":1724605786,"current_range_meters":0,"station_id":"ce4bhbh2rcd13ifvqepg","pricing_plan_id":"cebpf4jnsgd1na2vs0mg"},{"bike_id":"c65cc9a8-f2cd-4e9f-a089-3fba05cb002c","system_id":"levelo_inurba_marseille","lat":43.28421,"lon":5.34987,"is_reserved":false,"is_disabled":false,"rental_uris":{"android":"levelo://app?vid=c65cc9a8-f2cd-4e9f-a089-3fba05cb002c","ios":"levelo://app?vid=c65cc9a8-f2cd-4e9f-a089-3fba05cb002c"},"vehicle_type_id":"4","last_reported":1724605786,"current_range_meters":28800,"station_id":"ce4bhbh2rcd13ifvqepg","pricing_plan_id":"cebpf4jnsgd1na2vs0mg"},{"bike_id":"f27ddb57-dcb6-44e8-8279-8df569dbbd2f","system_id":"levelo_inurba_marseille","lat":43.28421,"lon":5.34984,"is_reserved":false,"is_disabled":false,"rental_uris":{"android":"levelo://app?vid=f27ddb57-dcb6-44e8-8279-8df569dbbd2f","ios":"levelo://app?vid=f27ddb57-dcb6-44e8-8279-8df569dbbd2f"},"vehicle_type_id":"4","last_reported":1724605786,"current_range_meters":0,"station_id":"ce4bhbh2rcd13ifvqepg","pricing_plan_id":"cebpf4jnsgd1na2vs0mg"},{"bike_id":"eee4a819-79eb-4195-a36b-3383e820de03","system_id":"levelo_inurba_marseille","lat":43.2842,"lon":5.34987,"is_reserved":false,"is_disabled":false,"rental_uris":{"android":"levelo://app?vid=eee4a819-79eb-4195-a36b-3383e820de03","ios":"levelo://app?vid=eee4a819-79eb-4195-a36b-3383e820de03"},"vehicle_type_id":"4","last_reported":1724605786,"current_range_meters":28800,"station_id":"ce4bhbh2rcd13ifvqepg","pricing_plan_id":"cebpf4jnsgd1na2vs0mg"},{"bike_id":"ca031128-fe57-4a60-bfac-b10c977c8968","system_id":"levelo_inurba_marseille","lat":43.28423,"lon":5.34975,"is_reserved":false,"is_disabled":false,"rental_uris":{"android":"levelo://app?vid=ca031128-fe57-4a60-bfac-b10c977c8968","ios":"levelo://app?vid=ca031128-fe57-4a60-bfac-b10c977c8968"},"vehicle_type_id":"4","last_reported":1724605786,"current_range_meters":13600,"station_id":"ce4bhbh2rcd13ifvqepg","pricing_plan_id":"cebpf4jnsgd1na2vs0mg"},{"bike_id":"810abbc4-3187-46fd-af0c-b2360a0e6e11","system_id":"levelo_inurba_marseille","lat":43.28413,"lon":5.34991,"is_reserved":false,"is_disabled":false,"rental_uris":{"android":"levelo://app?vid=810abbc4-3187-46fd-af0c-b2360a0e6e11","ios":"levelo://app?vid=810abbc4-3187-46fd-af0c-b2360a0e6e11"},"vehicle_type_id":"4","last_reported":1724605786,"current_range_meters":28800,"station_id":"ce4bhbh2rcd13ifvqepg","pricing_plan_id":"cebpf4jnsgd1na2vs0mg"},{"bike_id":"d20364c8-8eb9-4fdc-b65f-e9a3126a4025","system_id":"levelo_inurba_marseille","lat":43.28414,"lon":5.34966,"is_reserved":false,"is_disabled":false,"rental_uris":{"android":"levelo://app?vid=d20364c8-8eb9-4fdc-b65f-e9a3126a4025","ios":"levelo://app?vid=d20364c8-8eb9-4fdc-b65f-e9a3126a4025"},"vehicle_type_id":"4","last_reported":1724605786,"current_range_meters":18400,"station_id":"ce4bhbh2rcd13ifvqepg","pricing_plan_id":"cebpf4jnsgd1na2vs0mg"},{"bike_id":"0e712e5a-63ef-4321-aaf4-0db3f43736d7","system_id":"levelo_inurba_marseille","lat":43.284038,"lon":5.34987,"is_reserved":false,"is_disabled":false,"rental_uris":{"android":"levelo://app?vid=0e712e5a-63ef-4321-aaf4-0db3f43736d7","ios":"levelo://app?vid=0e712e5a-63ef-4321-aaf4-0db3f43736d7"},"vehicle_type_id":"4","last_reported":1724605786,"current_range_meters":30000,"station_id":"ce4bhbh2rcd13ifvqepg","pricing_plan_id":"cebpf4jnsgd1na2vs0mg"},{"bike_id":"2b94b4bf-3cbf-4ffe-b83a-5b03a52a9c2e","system_id":"levelo_inurba_marseille","lat":43.282744,"lon":5.350533,"is_reserved":false,"is_disabled":false,"rental_uris":{"android":"levelo://app?vid=2b94b4bf-3cbf-4ffe-b83a-5b03a52a9c2e","ios":"levelo://app?vid=2b94b4bf-3cbf-4ffe-b83a-5b03a52a9c2e"},"vehicle_type_id":"4","last_reported":1724605786,"current_range_meters":10400,"station_id":"ce4bhbp2rcd13ifvqerg","pricing_plan_id":"cebpf4jnsgd1na2vs0mg"},{"bike_id":"290b20c0-950e-4ba3-bafc-3a920b91e79f","system_id":"levelo_inurba_marseille","lat":43.28277,"lon":5.35063,"is_reserved":false,"is_disabled":false,"rental_uris":{"android":"levelo://app?vid=290b20c0-950e-4ba3-bafc-3a920b91e79f","ios":"levelo://app?vid=290b20c0-950e-4ba3-bafc-3a920b91e79f"},"vehicle_type_id":"4","last_reported":1724605786,"current_range_meters":24000,"station_id":"ce4bhbp2rcd13ifvqerg","pricing_plan_id":"cebpf4jnsgd1na2vs0mg"},{"bike_id":"f7dc2b9e-707e-4cd4-8aca-7ddc6c864b8d","system_id":"levelo_inurba_marseille","lat":43.282744,"lon":5.350533,"is_reserved":false,"is_disabled":false,"rental_uris":{"android":"levelo://app?vid=f7dc2b9e-707e-4cd4-8aca-7ddc6c864b8d","ios":"levelo://app?vid=f7dc2b9e-707e-4cd4-8aca-7ddc6c864b8d"},"vehicle_type_id":"4","last_reported":1724605786,"current_range_meters":25600,"station_id":"ce4bhbp2rcd13ifvqerg","pricing_plan_id":"cebpf4jnsgd1na2vs0mg"},{"bike_id":"7b188f35-4fa3-4eac-9f0a-0216df5b6642","system_id":"levelo_inurba_marseille","lat":43.282744,"lon":5.350533,"is_reserved":false,"is_disabled":false,"rental_uris":{"android":"levelo://app?vid=7b188f35-4fa3-4eac-9f0a-0216df5b6642","ios":"levelo://app?vid=7b188f35-4fa3-4eac-9f0a-0216df5b6642"},"vehicle_type_id":"4","last_reported":1724605786,"current_range_meters":8000,"station_id":"ce4bhbp2rcd13ifvqerg","pricing_plan_id":"cebpf4jnsgd1na2vs0mg"},