{"last_updated":1731039051,"ttl":60,"version":"2.2","data":{"bikes":[{"bike_id":"3c1e06e2-dd64-42d3-ab83-15b7af7b314b","system_id":"levelo_inurba_marseille","lat":43.28441,"lon":5.3918,"is_reserved":false,"is_disabled":false,"rental_uris":{"android":"levelo://app?vid=3c1e06e2-dd64-42d3-ab83-15b7af7b314b","ios":"levelo://app?vid=3c1e06e2-dd64-42d3-ab83-15b7af7b314b"},"vehicle_type_id":"4","last_reported":1731039051,"current_range_meters":39200,"station_id":"ce4bhoh2rcd13ifvqh5g","pricing_plan_id":"cebpf4jnsgd1na2vs0mg"},{"bike_id":"a35bc0f5-e1de-4780-9c30-3d5f9603529a","system_id":"levelo_inurba_marseille","lat":43.23968,"lon":5.36625,"is_reserved":false,"is_disabled":false,"rental_uris":{"android":"levelo://app?vid=a35bc0f5-e1de-4780-9c30-3d5f9603529a","ios":"levelo://app?vid=a35bc0f5-e1de-4780-9c30-3d5f9603529a"},"vehicle_type_id":"4","last_reported":1731039051,"current_range_meters":38800,"station_id":"ce4bhi12rcd13ifvqfp0","pricing_plan_id":"cebpf4jnsgd1na2vs0mg"},{"bike_id":"1122c64b-1d2a-4a93-969a-847e142d22a2","system_id":"levelo_inurba_marseille","lat":43.292764,"lon":5.40122,"is_reserved":false,"is_disabled":false,"rental_uris":{"android":"levelo://app?vid=1122c64b-1d2a-4a93-969a-847e142d22a2","ios":"levelo://app?vid=1122c64b-1d2a-4a93-969a-847e142d22a2"},"vehicle_type_id":"4","last_reported":1731039051,"current_range_meters":16400,"station_id":"ce4bh312rcd13ifvqdk0","pricing_plan_id":"cebpf4jnsgd1na2vs0mg"},{"bike_id":"819790d1-873f-4738-b863-22ab3976983e","system_id":"levelo_inurba_marseille","lat":43.29562,"lon":5.42291,"is_reserved":false,"is_disabled":false,"rental_uris":{"android":"levelo://app?vid=819790d1-873f-4738-b863-22ab3976983e","ios":"levelo://app?vid=819790d1-873f-4738-b863-22ab3976983e"},"vehicle_type_id":"4","last_reported":1731039051,"current_range_meters":35200,"station_id":"ce4bhph2rcd13ifvqhdg","pricing_plan_id":"cebpf4jnsgd1na2vs0mg"},{"bike_id":"7fd115e1-6635-4759-b24b-0ed36d47da10","system_id":"levelo_inurba_marseille","lat":43.28459,"lon":5.35887,"is_reserved":false,"is_disabled":false,"rental_uris":{"android":"levelo://app?vid=7fd115e1-6635-4759-b24b-0ed36d47da10","ios":"levelo://app?vid=7fd115e1-6635-4759-b24b-0ed36d47da10"},"vehicle_type_id":"4","last_reported":1731039051,"current_range_meters":36000,"station_id":"ce4bhah2rcd13ifvqei0","pricing_plan_id":"cebpf4jnsgd1na2vs0mg"},{"bike_id":"c97ff4aa-3b7a-4a38-bef5-aff0938b5e17","system_id":"levelo_inurba_marseille","lat":43.31387,"lon":5.36657,"is_reserved":false,"is_disabled":false,"rental_uris":{"android":"levelo://app?vid=c97ff4aa-3b7a-4a38-bef5-aff0938b5e17","ios":"levelo://app?vid=c97ff4aa-3b7a-4a38-bef5-aff0938b5e17"},"vehicle_type_id":"4","last_reported":1731039051,"current_range_meters":36000,"station_id":"ce4bgr92rcd13ifvqc6g","pricing_plan_id":"cebpf4jnsgd1na2vs0mg"},{"bike_id":"7f774ae5-6cb7-4c53-91e0-4e9519e7a5f3","system_id":"levelo_inurba_marseille","lat":43.31726,"lon":5.42386,"is_reserved":false,"is_disabled":false,"rental_uris":{"android":"levelo://app?vid=7f774ae5-6cb7-4c53-91e0-4e9519e7a5f3","ios":"levelo://app?vid=7f774ae5-6cb7-4c53-91e0-4e9519e7a5f3"},"vehicle_type_id":"4","last_reported":1731039051,"current_range_meters":32400,"station_id":"ce4bhp92rcd13ifvqhbg","pricing_plan_id":"cebpf4jnsgd1na2vs0mg"},{"bike_id":"3db1bf79-2ec6-4e2e-ba66-334994595e1d","system_id":"levelo_inurba_marseille","lat":43.28361,"lon":5.38116,"is_reserved":false,"is_disabled":false,"rental_uris":{"android":"levelo://app?vid=3db1bf79-2ec6-4e2e-ba66-334994595e1d","ios":"levelo://app?vid=3db1bf79-2ec6-4e2e-ba66-334994595e1d"},"vehicle_type_id":"4","last_reported":1731039051,"current_range_meters":38800,"station_id":"ce4bh412rcd13ifvqdr0","pricing_plan_id":"cebpf4jnsgd1na2vs0mg"},{"bike_id":"5396429a-daa4-4381-9a98-221e2f066cfa","system_id":"levelo_inurba_marseille","lat":43.30804,"lon":5.43529,"is_reserved":false,"is_disabled":false,"rental_uris":{"android":"levelo://app?vid=5396429a-daa4-4381-9a98-221e2f066cfa","ios":"levelo://app?vid=5396429a-daa4-4381-9a98-221e2f066cfa"},"vehicle_type_id":"4","last_reported":1731039051,"current_range_meters":30800,"station_id":"ce4bhph2rcd13ifvqheg","pricing_plan_id":"cebpf4jnsgd1na2vs0mg"},{"bike_id":"4ff42e7e-faca-4ce3-85cc-bc3ab9995212","system_id":"levelo_inurba_marseille","lat":43.24545,"lon":5.39521,"is_reserved":false,"is_disabled":false,"rental_uris":{"android":"levelo://app?vid=4ff42e7e-faca-4ce3-85cc-bc3ab9995212","ios":"levelo://app?vid=4ff42e7e-faca-4ce3-85cc-bc3ab9995212"},"vehicle_type_id":"4","last_reported":1731039051,"current_range_meters":24800,"station_id":"ce4bhlp2rcd13ifvqgjg","pricing_plan_id":"cebpf4jnsgd1na2vs0mg"},{"bike_id":"23e65921-100e-4ead-8eb4-cf14e6ed6f70","system_id":"levelo_inurba_marseille","lat":43.31122,"lon":5.37774,"is_reserved":false,"is_disabled":false,"rental_uris":{"android":"levelo://app?vid=23e65921-100e-4ead-8eb4-cf14e6ed6f70","ios":"levelo://app?vid=23e65921-100e-4ead-8eb4-cf14e6ed6f70"},"vehicle_type_id":"4","last_reported":1731039051,"current_range_meters":28000,"station_id":"ce4bgt92rcd13ifvqcg0","pricing_plan_id":"cebpf4jnsgd1na2vs0mg"},{"bike_id":"ecbfad0b-6da6-4898-8228-d6cbd4cb9d5c","system_id":"levelo_inurba_marseille","lat":43.31545,"lon":5.38029,"is_reserved":false,"is_disabled":false,"rental_uris":{"android":"levelo://app?vid=ecbfad0b-6da6-4898-8228-d6cbd4cb9d5c","ios":"levelo://app?vid=ecbfad0b-6da6-4898-8228-d6cbd4cb9d5c"},"vehicle_type_id":"4","last_reported":1731039051,"current_range_meters":38400,"station_id":"ce4bhsp2rcd13ifvqi50","pricing_plan_id":"cebpf4jnsgd1na2vs0mg"},{"bike_id":"dfba3f21-f02f-49b3-8c50-4074b4a26109","system_id":"levelo_inurba_marseille","lat":43.31287,"lon":5.4017,"is_reserved":false,"is_disabled":false,"rental_uris":{"android":"levelo://app?vid=dfba3f21-f02f-49b3-8c50-4074b4a26109","ios":"levelo://app?vid=dfba3f21-f02f-49b3-8c50-4074b4a26109"},"vehicle_type_id":"4","last_reported":1731039051,"current_range_meters":39200,"station_id":"ce4bh092rcd13ifvqd30","pricing_plan_id":"cebpf4jnsgd1na2vs0mg"},{"bike_id":"c974998e-73bc-4aa3-acf6-b046cce03348","system_id":"levelo_inurba_marseille","lat":43.29192,"lon":5.35814,"is_reserved":false,"is_disabled":false,"rental_uris":{"android":"levelo://app?vid=c974998e-73bc-4aa3-acf6-b046cce03348","ios":"levelo://app?vid=c974998e-73bc-4aa3-acf6-b046cce03348"},"vehicle_type_id":"4","last_reported":1731039051,"current_range_meters":38400,"station_id":"ce4bhb12rcd13ifvqel0","pricing_plan_id":"cebpf4jnsgd1na2vs0mg"},{"bike_id":"28c8cd0f-56be-4d87-b407-bac33fd81785","system_id":"levelo_inurba_marseille","lat":43.33027,"lon":5.39043,"is_reserved":false,"is_disabled":false,"rental_uris":{"android":"levelo://app?vid=28c8cd0f-56be-4d87-b407-bac33fd81785","ios":"levelo://app?vid=28c8cd0f-56be-4d87-b407-bac33fd81785"},"vehicle_type_id":"4","last_reported":1731039051,"current_range_meters":39200,"station_id":"ce4bhr92rcd13ifvqhrg","pricing_plan_id":"cebpf4jnsgd1na2vs0mg"},{"bike_id":"696199f4-6dbf-49de-b731-48b69d442ae6","system_id":"levelo_inurba_marseille","lat":43.2926,"lon":5.409,"is_reserved":false,"is_disabled":false,"rental_uris":{"android":"levelo://app?vid=696199f4-6dbf-49de-b731-48b69d442ae6","ios":"levelo://app?vid=696199f4-6dbf-49de-b731-48b69d442ae6"},"vehicle_type_id":"4","last_reported":1731039051,"current_range_meters":39200,"station_id":"ce4bh192rcd13ifvqdc0","pricing_plan_id":"cebpf4jnsgd1na2vs0mg"},{"bike_id":"73d83c23-c667-4be8-ae0e-3b8c78cb9bc6","system_id":"levelo_inurba_marseille","lat":43.278314,"lon":5.392061,"is_reserved":false,"is_disabled":false,"rental_uris":{"android":"levelo://app?vid=73d83c23-c667-4be8-ae0e-3b8c78cb9bc6","ios":"levelo://app?vid=73d83c23-c667-4be8-ae0e-3b8c78cb9bc6"},"vehicle_type_id":"4","last_reported":1731039051,"current_range_meters":38400,"station_id":"ce4bhjp2rcd13ifvqga0","pricing_plan_id":"cebpf4jnsgd1na2vs0mg"},{"bike_id":"fcb656db-eb8e-4f8a-90cb-1a8f7a71b13e","system_id":"levelo_inurba_marseille","lat":43.29635,"lon":5.40597,"is_reserved":false,"is_disabled":false,"rental_uris":{"android":"levelo://app?vid=fcb656db-eb8e-4f8a-90cb-1a8f7a71b13e","ios":"levelo://app?vid=fcb656db-eb8e-4f8a-90cb-1a8f7a71b13e"},"vehicle_type_id":"4","last_reported":1731039051,"current_range_meters":38800,"station_id":"ce4bh0h2rcd13ifvqd60","pricing_plan_id":"cebpf4jnsgd1na2vs0mg"},{"bike_id":"c2fd6ef5-82c9-4dd3-ab56-0b8b4b149490","system_id":"levelo_inurba_marseille","lat":43.31272,"lon":5.4017,"is_reserved":false,"is_disabled":false,"rental_uris":{"android":"levelo://app?vid=c2fd6ef5-82c9-4dd3-ab56-0b8b4b149490","ios":"levelo://app?vid=c2fd6ef5-82c9-4dd3-ab56-0b8b4b149490"},"vehicle_type_id":"4","last_reported":1731039051,"current_range_meters":36400,"station_id":"ce4bh092rcd13ifvqd30","pricing_plan_id":"cebpf4jnsgd1na2vs0mg"},{"bike_id":"403f0e04-6664-423f-be1a-a15fe905e351","system_id":"levelo_inurba_marseille","lat":43.29206,"lon":5.39332,"is_reserved":false,"is_disabled":false,"rental_uris":{"android":"levelo://app?vid=403f0e04-6664-423f-be1a-a15fe905e351","ios":"levelo://app?vid=403f0e04-6664-423f-be1a-a15fe905e351"},"vehicle_type_id":"4","last_reported":1731039051,"current_range_meters":39200,"station_id":"ce4bh192rcd13ifvqdd0","pricing_plan_id":"cebpf4jnsgd1na2vs0mg"},{"bike_id":"be8538cc-1f64-4205-b6a5-4597df3a93ba","system_id":"levelo_inurba_marseille","lat":43.30432,"lon":5.41339,"is_reserved":false,"is_disabled":false,"rental_uris":{"android":"levelo://app?vid=be8538cc-1f64-4205-b6a5-4597df3a93ba","ios":"levelo://app?vid=be8538cc-1f64-4205-b6a5-4597df3a93ba"},"vehicle_type_id":"4","last_reported":1731039051,"current_range_meters":38000,"station_id":"ce4bhop2rcd13ifvqh8g","pricing_plan_id":"cebpf4jnsgd1na2vs0mg"},{"bike_id":"bcf5dad1-721a-4f4e-82b2-15a9cc44926f","system_id":"levelo_inurba_marseille","lat":43.33776,"lon":5.37438,"is_reserved":false,"is_disabled":false,"rental_uris":{"android":"levelo://app?vid=bcf5dad1-721a-4f4e-82b2-15a9cc44926f","ios":"levelo://app?vid=bcf5dad1-721a-4f4e-82b2-15a9cc44926f"},"vehicle_type_id":"4","last_reported":1731039051,"current_range_meters":32800,"station_id":"","pricing_plan_id":"cebpf4jnsgd1na2vs0mg"},{"bike_id":"250fe7c5-be51-4156-94fa-c9fe94886f80","system_id":"levelo_inurba_marseille","lat":43.2887,"lon":5.35855,"is_reserved":false,"is_disabled":false,"rental_uris":{"android":"levelo://app?vid=250fe7c5-be51-4156-94fa-c9fe94886f80","ios":"levelo://app?vid=250fe7c5-be51-4156-94fa-c9fe94886f80"},"vehicle_type_id":"4","last_reported":1731039051,"current_range_meters":38800,"station_id":"ce4bhb12rcd13ifvqem0","pricing_plan_id":"cebpf4jnsgd1na2vs0mg"},{"bike_id":"ee28d01b-5f1e-4844-a26d-ca4dda984bad","system_id":"levelo_inurba_marseille","lat":43.27813,"lon":5.40705,"is_reserved":false,"is_disabled":false,"rental_uris":{"android":"levelo://app?vid=ee28d01b-5f1e-4844-a26d-ca4dda984bad","ios":"levelo://app?vid=ee28d01b-5f1e-4844-a26d-ca4dda984bad"},"vehicle_type_id":"4","last_reported":1731039051,"current_range_meters":38800,"station_id":"ce4bhnh2rcd13ifvqgtg","pricing_plan_id":"cebpf4jnsgd1na2vs0mg"},{"bike_id":"00cbf6d0-0b9c-4198-9ba9-38e2e5f72e1d","system_id":"levelo_inurba_marseille","lat":43.28079,"lon":5.39649,"is_reserved":false,"is_disabled":false,"rental_uris":{"android":"levelo://app?vid=00cbf6d0-0b9c-4198-9ba9-38e2e5f72e1d","ios":"levelo://app?vid=00cbf6d0-0b9c-4198-9ba9-38e2e5f72e1d"},"vehicle_type_id":"4","last_reported":1731039051,"current_range_meters":39200,"station_id":"ce4bho12rcd13ifvqh2g","pricing_plan_id":"cebpf4jnsgd1na2vs0mg"},{"bike_id":"b7331a71-8ec8-4f40-89ef-d0af4e4975de","system_id":"levelo_inurba_marseille","lat":43.28709,"lon":5.37395,"is_reserved":false,"is_disabled":false,"rental_uris":{"android":"levelo://app?vid=b7331a71-8ec8-4f40-89ef-d0af4e4975de","ios":"levelo://app?vid=b7331a71-8ec8-4f40-89ef-d0af4e4975de"},"vehicle_type_id":"4","last_reported":1731039051,"current_range_meters":38800,"station_id":"ce4bh3p2rcd13ifvqdq0","pricing_plan_id":"cebpf4jnsgd1na2vs0mg"},{"bike_id":"4525546b-3417-4249-8f7d-ad73da8809c5","system_id":"levelo_inurba_marseille","lat":43.3361,"lon":5.41035,"is_reserved":false,"is_disabled":false,"rental_uris":{"android":"levelo://app?vid=4525546b-3417-4249-8f7d-ad73da8809c5","ios":"levelo://app?vid=4525546b-3417-4249-8f7d-ad73da8809c5"},"vehicle_type_id":"4","last_reported":1731039051,"current_range_meters":8000,"station_id":"ce4bhqh2rcd13ifvqhmg","pricing_plan_id":"cebpf4jnsgd1na2vs0mg"},{"bike_id":"24a03beb-4874-40ed-a9ee-7cfc264f9129","system_id":"levelo_inurba_marseille","lat":43.30355,"lon":5.41874,"is_reserved":false,"is_disabled":false,"rental_uris":{"android":"levelo://app?vid=24a03beb-4874-40ed-a9ee-7cfc264f9129","ios":"levelo://app?vid=24a03beb-4874-40ed-a9ee-7cfc264f9129"},"vehicle_type_id":"4","last_reported":1731039051,"current_range_meters":38000,"station_id":"ce4bhop2rcd13ifvqh7g","pricing_plan_id":"cebpf4jnsgd1na2vs0mg"},{"bike_id":"6622a163-3b9f-4330-86ce-54423cf94cdf","system_id":"levelo_inurba_marseille","lat":43.28105,"lon":5.37826,"is_reserved":false,"is_disabled":false,"rental_uris":{"android":"levelo://app?vid=6622a163-3b9f-4330-86ce-54423cf94cdf","ios":"levelo://app?vid=6622a163-3b9f-4330-86ce-54423cf94cdf"},"vehicle_type_id":"4","last_reported":1731039051,"current_range_meters":39200,"station_id":"ce4bha12rcd13ifvqee0","pricing_plan_id":"cebpf4jnsgd1na2vs0mg"},{"bike_id":"4f4cb251-4386-488a-80a0-885bf6e81c6d","system_id":"levelo_inurba_marseille","lat":43.27901,"lon":5.38007,"is_reserved":false,"is_disabled":false,"rental_uris":{"android":"levelo://app?vid=4f4cb251-4386-488a-80a0-885bf6e81c6d","ios":"levelo://app?vid=4f4cb251-4386-488a-80a0-885bf6e81c6d"},"vehicle_type_id":"4","last_reported":1731039051,"current_range_meters":39200,"station_id":"ce4bhf92rcd13ifvqf50","pricing_plan_id":"cebpf4jnsgd1na2vs0mg"},{"bike_id":"f00b8b7a-20f1-40a7-8dce-634caae61508","system_id":"levelo_inurba_marseille","lat":43.303554,"lon":5.418809,"is_reserved":false,"is_disabled":false,"rental_uris":{"android":"levelo://app?vid=f00b8b7a-20f1-40a7-8dce-634caae61508","ios":"levelo://app?vid=f00b8b7a-20f1-40a7-8dce-634caae61508"},"vehicle_type_id":"4","last_reported":1731039051,"current_range_meters":38000,"station_id":"ce4bhop2rcd13ifvqh7g","pricing_plan_id":"cebpf4jnsgd1na2vs0mg"},{"bike_id":"6fb32bb1-acec-47e9-a78c-5f0271edfd7f","system_id":"levelo_inurba_marseille","lat":43.26177,"lon":5.37501,"is_reserved":false,"is_disabled":false,"rental_uris":{"android":"levelo://app?vid=6fb32bb1-acec-47e9-a78c-5f0271edfd7f","ios":"levelo://app?vid=6fb32bb1-acec-47e9-a78c-5f0271edfd7f"},"vehicle_type_id":"4","last_reported":1731039051,"current_range_meters":24000,"station_id":"ce4bhgp2rcd13ifvqfc0","pricing_plan_id":"cebpf4jnsgd1na2vs0mg"},{"bike_id":"123f6207-e5f7-4a86-815d-3aa76283c5cb","system_id":"levelo_inurba_marseille","lat":43.28014,"lon":5.44225,"is_reserved":false,"is_disabled":false,"rental_uris":{"android":"levelo://app?vid=123f6207-e5f7-4a86-815d-3aa76283c5cb","ios":"levelo://app?vid=123f6207-e5f7-4a86-815d-3aa76283c5cb"},"vehicle_type_id":"4","last_reported":1731039051,"current_range_meters":9600,"station_id":"","pricing_plan_id":"cebpf4jnsgd1na2vs0mg"},{"bike_id":"ea3e44e4-5607-432c-a36c-1dd1c2026358","system_id":"levelo_inurba_marseille","lat":43.32373,"lon":5.38884,"is_reserved":false,"is_disabled":false,"rental_uris":{"android":"levelo://app?vid=ea3e44e4-5607-432c-a36c-1dd1c2026358","ios":"levelo://app?vid=ea3e44e4-5607-432c-a36c-1dd1c2026358"},"vehicle_type_id":"4","last_reported":1731039051,"current_range_meters":36800,"station_id":"ce4bhqp2rcd13ifvqhog","pricing_plan_id":"cebpf4jnsgd1na2vs0mg"},{"bike_id":"e6e17729-cfe6-425c-920e-5c3e9a8c2687","system_id":"levelo_inurba_marseille","lat":43.279959,"lon":5.400146,"is_reserved":false,"is_disabled":false,"rental_uris":{"android":"levelo://app?vid=e6e17729-cfe6-425c-920e-5c3e9a8c2687","ios":"levelo://app?vid=e6e17729-cfe6-425c-920e-5c3e9a8c2687"},"vehicle_type_id":"4","last_reported":1731039051,"current_range_meters":38400,"station_id":"ce4bho92rcd13ifvqh4g","pricing_plan_id":"cebpf4jnsgd1na2vs0mg"},{"bike_id":"660460f1-6a3a-42ef-b81f-0e0e4afbd647","system_id":"levelo_inurba_marseille","lat":43.32106,"lon":5.36783,"is_reserved":false,"is_disabled":false,"rental_uris":{"android":"levelo://app?vid=660460f1-6a3a-42ef-b81f-0e0e4afbd647","ios":"levelo://app?vid=660460f1-6a3a-42ef-b81f-0e0e4afbd647"},"vehicle_type_id":"4","last_reported":1731039051,"current_range_meters":28800,"station_id":"ce4bhrh2rcd13ifvqhug","pricing_plan_id":"cebpf4jnsgd1na2vs0mg"},{"bike_id":"d7734d8a-4b8d-4911-8a7a-649915753a49","system_id":"levelo_inurba_marseille","lat":43.31085,"lon":5.42425,"is_reserved":false,"is_disabled":false,"rental_uris":{"android":"levelo://app?vid=d7734d8a-4b8d-4911-8a7a-649915753a49","ios":"levelo://app?vid=d7734d8a-4b8d-4911-8a7a-649915753a49"},"vehicle_type_id":"4","last_reported":1731039051,"current_range_meters":37600,"station_id":"ce4bhp92rcd13ifvqhag","pricing_plan_id":"cebpf4jnsgd1na2vs0mg"},{"bike_id":"49900465-52dd-424c-b9df-70d26b98afe5","system_id":"levelo_inurba_marseille","lat":43.30464,"lon":5.37901,"is_reserved":false,"is_disabled":false,"rental_uris":{"android":"levelo://app?vid=49900465-52dd-424c-b9df-70d26b98afe5","ios":"levelo://app?vid=49900465-52dd-424c-b9df-70d26b98afe5"},"vehicle_type_id":"4","last_reported":1731039051,"current_range_meters":37600,"station_id":"ce4bgup2rcd13ifvqcn0","pricing_plan_id":"cebpf4jnsgd1na2vs0mg"},{"bike_id":"2000106d-68a0-476c-ba36-6e004afb8a6b","system_id":"levelo_inurba_marseille","lat":43.29559,"lon":5.42294,"is_reserved":false,"is_disabled":false,"rental_uris":{"android":"levelo://app?vid=2000106d-68a0-476c-ba36-6e004afb8a6b","ios":"levelo://app?vid=2000106d-68a0-476c-ba36-6e004afb8a6b"},"vehicle_type_id":"4","last_reported":1731039051,"current_range_meters":37600,"station_id":"ce4bhph2rcd13ifvqhdg","pricing_plan_id":"cebpf4jnsgd1na2vs0mg"},{"bike_id":"2249b50d-7f02-4a87-b5cd-9ab1aa9b8244","system_id":"levelo_inurba_marseille","lat":43.29446,"lon":5.39746,"is_reserved":false,"is_disabled":false,"rental_uris":{"android":"levelo://app?vid=2249b50d-7f02-4a87-b5cd-9ab1aa9b8244","ios":"levelo://app?vid=2249b50d-7f02-4a87-b5cd-9ab1aa9b8244"},"vehicle_type_id":"4","last_reported":1731039051,"current_range_meters":39200,"station_id":"ce4bh3h2rcd13ifvqdo0","pricing_plan_id":"cebpf4jnsgd1na2vs0mg"},{"bike_id":"ff3d86de-5c8f-44df-8c76-d883f8fa9ba1","system_id":"levelo_inurba_marseille","lat":43.231906,"lon":5.399863,"is_reserved":false,"is_disabled":false,"rental_uris":{"android":"levelo://app?vid=ff3d86de-5c8f-44df-8c76-d883f8fa9ba1","ios":"levelo://app?vid=ff3d86de-5c8f-44df-8c76-d883f8fa9ba1"},"vehicle_type_id":"4","last_reported":1731039051,"current_range_meters":18800,"station_id":"ce4bhn12rcd13ifvqgqg","pricing_plan_id":"cebpf4jnsgd1na2vs0mg"},{"bike_id":"3232343b-b00a-47b1-9de8-95cc6580cbfa","system_id":"levelo_inurba_marseille","lat":43.22933,"lon":5.35375,"is_reserved":false,"is_disabled":false,"rental_uris":{"android":"levelo://app?vid=3232343b-b00a-47b1-9de8-95cc6580cbfa","ios":"levelo://app?vid=3232343b-b00a-47b1-9de8-95cc6580cbfa"},"vehicle_type_id":"4","last_reported":1731039051,"current_range_meters":28400,"station_id":"cpo3532slgdg3j2ikp40","pricing_plan_id":"cebpf4jnsgd1na2vs0mg"},{"bike_id":"c13a97d0-0530-41f0-a94a-cc0540876f4c","system_id":"levelo_inurba_marseille","lat":43.29055,"lon":5.40033,"is_reserved":false,"is_disabled":false,"rental_uris":{"android":"levelo://app?vid=c13a97d0-0530-41f0-a94a-cc0540876f4c","ios":"levelo://app?vid=c13a97d0-0530-41f0-a94a-cc0540876f4c"},"vehicle_type_id":"4","last_reported":1731039051,"current_range_meters":34000,"station_id":"","pricing_plan_id":"cebpf4jnsgd1na2vs0mg"},{"bike_id":"8606ab25-4f38-4d90-a3a9-70c9d8c5a3ee","system_id":"levelo_inurba_marseille","lat":43.31761,"lon":5.39004,"is_reserved":false,"is_disabled":false,"rental_uris":{"android":"levelo://app?vid=8606ab25-4f38-4d90-a3a9-70c9d8c5a3ee","ios":"levelo://app?vid=8606ab25-4f38-4d90-a3a9-70c9d8c5a3ee"},"vehicle_type_id":"4","last_reported":1731039051,"current_range_meters":38000,"station_id":"ce4bhqp2rcd13ifvqhng","pricing_plan_id":"cebpf4jnsgd1na2vs0mg"},{"bike_id":"7a8c18a6-5cc7-47d5-b58b-63c6df80a074","system_id":"levelo_inurba_marseille","lat":43.28108,"lon":5.37822,"is_reserved":false,"is_disabled":false,"rental_uris":{"android":"levelo://app?vid=7a8c18a6-5cc7-47d5-b58b-63c6df80a074","ios":"levelo://app?vid=7a8c18a6-5cc7-47d5-b58b-63c6df80a074"},"vehicle_type_id":"4","last_reported":1731039051,"current_range_meters":29600,"station_id":"ce4bha12rcd13ifvqee0","pricing_plan_id":"cebpf4jnsgd1na2vs0mg"},{"bike_id":"8838674c-71ef-4915-9d5e-517d54e399ba","system_id":"levelo_inurba_marseille","lat":43.31709,"lon":5.37751,"is_reserved":false,"is_disabled":false,"rental_uris":{"android":"levelo://app?vid=8838674c-71ef-4915-9d5e-517d54e399ba","ios":"levelo://app?vid=8838674c-71ef-4915-9d5e-517d54e399ba"},"vehicle_type_id":"4","last_reported":1731039051,"current_range_meters":9200,"station_id":"ce4bgth2rcd13ifvqch0","pricing_plan_id":"cebpf4jnsgd1na2vs0mg"},{"bike_id":"44645e97-2fc6-428e-a7b2-2d02ac291716","system_id":"levelo_inurba_marseille","lat":43.28693,"lon":5.37393,"is_reserved":false,"is_disabled":false,"rental_uris":{"android":"levelo://app?vid=44645e97-2fc6-428e-a7b2-2d02ac291716","ios":"levelo://app?vid=44645e97-2fc6-428e-a7b2-2d02ac291716"},"vehicle_type_id":"4","last_reported":1731039051,"current_range_meters":26800,"station_id":"ce4bh3p2rcd13ifvqdq0","pricing_plan_id":"cebpf4jnsgd1na2vs0mg"},{"bike_id":"30c122d9-3c8b-4500-b013-ed517a07df34","system_id":"levelo_inurba_marseille","lat":43.279183,"lon":5.395809,"is_reserved":false,"is_disabled":false,"rental_uris":{"android":"levelo://app?vid=30c122d9-3c8b-4500-b013-ed517a07df34","ios":"levelo://app?vid=30c122d9-3c8b-4500-b013-ed517a07df34"},"vehicle_type_id":"4","last_reported":1731039051,"current_range_meters":28400,"station_id":"ce4bhf92rcd13ifvqf40","pricing_plan_id":"cebpf4jnsgd1na2vs0mg"},{"bike_id":"3b87dc3c-78c9-480a-9c82-352398b21c72","system_id":"levelo_inurba_marseille","lat":43.29441,"lon":5.39739,"is_reserved":false,"is_disabled":false,"rental_uris":{"android":"levelo://app?vid=3b87dc3c-78c9-480a-9c82-352398b21c72","ios":"levelo://app?vid=3b87dc3c-78c9-480a-9c82-352398b21c72"},"vehicle_type_id":"4","last_reported":1731039051,"current_range_meters":39200,"station_id":"ce4bh3h2rcd13ifvqdo0","pricing_plan_id":"cebpf4jnsgd1na2vs0mg"},{"bike_id":"d46fc949-017c-4337-a007-b5f9f19a0bfa","system_id":"levelo_inurba_marseille","lat":43.337444,"lon":5.374475,"is_reserved":false,"is_disabled":false,"rental_uris":{"android":"levelo://app?vid=d46fc949-017c-4337-a007-b5f9f19a0bfa","ios":"levelo://app?vid=d46fc949-017c-4337-a007-b5f9f19a0bfa"},"vehicle_type_id":"4","last_reported":1731039051,"current_range_meters":32000,"station_id":"","pricing_plan_id":"cebpf4jnsgd1na2vs0mg"},{"bike_id":"54e2b98b-369a-433b-9ae9-c001e48cdf14","system_id":"levelo_inurba_marseille","lat":43.28468,"lon":5.3589,"is_reserved":false,"is_disabled":false,"rental_uris":{"android":"levelo://app?vid=54e2b98b-369a-433b-9ae9-c001e48cdf14","ios":"levelo://app?vid=54e2b98b-369a-433b-9ae9-c001e48cdf14"},"vehicle_type_id":"4","last_reported":1731039051,"current_range_meters":39200,"station_id":"ce4bhah2rcd13ifvqei0","pricing_plan_id":"cebpf4jnsgd1na2vs0mg"},{"bike_id":"b856fee3-5c8e-425e-8bbb-320e2cda8238","system_id":"levelo_inurba_marseille","lat":43.313275,"lon":5.396935,"is_reserved":false,"is_disabled":false,"rental_uris":{"android":"levelo://app?vid=b856fee3-5c8e-425e-8bbb-320e2cda8238","ios":"levelo://app?vid=b856fee3-5c8e-425e-8bbb-320e2cda8238"},"vehicle_type_id":"4","last_reported":1731039051,"current_range_meters":39200,"station_id":"ce4bgvp2rcd13ifvqcu0","pricing_plan_id":"cebpf4jnsgd1na2vs0mg"},{"bike_id":"055ee07f-9744-4502-8bb1-b6708cfbb0cd","system_id":"levelo_inurba_marseille","lat":43.28721,"lon":5.37937,"is_reserved":false,"is_disabled":false,"rental_uris":{"android":"levelo://app?vid=055ee07f-9744-4502-8bb1-b6708cfbb0cd","ios":"levelo://app?vid=055ee07f-9744-4502-8bb1-b6708cfbb0cd"},"vehicle_type_id":"4","last_reported":1731039051,"current_range_meters":6400,"station_id":"ce4bh9p2rcd13ifvqec0","pricing_plan_id":"cebpf4jnsgd1na2vs0mg"},{"bike_id":"a54e42b6-52eb-481f-8c47-3a35fa6e751c","system_id":"levelo_inurba_marseille","lat":43.24809,"lon":5.37456,"is_reserved":false,"is_disabled":false,"rental_uris":{"android":"levelo://app?vid=a54e42b6-52eb-481f-8c47-3a35fa6e751c","ios":"levelo://app?vid=a54e42b6-52eb-481f-8c47-3a35fa6e751c"},"vehicle_type_id":"4","last_reported":1731039051,"current_range_meters":22400,"station_id":"ce4bhgh2rcd13ifvqfb0","pricing_plan_id":"cebpf4jnsgd1na2vs0mg"},{"bike_id":"d22a5075-cb9d-43bb-84a0-2513ed243a9c","system_id":"levelo_inurba_marseille","lat":43.27807,"lon":5.40709,"is_reserved":false,"is_disabled":false,"rental_uris":{"android":"levelo://app?vid=d22a5075-cb9d-43bb-84a0-2513ed243a9c","ios":"levelo://app?vid=d22a5075-cb9d-43bb-84a0-2513ed243a9c"},"vehicle_type_id":"4","last_reported":1731039051,"current_range_meters":35200,"station_id":"ce4bhnh2rcd13ifvqgtg","pricing_plan_id":"cebpf4jnsgd1na2vs0mg"},{"bike_id":"8c3c94e4-9b16-480e-b141-ec41486459d1","system_id":"levelo_inurba_marseille","lat":43.29281,"lon":5.40125,"is_reserved":false,"is_disabled":false,"rental_uris":{"android":"levelo://app?vid=8c3c94e4-9b16-480e-b141-ec41486459d1","ios":"levelo://app?vid=8c3c94e4-9b16-480e-b141-ec41486459d1"},"vehicle_type_id":"4","last_reported":1731039051,"current_range_meters":38000,"station_id":"ce4bh312rcd13ifvqdk0","pricing_plan_id":"cebpf4jnsgd1na2vs0mg"},{"bike_id":"d64df5ca-108f-4d40-8ff7-6e6465f81088","system_id":"levelo_inurba_marseille","lat":43.30896,"lon":5.37208,"is_reserved":false,"is_disabled":false,"rental_uris":{"android":"levelo://app?vid=d64df5ca-108f-4d40-8ff7-6e6465f81088","ios":"levelo://app?vid=d64df5ca-108f-4d40-8ff7-6e6465f81088"},"vehicle_type_id":"4","last_reported":1731039051,"current_range_meters":11600,"station_id":"ce4bguh2rcd13ifvqckg","pricing_plan_id":"cebpf4jnsgd1na2vs0mg"},{"bike_id":"fb9a4917-24cd-45ae-967d-97aed9b41d4d","system_id":"levelo_inurba_marseille","lat":43.32,"lon":5.38157,"is_reserved":false,"is_disabled":false,"rental_uris":{"android":"levelo://app?vid=fb9a4917-24cd-45ae-967d-97aed9b41d4d","ios":"levelo://app?vid=fb9a4917-24cd-45ae-967d-97aed9b41d4d"},"vehicle_type_id":"4","last_reported":1731039051,"current_range_meters":28000,"station_id":"ce4bhr12rcd13ifvqhpg","pricing_plan_id":"cebpf4jnsgd1na2vs0mg"},{"bike_id":"b8fdd341-0697-41ca-82c9-e4253415f4e6","system_id":"levelo_inurba_marseille","lat":43.27501,"lon":5.42453,"is_reserved":false,"is_disabled":false,"rental_uris":{"android":"levelo://app?vid=b8fdd341-0697-41ca-82c9-e4253415f4e6","ios":"levelo://app?vid=b8fdd341-0697-41ca-82c9-e4253415f4e6"},"vehicle_type_id":"4","last_reported":1731039051,"current_range_meters":38400,"station_id":"ce4bhn92rcd13ifvqgrg","pricing_plan_id":"cebpf4jnsgd1na2vs0mg"},{"bike_id":"9b96d1a7-1bb0-4837-8ce5-5f6325109a7b","system_id":"levelo_inurba_marseille","lat":43.23186,"lon":5.39992,"is_reserved":false,"is_disabled":false,"rental_uris":{"android":"levelo://app?vid=9b96d1a7-1bb0-4837-8ce5-5f6325109a7b","ios":"levelo://app?vid=9b96d1a7-1bb0-4837-8ce5-5f6325109a7b"},"vehicle_type_id":"4","last_reported":1731039051,"current_range_meters":8000,"station_id":"ce4bhn12rcd13ifvqgqg","pricing_plan_id":"cebpf4jnsgd1na2vs0mg"},{"bike_id":"7148e5a3-e345-4df8-9602-6c428d6f2779","system_id":"levelo_inurba_marseille","lat":43.2667,"lon":5.40289,"is_reserved":false,"is_disabled":false,"rental_uris":{"android":"levelo://app?vid=7148e5a3-e345-4df8-9602-6c428d6f2779","ios":"levelo://app?vid=7148e5a3-e345-4df8-9602-6c428d6f2779"},"vehicle_type_id":"4","last_reported":1731039051,"current_range_meters":12800,"station_id":"","pricing_plan_id":"cebpf4jnsgd1na2vs0mg"},{"bike_id":"dbf0c74c-dbc0-4cc7-b18b-21073c3ea907","system_id":"levelo_inurba_marseille","lat":43.278751,"lon":5.380486,"is_reserved":false,"is_disabled":false,"rental_uris":{"android":"levelo://app?vid=dbf0c74c-dbc0-4cc7-b18b-21073c3ea907","ios":"levelo://app?vid=dbf0c74c-dbc0-4cc7-b18b-21073c3ea907"},"vehicle_type_id":"4","last_reported":1731039051,"current_range_meters":38400,"station_id":"ce4bhf92rcd13ifvqf50","pricing_plan_id":"cebpf4jnsgd1na2vs0mg"},{"bike_id":"20a6ed48-b307-4985-b8a6-aa1cc892c5e7","system_id":"levelo_inurba_marseille","lat":43.32364,"lon":5.38878,"is_reserved":false,"is_disabled":false,"rental_uris":{"android":"levelo://app?vid=20a6ed48-b307-4985-b8a6-aa1cc892c5e7","ios":"levelo://app?vid=20a6ed48-b307-4985-b8a6-aa1cc892c5e7"},"vehicle_type_id":"4","last_reported":1731039051,"current_range_meters":37600,"station_id":"ce4bhqp2rcd13ifvqhog","pricing_plan_id":"cebpf4jnsgd1na2vs0mg"},{"bike_id":"14a66910-2e94-4fbc-860a-5889a2a2ac9a","system_id":"levelo_inurba_marseille","lat":43.27172,"lon":5.40989,"is_reserved":false,"is_disabled":false,"rental_uris":{"android":"levelo://app?vid=14a66910-2e94-4fbc-860a-5889a2a2ac9a","ios":"levelo://app?vid=14a66910-2e94-4fbc-860a-5889a2a2ac9a"},"vehicle_type_id":"4","last_reported":1731039051,"current_range_meters":39200,"station_id":"ce4bhl12rcd13ifvqgf0","pricing_plan_id":"cebpf4jnsgd1na2vs0mg"},{"bike_id":"ffa6a709-cf7b-41fd-acb6-77573eab6973","system_id":"levelo_inurba_marseille","lat":43.324793,"lon":5.365629,"is_reserved":false,"is_disabled":false,"rental_uris":{"android":"levelo://app?vid=ffa6a709-cf7b-41fd-acb6-77573eab6973","ios":"levelo://app?vid=ffa6a709-cf7b-41fd-acb6-77573eab6973"},"vehicle_type_id":"4","last_reported":1731039051,"current_range_meters":16400,"station_id":"ce4bhs12rcd13ifvqhvg","pricing_plan_id":"cebpf4jnsgd1na2vs0mg"},{"bike_id":"160d6bb6-1af2-4552-8b41-ebed1e9ddef6","system_id":"levelo_inurba_marseille","lat":43.28157,"lon":5.42648,"is_reserved":false,"is_disabled":false,"rental_uris":{"android":"levelo://app?vid=160d6bb6-1af2-4552-8b41-ebed1e9ddef6","ios":"levelo://app?vid=160d6bb6-1af2-4552-8b41-ebed1e9ddef6"},"vehicle_type_id":"4","last_reported":1731039051,"current_range_meters":33200,"station_id":"ce4bhnh2rcd13ifvqgug","pricing_plan_id":"cebpf4jnsgd1na2vs0mg"},{"bike_id":"066a8835-b97d-45f9-84d0-b9bb5e98b81c","system_id":"levelo_inurba_marseille","lat":43.24071,"lon":5.37755,"is_reserved":false,"is_disabled":false,"rental_uris":{"android":"levelo://app?vid=066a8835-b97d-45f9-84d0-b9bb5e98b81c","ios":"levelo://app?vid=066a8835-b97d-45f9-84d0-b9bb5e98b81c"},"vehicle_type_id":"4","last_reported":1731039051,"current_range_meters":38400,"station_id":"ce4bhnp2rcd13ifvqgvg","pricing_plan_id":"cebpf4jnsgd1na2vs0mg"},{"bike_id":"a8be57c5-7aae-481b-9d75-71ce988d27a1","system_id":"levelo_inurba_marseille","lat":43.27811,"lon":5.40709,"is_reserved":false,"is_disabled":false,"rental_uris":{"android":"levelo://app?vid=a8be57c5-7aae-481b-9d75-71ce988d27a1","ios":"levelo://app?vid=a8be57c5-7aae-481b-9d75-71ce988d27a1"},"vehicle_type_id":"4","last_reported":1731039051,"current_range_meters":36800,"station_id":"ce4bhnh2rcd13ifvqgtg","pricing_plan_id":"cebpf4jnsgd1na2vs0mg"},{"bike_id":"9794407d-218d-49d2-a5f0-e65df312a58d","system_id":"levelo_inurba_marseille","lat":43.28664,"lon":5.36355,"is_reserved":false,"is_disabled":false,"rental_uris":{"android":"levelo://app?vid=9794407d-218d-49d2-a5f0-e65df312a58d","ios":"levelo://app?vid=9794407d-218d-49d2-a5f0-e65df312a58d"},"vehicle_type_id":"4","last_reported":1731039051,"current_range_meters":20400,"station_id":"ce4bhah2rcd13ifvqej0","pricing_plan_id":"cebpf4jnsgd1na2vs0mg"},{"bike_id":"42758877-c4e6-4f54-b67e-2527e84c4894","system_id":"levelo_inurba_marseille","lat":43.23188,"lon":5.39974,"is_reserved":false,"is_disabled":false,"rental_uris":{"android":"levelo://app?vid=42758877-c4e6-4f54-b67e-2527e84c4894","ios":"levelo://app?vid=42758877-c4e6-4f54-b67e-2527e84c4894"},"vehicle_type_id":"4","last_reported":1731039051,"current_range_meters":18000,"station_id":"ce4bhn12rcd13ifvqgqg","pricing_plan_id":"cebpf4jnsgd1na2vs0mg"},{"bike_id":"ac7c26a4-7f32-4a35-89cc-58a00220c239","system_id":"levelo_inurba_marseille","lat":43.28444,"lon":5.39186,"is_reserved":false,"is_disabled":false,"rental_uris":{"android":"levelo://app?vid=ac7c26a4-7f32-4a35-89cc-58a00220c239","ios":"levelo://app?vid=ac7c26a4-7f32-4a35-89cc-58a00220c239"},"vehicle_type_id":"4","last_reported":1731039051,"current_range_meters":39200,"station_id":"ce4bhoh2rcd13ifvqh5g","pricing_plan_id":"cebpf4jnsgd1na2vs0mg"},{"bike_id":"b61dfbbb-7933-41c3-a0ce-5f7898cfeba6","system_id":"levelo_inurba_marseille","lat":43.29786,"lon":5.38105,"is_reserved":false,"is_disabled":false,"rental_uris":{"android":"levelo://app?vid=b61dfbbb-7933-41c3-a0ce-5f7898cfeba6","ios":"levelo://app?vid=b61dfbbb-7933-41c3-a0ce-5f7898cfeba6"},"vehicle_type_id":"4","last_reported":1731039051,"current_range_meters":35600,"station_id":"ce4bgip2rcd13ifvqbb0","pricing_plan_id":"cebpf4jnsgd1na2vs0mg"},{"bike_id":"ddac5012-7d2f-493c-a878-792c81edb68c","system_id":"levelo_inurba_marseille","lat":43.306477,"lon":5.40093,"is_reserved":false,"is_disabled":false,"rental_uris":{"android":"levelo://app?vid=ddac5012-7d2f-493c-a878-792c81edb68c","ios":"levelo://app?vid=ddac5012-7d2f-493c-a878-792c81edb68c"},"vehicle_type_id":"4","last_reported":1731039051,"current_range_meters":39200,"station_id":"ce4bh112rcd13ifvqda0","pricing_plan_id":"cebpf4jnsgd1na2vs0mg"},{"bike_id":"cfba3e28-f2b9-4547-9ac6-2a3c70b41113","system_id":"levelo_inurba_marseille","lat":43.30325,"lon":5.40438,"is_reserved":false,"is_disabled":false,"rental_uris":{"android":"levelo://app?vid=cfba3e28-f2b9-4547-9ac6-2a3c70b41113","ios":"levelo://app?vid=cfba3e28-f2b9-4547-9ac6-2a3c70b41113"},"vehicle_type_id":"4","last_reported":1731039051,"current_range_meters":38800,"station_id":"ce4bh012rcd13ifvqd10","pricing_plan_id":"cebpf4jnsgd1na2vs0mg"},{"bike_id":"b6a02552-d203-4d73-8082-627bf6022bac","system_id":"levelo_inurba_marseille","lat":43.29288,"lon":5.40132,"is_reserved":false,"is_disabled":false,"rental_uris":{"android":"levelo://app?vid=b6a02552-d203-4d73-8082-627bf6022bac","ios":"levelo://app?vid=b6a02552-d203-4d73-8082-627bf6022bac"},"vehicle_type_id":"4","last_reported":1731039051,"current_range_meters":38000,"station_id":"ce4bh312rcd13ifvqdk0","pricing_plan_id":"cebpf4jnsgd1na2vs0mg"},{"bike_id":"dd355e47-ba86-4fcb-9761-910e28004b73","system_id":"levelo_inurba_marseille","lat":43.308013,"lon":5.381617,"is_reserved":false,"is_disabled":false,"rental_uris":{"android":"levelo://app?vid=dd355e47-ba86-4fcb-9761-910e28004b73","ios":"levelo://app?vid=dd355e47-ba86-4fcb-9761-910e28004b73"},"vehicle_type_id":"4","last_reported":1731039051,"current_range_meters":16800,"station_id":"ce4bgt12rcd13ifvqce0","pricing_plan_id":"cebpf4jnsgd1na2vs0mg"},{"bike_id":"96af24a7-9c6e-4e43-9718-e21c9845789c","system_id":"levelo_inurba_marseille","lat":43.28414,"lon":5.37513,"is_reserved":false,"is_disabled":false,"rental_uris":{"android":"levelo://app?vid=96af24a7-9c6e-4e43-9718-e21c9845789c","ios":"levelo://app?vid=96af24a7-9c6e-4e43-9718-e21c9845789c"},"vehicle_type_id":"4","last_reported":1731039051,"current_range_meters":38400,"station_id":"ce4bh412rcd13ifvqds0","pricing_plan_id":"cebpf4jnsgd1na2vs0mg"},{"bike_id":"f4304c5e-9261-4ad9-a252-0101ff316323","system_id":"levelo_inurba_marseille","lat":43.31279,"lon":5.40171,"is_reserved":false,"is_disabled":false,"rental_uris":{"android":"levelo://app?vid=f4304c5e-9261-4ad9-a252-0101ff316323","ios":"levelo://app?vid=f4304c5e-9261-4ad9-a252-0101ff316323"},"vehicle_type_id":"4","last_reported":1731039051,"current_range_meters":39200,"station_id":"ce4bh092rcd13ifvqd30","pricing_plan_id":"cebpf4jnsgd1na2vs0mg"},{"bike_id":"e921d78d-d0c9-4040-a6b5-1647df6be8ed","system_id":"levelo_inurba_marseille","lat":43.32366,"lon":5.38882,"is_reserved":false,"is_disabled":false,"rental_uris":{"android":"levelo://app?vid=e921d78d-d0c9-4040-a6b5-1647df6be8ed","ios":"levelo://app?vid=e921d78d-d0c9-4040-a6b5-1647df6be8ed"},"vehicle_type_id":"4","last_reported":1731039051,"current_range_meters":24800,"station_id":"ce4bhqp2rcd13ifvqhog","pricing_plan_id":"cebpf4jnsgd1na2vs0mg"},{"bike_id":"6ee84fef-bc76-4b47-88f3-3c4344293f4b","system_id":"levelo_inurba_marseille","lat":43.31335,"lon":5.39691,"is_reserved":false,"is_disabled":false,"rental_uris":{"android":"levelo://app?vid=6ee84fef-bc76-4b47-88f3-3c4344293f4b","ios":"levelo://app?vid=6ee84fef-bc76-4b47-88f3-3c4344293f4b"},"vehicle_type_id":"4","last_reported":1731039051,"current_range_meters":20000,"station_id":"ce4bgvp2rcd13ifvqcu0","pricing_plan_id":"cebpf4jnsgd1na2vs0mg"},{"bike_id":"c54d8938-bd66-4746-8397-6468d0e45158","system_id":"levelo_inurba_marseille","lat":43.308,"lon":5.43518,"is_reserved":false,"is_disabled":false,"rental_uris":{"android":"levelo://app?vid=c54d8938-bd66-4746-8397-6468d0e45158","ios":"levelo://app?vid=c54d8938-bd66-4746-8397-6468d0e45158"},"vehicle_type_id":"4","last_reported":1731039051,"current_range_meters":38800,"station_id":"ce4bhph2rcd13ifvqheg","pricing_plan_id":"cebpf4jnsgd1na2vs0mg"},{"bike_id":"95ac8b55-d461-4c79-bf07-3deece0b5544","system_id":"levelo_inurba_marseille","lat":43.337444,"lon":5.374475,"is_reserved":false,"is_disabled":false,"rental_uris":{"android":"levelo://app?vid=95ac8b55-d461-4c79-bf07-3deece0b5544","ios":"levelo://app?vid=95ac8b55-d461-4c79-bf07-3deece0b5544"},"vehicle_type_id":"4","last_reported":1731039051,"current_range_meters":34800,"station_id":"","pricing_plan_id":"cebpf4jnsgd1na2vs0mg"},{"bike_id":"0a304a86-fc51-45c0-af63-961aec0242e1","system_id":"levelo_inurba_marseille","lat":43.24665,"lon":5.38162,"is_reserved":false,"is_disabled":false,"rental_uris":{"android":"levelo://app?vid=0a304a86-fc51-45c0-af63-961aec0242e1","ios":"levelo://app?vid=0a304a86-fc51-45c0-af63-961aec0242e1"},"vehicle_type_id":"4","last_reported":1731039051,"current_range_meters":20000,"station_id":"ce4bhih2rcd13ifvqfr0","pricing_plan_id":"cebpf4jnsgd1na2vs0mg"},{"bike_id":"a988717f-43a5-4b62-9c05-0c27b63c2b26","system_id":"levelo_inurba_marseille","lat":43.31365,"lon":5.385,"is_reserved":false,"is_disabled":false,"rental_uris":{"android":"levelo://app?vid=a988717f-43a5-4b62-9c05-0c27b63c2b26","ios":"levelo://app?vid=a988717f-43a5-4b62-9c05-0c27b63c2b26"},"vehicle_type_id":"4","last_reported":1731039051,"current_range_meters":18000,"station_id":"ce4bgt92rcd13ifvqcf0","pricing_plan_id":"cebpf4jnsgd1na2vs0mg"},{"bike_id":"2558d9d8-30f3-4cb9-ae47-7f44ecff7179","system_id":"levelo_inurba_marseille","lat":43.29279,"lon":5.40134,"is_reserved":false,"is_disabled":false,"rental_uris":{"android":"levelo://app?vid=2558d9d8-30f3-4cb9-ae47-7f44ecff7179","ios":"levelo://app?vid=2558d9d8-30f3-4cb9-ae47-7f44ecff7179"},"vehicle_type_id":"4","last_reported":1731039051,"current_range_meters":27200,"station_id":"ce4bh312rcd13ifvqdk0","pricing_plan_id":"cebpf4jnsgd1na2vs0mg"},{"bike_id":"2e20f2a1-b564-48ea-877a-8fba77b4c953","system_id":"levelo_inurba_marseille","lat":43.22926,"lon":5.35378,"is_reserved":false,"is_disabled":false,"rental_uris":{"android":"levelo://app?vid=2e20f2a1-b564-48ea-877a-8fba77b4c953","ios":"levelo://app?vid=2e20f2a1-b564-48ea-877a-8fba77b4c953"},"vehicle_type_id":"4","last_reported":1731039051,"current_range_meters":33600,"station_id":"cpo3532slgdg3j2ikp40","pricing_plan_id":"cebpf4jnsgd1na2vs0mg"},{"bike_id":"5dae8da9-34fd-43f0-886d-9017bc04ac44","system_id":"levelo_inurba_marseille","lat":43.28351,"lon":5.38112,"is_reserved":false,"is_disabled":false,"rental_uris":{"android":"levelo://app?vid=5dae8da9-34fd-43f0-886d-9017bc04ac44","ios":"levelo://app?vid=5dae8da9-34fd-43f0-886d-9017bc04ac44"},"vehicle_type_id":"4","last_reported":1731039051,"current_range_meters":29600,"station_id":"ce4bh412rcd13ifvqdr0","pricing_plan_id":"cebpf4jnsgd1na2vs0mg"},{"bike_id":"13b9000f-5493-420b-b35a-e6f2135d50e0","system_id":"levelo_inurba_marseille","lat":43.28706,"lon":5.39984,"is_reserved":false,"is_disabled":false,"rental_uris":{"android":"levelo://app?vid=13b9000f-5493-420b-b35a-e6f2135d50e0","ios":"levelo://app?vid=13b9000f-5493-420b-b35a-e6f2135d50e0"},"vehicle_type_id":"4","last_reported":1731039051,"current_range_meters":25200,"station_id":"ce4bho92rcd13ifvqh3g","pricing_plan_id":"cebpf4jnsgd1na2vs0mg"},{"bike_id":"02c71fb6-4f84-478a-9ba5-766c6f18986f","system_id":"levelo_inurba_marseille","lat":43.29791,"lon":5.37095,"is_reserved":false,"is_disabled":false,"rental_uris":{"android":"levelo://app?vid=02c71fb6-4f84-478a-9ba5-766c6f18986f","ios":"levelo://app?vid=02c71fb6-4f84-478a-9ba5-766c6f18986f"},"vehicle_type_id":"4","last_reported":1731039051,"current_range_meters":35600,"station_id":"ce4bgop2rcd13ifvqc1g","pricing_plan_id":"cebpf4jnsgd1na2vs0mg"},{"bike_id":"80212925-c84c-4a76-b314-f479f8a773e5","system_id":"levelo_inurba_marseille","lat":43.3234,"lon":5.40615,"is_reserved":false,"is_disabled":false,"rental_uris":{"android":"levelo://app?vid=80212925-c84c-4a76-b314-f479f8a773e5","ios":"levelo://app?vid=80212925-c84c-4a76-b314-f479f8a773e5"},"vehicle_type_id":"4","last_reported":1731039051,"current_range_meters":40000,"station_id":"ce4bhq92rcd13ifvqhjg","pricing_plan_id":"cebpf4jnsgd1na2vs0mg"},{"bike_id":"21cd2f46-7e50-4832-8919-1d871df023a1","system_id":"levelo_inurba_marseille","lat":43.284594,"lon":5.358849,"is_reserved":false,"is_disabled":false,"rental_uris":{"android":"levelo://app?vid=21cd2f46-7e50-4832-8919-1d871df023a1","ios":"levelo://app?vid=21cd2f46-7e50-4832-8919-1d871df023a1"},"vehicle_type_id":"4","last_reported":1731039051,"current_range_meters":39200,"station_id":"ce4bhah2rcd13ifvqei0","pricing_plan_id":"cebpf4jnsgd1na2vs0mg"},{"bike_id":"b702c0c9-42b8-4c25-a9e8-032793ae2d4d","system_id":"levelo_inurba_marseille","lat":43.306452,"lon":5.400809,"is_reserved":false,"is_disabled":false,"rental_uris":{"android":"levelo://app?vid=b702c0c9-42b8-4c25-a9e8-032793ae2d4d","ios":"levelo://app?vid=b702c0c9-42b8-4c25-a9e8-032793ae2d4d"},"vehicle_type_id":"4","last_reported":1731039051,"current_range_meters":29600,"station_id":"ce4bh112rcd13ifvqda0","pricing_plan_id":"cebpf4jnsgd1na2vs0mg"},{"bike_id":"34b87db9-292f-4e21-aec4-c1be08bf25e5","system_id":"levelo_inurba_marseille","lat":43.27955,"lon":5.41043,"is_reserved":false,"is_disabled":false,"rental_uris":{"android":"levelo://app?vid=34b87db9-292f-4e21-aec4-c1be08bf25e5","ios":"levelo://app?vid=34b87db9-292f-4e21-aec4-c1be08bf25e5"},"vehicle_type_id":"4","last_reported":1731039051,"current_range_meters":38800,"station_id":"ce4bhnp2rcd13ifvqh0g","pricing_plan_id":"cebpf4jnsgd1na2vs0mg"},{"bike_id":"79f3598e-40f2-415c-873e-f107cfbe540c","system_id":"levelo_inurba_marseille","lat":43.30149,"lon":5.38785,"is_reserved":false,"is_disabled":false,"rental_uris":{"android":"levelo://app?vid=79f3598e-40f2-415c-873e-f107cfbe540c","ios":"levelo://app?vid=79f3598e-40f2-415c-873e-f107cfbe540c"},"vehicle_type_id":"4","last_reported":1731039051,"current_range_meters":36000,"station_id":"ce4bghh2rcd13ifvqb60","pricing_plan_id":"cebpf4jnsgd1na2vs0mg"},{"bike_id":"f139c0b7-52a7-4153-bf41-ccb9fdb0faad","system_id":"levelo_inurba_marseille","lat":43.28735,"lon":5.36077,"is_reserved":false,"is_disabled":false,"rental_uris":{"android":"levelo://app?vid=f139c0b7-52a7-4153-bf41-ccb9fdb0faad","ios":"levelo://app?vid=f139c0b7-52a7-4153-bf41-ccb9fdb0faad"},"vehicle_type_id":"4","last_reported":1731039051,"current_range_meters":38000,"station_id":"cki0cbj6b192h4jlfktg","pricing_plan_id":"cebpf4jnsgd1na2vs0mg"},{"bike_id":"280243f2-e264-4609-ba59-3b48acb44d1f","system_id":"levelo_inurba_marseille","lat":43.31362,"lon":5.38498,"is_reserved":false,"is_disabled":false,"rental_uris":{"android":"levelo://app?vid=280243f2-e264-4609-ba59-3b48acb44d1f","ios":"levelo://app?vid=280243f2-e264-4609-ba59-3b48acb44d1f"},"vehicle_type_id":"4","last_reported":1731039051,"current_range_meters":38800,"station_id":"ce4bgt92rcd13ifvqcf0","pricing_plan_id":"cebpf4jnsgd1na2vs0mg"},{"bike_id":"0cfda96f-b7df-4112-9c1d-143c45b1a529","system_id":"levelo_inurba_marseille","lat":43.300963,"lon":5.390855,"is_reserved":false,"is_disabled":false,"rental_uris":{"android":"levelo://app?vid=0cfda96f-b7df-4112-9c1d-143c45b1a529","ios":"levelo://app?vid=0cfda96f-b7df-4112-9c1d-143c45b1a529"},"vehicle_type_id":"4","last_reported":1731039051,"current_range_meters":27200,"station_id":"ce4bh192rcd13ifvqdb0","pricing_plan_id":"cebpf4jnsgd1na2vs0mg"},{"bike_id":"c34c5d35-6a72-4073-90cd-56fbb312c7f0","system_id":"levelo_inurba_marseille","lat":43.28703,"lon":5.37378,"is_reserved":false,"is_disabled":false,"rental_uris":{"android":"levelo://app?vid=c34c5d35-6a72-4073-90cd-56fbb312c7f0","ios":"levelo://app?vid=c34c5d35-6a72-4073-90cd-56fbb312c7f0"},"vehicle_type_id":"4","last_reported":1731039051,"current_range_meters":20800,"station_id":"ce4bh3p2rcd13ifvqdq0","pricing_plan_id":"cebpf4jnsgd1na2vs0mg"},{"bike_id":"3d65a636-faeb-4cdc-870e-c146404fe702","system_id":"levelo_inurba_marseille","lat":43.27376,"lon":5.36263,"is_reserved":false,"is_disabled":false,"rental_uris":{"android":"levelo://app?vid=3d65a636-faeb-4cdc-870e-c146404fe702","ios":"levelo://app?vid=3d65a636-faeb-4cdc-870e-c146404fe702"},"vehicle_type_id":"4","last_reported":1731039051,"current_range_meters":24000,"station_id":"ce4bhbh2rcd13ifvqeo0","pricing_plan_id":"cebpf4jnsgd1na2vs0mg"},{"bike_id":"03aac47a-870f-474f-98b2-53c038d2acf5","system_id":"levelo_inurba_marseille","lat":43.31761,"lon":5.39015,"is_reserved":false,"is_disabled":false,"rental_uris":{"android":"levelo://app?vid=03aac47a-870f-474f-98b2-53c038d2acf5","ios":"levelo://app?vid=03aac47a-870f-474f-98b2-53c038d2acf5"},"vehicle_type_id":"4","last_reported":1731039051,"current_range_meters":12800,"station_id":"ce4bhqp2rcd13ifvqhng","pricing_plan_id":"cebpf4jnsgd1na2vs0mg"},{"bike_id":"42d7da00-3ba0-4e07-9e84-0c59bc75ac05","system_id":"levelo_inurba_marseille","lat":43.298681,"lon":5.397424,"is_reserved":false,"is_disabled":false,"rental_uris":{"android":"levelo://app?vid=42d7da00-3ba0-4e07-9e84-0c59bc75ac05","ios":"levelo://app?vid=42d7da00-3ba0-4e07-9e84-0c59bc75ac05"},"vehicle_type_id":"4","last_reported":1731039051,"current_range_meters":9600,"station_id":"ce4bh0h2rcd13ifvqd50","pricing_plan_id":"cebpf4jnsgd1na2vs0mg"},{"bike_id":"c2724ba5-affb-4604-aece-17eb1e70aa22","system_id":"levelo_inurba_marseille","lat":43.25114,"lon":5.40321,"is_reserved":false,"is_disabled":false,"rental_uris":{"android":"levelo://app?vid=c2724ba5-affb-4604-aece-17eb1e70aa22","ios":"levelo://app?vid=c2724ba5-affb-4604-aece-17eb1e70aa22"},"vehicle_type_id":"4","last_reported":1731039051,"current_range_meters":38000,"station_id":"ce4bhlh2rcd13ifvqgig","pricing_plan_id":"cebpf4jnsgd1na2vs0mg"},{"bike_id":"746f8df5-cd38-4c92-9c55-a49257706bc6","system_id":"levelo_inurba_marseille","lat":43.31336,"lon":5.39692,"is_reserved":false,"is_disabled":false,"rental_uris":{"android":"levelo://app?vid=746f8df5-cd38-4c92-9c55-a49257706bc6","ios":"levelo://app?vid=746f8df5-cd38-4c92-9c55-a49257706bc6"},"vehicle_type_id":"4","last_reported":1731039051,"current_range_meters":39200,"station_id":"ce4bgvp2rcd13ifvqcu0","pricing_plan_id":"cebpf4jnsgd1na2vs0mg"},{"bike_id":"fe50f747-7601-4d68-a505-ed41ded24de5","system_id":"levelo_inurba_marseille","lat":43.2858,"lon":5.39493,"is_reserved":false,"is_disabled":false,"rental_uris":{"android":"levelo://app?vid=fe50f747-7601-4d68-a505-ed41ded24de5","ios":"levelo://app?vid=fe50f747-7601-4d68-a505-ed41ded24de5"},"vehicle_type_id":"4","last_reported":1731039051,"current_range_meters":39200,"station_id":"ce4bh292rcd13ifvqdg0","pricing_plan_id":"cebpf4jnsgd1na2vs0mg"},{"bike_id":"a74b44b4-87ff-4b7e-a402-b5c8034a02a9","system_id":"levelo_inurba_marseille","lat":43.30814,"lon":5.38169,"is_reserved":false,"is_disabled":false,"rental_uris":{"android":"levelo://app?vid=a74b44b4-87ff-4b7e-a402-b5c8034a02a9","ios":"levelo://app?vid=a74b44b4-87ff-4b7e-a402-b5c8034a02a9"},"vehicle_type_id":"4","last_reported":1731039051,"current_range_meters":22800,"station_id":"ce4bgt12rcd13ifvqce0","pricing_plan_id":"cebpf4jnsgd1na2vs0mg"},{"bike_id":"80d5c89e-745d-46d6-9ab9-4f5ea40b6def","system_id":"levelo_inurba_marseille","lat":43.271784,"lon":5.410044,"is_reserved":false,"is_disabled":false,"rental_uris":{"android":"levelo://app?vid=80d5c89e-745d-46d6-9ab9-4f5ea40b6def","ios":"levelo://app?vid=80d5c89e-745d-46d6-9ab9-4f5ea40b6def"},"vehicle_type_id":"4","last_reported":1731039051,"current_range_meters":11600,"station_id":"ce4bhl12rcd13ifvqgf0","pricing_plan_id":"cebpf4jnsgd1na2vs0mg"},{"bike_id":"eccb9bf1-4a0c-4df5-8229-bf46f21c4329","system_id":"levelo_inurba_marseille","lat":43.31717,"lon":5.42407,"is_reserved":false,"is_disabled":false,"rental_uris":{"android":"levelo://app?vid=eccb9bf1-4a0c-4df5-8229-bf46f21c4329","ios":"levelo://app?vid=eccb9bf1-4a0c-4df5-8229-bf46f21c4329"},"vehicle_type_id":"4","last_reported":1731039051,"current_range_meters":38800,"station_id":"ce4bhp92rcd13ifvqhbg","pricing_plan_id":"cebpf4jnsgd1na2vs0mg"},{"bike_id":"ef288286-229d-4b9a-a189-8d61840dcffb","system_id":"levelo_inurba_marseille","lat":43.23197,"lon":5.35542,"is_reserved":false,"is_disabled":false,"rental_uris":{"android":"levelo://app?vid=ef288286-229d-4b9a-a189-8d61840dcffb","ios":"levelo://app?vid=ef288286-229d-4b9a-a189-8d61840dcffb"},"vehicle_type_id":"4","last_reported":1731039051,"current_range_meters":8000,"station_id":"ce4bhu92rcd13ifvqi70","pricing_plan_id":"cebpf4jnsgd1na2vs0mg"},{"bike_id":"0f1485f5-103b-4630-b525-409042d58e70","system_id":"levelo_inurba_marseille","lat":43.30933,"lon":5.40147,"is_reserved":false,"is_disabled":false,"rental_uris":{"android":"levelo://app?vid=0f1485f5-103b-4630-b525-409042d58e70","ios":"levelo://app?vid=0f1485f5-103b-4630-b525-409042d58e70"},"vehicle_type_id":"4","last_reported":1731039051,"current_range_meters":25600,"station_id":"ce4bgvp2rcd13ifvqct0","pricing_plan_id":"cebpf4jnsgd1na2vs0mg"},{"bike_id":"9044ed43-de46-4645-b2ad-5e136647239a","system_id":"levelo_inurba_marseille","lat":43.337444,"lon":5.374475,"is_reserved":false,"is_disabled":false,"rental_uris":{"android":"levelo://app?vid=9044ed43-de46-4645-b2ad-5e136647239a","ios":"levelo://app?vid=9044ed43-de46-4645-b2ad-5e136647239a"},"vehicle_type_id":"4","last_reported":1731039051,"current_range_meters":34000,"station_id":"","pricing_plan_id":"cebpf4jnsgd1na2vs0mg"},{"bike_id":"7238d835-645b-4f53-b365-e37bf17e8e26","system_id":"levelo_inurba_marseille","lat":43.28469,"lon":5.35878,"is_reserved":false,"is_disabled":false,"rental_uris":{"android":"levelo://app?vid=7238d835-645b-4f53-b365-e37bf17e8e26","ios":"levelo://app?vid=7238d835-645b-4f53-b365-e37bf17e8e26"},"vehicle_type_id":"4","last_reported":1731039051,"current_range_meters":36000,"station_id":"ce4bhah2rcd13ifvqei0","pricing_plan_id":"cebpf4jnsgd1na2vs0mg"},{"bike_id":"cde33d01-4fdf-4588-9993-50576e545d63","system_id":"levelo_inurba_marseille","lat":43.29897,"lon":5.43655,"is_reserved":false,"is_disabled":false,"rental_uris":{"android":"levelo://app?vid=cde33d01-4fdf-4588-9993-50576e545d63","ios":"levelo://app?vid=cde33d01-4fdf-4588-9993-50576e545d63"},"vehicle_type_id":"4","last_reported":1731039051,"current_range_meters":30000,"station_id":"ce4bhpp2rcd13ifvqhfg","pricing_plan_id":"cebpf4jnsgd1na2vs0mg"},{"bike_id":"8d94f27b-ae0d-491a-83aa-3e23cd6e67d3","system_id":"levelo_inurba_marseille","lat":43.3046,"lon":5.37909,"is_reserved":false,"is_disabled":false,"rental_uris":{"android":"levelo://app?vid=8d94f27b-ae0d-491a-83aa-3e23cd6e67d3","ios":"levelo://app?vid=8d94f27b-ae0d-491a-83aa-3e23cd6e67d3"},"vehicle_type_id":"4","last_reported":1731039051,"current_range_meters":38000,"station_id":"ce4bgup2rcd13ifvqcn0","pricing_plan_id":"cebpf4jnsgd1na2vs0mg"},{"bike_id":"84d60574-e97d-416a-bb69-40e9fb469182","system_id":"levelo_inurba_marseille","lat":43.22927,"lon":5.35378,"is_reserved":false,"is_disabled":false,"rental_uris":{"android":"levelo://app?vid=84d60574-e97d-416a-bb69-40e9fb469182","ios":"levelo://app?vid=84d60574-e97d-416a-bb69-40e9fb469182"},"vehicle_type_id":"4","last_reported":1731039051,"current_range_meters":39200,"station_id":"cpo3532slgdg3j2ikp40","pricing_plan_id":"cebpf4jnsgd1na2vs0mg"},{"bike_id":"29124b8f-1d30-4791-a390-42412debbc5a","system_id":"levelo_inurba_marseille","lat":43.25863,"lon":5.39898,"is_reserved":false,"is_disabled":false,"rental_uris":{"android":"levelo://app?vid=29124b8f-1d30-4791-a390-42412debbc5a","ios":"levelo://app?vid=29124b8f-1d30-4791-a390-42412debbc5a"},"vehicle_type_id":"4","last_reported":1731039051,"current_range_meters":38400,"station_id":"ce4bhl92rcd13ifvqghg","pricing_plan_id":"cebpf4jnsgd1na2vs0mg"},{"bike_id":"55106918-c43e-4f94-9771-9d01b3b33b93","system_id":"levelo_inurba_marseille","lat":43.25722,"lon":5.41111,"is_reserved":false,"is_disabled":false,"rental_uris":{"android":"levelo://app?vid=55106918-c43e-4f94-9771-9d01b3b33b93","ios":"levelo://app?vid=55106918-c43e-4f94-9771-9d01b3b33b93"},"vehicle_type_id":"4","last_reported":1731039051,"current_range_meters":37600,"station_id":"ce4bhkp2rcd13ifvqgd0","pricing_plan_id":"cebpf4jnsgd1na2vs0mg"},{"bike_id":"8190e161-5630-45e1-90ba-3f2b13675692","system_id":"levelo_inurba_marseille","lat":43.29577,"lon":5.39974,"is_reserved":false,"is_disabled":false,"rental_uris":{"android":"levelo://app?vid=8190e161-5630-45e1-90ba-3f2b13675692","ios":"levelo://app?vid=8190e161-5630-45e1-90ba-3f2b13675692"},"vehicle_type_id":"4","last_reported":1731039051,"current_range_meters":38800,"station_id":"ce4bh312rcd13ifvqdj0","pricing_plan_id":"cebpf4jnsgd1na2vs0mg"},{"bike_id":"886fe4b5-2bac-40a3-8737-574cf3d3a153","system_id":"levelo_inurba_marseille","lat":43.28697,"lon":5.37395,"is_reserved":false,"is_disabled":false,"rental_uris":{"android":"levelo://app?vid=886fe4b5-2bac-40a3-8737-574cf3d3a153","ios":"levelo://app?vid=886fe4b5-2bac-40a3-8737-574cf3d3a153"},"vehicle_type_id":"4","last_reported":1731039051,"current_range_meters":25200,"station_id":"ce4bh3p2rcd13ifvqdq0","pricing_plan_id":"cebpf4jnsgd1na2vs0mg"},{"bike_id":"b26d11aa-17b7-44a4-94f9-5cee11ed8cac","system_id":"levelo_inurba_marseille","lat":43.29793,"lon":5.39347,"is_reserved":false,"is_disabled":false,"rental_uris":{"android":"levelo://app?vid=b26d11aa-17b7-44a4-94f9-5cee11ed8cac","ios":"levelo://app?vid=b26d11aa-17b7-44a4-94f9-5cee11ed8cac"},"vehicle_type_id":"4","last_reported":1731039051,"current_range_meters":38400,"station_id":"chh1huq6cuj3fo74tm60","pricing_plan_id":"cebpf4jnsgd1na2vs0mg"},{"bike_id":"43ef446d-8adc-44a9-a73d-78a211be3855","system_id":"levelo_inurba_marseille","lat":43.29962,"lon":5.41315,"is_reserved":false,"is_disabled":false,"rental_uris":{"android":"levelo://app?vid=43ef446d-8adc-44a9-a73d-78a211be3855","ios":"levelo://app?vid=43ef446d-8adc-44a9-a73d-78a211be3855"},"vehicle_type_id":"4","last_reported":1731039051,"current_range_meters":39200,"station_id":"ce4bhp12rcd13ifvqh9g","pricing_plan_id":"cebpf4jnsgd1na2vs0mg"},{"bike_id":"a406f8b5-f116-4cff-8390-684d1e59ec22","system_id":"levelo_inurba_marseille","lat":43.31127,"lon":5.37768,"is_reserved":false,"is_disabled":false,"rental_uris":{"android":"levelo://app?vid=a406f8b5-f116-4cff-8390-684d1e59ec22","ios":"levelo://app?vid=a406f8b5-f116-4cff-8390-684d1e59ec22"},"vehicle_type_id":"4","last_reported":1731039051,"current_range_meters":38800,"station_id":"ce4bgt92rcd13ifvqcg0","pricing_plan_id":"cebpf4jnsgd1na2vs0mg"},{"bike_id":"7213140a-2c29-4022-8d7d-884b254061f4","system_id":"levelo_inurba_marseille","lat":43.31286,"lon":5.40171,"is_reserved":false,"is_disabled":false,"rental_uris":{"android":"levelo://app?vid=7213140a-2c29-4022-8d7d-884b254061f4","ios":"levelo://app?vid=7213140a-2c29-4022-8d7d-884b254061f4"},"vehicle_type_id":"4","last_reported":1731039051,"current_range_meters":39200,"station_id":"ce4bh092rcd13ifvqd30","pricing_plan_id":"cebpf4jnsgd1na2vs0mg"},{"bike_id":"11dbc5d9-5b28-4bc8-af1c-2b206ea101bb","system_id":"levelo_inurba_marseille","lat":43.30147,"lon":5.38078,"is_reserved":false,"is_disabled":false,"rental_uris":{"android":"levelo://app?vid=11dbc5d9-5b28-4bc8-af1c-2b206ea101bb","ios":"levelo://app?vid=11dbc5d9-5b28-4bc8-af1c-2b206ea101bb"},"vehicle_type_id":"4","last_reported":1731039051,"current_range_meters":4000,"station_id":"ce4bgjp2rcd13ifvqbh0","pricing_plan_id":"cebpf4jnsgd1na2vs0mg"},{"bike_id":"38c9c563-2dc8-4ec3-94f6-fd20caf6397c","system_id":"levelo_inurba_marseille","lat":43.28572,"lon":5.39509,"is_reserved":false,"is_disabled":false,"rental_uris":{"android":"levelo://app?vid=38c9c563-2dc8-4ec3-94f6-fd20caf6397c","ios":"levelo://app?vid=38c9c563-2dc8-4ec3-94f6-fd20caf6397c"},"vehicle_type_id":"4","last_reported":1731039051,"current_range_meters":39200,"station_id":"ce4bh292rcd13ifvqdg0","pricing_plan_id":"cebpf4jnsgd1na2vs0mg"},{"bike_id":"4eecdf01-2312-4036-b477-5b5650016af3","system_id":"levelo_inurba_marseille","lat":43.28359,"lon":5.38113,"is_reserved":false,"is_disabled":false,"rental_uris":{"android":"levelo://app?vid=4eecdf01-2312-4036-b477-5b5650016af3","ios":"levelo://app?vid=4eecdf01-2312-4036-b477-5b5650016af3"},"vehicle_type_id":"4","last_reported":1731039051,"current_range_meters":38000,"station_id":"ce4bh412rcd13ifvqdr0","pricing_plan_id":"cebpf4jnsgd1na2vs0mg"},{"bike_id":"70de144a-0069-4f13-ae37-8c7543eaf7d5","system_id":"levelo_inurba_marseille","lat":43.285725,"lon":5.395007,"is_reserved":false,"is_disabled":false,"rental_uris":{"android":"levelo://app?vid=70de144a-0069-4f13-ae37-8c7543eaf7d5","ios":"levelo://app?vid=70de144a-0069-4f13-ae37-8c7543eaf7d5"},"vehicle_type_id":"4","last_reported":1731039051,"current_range_meters":39200,"station_id":"ce4bh292rcd13ifvqdg0","pricing_plan_id":"cebpf4jnsgd1na2vs0mg"},{"bike_id":"c3c58e67-015d-480b-9891-b775b2911159","system_id":"levelo_inurba_marseille","lat":43.28667,"lon":5.36359,"is_reserved":false,"is_disabled":false,"rental_uris":{"android":"levelo://app?vid=c3c58e67-015d-480b-9891-b775b2911159","ios":"levelo://app?vid=c3c58e67-015d-480b-9891-b775b2911159"},"vehicle_type_id":"4","last_reported":1731039051,"current_range_meters":40000,"station_id":"ce4bhah2rcd13ifvqej0","pricing_plan_id":"cebpf4jnsgd1na2vs0mg"},{"bike_id":"5c61af28-1888-43f7-a2e4-9b3671fa3d52","system_id":"levelo_inurba_marseille","lat":43.28112,"lon":5.37824,"is_reserved":false,"is_disabled":false,"rental_uris":{"android":"levelo://app?vid=5c61af28-1888-43f7-a2e4-9b3671fa3d52","ios":"levelo://app?vid=5c61af28-1888-43f7-a2e4-9b3671fa3d52"},"vehicle_type_id":"4","last_reported":1731039051,"current_range_meters":39200,"station_id":"ce4bha12rcd13ifvqee0","pricing_plan_id":"cebpf4jnsgd1na2vs0mg"},{"bike_id":"e7cd005d-d362-4c36-a955-3c59f122a64d","system_id":"levelo_inurba_marseille","lat":43.28154,"lon":5.4264,"is_reserved":false,"is_disabled":false,"rental_uris":{"android":"levelo://app?vid=e7cd005d-d362-4c36-a955-3c59f122a64d","ios":"levelo://app?vid=e7cd005d-d362-4c36-a955-3c59f122a64d"},"vehicle_type_id":"4","last_reported":1731039051,"current_range_meters":27200,"station_id":"ce4bhnh2rcd13ifvqgug","pricing_plan_id":"cebpf4jnsgd1na2vs0mg"},{"bike_id":"73b5e008-8cdb-4a7d-8781-802838d2c5eb","system_id":"levelo_inurba_marseille","lat":43.31373,"lon":5.38501,"is_reserved":false,"is_disabled":false,"rental_uris":{"android":"levelo://app?vid=73b5e008-8cdb-4a7d-8781-802838d2c5eb","ios":"levelo://app?vid=73b5e008-8cdb-4a7d-8781-802838d2c5eb"},"vehicle_type_id":"4","last_reported":1731039051,"current_range_meters":9200,"station_id":"ce4bgt92rcd13ifvqcf0","pricing_plan_id":"cebpf4jnsgd1na2vs0mg"},{"bike_id":"86df6946-1e8b-4481-962b-4975b4baf575","system_id":"levelo_inurba_marseille","lat":43.27926,"lon":5.39581,"is_reserved":false,"is_disabled":false,"rental_uris":{"android":"levelo://app?vid=86df6946-1e8b-4481-962b-4975b4baf575","ios":"levelo://app?vid=86df6946-1e8b-4481-962b-4975b4baf575"},"vehicle_type_id":"4","last_reported":1731039051,"current_range_meters":24400,"station_id":"ce4bhf92rcd13ifvqf40","pricing_plan_id":"cebpf4jnsgd1na2vs0mg"},{"bike_id":"ca962693-2895-4340-9047-baf52dc420f0","system_id":"levelo_inurba_marseille","lat":43.29796,"lon":5.40408,"is_reserved":false,"is_disabled":false,"rental_uris":{"android":"levelo://app?vid=ca962693-2895-4340-9047-baf52dc420f0","ios":"levelo://app?vid=ca962693-2895-4340-9047-baf52dc420f0"},"vehicle_type_id":"4","last_reported":1731039051,"current_range_meters":39200,"station_id":"ce4bh112rcd13ifvqd90","pricing_plan_id":"cebpf4jnsgd1na2vs0mg"},{"bike_id":"4c241be9-8b83-41c3-a294-004c1832bd02","system_id":"levelo_inurba_marseille","lat":43.28709,"lon":5.39983,"is_reserved":false,"is_disabled":false,"rental_uris":{"android":"levelo://app?vid=4c241be9-8b83-41c3-a294-004c1832bd02","ios":"levelo://app?vid=4c241be9-8b83-41c3-a294-004c1832bd02"},"vehicle_type_id":"4","last_reported":1731039051,"current_range_meters":36400,"station_id":"ce4bho92rcd13ifvqh3g","pricing_plan_id":"cebpf4jnsgd1na2vs0mg"},{"bike_id":"ecde584f-5379-4d17-af3f-ba7114b2c649","system_id":"levelo_inurba_marseille","lat":43.26064,"lon":5.39392,"is_reserved":false,"is_disabled":false,"rental_uris":{"android":"levelo://app?vid=ecde584f-5379-4d17-af3f-ba7114b2c649","ios":"levelo://app?vid=ecde584f-5379-4d17-af3f-ba7114b2c649"},"vehicle_type_id":"4","last_reported":1731039051,"current_range_meters":39200,"station_id":"ce4bhh92rcd13ifvqfj0","pricing_plan_id":"cebpf4jnsgd1na2vs0mg"},{"bike_id":"d9f62232-bf1d-4648-a44d-0d8f902be5a7","system_id":"levelo_inurba_marseille","lat":43.2763,"lon":5.42639,"is_reserved":false,"is_disabled":false,"rental_uris":{"android":"levelo://app?vid=d9f62232-bf1d-4648-a44d-0d8f902be5a7","ios":"levelo://app?vid=d9f62232-bf1d-4648-a44d-0d8f902be5a7"},"vehicle_type_id":"4","last_reported":1731039051,"current_range_meters":6400,"station_id":"","pricing_plan_id":"cebpf4jnsgd1na2vs0mg"},{"bike_id":"5f5fed70-1a16-4a51-9daa-ef868c6df0d0","system_id":"levelo_inurba_marseille","lat":43.2397,"lon":5.36621,"is_reserved":false,"is_disabled":false,"rental_uris":{"android":"levelo://app?vid=5f5fed70-1a16-4a51-9daa-ef868c6df0d0","ios":"levelo://app?vid=5f5fed70-1a16-4a51-9daa-ef868c6df0d0"},"vehicle_type_id":"4","last_reported":1731039051,"current_range_meters":16800,"station_id":"ce4bhi12rcd13ifvqfp0","pricing_plan_id":"cebpf4jnsgd1na2vs0mg"},{"bike_id":"6c04de54-8dbd-4e1b-8912-9143e705093a","system_id":"levelo_inurba_marseille","lat":43.28323,"lon":5.36087,"is_reserved":false,"is_disabled":false,"rental_uris":{"android":"levelo://app?vid=6c04de54-8dbd-4e1b-8912-9143e705093a","ios":"levelo://app?vid=6c04de54-8dbd-4e1b-8912-9143e705093a"},"vehicle_type_id":"4","last_reported":1731039051,"current_range_meters":20000,"station_id":"","pricing_plan_id":"cebpf4jnsgd1na2vs0mg"},{"bike_id":"67678471-8900-40c3-b5bb-806b24feb686","system_id":"levelo_inurba_marseille","lat":43.31327,"lon":5.397,"is_reserved":false,"is_disabled":false,"rental_uris":{"android":"levelo://app?vid=67678471-8900-40c3-b5bb-806b24feb686","ios":"levelo://app?vid=67678471-8900-40c3-b5bb-806b24feb686"},"vehicle_type_id":"4","last_reported":1731039051,"current_range_meters":25200,"station_id":"ce4bgvp2rcd13ifvqcu0","pricing_plan_id":"cebpf4jnsgd1na2vs0mg"},{"bike_id":"56f25a01-e9b4-4614-888c-cf6de6b16e2a","system_id":"levelo_inurba_marseille","lat":43.31713,"lon":5.37741,"is_reserved":false,"is_disabled":false,"rental_uris":{"android":"levelo://app?vid=56f25a01-e9b4-4614-888c-cf6de6b16e2a","ios":"levelo://app?vid=56f25a01-e9b4-4614-888c-cf6de6b16e2a"},"vehicle_type_id":"4","last_reported":1731039051,"current_range_meters":39200,"station_id":"ce4bgth2rcd13ifvqch0","pricing_plan_id":"cebpf4jnsgd1na2vs0mg"},{"bike_id":"65eea0cd-2ca5-4855-b964-b026702e1d71","system_id":"levelo_inurba_marseille","lat":43.27925,"lon":5.39577,"is_reserved":false,"is_disabled":false,"rental_uris":{"android":"levelo://app?vid=65eea0cd-2ca5-4855-b964-b026702e1d71","ios":"levelo://app?vid=65eea0cd-2ca5-4855-b964-b026702e1d71"},"vehicle_type_id":"4","last_reported":1731039051,"current_range_meters":20000,"station_id":"ce4bhf92rcd13ifvqf40","pricing_plan_id":"cebpf4jnsgd1na2vs0mg"},{"bike_id":"d2dc696d-23ad-44cf-96bd-d2d2b96a9859","system_id":"levelo_inurba_marseille","lat":43.29436,"lon":5.39745,"is_reserved":false,"is_disabled":false,"rental_uris":{"android":"levelo://app?vid=d2dc696d-23ad-44cf-96bd-d2d2b96a9859","ios":"levelo://app?vid=d2dc696d-23ad-44cf-96bd-d2d2b96a9859"},"vehicle_type_id":"4","last_reported":1731039051,"current_range_meters":32800,"station_id":"ce4bh3h2rcd13ifvqdo0","pricing_plan_id":"cebpf4jnsgd1na2vs0mg"},{"bike_id":"c70f3a51-3c77-47f4-afdc-c467e625745f","system_id":"levelo_inurba_marseille","lat":43.281055,"lon":5.38217,"is_reserved":false,"is_disabled":false,"rental_uris":{"android":"levelo://app?vid=c70f3a51-3c77-47f4-afdc-c467e625745f","ios":"levelo://app?vid=c70f3a51-3c77-47f4-afdc-c467e625745f"},"vehicle_type_id":"4","last_reported":1731039051,"current_range_meters":24800,"station_id":"","pricing_plan_id":"cebpf4jnsgd1na2vs0mg"},{"bike_id":"d6fdae69-642e-4d84-a8fd-edeb75ed0ef4","system_id":"levelo_inurba_marseille","lat":43.22929,"lon":5.3537,"is_reserved":false,"is_disabled":false,"rental_uris":{"android":"levelo://app?vid=d6fdae69-642e-4d84-a8fd-edeb75ed0ef4","ios":"levelo://app?vid=d6fdae69-642e-4d84-a8fd-edeb75ed0ef4"},"vehicle_type_id":"4","last_reported":1731039051,"current_range_meters":25200,"station_id":"cpo3532slgdg3j2ikp40","pricing_plan_id":"cebpf4jnsgd1na2vs0mg"},{"bike_id":"750e93d0-01f1-496d-93b1-920137237eef","system_id":"levelo_inurba_marseille","lat":43.31172,"lon":5.38713,"is_reserved":false,"is_disabled":false,"rental_uris":{"android":"levelo://app?vid=750e93d0-01f1-496d-93b1-920137237eef","ios":"levelo://app?vid=750e93d0-01f1-496d-93b1-920137237eef"},"vehicle_type_id":"4","last_reported":1731039051,"current_range_meters":38000,"station_id":"ce4bgv12rcd13ifvqcp0","pricing_plan_id":"cebpf4jnsgd1na2vs0mg"},{"bike_id":"0dbd4524-d4da-4d40-9087-5e2c18e4dea4","system_id":"levelo_inurba_marseille","lat":43.28564,"lon":5.3951,"is_reserved":false,"is_disabled":false,"rental_uris":{"android":"levelo://app?vid=0dbd4524-d4da-4d40-9087-5e2c18e4dea4","ios":"levelo://app?vid=0dbd4524-d4da-4d40-9087-5e2c18e4dea4"},"vehicle_type_id":"4","last_reported":1731039051,"current_range_meters":39200,"station_id":"ce4bh292rcd13ifvqdg0","pricing_plan_id":"cebpf4jnsgd1na2vs0mg"},{"bike_id":"f3e560e9-4ff9-47e0-8867-1a0dd006162a","system_id":"levelo_inurba_marseille","lat":43.31713,"lon":5.43705,"is_reserved":false,"is_disabled":false,"rental_uris":{"android":"levelo://app?vid=f3e560e9-4ff9-47e0-8867-1a0dd006162a","ios":"levelo://app?vid=f3e560e9-4ff9-47e0-8867-1a0dd006162a"},"vehicle_type_id":"4","last_reported":1731039051,"current_range_meters":37600,"station_id":"ce4bhp92rcd13ifvqhcg","pricing_plan_id":"cebpf4jnsgd1na2vs0mg"},{"bike_id":"5ce4f4d7-2db3-4c04-8c14-afae7933ede7","system_id":"levelo_inurba_marseille","lat":43.27915,"lon":5.39581,"is_reserved":false,"is_disabled":false,"rental_uris":{"android":"levelo://app?vid=5ce4f4d7-2db3-4c04-8c14-afae7933ede7","ios":"levelo://app?vid=5ce4f4d7-2db3-4c04-8c14-afae7933ede7"},"vehicle_type_id":"4","last_reported":1731039051,"current_range_meters":6800,"station_id":"ce4bhf92rcd13ifvqf40","pricing_plan_id":"cebpf4jnsgd1na2vs0mg"},{"bike_id":"643bca0a-b64b-4b32-85c7-4a59591334b7","system_id":"levelo_inurba_marseille","lat":43.28152,"lon":5.42649,"is_reserved":false,"is_disabled":false,"rental_uris":{"android":"levelo://app?vid=643bca0a-b64b-4b32-85c7-4a59591334b7","ios":"levelo://app?vid=643bca0a-b64b-4b32-85c7-4a59591334b7"},"vehicle_type_id":"4","last_reported":1731039051,"current_range_meters":19200,"station_id":"ce4bhnh2rcd13ifvqgug","pricing_plan_id":"cebpf4jnsgd1na2vs0mg"},{"bike_id":"beed6431-178e-401a-9fa0-1b1a15e0b666","system_id":"levelo_inurba_marseille","lat":43.25113,"lon":5.40331,"is_reserved":false,"is_disabled":false,"rental_uris":{"android":"levelo://app?vid=beed6431-178e-401a-9fa0-1b1a15e0b666","ios":"levelo://app?vid=beed6431-178e-401a-9fa0-1b1a15e0b666"},"vehicle_type_id":"4","last_reported":1731039051,"current_range_meters":38400,"station_id":"ce4bhlh2rcd13ifvqgig","pricing_plan_id":"cebpf4jnsgd1na2vs0mg"},{"bike_id":"f514e9d2-622e-4f9c-8674-304ce0e33a58","system_id":"levelo_inurba_marseille","lat":43.28109,"lon":5.37832,"is_reserved":false,"is_disabled":false,"rental_uris":{"android":"levelo://app?vid=f514e9d2-622e-4f9c-8674-304ce0e33a58","ios":"levelo://app?vid=f514e9d2-622e-4f9c-8674-304ce0e33a58"},"vehicle_type_id":"4","last_reported":1731039051,"current_range_meters":38000,"station_id":"ce4bha12rcd13ifvqee0","pricing_plan_id":"cebpf4jnsgd1na2vs0mg"},{"bike_id":"001b7c42-40a7-47a9-927f-6c03197892aa","system_id":"levelo_inurba_marseille","lat":43.33724,"lon":5.39175,"is_reserved":false,"is_disabled":false,"rental_uris":{"android":"levelo://app?vid=001b7c42-40a7-47a9-927f-6c03197892aa","ios":"levelo://app?vid=001b7c42-40a7-47a9-927f-6c03197892aa"},"vehicle_type_id":"4","last_reported":1731039051,"current_range_meters":38800,"station_id":"ce4bhr92rcd13ifvqhsg","pricing_plan_id":"cebpf4jnsgd1na2vs0mg"},{"bike_id":"2e060594-fe17-443a-9988-5e4f3cb58498","system_id":"levelo_inurba_marseille","lat":43.28482,"lon":5.38424,"is_reserved":false,"is_disabled":false,"rental_uris":{"android":"levelo://app?vid=2e060594-fe17-443a-9988-5e4f3cb58498","ios":"levelo://app?vid=2e060594-fe17-443a-9988-5e4f3cb58498"},"vehicle_type_id":"4","last_reported":1731039051,"current_range_meters":20000,"station_id":"ce4bh512rcd13ifvqe3g","pricing_plan_id":"cebpf4jnsgd1na2vs0mg"},{"bike_id":"3a7eca15-79d9-4b5b-afad-24a4270e5e92","system_id":"levelo_inurba_marseille","lat":43.2791,"lon":5.39588,"is_reserved":false,"is_disabled":false,"rental_uris":{"android":"levelo://app?vid=3a7eca15-79d9-4b5b-afad-24a4270e5e92","ios":"levelo://app?vid=3a7eca15-79d9-4b5b-afad-24a4270e5e92"},"vehicle_type_id":"4","last_reported":1731039051,"current_range_meters":33600,"station_id":"ce4bhf92rcd13ifvqf40","pricing_plan_id":"cebpf4jnsgd1na2vs0mg"},{"bike_id":"80f88f91-d648-453a-88b2-cfa7d57ba25b","system_id":"levelo_inurba_marseille","lat":43.23189,"lon":5.39986,"is_reserved":false,"is_disabled":false,"rental_uris":{"android":"levelo://app?vid=80f88f91-d648-453a-88b2-cfa7d57ba25b","ios":"levelo://app?vid=80f88f91-d648-453a-88b2-cfa7d57ba25b"},"vehicle_type_id":"4","last_reported":1731039051,"current_range_meters":25200,"station_id":"ce4bhn12rcd13ifvqgqg","pricing_plan_id":"cebpf4jnsgd1na2vs0mg"},{"bike_id":"f9b12aa7-d700-457f-93a4-fe584104c38a","system_id":"levelo_inurba_marseille","lat":43.29422,"lon":5.3973,"is_reserved":false,"is_disabled":false,"rental_uris":{"android":"levelo://app?vid=f9b12aa7-d700-457f-93a4-fe584104c38a","ios":"levelo://app?vid=f9b12aa7-d700-457f-93a4-fe584104c38a"},"vehicle_type_id":"4","last_reported":1731039051,"current_range_meters":39200,"station_id":"ce4bh3h2rcd13ifvqdo0","pricing_plan_id":"cebpf4jnsgd1na2vs0mg"},{"bike_id":"506bb75c-7800-4f01-9487-2ae804978625","system_id":"levelo_inurba_marseille","lat":43.29788,"lon":5.39353,"is_reserved":false,"is_disabled":false,"rental_uris":{"android":"levelo://app?vid=506bb75c-7800-4f01-9487-2ae804978625","ios":"levelo://app?vid=506bb75c-7800-4f01-9487-2ae804978625"},"vehicle_type_id":"4","last_reported":1731039051,"current_range_meters":38400,"station_id":"chh1huq6cuj3fo74tm60","pricing_plan_id":"cebpf4jnsgd1na2vs0mg"},{"bike_id":"a7eb1bc9-fca5-4253-aedc-4fa129d70e3a","system_id":"levelo_inurba_marseille","lat":43.3172,"lon":5.42393,"is_reserved":false,"is_disabled":false,"rental_uris":{"android":"levelo://app?vid=a7eb1bc9-fca5-4253-aedc-4fa129d70e3a","ios":"levelo://app?vid=a7eb1bc9-fca5-4253-aedc-4fa129d70e3a"},"vehicle_type_id":"4","last_reported":1731039051,"current_range_meters":38800,"station_id":"ce4bhp92rcd13ifvqhbg","pricing_plan_id":"cebpf4jnsgd1na2vs0mg"},{"bike_id":"6a6b0b60-4365-44c3-a412-98e6224e649e","system_id":"levelo_inurba_marseille","lat":43.28863,"lon":5.35844,"is_reserved":false,"is_disabled":false,"rental_uris":{"android":"levelo://app?vid=6a6b0b60-4365-44c3-a412-98e6224e649e","ios":"levelo://app?vid=6a6b0b60-4365-44c3-a412-98e6224e649e"},"vehicle_type_id":"4","last_reported":1731039051,"current_range_meters":31200,"station_id":"ce4bhb12rcd13ifvqem0","pricing_plan_id":"cebpf4jnsgd1na2vs0mg"},{"bike_id":"9178d598-d5de-4d5c-85ae-0efa9377149a","system_id":"levelo_inurba_marseille","lat":43.23185,"lon":5.3998,"is_reserved":false,"is_disabled":false,"rental_uris":{"android":"levelo://app?vid=9178d598-d5de-4d5c-85ae-0efa9377149a","ios":"levelo://app?vid=9178d598-d5de-4d5c-85ae-0efa9377149a"},"vehicle_type_id":"4","last_reported":1731039051,"current_range_meters":17600,"station_id":"ce4bhn12rcd13ifvqgqg","pricing_plan_id":"cebpf4jnsgd1na2vs0mg"},{"bike_id":"16241619-68a5-47ef-8ec1-a191e36146be","system_id":"levelo_inurba_marseille","lat":43.30438,"lon":5.37772,"is_reserved":false,"is_disabled":false,"rental_uris":{"android":"levelo://app?vid=16241619-68a5-47ef-8ec1-a191e36146be","ios":"levelo://app?vid=16241619-68a5-47ef-8ec1-a191e36146be"},"vehicle_type_id":"4","last_reported":1731039051,"current_range_meters":38400,"station_id":"ce4bgup2rcd13ifvqcn0","pricing_plan_id":"cebpf4jnsgd1na2vs0mg"},{"bike_id":"0f6720d0-0074-4d75-8954-368ef2125385","system_id":"levelo_inurba_marseille","lat":43.317312,"lon":5.377489,"is_reserved":false,"is_disabled":false,"rental_uris":{"android":"levelo://app?vid=0f6720d0-0074-4d75-8954-368ef2125385","ios":"levelo://app?vid=0f6720d0-0074-4d75-8954-368ef2125385"},"vehicle_type_id":"4","last_reported":1731039051,"current_range_meters":32000,"station_id":"ce4bgth2rcd13ifvqch0","pricing_plan_id":"cebpf4jnsgd1na2vs0mg"},{"bike_id":"51565bbe-fdad-49e2-9143-31b45a68b061","system_id":"levelo_inurba_marseille","lat":43.28578,"lon":5.39504,"is_reserved":false,"is_disabled":false,"rental_uris":{"android":"levelo://app?vid=51565bbe-fdad-49e2-9143-31b45a68b061","ios":"levelo://app?vid=51565bbe-fdad-49e2-9143-31b45a68b061"},"vehicle_type_id":"4","last_reported":1731039051,"current_range_meters":39200,"station_id":"ce4bh292rcd13ifvqdg0","pricing_plan_id":"cebpf4jnsgd1na2vs0mg"},{"bike_id":"fdf26527-6c0f-4b2a-b565-d41399ed3242","system_id":"levelo_inurba_marseille","lat":43.31537,"lon":5.38028,"is_reserved":false,"is_disabled":false,"rental_uris":{"android":"levelo://app?vid=fdf26527-6c0f-4b2a-b565-d41399ed3242","ios":"levelo://app?vid=fdf26527-6c0f-4b2a-b565-d41399ed3242"},"vehicle_type_id":"4","last_reported":1731039051,"current_range_meters":38800,"station_id":"ce4bhsp2rcd13ifvqi50","pricing_plan_id":"cebpf4jnsgd1na2vs0mg"},{"bike_id":"27d0d288-fe14-446f-a825-4bb77001b7d5","system_id":"levelo_inurba_marseille","lat":43.32365,"lon":5.38886,"is_reserved":false,"is_disabled":false,"rental_uris":{"android":"levelo://app?vid=27d0d288-fe14-446f-a825-4bb77001b7d5","ios":"levelo://app?vid=27d0d288-fe14-446f-a825-4bb77001b7d5"},"vehicle_type_id":"4","last_reported":1731039051,"current_range_meters":38800,"station_id":"ce4bhqp2rcd13ifvqhog","pricing_plan_id":"cebpf4jnsgd1na2vs0mg"},{"bike_id":"433208ca-d9d3-43fc-816f-9055c7e0abe6","system_id":"levelo_inurba_marseille","lat":43.301303,"lon":5.398731,"is_reserved":false,"is_disabled":false,"rental_uris":{"android":"levelo://app?vid=433208ca-d9d3-43fc-816f-9055c7e0abe6","ios":"levelo://app?vid=433208ca-d9d3-43fc-816f-9055c7e0abe6"},"vehicle_type_id":"4","last_reported":1731039051,"current_range_meters":38000,"station_id":"ce4bh0h2rcd13ifvqd40","pricing_plan_id":"cebpf4jnsgd1na2vs0mg"},{"bike_id":"47663064-eb52-4c75-bc20-15b0269bf906","system_id":"levelo_inurba_marseille","lat":43.31712,"lon":5.43706,"is_reserved":false,"is_disabled":false,"rental_uris":{"android":"levelo://app?vid=47663064-eb52-4c75-bc20-15b0269bf906","ios":"levelo://app?vid=47663064-eb52-4c75-bc20-15b0269bf906"},"vehicle_type_id":"4","last_reported":1731039051,"current_range_meters":37600,"station_id":"ce4bhp92rcd13ifvqhcg","pricing_plan_id":"cebpf4jnsgd1na2vs0mg"},{"bike_id":"297cca10-aafa-4d61-8b07-786b4c75292f","system_id":"levelo_inurba_marseille","lat":43.32337,"lon":5.40622,"is_reserved":false,"is_disabled":false,"rental_uris":{"android":"levelo://app?vid=297cca10-aafa-4d61-8b07-786b4c75292f","ios":"levelo://app?vid=297cca10-aafa-4d61-8b07-786b4c75292f"},"vehicle_type_id":"4","last_reported":1731039051,"current_range_meters":13600,"station_id":"ce4bhq92rcd13ifvqhjg","pricing_plan_id":"cebpf4jnsgd1na2vs0mg"},{"bike_id":"5c2389ce-93a2-4e35-94ea-d784f071b4a0","system_id":"levelo_inurba_marseille","lat":43.29437,"lon":5.39754,"is_reserved":false,"is_disabled":false,"rental_uris":{"android":"levelo://app?vid=5c2389ce-93a2-4e35-94ea-d784f071b4a0","ios":"levelo://app?vid=5c2389ce-93a2-4e35-94ea-d784f071b4a0"},"vehicle_type_id":"4","last_reported":1731039051,"current_range_meters":35200,"station_id":"ce4bh3h2rcd13ifvqdo0","pricing_plan_id":"cebpf4jnsgd1na2vs0mg"},{"bike_id":"0993ae53-b33b-4ec0-8420-6942bdb9eb84","system_id":"levelo_inurba_marseille","lat":43.30795,"lon":5.43526,"is_reserved":false,"is_disabled":false,"rental_uris":{"android":"levelo://app?vid=0993ae53-b33b-4ec0-8420-6942bdb9eb84","ios":"levelo://app?vid=0993ae53-b33b-4ec0-8420-6942bdb9eb84"},"vehicle_type_id":"4","last_reported":1731039051,"current_range_meters":38800,"station_id":"ce4bhph2rcd13ifvqheg","pricing_plan_id":"cebpf4jnsgd1na2vs0mg"},{"bike_id":"16ba3275-aca3-4fa3-b735-a80b507cecee","system_id":"levelo_inurba_marseille","lat":43.3137,"lon":5.38502,"is_reserved":false,"is_disabled":false,"rental_uris":{"android":"levelo://app?vid=16ba3275-aca3-4fa3-b735-a80b507cecee","ios":"levelo://app?vid=16ba3275-aca3-4fa3-b735-a80b507cecee"},"vehicle_type_id":"4","last_reported":1731039051,"current_range_meters":24800,"station_id":"ce4bgt92rcd13ifvqcf0","pricing_plan_id":"cebpf4jnsgd1na2vs0mg"},{"bike_id":"c389d7c8-ab7f-47ef-9e01-a0538c7be377","system_id":"levelo_inurba_marseille","lat":43.30319,"lon":5.40439,"is_reserved":false,"is_disabled":false,"rental_uris":{"android":"levelo://app?vid=c389d7c8-ab7f-47ef-9e01-a0538c7be377","ios":"levelo://app?vid=c389d7c8-ab7f-47ef-9e01-a0538c7be377"},"vehicle_type_id":"4","last_reported":1731039051,"current_range_meters":38800,"station_id":"ce4bh012rcd13ifvqd10","pricing_plan_id":"cebpf4jnsgd1na2vs0mg"},{"bike_id":"2110941d-d88f-4916-98c3-490e78eee70c","system_id":"levelo_inurba_marseille","lat":43.2841,"lon":5.37515,"is_reserved":false,"is_disabled":false,"rental_uris":{"android":"levelo://app?vid=2110941d-d88f-4916-98c3-490e78eee70c","ios":"levelo://app?vid=2110941d-d88f-4916-98c3-490e78eee70c"},"vehicle_type_id":"4","last_reported":1731039051,"current_range_meters":28000,"station_id":"ce4bh412rcd13ifvqds0","pricing_plan_id":"cebpf4jnsgd1na2vs0mg"},{"bike_id":"12630b9d-f0ed-46fb-bfff-e48f21100201","system_id":"levelo_inurba_marseille","lat":43.33024,"lon":5.39038,"is_reserved":false,"is_disabled":false,"rental_uris":{"android":"levelo://app?vid=12630b9d-f0ed-46fb-bfff-e48f21100201","ios":"levelo://app?vid=12630b9d-f0ed-46fb-bfff-e48f21100201"},"vehicle_type_id":"4","last_reported":1731039051,"current_range_meters":39200,"station_id":"ce4bhr92rcd13ifvqhrg","pricing_plan_id":"cebpf4jnsgd1na2vs0mg"},{"bike_id":"4cf99b37-d8c9-402b-a95f-c6baac4f233e","system_id":"levelo_inurba_marseille","lat":43.25115,"lon":5.40322,"is_reserved":false,"is_disabled":false,"rental_uris":{"android":"levelo://app?vid=4cf99b37-d8c9-402b-a95f-c6baac4f233e","ios":"levelo://app?vid=4cf99b37-d8c9-402b-a95f-c6baac4f233e"},"vehicle_type_id":"4","last_reported":1731039051,"current_range_meters":11200,"station_id":"ce4bhlh2rcd13ifvqgig","pricing_plan_id":"cebpf4jnsgd1na2vs0mg"},{"bike_id":"d269ed79-363c-4650-a131-5c80cfb4586c","system_id":"levelo_inurba_marseille","lat":43.23197,"lon":5.35548,"is_reserved":false,"is_disabled":false,"rental_uris":{"android":"levelo://app?vid=d269ed79-363c-4650-a131-5c80cfb4586c","ios":"levelo://app?vid=d269ed79-363c-4650-a131-5c80cfb4586c"},"vehicle_type_id":"4","last_reported":1731039051,"current_range_meters":28000,"station_id":"ce4bhu92rcd13ifvqi70","pricing_plan_id":"cebpf4jnsgd1na2vs0mg"},{"bike_id":"b180cc6a-5a04-4cc7-97a9-452164440d62","system_id":"levelo_inurba_marseille","lat":43.28934,"lon":5.36398,"is_reserved":false,"is_disabled":false,"rental_uris":{"android":"levelo://app?vid=b180cc6a-5a04-4cc7-97a9-452164440d62","ios":"levelo://app?vid=b180cc6a-5a04-4cc7-97a9-452164440d62"},"vehicle_type_id":"4","last_reported":1731039051,"current_range_meters":37600,"station_id":"ce4bhc92rcd13ifvqetg","pricing_plan_id":"cebpf4jnsgd1na2vs0mg"},{"bike_id":"650f5835-bc4e-42c7-b5d8-20d584cdd8af","system_id":"levelo_inurba_marseille","lat":43.32485,"lon":5.36551,"is_reserved":false,"is_disabled":false,"rental_uris":{"android":"levelo://app?vid=650f5835-bc4e-42c7-b5d8-20d584cdd8af","ios":"levelo://app?vid=650f5835-bc4e-42c7-b5d8-20d584cdd8af"},"vehicle_type_id":"4","last_reported":1731039051,"current_range_meters":38000,"station_id":"ce4bhs12rcd13ifvqhvg","pricing_plan_id":"cebpf4jnsgd1na2vs0mg"},{"bike_id":"05e2025d-8068-47de-ac43-36f5972abcac","system_id":"levelo_inurba_marseille","lat":43.2815,"lon":5.4264,"is_reserved":false,"is_disabled":false,"rental_uris":{"android":"levelo://app?vid=05e2025d-8068-47de-ac43-36f5972abcac","ios":"levelo://app?vid=05e2025d-8068-47de-ac43-36f5972abcac"},"vehicle_type_id":"4","last_reported":1731039051,"current_range_meters":24800,"station_id":"ce4bhnh2rcd13ifvqgug","pricing_plan_id":"cebpf4jnsgd1na2vs0mg"},{"bike_id":"a1fe4a3e-258e-43f3-80a4-0a0ef769f4ea","system_id":"levelo_inurba_marseille","lat":43.31392,"lon":5.38512,"is_reserved":false,"is_disabled":false,"rental_uris":{"android":"levelo://app?vid=a1fe4a3e-258e-43f3-80a4-0a0ef769f4ea","ios":"levelo://app?vid=a1fe4a3e-258e-43f3-80a4-0a0ef769f4ea"},"vehicle_type_id":"4","last_reported":1731039051,"current_range_meters":39200,"station_id":"ce4bgt92rcd13ifvqcf0","pricing_plan_id":"cebpf4jnsgd1na2vs0mg"},{"bike_id":"3e4aedac-9619-4a99-ab5c-af45d38c2f4a","system_id":"levelo_inurba_marseille","lat":43.27574,"lon":5.38428,"is_reserved":false,"is_disabled":false,"rental_uris":{"android":"levelo://app?vid=3e4aedac-9619-4a99-ab5c-af45d38c2f4a","ios":"levelo://app?vid=3e4aedac-9619-4a99-ab5c-af45d38c2f4a"},"vehicle_type_id":"4","last_reported":1731039051,"current_range_meters":38400,"station_id":"ce4bhh92rcd13ifvqfi0","pricing_plan_id":"cebpf4jnsgd1na2vs0mg"},{"bike_id":"928945a9-829e-4eae-a34b-7dbc357fb10c","system_id":"levelo_inurba_marseille","lat":43.28939,"lon":5.36383,"is_reserved":false,"is_disabled":false,"rental_uris":{"android":"levelo://app?vid=928945a9-829e-4eae-a34b-7dbc357fb10c","ios":"levelo://app?vid=928945a9-829e-4eae-a34b-7dbc357fb10c"},"vehicle_type_id":"4","last_reported":1731039051,"current_range_meters":28000,"station_id":"ce4bhc92rcd13ifvqetg","pricing_plan_id":"cebpf4jnsgd1na2vs0mg"},{"bike_id":"f70d85dc-af29-4492-8985-4a98e2003158","system_id":"levelo_inurba_marseille","lat":43.28565,"lon":5.39502,"is_reserved":false,"is_disabled":false,"rental_uris":{"android":"levelo://app?vid=f70d85dc-af29-4492-8985-4a98e2003158","ios":"levelo://app?vid=f70d85dc-af29-4492-8985-4a98e2003158"},"vehicle_type_id":"4","last_reported":1731039051,"current_range_meters":28800,"station_id":"ce4bh292rcd13ifvqdg0","pricing_plan_id":"cebpf4jnsgd1na2vs0mg"},{"bike_id":"4aaf6f1e-6fb3-42ca-b792-aa07d9924fbd","system_id":"levelo_inurba_marseille","lat":43.27814,"lon":5.40711,"is_reserved":false,"is_disabled":false,"rental_uris":{"android":"levelo://app?vid=4aaf6f1e-6fb3-42ca-b792-aa07d9924fbd","ios":"levelo://app?vid=4aaf6f1e-6fb3-42ca-b792-aa07d9924fbd"},"vehicle_type_id":"4","last_reported":1731039051,"current_range_meters":27200,"station_id":"ce4bhnh2rcd13ifvqgtg","pricing_plan_id":"cebpf4jnsgd1na2vs0mg"},{"bike_id":"92bbe5af-b5d9-48fc-afb8-3b15fc8d3190","system_id":"levelo_inurba_marseille","lat":43.31723,"lon":5.42395,"is_reserved":false,"is_disabled":false,"rental_uris":{"android":"levelo://app?vid=92bbe5af-b5d9-48fc-afb8-3b15fc8d3190","ios":"levelo://app?vid=92bbe5af-b5d9-48fc-afb8-3b15fc8d3190"},"vehicle_type_id":"4","last_reported":1731039051,"current_range_meters":30400,"station_id":"ce4bhp92rcd13ifvqhbg","pricing_plan_id":"cebpf4jnsgd1na2vs0mg"},{"bike_id":"b89da140-c3b6-426f-a346-4fa42ea03fdf","system_id":"levelo_inurba_marseille","lat":43.28569,"lon":5.3951,"is_reserved":false,"is_disabled":false,"rental_uris":{"android":"levelo://app?vid=b89da140-c3b6-426f-a346-4fa42ea03fdf","ios":"levelo://app?vid=b89da140-c3b6-426f-a346-4fa42ea03fdf"},"vehicle_type_id":"4","last_reported":1731039051,"current_range_meters":39200,"station_id":"ce4bh292rcd13ifvqdg0","pricing_plan_id":"cebpf4jnsgd1na2vs0mg"},{"bike_id":"71fecc78-133c-41a7-9eac-78b344aa188a","system_id":"levelo_inurba_marseille","lat":43.31125,"lon":5.3777,"is_reserved":false,"is_disabled":false,"rental_uris":{"android":"levelo://app?vid=71fecc78-133c-41a7-9eac-78b344aa188a","ios":"levelo://app?vid=71fecc78-133c-41a7-9eac-78b344aa188a"},"vehicle_type_id":"4","last_reported":1731039051,"current_range_meters":35600,"station_id":"ce4bgt92rcd13ifvqcg0","pricing_plan_id":"cebpf4jnsgd1na2vs0mg"},{"bike_id":"db4059ee-174a-4962-90c0-f1ac67f084a4","system_id":"levelo_inurba_marseille","lat":43.259463,"lon":5.409082,"is_reserved":false,"is_disabled":false,"rental_uris":{"android":"levelo://app?vid=db4059ee-174a-4962-90c0-f1ac67f084a4","ios":"levelo://app?vid=db4059ee-174a-4962-90c0-f1ac67f084a4"},"vehicle_type_id":"4","last_reported":1731039051,"current_range_meters":38800,"station_id":"ce4bhm92rcd13ifvqglg","pricing_plan_id":"cebpf4jnsgd1na2vs0mg"},{"bike_id":"38901732-e28b-4ce8-9d2c-7fcba9045433","system_id":"levelo_inurba_marseille","lat":43.29261,"lon":5.40914,"is_reserved":false,"is_disabled":false,"rental_uris":{"android":"levelo://app?vid=38901732-e28b-4ce8-9d2c-7fcba9045433","ios":"levelo://app?vid=38901732-e28b-4ce8-9d2c-7fcba9045433"},"vehicle_type_id":"4","last_reported":1731039051,"current_range_meters":30400,"station_id":"ce4bh192rcd13ifvqdc0","pricing_plan_id":"cebpf4jnsgd1na2vs0mg"},{"bike_id":"8878ce7b-becb-4143-9f8e-578bd4e236bc","system_id":"levelo_inurba_marseille","lat":43.28342,"lon":5.38103,"is_reserved":false,"is_disabled":false,"rental_uris":{"android":"levelo://app?vid=8878ce7b-becb-4143-9f8e-578bd4e236bc","ios":"levelo://app?vid=8878ce7b-becb-4143-9f8e-578bd4e236bc"},"vehicle_type_id":"4","last_reported":1731039051,"current_range_meters":32800,"station_id":"ce4bh412rcd13ifvqdr0","pricing_plan_id":"cebpf4jnsgd1na2vs0mg"},{"bike_id":"49172253-0a91-4d42-a742-dc6e66aac334","system_id":"levelo_inurba_marseille","lat":43.31222,"lon":5.36843,"is_reserved":false,"is_disabled":false,"rental_uris":{"android":"levelo://app?vid=49172253-0a91-4d42-a742-dc6e66aac334","ios":"levelo://app?vid=49172253-0a91-4d42-a742-dc6e66aac334"},"vehicle_type_id":"4","last_reported":1731039051,"current_range_meters":36400,"station_id":"ce4bgl92rcd13ifvqbq0","pricing_plan_id":"cebpf4jnsgd1na2vs0mg"},{"bike_id":"251af5c1-b0c9-4640-b17f-0ce70c35ea3c","system_id":"levelo_inurba_marseille","lat":43.33027,"lon":5.39043,"is_reserved":false,"is_disabled":false,"rental_uris":{"android":"levelo://app?vid=251af5c1-b0c9-4640-b17f-0ce70c35ea3c","ios":"levelo://app?vid=251af5c1-b0c9-4640-b17f-0ce70c35ea3c"},"vehicle_type_id":"4","last_reported":1731039051,"current_range_meters":37600,"station_id":"ce4bhr92rcd13ifvqhrg","pricing_plan_id":"cebpf4jnsgd1na2vs0mg"},{"bike_id":"0366bdb5-16ac-4a75-93d2-d1f7e545a0e7","system_id":"levelo_inurba_marseille","lat":43.24669,"lon":5.3817,"is_reserved":false,"is_disabled":false,"rental_uris":{"android":"levelo://app?vid=0366bdb5-16ac-4a75-93d2-d1f7e545a0e7","ios":"levelo://app?vid=0366bdb5-16ac-4a75-93d2-d1f7e545a0e7"},"vehicle_type_id":"4","last_reported":1731039051,"current_range_meters":17200,"station_id":"ce4bhih2rcd13ifvqfr0","pricing_plan_id":"cebpf4jnsgd1na2vs0mg"},{"bike_id":"10f16c8b-c102-4337-af0c-1078e8e934db","system_id":"levelo_inurba_marseille","lat":43.29258,"lon":5.40901,"is_reserved":false,"is_disabled":false,"rental_uris":{"android":"levelo://app?vid=10f16c8b-c102-4337-af0c-1078e8e934db","ios":"levelo://app?vid=10f16c8b-c102-4337-af0c-1078e8e934db"},"vehicle_type_id":"4","last_reported":1731039051,"current_range_meters":39200,"station_id":"ce4bh192rcd13ifvqdc0","pricing_plan_id":"cebpf4jnsgd1na2vs0mg"},{"bike_id":"6e6e001a-2d4b-4e63-8f57-413c2cf4540c","system_id":"levelo_inurba_marseille","lat":43.27911,"lon":5.3958,"is_reserved":false,"is_disabled":false,"rental_uris":{"android":"levelo://app?vid=6e6e001a-2d4b-4e63-8f57-413c2cf4540c","ios":"levelo://app?vid=6e6e001a-2d4b-4e63-8f57-413c2cf4540c"},"vehicle_type_id":"4","last_reported":1731039051,"current_range_meters":28000,"station_id":"ce4bhf92rcd13ifvqf40","pricing_plan_id":"cebpf4jnsgd1na2vs0mg"},{"bike_id":"b7a957c9-ff90-4c8e-a5b6-aaee11551279","system_id":"levelo_inurba_marseille","lat":43.2928,"lon":5.40112,"is_reserved":false,"is_disabled":false,"rental_uris":{"android":"levelo://app?vid=b7a957c9-ff90-4c8e-a5b6-aaee11551279","ios":"levelo://app?vid=b7a957c9-ff90-4c8e-a5b6-aaee11551279"},"vehicle_type_id":"4","last_reported":1731039051,"current_range_meters":28400,"station_id":"ce4bh312rcd13ifvqdk0","pricing_plan_id":"cebpf4jnsgd1na2vs0mg"},{"bike_id":"224b4f9b-8964-41f7-a92d-d6f79ed1277c","system_id":"levelo_inurba_marseille","lat":43.33608,"lon":5.41032,"is_reserved":false,"is_disabled":false,"rental_uris":{"android":"levelo://app?vid=224b4f9b-8964-41f7-a92d-d6f79ed1277c","ios":"levelo://app?vid=224b4f9b-8964-41f7-a92d-d6f79ed1277c"},"vehicle_type_id":"4","last_reported":1731039051,"current_range_meters":22000,"station_id":"ce4bhqh2rcd13ifvqhmg","pricing_plan_id":"cebpf4jnsgd1na2vs0mg"},{"bike_id":"b9a49805-5a2e-4f84-9d50-b153b562ceae","system_id":"levelo_inurba_marseille","lat":43.27941,"lon":5.41038,"is_reserved":false,"is_disabled":false,"rental_uris":{"android":"levelo://app?vid=b9a49805-5a2e-4f84-9d50-b153b562ceae","ios":"levelo://app?vid=b9a49805-5a2e-4f84-9d50-b153b562ceae"},"vehicle_type_id":"4","last_reported":1731039051,"current_range_meters":8800,"station_id":"ce4bhnp2rcd13ifvqh0g","pricing_plan_id":"cebpf4jnsgd1na2vs0mg"},{"bike_id":"72b49cdd-0fcb-488d-b3bf-b71acf18d5ce","system_id":"levelo_inurba_marseille","lat":43.2804,"lon":5.36946,"is_reserved":false,"is_disabled":false,"rental_uris":{"android":"levelo://app?vid=72b49cdd-0fcb-488d-b3bf-b71acf18d5ce","ios":"levelo://app?vid=72b49cdd-0fcb-488d-b3bf-b71acf18d5ce"},"vehicle_type_id":"4","last_reported":1731039051,"current_range_meters":39200,"station_id":"ce4bha12rcd13ifvqef0","pricing_plan_id":"cebpf4jnsgd1na2vs0mg"},{"bike_id":"399025e6-7f35-4342-9d98-3c2224090b18","system_id":"levelo_inurba_marseille","lat":43.28571,"lon":5.39504,"is_reserved":false,"is_disabled":false,"rental_uris":{"android":"levelo://app?vid=399025e6-7f35-4342-9d98-3c2224090b18","ios":"levelo://app?vid=399025e6-7f35-4342-9d98-3c2224090b18"},"vehicle_type_id":"4","last_reported":1731039051,"current_range_meters":39200,"station_id":"ce4bh292rcd13ifvqdg0","pricing_plan_id":"cebpf4jnsgd1na2vs0mg"},{"bike_id":"4f06c335-c884-4bb5-837a-40a292ca5381","system_id":"levelo_inurba_marseille","lat":43.27917,"lon":5.39588,"is_reserved":false,"is_disabled":false,"rental_uris":{"android":"levelo://app?vid=4f06c335-c884-4bb5-837a-40a292ca5381","ios":"levelo://app?vid=4f06c335-c884-4bb5-837a-40a292ca5381"},"vehicle_type_id":"4","last_reported":1731039051,"current_range_meters":28400,"station_id":"ce4bhf92rcd13ifvqf40","pricing_plan_id":"cebpf4jnsgd1na2vs0mg"},{"bike_id":"10028782-2da3-45e3-b38c-76bff638348f","system_id":"levelo_inurba_marseille","lat":43.319959,"lon":5.381509,"is_reserved":false,"is_disabled":false,"rental_uris":{"android":"levelo://app?vid=10028782-2da3-45e3-b38c-76bff638348f","ios":"levelo://app?vid=10028782-2da3-45e3-b38c-76bff638348f"},"vehicle_type_id":"4","last_reported":1731039051,"current_range_meters":38800,"station_id":"ce4bhr12rcd13ifvqhpg","pricing_plan_id":"cebpf4jnsgd1na2vs0mg"},{"bike_id":"ffe581ae-ad8f-40c0-bc69-27cae0e9b99e","system_id":"levelo_inurba_marseille","lat":43.27965,"lon":5.38722,"is_reserved":false,"is_disabled":false,"rental_uris":{"android":"levelo://app?vid=ffe581ae-ad8f-40c0-bc69-27cae0e9b99e","ios":"levelo://app?vid=ffe581ae-ad8f-40c0-bc69-27cae0e9b99e"},"vehicle_type_id":"4","last_reported":1731039051,"current_range_meters":31200,"station_id":"ce4bhg12rcd13ifvqf80","pricing_plan_id":"cebpf4jnsgd1na2vs0mg"},{"bike_id":"308add41-ec28-4efc-8ab9-61b38c1ba5d2","system_id":"levelo_inurba_marseille","lat":43.28076,"lon":5.39644,"is_reserved":false,"is_disabled":false,"rental_uris":{"android":"levelo://app?vid=308add41-ec28-4efc-8ab9-61b38c1ba5d2","ios":"levelo://app?vid=308add41-ec28-4efc-8ab9-61b38c1ba5d2"},"vehicle_type_id":"4","last_reported":1731039051,"current_range_meters":4400,"station_id":"ce4bho12rcd13ifvqh2g","pricing_plan_id":"cebpf4jnsgd1na2vs0mg"},{"bike_id":"55832718-3048-4754-b6c7-735f796a1db1","system_id":"levelo_inurba_marseille","lat":43.24809,"lon":5.37451,"is_reserved":false,"is_disabled":false,"rental_uris":{"android":"levelo://app?vid=55832718-3048-4754-b6c7-735f796a1db1","ios":"levelo://app?vid=55832718-3048-4754-b6c7-735f796a1db1"},"vehicle_type_id":"4","last_reported":1731039051,"current_range_meters":37600,"station_id":"ce4bhgh2rcd13ifvqfb0","pricing_plan_id":"cebpf4jnsgd1na2vs0mg"},{"bike_id":"7e02be68-6753-41d9-adcd-443fd738b253","system_id":"levelo_inurba_marseille","lat":43.24663,"lon":5.38159,"is_reserved":false,"is_disabled":false,"rental_uris":{"android":"levelo://app?vid=7e02be68-6753-41d9-adcd-443fd738b253","ios":"levelo://app?vid=7e02be68-6753-41d9-adcd-443fd738b253"},"vehicle_type_id":"4","last_reported":1731039051,"current_range_meters":28800,"station_id":"ce4bhih2rcd13ifvqfr0","pricing_plan_id":"cebpf4jnsgd1na2vs0mg"},{"bike_id":"6f7cb342-b848-4891-9997-c1683d70a93b","system_id":"levelo_inurba_marseille","lat":43.28567,"lon":5.39504,"is_reserved":false,"is_disabled":false,"rental_uris":{"android":"levelo://app?vid=6f7cb342-b848-4891-9997-c1683d70a93b","ios":"levelo://app?vid=6f7cb342-b848-4891-9997-c1683d70a93b"},"vehicle_type_id":"4","last_reported":1731039051,"current_range_meters":38800,"station_id":"ce4bh292rcd13ifvqdg0","pricing_plan_id":"cebpf4jnsgd1na2vs0mg"},{"bike_id":"cbf00055-bf11-47a5-8af2-3b1cb1abb636","system_id":"levelo_inurba_marseille","lat":43.33023,"lon":5.39044,"is_reserved":false,"is_disabled":false,"rental_uris":{"android":"levelo://app?vid=cbf00055-bf11-47a5-8af2-3b1cb1abb636","ios":"levelo://app?vid=cbf00055-bf11-47a5-8af2-3b1cb1abb636"},"vehicle_type_id":"4","last_reported":1731039051,"current_range_meters":38400,"station_id":"ce4bhr92rcd13ifvqhrg","pricing_plan_id":"cebpf4jnsgd1na2vs0mg"},{"bike_id":"bdc8e4c9-31ee-4bbb-9adc-6c132582d3e5","system_id":"levelo_inurba_marseille","lat":43.32362,"lon":5.3888,"is_reserved":false,"is_disabled":false,"rental_uris":{"android":"levelo://app?vid=bdc8e4c9-31ee-4bbb-9adc-6c132582d3e5","ios":"levelo://app?vid=bdc8e4c9-31ee-4bbb-9adc-6c132582d3e5"},"vehicle_type_id":"4","last_reported":1731039051,"current_range_meters":18800,"station_id":"ce4bhqp2rcd13ifvqhog","pricing_plan_id":"cebpf4jnsgd1na2vs0mg"},{"bike_id":"b1830dfa-8c73-4089-ba6e-c9c7a4b3fa2e","system_id":"levelo_inurba_marseille","lat":43.294467,"lon":5.397436,"is_reserved":false,"is_disabled":false,"rental_uris":{"android":"levelo://app?vid=b1830dfa-8c73-4089-ba6e-c9c7a4b3fa2e","ios":"levelo://app?vid=b1830dfa-8c73-4089-ba6e-c9c7a4b3fa2e"},"vehicle_type_id":"4","last_reported":1731039051,"current_range_meters":39200,"station_id":"ce4bh3h2rcd13ifvqdo0","pricing_plan_id":"cebpf4jnsgd1na2vs0mg"},{"bike_id":"86c3e7ef-4c08-4580-8ffb-ccc5e823b050","system_id":"levelo_inurba_marseille","lat":43.28571,"lon":5.39507,"is_reserved":false,"is_disabled":false,"rental_uris":{"android":"levelo://app?vid=86c3e7ef-4c08-4580-8ffb-ccc5e823b050","ios":"levelo://app?vid=86c3e7ef-4c08-4580-8ffb-ccc5e823b050"},"vehicle_type_id":"4","last_reported":1731039051,"current_range_meters":38000,"station_id":"ce4bh292rcd13ifvqdg0","pricing_plan_id":"cebpf4jnsgd1na2vs0mg"},{"bike_id":"dfcf3015-64e1-4c73-9065-23a58d1a316f","system_id":"levelo_inurba_marseille","lat":43.337444,"lon":5.374475,"is_reserved":false,"is_disabled":false,"rental_uris":{"android":"levelo://app?vid=dfcf3015-64e1-4c73-9065-23a58d1a316f","ios":"levelo://app?vid=dfcf3015-64e1-4c73-9065-23a58d1a316f"},"vehicle_type_id":"4","last_reported":1731039051,"current_range_meters":32000,"station_id":"","pricing_plan_id":"cebpf4jnsgd1na2vs0mg"},{"bike_id":"1e803bdd-3770-48c7-9e72-71ce7c6ba7a7","system_id":"levelo_inurba_marseille","lat":43.24664,"lon":5.38157,"is_reserved":false,"is_disabled":false,"rental_uris":{"android":"levelo://app?vid=1e803bdd-3770-48c7-9e72-71ce7c6ba7a7","ios":"levelo://app?vid=1e803bdd-3770-48c7-9e72-71ce7c6ba7a7"},"vehicle_type_id":"4","last_reported":1731039051,"current_range_meters":16400,"station_id":"ce4bhih2rcd13ifvqfr0","pricing_plan_id":"cebpf4jnsgd1na2vs0mg"},{"bike_id":"f965597c-9582-4c92-afac-ab60bb6522ed","system_id":"levelo_inurba_marseille","lat":43.28613,"lon":5.37053,"is_reserved":false,"is_disabled":false,"rental_uris":{"android":"levelo://app?vid=f965597c-9582-4c92-afac-ab60bb6522ed","ios":"levelo://app?vid=f965597c-9582-4c92-afac-ab60bb6522ed"},"vehicle_type_id":"4","last_reported":1731039051,"current_range_meters":37600,"station_id":"ce4bht12rcd13ifvqi60","pricing_plan_id":"cebpf4jnsgd1na2vs0mg"},{"bike_id":"b985e058-fbe7-44f8-8072-6737f4aee5a6","system_id":"levelo_inurba_marseille","lat":43.28106,"lon":5.37828,"is_reserved":false,"is_disabled":false,"rental_uris":{"android":"levelo://app?vid=b985e058-fbe7-44f8-8072-6737f4aee5a6","ios":"levelo://app?vid=b985e058-fbe7-44f8-8072-6737f4aee5a6"},"vehicle_type_id":"4","last_reported":1731039051,"current_range_meters":32000,"station_id":"ce4bha12rcd13ifvqee0","pricing_plan_id":"cebpf4jnsgd1na2vs0mg"},{"bike_id":"09ca8f05-c4db-41dd-8093-221273ee97b7","system_id":"levelo_inurba_marseille","lat":43.30325,"lon":5.4043,"is_reserved":false,"is_disabled":false,"rental_uris":{"android":"levelo://app?vid=09ca8f05-c4db-41dd-8093-221273ee97b7","ios":"levelo://app?vid=09ca8f05-c4db-41dd-8093-221273ee97b7"},"vehicle_type_id":"4","last_reported":1731039051,"current_range_meters":9200,"station_id":"ce4bh012rcd13ifvqd10","pricing_plan_id":"cebpf4jnsgd1na2vs0mg"},{"bike_id":"e64d75fb-2d3d-4c5f-a383-0f4640ff22ed","system_id":"levelo_inurba_marseille","lat":43.30895,"lon":5.39634,"is_reserved":false,"is_disabled":false,"rental_uris":{"android":"levelo://app?vid=e64d75fb-2d3d-4c5f-a383-0f4640ff22ed","ios":"levelo://app?vid=e64d75fb-2d3d-4c5f-a383-0f4640ff22ed"},"vehicle_type_id":"4","last_reported":1731039051,"current_range_meters":38800,"station_id":"ce4bh012rcd13ifvqcv0","pricing_plan_id":"cebpf4jnsgd1na2vs0mg"},{"bike_id":"56366bba-d7b6-4286-b4f1-a6872b73825e","system_id":"levelo_inurba_marseille","lat":43.309308,"lon":5.401441,"is_reserved":false,"is_disabled":false,"rental_uris":{"android":"levelo://app?vid=56366bba-d7b6-4286-b4f1-a6872b73825e","ios":"levelo://app?vid=56366bba-d7b6-4286-b4f1-a6872b73825e"},"vehicle_type_id":"4","last_reported":1731039051,"current_range_meters":38000,"station_id":"ce4bgvp2rcd13ifvqct0","pricing_plan_id":"cebpf4jnsgd1na2vs0mg"},{"bike_id":"ca14dd50-5e4b-4f1f-b610-9eb6fc10f03a","system_id":"levelo_inurba_marseille","lat":43.29808,"lon":5.40402,"is_reserved":false,"is_disabled":false,"rental_uris":{"android":"levelo://app?vid=ca14dd50-5e4b-4f1f-b610-9eb6fc10f03a","ios":"levelo://app?vid=ca14dd50-5e4b-4f1f-b610-9eb6fc10f03a"},"vehicle_type_id":"4","last_reported":1731039051,"current_range_meters":39200,"station_id":"ce4bh112rcd13ifvqd90","pricing_plan_id":"cebpf4jnsgd1na2vs0mg"},{"bike_id":"c05fb8a8-b4c9-4eb1-97ad-92d9d41af87b","system_id":"levelo_inurba_marseille","lat":43.30146,"lon":5.39862,"is_reserved":false,"is_disabled":false,"rental_uris":{"android":"levelo://app?vid=c05fb8a8-b4c9-4eb1-97ad-92d9d41af87b","ios":"levelo://app?vid=c05fb8a8-b4c9-4eb1-97ad-92d9d41af87b"},"vehicle_type_id":"4","last_reported":1731039051,"current_range_meters":37600,"station_id":"ce4bh0h2rcd13ifvqd40","pricing_plan_id":"cebpf4jnsgd1na2vs0mg"},