{"last_updated":1701054468,"ttl":30,"version":"2.2","data":{"bikes":[{"bike_id":"0e07f4dc-f05c-4a47-a7fc-9cf5a2bc7aff","system_id":"levelo_inurba_marseille","lat":43.31341,"lon":5.367098,"is_reserved":false,"is_disabled":false,"rental_uris":{"android":"levelo://app?vid=0e07f4dc-f05c-4a47-a7fc-9cf5a2bc7aff","ios":"levelo://app?vid=0e07f4dc-f05c-4a47-a7fc-9cf5a2bc7aff"},"vehicle_type_id":"4","last_reported":1701054468,"current_range_meters":27600,"station_id":"ce4bgr92rcd13ifvqc6g","pricing_plan_id":"free"},{"bike_id":"e841562e-fb8b-43e8-b928-be9e34f79ef3","system_id":"levelo_inurba_marseille","lat":43.31349,"lon":5.3672,"is_reserved":false,"is_disabled":false,"rental_uris":{"android":"levelo://app?vid=e841562e-fb8b-43e8-b928-be9e34f79ef3","ios":"levelo://app?vid=e841562e-fb8b-43e8-b928-be9e34f79ef3"},"vehicle_type_id":"4","last_reported":1701054468,"current_range_meters":1600,"station_id":"ce4bgr92rcd13ifvqc6g","pricing_plan_id":"free"},{"bike_id":"6feaeb70-76fd-458d-baf2-fca8ea47ac08","system_id":"levelo_inurba_marseille","lat":43.312239,"lon":5.368562,"is_reserved":false,"is_disabled":false,"rental_uris":{"android":"levelo://app?vid=6feaeb70-76fd-458d-baf2-fca8ea47ac08","ios":"levelo://app?vid=6feaeb70-76fd-458d-baf2-fca8ea47ac08"},"vehicle_type_id":"4","last_reported":1701054468,"current_range_meters":2400,"station_id":"ce4bgl92rcd13ifvqbq0","pricing_plan_id":"free"},{"bike_id":"0a7e19e4-58b9-4ecc-ac8a-bb44f60de8cb","system_id":"levelo_inurba_marseille","lat":43.312239,"lon":5.368562,"is_reserved":false,"is_disabled":false,"rental_uris":{"android":"levelo://app?vid=0a7e19e4-58b9-4ecc-ac8a-bb44f60de8cb","ios":"levelo://app?vid=0a7e19e4-58b9-4ecc-ac8a-bb44f60de8cb"},"vehicle_type_id":"4","last_reported":1701054468,"current_range_meters":13200,"station_id":"ce4bgl92rcd13ifvqbq0","pricing_plan_id":"free"},{"bike_id":"bd995399-9857-4b05-a12b-892c4ab9f713","system_id":"levelo_inurba_marseille","lat":43.314811,"lon":5.373103,"is_reserved":false,"is_disabled":false,"rental_uris":{"android":"levelo://app?vid=bd995399-9857-4b05-a12b-892c4ab9f713","ios":"levelo://app?vid=bd995399-9857-4b05-a12b-892c4ab9f713"},"vehicle_type_id":"4","last_reported":1701054468,"current_range_meters":30400,"station_id":"ce4bgt12rcd13ifvqcd0","pricing_plan_id":"free"},{"bike_id":"661c7d9d-bcfe-4f83-a8cd-546d47145b21","system_id":"levelo_inurba_marseille","lat":43.309039,"lon":5.371797,"is_reserved":false,"is_disabled":false,"rental_uris":{"android":"levelo://app?vid=661c7d9d-bcfe-4f83-a8cd-546d47145b21","ios":"levelo://app?vid=661c7d9d-bcfe-4f83-a8cd-546d47145b21"},"vehicle_type_id":"4","last_reported":1701054468,"current_range_meters":13600,"station_id":"ce4bguh2rcd13ifvqckg","pricing_plan_id":"free"},{"bike_id":"34a62643-e7c6-44b2-8daa-2f1a12e8ed15","system_id":"levelo_inurba_marseille","lat":43.309039,"lon":5.371797,"is_reserved":false,"is_disabled":false,"rental_uris":{"android":"levelo://app?vid=34a62643-e7c6-44b2-8daa-2f1a12e8ed15","ios":"levelo://app?vid=34a62643-e7c6-44b2-8daa-2f1a12e8ed15"},"vehicle_type_id":"4","last_reported":1701054468,"current_range_meters":30000,"station_id":"ce4bguh2rcd13ifvqckg","pricing_plan_id":"free"},{"bike_id":"a178d0dc-f1a4-44e9-a3a5-7b90431c6dd4","system_id":"levelo_inurba_marseille","lat":43.306012,"lon":5.37222,"is_reserved":false,"is_disabled":false,"rental_uris":{"android":"levelo://app?vid=a178d0dc-f1a4-44e9-a3a5-7b90431c6dd4","ios":"levelo://app?vid=a178d0dc-f1a4-44e9-a3a5-7b90431c6dd4"},"vehicle_type_id":"4","last_reported":1701054468,"current_range_meters":0,"station_id":"ce4bgqh2rcd13ifvqc4g","pricing_plan_id":"free"},{"bike_id":"57a05ad2-aa7c-4735-b639-5f9e655d981f","system_id":"levelo_inurba_marseille","lat":43.305989,"lon":5.37225,"is_reserved":false,"is_disabled":false,"rental_uris":{"android":"levelo://app?vid=57a05ad2-aa7c-4735-b639-5f9e655d981f","ios":"levelo://app?vid=57a05ad2-aa7c-4735-b639-5f9e655d981f"},"vehicle_type_id":"4","last_reported":1701054468,"current_range_meters":26400,"station_id":"ce4bgqh2rcd13ifvqc4g","pricing_plan_id":"free"},{"bike_id":"113b705c-512a-4956-abc3-320f6e7caca5","system_id":"levelo_inurba_marseille","lat":43.311148,"lon":5.377678,"is_reserved":false,"is_disabled":false,"rental_uris":{"android":"levelo://app?vid=113b705c-512a-4956-abc3-320f6e7caca5","ios":"levelo://app?vid=113b705c-512a-4956-abc3-320f6e7caca5"},"vehicle_type_id":"4","last_reported":1701054468,"current_range_meters":25600,"station_id":"ce4bgt92rcd13ifvqcg0","pricing_plan_id":"free"},{"bike_id":"f427a2c3-6e4a-446b-ae2f-9be8aa7f4122","system_id":"levelo_inurba_marseille","lat":43.31719,"lon":5.376813,"is_reserved":false,"is_disabled":false,"rental_uris":{"android":"levelo://app?vid=f427a2c3-6e4a-446b-ae2f-9be8aa7f4122","ios":"levelo://app?vid=f427a2c3-6e4a-446b-ae2f-9be8aa7f4122"},"vehicle_type_id":"4","last_reported":1701054468,"current_range_meters":18800,"station_id":"ce4bgth2rcd13ifvqch0","pricing_plan_id":"free"},{"bike_id":"e913f328-1e31-4c22-bd87-f809ea246de4","system_id":"levelo_inurba_marseille","lat":43.317168,"lon":5.376883,"is_reserved":false,"is_disabled":false,"rental_uris":{"android":"levelo://app?vid=e913f328-1e31-4c22-bd87-f809ea246de4","ios":"levelo://app?vid=e913f328-1e31-4c22-bd87-f809ea246de4"},"vehicle_type_id":"4","last_reported":1701054468,"current_range_meters":21200,"station_id":"ce4bgth2rcd13ifvqch0","pricing_plan_id":"free"},{"bike_id":"939bf4f0-ae3a-4692-b0ff-ce5fe384b2fd","system_id":"levelo_inurba_marseille","lat":43.317075,"lon":5.377367,"is_reserved":false,"is_disabled":false,"rental_uris":{"android":"levelo://app?vid=939bf4f0-ae3a-4692-b0ff-ce5fe384b2fd","ios":"levelo://app?vid=939bf4f0-ae3a-4692-b0ff-ce5fe384b2fd"},"vehicle_type_id":"4","last_reported":1701054468,"current_range_meters":27600,"station_id":"ce4bgth2rcd13ifvqch0","pricing_plan_id":"free"},{"bike_id":"a80f348a-adbe-415b-8175-efc5cebf9a3a","system_id":"levelo_inurba_marseille","lat":43.317075,"lon":5.377367,"is_reserved":false,"is_disabled":false,"rental_uris":{"android":"levelo://app?vid=a80f348a-adbe-415b-8175-efc5cebf9a3a","ios":"levelo://app?vid=a80f348a-adbe-415b-8175-efc5cebf9a3a"},"vehicle_type_id":"4","last_reported":1701054468,"current_range_meters":31600,"station_id":"ce4bgth2rcd13ifvqch0","pricing_plan_id":"free"},{"bike_id":"dde3dbaa-f6a1-4e34-8301-67182be455bb","system_id":"levelo_inurba_marseille","lat":43.317075,"lon":5.377367,"is_reserved":false,"is_disabled":false,"rental_uris":{"android":"levelo://app?vid=dde3dbaa-f6a1-4e34-8301-67182be455bb","ios":"levelo://app?vid=dde3dbaa-f6a1-4e34-8301-67182be455bb"},"vehicle_type_id":"4","last_reported":1701054468,"current_range_meters":28400,"station_id":"ce4bgth2rcd13ifvqch0","pricing_plan_id":"free"},{"bike_id":"423e19d4-bde0-4982-bd4c-371d4e0cf407","system_id":"levelo_inurba_marseille","lat":43.31537,"lon":5.38024,"is_reserved":false,"is_disabled":false,"rental_uris":{"android":"levelo://app?vid=423e19d4-bde0-4982-bd4c-371d4e0cf407","ios":"levelo://app?vid=423e19d4-bde0-4982-bd4c-371d4e0cf407"},"vehicle_type_id":"4","last_reported":1701054468,"current_range_meters":12400,"station_id":"ce4bhsp2rcd13ifvqi50","pricing_plan_id":"free"},{"bike_id":"0bdfe7ea-6712-46a6-9518-c2701bc640d4","system_id":"levelo_inurba_marseille","lat":43.315338,"lon":5.380314,"is_reserved":false,"is_disabled":false,"rental_uris":{"android":"levelo://app?vid=0bdfe7ea-6712-46a6-9518-c2701bc640d4","ios":"levelo://app?vid=0bdfe7ea-6712-46a6-9518-c2701bc640d4"},"vehicle_type_id":"4","last_reported":1701054468,"current_range_meters":16000,"station_id":"ce4bhsp2rcd13ifvqi50","pricing_plan_id":"free"},{"bike_id":"4960cd84-5f51-4fcb-bf4f-043f77c0faa0","system_id":"levelo_inurba_marseille","lat":43.31268,"lon":5.38181,"is_reserved":false,"is_disabled":false,"rental_uris":{"android":"levelo://app?vid=4960cd84-5f51-4fcb-bf4f-043f77c0faa0","ios":"levelo://app?vid=4960cd84-5f51-4fcb-bf4f-043f77c0faa0"},"vehicle_type_id":"4","last_reported":1701054468,"current_range_meters":15200,"station_id":"","pricing_plan_id":"free"},{"bike_id":"67528132-3c77-4541-907a-52424ebe665b","system_id":"levelo_inurba_marseille","lat":43.301939,"lon":5.366286,"is_reserved":false,"is_disabled":false,"rental_uris":{"android":"levelo://app?vid=67528132-3c77-4541-907a-52424ebe665b","ios":"levelo://app?vid=67528132-3c77-4541-907a-52424ebe665b"},"vehicle_type_id":"4","last_reported":1701054468,"current_range_meters":28800,"station_id":"ce4bgrh2rcd13ifvqc8g","pricing_plan_id":"free"},{"bike_id":"f2da9669-1912-4bc0-8e34-9b30db03874a","system_id":"levelo_inurba_marseille","lat":43.308012,"lon":5.381511,"is_reserved":false,"is_disabled":false,"rental_uris":{"android":"levelo://app?vid=f2da9669-1912-4bc0-8e34-9b30db03874a","ios":"levelo://app?vid=f2da9669-1912-4bc0-8e34-9b30db03874a"},"vehicle_type_id":"4","last_reported":1701054468,"current_range_meters":31200,"station_id":"ce4bgt12rcd13ifvqce0","pricing_plan_id":"free"},{"bike_id":"07f80150-1c4e-4a60-b676-8eb9f72b3ef3","system_id":"levelo_inurba_marseille","lat":43.308012,"lon":5.381511,"is_reserved":false,"is_disabled":false,"rental_uris":{"android":"levelo://app?vid=07f80150-1c4e-4a60-b676-8eb9f72b3ef3","ios":"levelo://app?vid=07f80150-1c4e-4a60-b676-8eb9f72b3ef3"},"vehicle_type_id":"4","last_reported":1701054468,"current_range_meters":18400,"station_id":"ce4bgt12rcd13ifvqce0","pricing_plan_id":"free"},{"bike_id":"e752aa78-7782-4705-9100-701cf8956d37","system_id":"levelo_inurba_marseille","lat":43.308013,"lon":5.381566,"is_reserved":false,"is_disabled":false,"rental_uris":{"android":"levelo://app?vid=e752aa78-7782-4705-9100-701cf8956d37","ios":"levelo://app?vid=e752aa78-7782-4705-9100-701cf8956d37"},"vehicle_type_id":"4","last_reported":1701054468,"current_range_meters":8000,"station_id":"ce4bgt12rcd13ifvqce0","pricing_plan_id":"free"},{"bike_id":"3eaaddcc-069e-40d7-bc71-553c8d44847b","system_id":"levelo_inurba_marseille","lat":43.32,"lon":5.38155,"is_reserved":false,"is_disabled":false,"rental_uris":{"android":"levelo://app?vid=3eaaddcc-069e-40d7-bc71-553c8d44847b","ios":"levelo://app?vid=3eaaddcc-069e-40d7-bc71-553c8d44847b"},"vehicle_type_id":"4","last_reported":1701054468,"current_range_meters":30400,"station_id":"ce4bhr12rcd13ifvqhpg","pricing_plan_id":"free"},{"bike_id":"e1c5179b-1edf-4c62-9406-4fcf9e0f97a4","system_id":"levelo_inurba_marseille","lat":43.319953,"lon":5.381626,"is_reserved":false,"is_disabled":false,"rental_uris":{"android":"levelo://app?vid=e1c5179b-1edf-4c62-9406-4fcf9e0f97a4","ios":"levelo://app?vid=e1c5179b-1edf-4c62-9406-4fcf9e0f97a4"},"vehicle_type_id":"4","last_reported":1701054468,"current_range_meters":28800,"station_id":"ce4bhr12rcd13ifvqhpg","pricing_plan_id":"free"},{"bike_id":"a523a4ce-84b5-4de1-834a-0116874ed260","system_id":"levelo_inurba_marseille","lat":43.313571,"lon":5.384829,"is_reserved":false,"is_disabled":false,"rental_uris":{"android":"levelo://app?vid=a523a4ce-84b5-4de1-834a-0116874ed260","ios":"levelo://app?vid=a523a4ce-84b5-4de1-834a-0116874ed260"},"vehicle_type_id":"4","last_reported":1701054468,"current_range_meters":29600,"station_id":"ce4bgt92rcd13ifvqcf0","pricing_plan_id":"free"},{"bike_id":"873fdb60-6fa2-403a-8d34-dc61cac62633","system_id":"levelo_inurba_marseille","lat":43.299222,"lon":5.365554,"is_reserved":false,"is_disabled":false,"rental_uris":{"android":"levelo://app?vid=873fdb60-6fa2-403a-8d34-dc61cac62633","ios":"levelo://app?vid=873fdb60-6fa2-403a-8d34-dc61cac62633"},"vehicle_type_id":"4","last_reported":1701054468,"current_range_meters":29200,"station_id":"ce4bgm92rcd13ifvqbr0","pricing_plan_id":"free"},{"bike_id":"2e2949c1-a57a-47e0-860a-7d5af52ce3f7","system_id":"levelo_inurba_marseille","lat":43.299373,"lon":5.365424,"is_reserved":false,"is_disabled":false,"rental_uris":{"android":"levelo://app?vid=2e2949c1-a57a-47e0-860a-7d5af52ce3f7","ios":"levelo://app?vid=2e2949c1-a57a-47e0-860a-7d5af52ce3f7"},"vehicle_type_id":"4","last_reported":1701054468,"current_range_meters":27600,"station_id":"ce4bgm92rcd13ifvqbr0","pricing_plan_id":"free"},{"bike_id":"226e9f74-a000-4c0e-921d-92c18c491bc8","system_id":"levelo_inurba_marseille","lat":43.299222,"lon":5.365554,"is_reserved":false,"is_disabled":false,"rental_uris":{"android":"levelo://app?vid=226e9f74-a000-4c0e-921d-92c18c491bc8","ios":"levelo://app?vid=226e9f74-a000-4c0e-921d-92c18c491bc8"},"vehicle_type_id":"4","last_reported":1701054468,"current_range_meters":30400,"station_id":"ce4bgm92rcd13ifvqbr0","pricing_plan_id":"free"},{"bike_id":"26424229-3f6c-4825-80c2-05bb33edfdc5","system_id":"levelo_inurba_marseille","lat":43.299222,"lon":5.365554,"is_reserved":false,"is_disabled":false,"rental_uris":{"android":"levelo://app?vid=26424229-3f6c-4825-80c2-05bb33edfdc5","ios":"levelo://app?vid=26424229-3f6c-4825-80c2-05bb33edfdc5"},"vehicle_type_id":"4","last_reported":1701054468,"current_range_meters":1600,"station_id":"ce4bgm92rcd13ifvqbr0","pricing_plan_id":"free"},{"bike_id":"f852916f-8890-4fa9-a9b3-e7c61af9734f","system_id":"levelo_inurba_marseille","lat":43.298674,"lon":5.369074,"is_reserved":false,"is_disabled":false,"rental_uris":{"android":"levelo://app?vid=f852916f-8890-4fa9-a9b3-e7c61af9734f","ios":"levelo://app?vid=f852916f-8890-4fa9-a9b3-e7c61af9734f"},"vehicle_type_id":"4","last_reported":1701054468,"current_range_meters":0,"station_id":"","pricing_plan_id":"free"},{"bike_id":"ca788dbd-85b8-4514-bfbe-0c44398131cb","system_id":"levelo_inurba_marseille","lat":43.311722,"lon":5.387247,"is_reserved":false,"is_disabled":false,"rental_uris":{"android":"levelo://app?vid=ca788dbd-85b8-4514-bfbe-0c44398131cb","ios":"levelo://app?vid=ca788dbd-85b8-4514-bfbe-0c44398131cb"},"vehicle_type_id":"4","last_reported":1701054468,"current_range_meters":27200,"station_id":"ce4bgv12rcd13ifvqcp0","pricing_plan_id":"free"},{"bike_id":"7de6aeb4-0b38-422d-bac6-f776ca8bb80d","system_id":"levelo_inurba_marseille","lat":43.311722,"lon":5.387247,"is_reserved":false,"is_disabled":false,"rental_uris":{"android":"levelo://app?vid=7de6aeb4-0b38-422d-bac6-f776ca8bb80d","ios":"levelo://app?vid=7de6aeb4-0b38-422d-bac6-f776ca8bb80d"},"vehicle_type_id":"4","last_reported":1701054468,"current_range_meters":30800,"station_id":"ce4bgv12rcd13ifvqcp0","pricing_plan_id":"free"},{"bike_id":"2466eaec-a348-49e0-8ab7-4f77badbbfb4","system_id":"levelo_inurba_marseille","lat":43.311722,"lon":5.387247,"is_reserved":false,"is_disabled":false,"rental_uris":{"android":"levelo://app?vid=2466eaec-a348-49e0-8ab7-4f77badbbfb4","ios":"levelo://app?vid=2466eaec-a348-49e0-8ab7-4f77badbbfb4"},"vehicle_type_id":"4","last_reported":1701054468,"current_range_meters":27600,"station_id":"ce4bgv12rcd13ifvqcp0","pricing_plan_id":"free"},{"bike_id":"bdcce320-8872-4561-a8e5-16b6f8a74a4a","system_id":"levelo_inurba_marseille","lat":43.311722,"lon":5.387247,"is_reserved":false,"is_disabled":false,"rental_uris":{"android":"levelo://app?vid=bdcce320-8872-4561-a8e5-16b6f8a74a4a","ios":"levelo://app?vid=bdcce320-8872-4561-a8e5-16b6f8a74a4a"},"vehicle_type_id":"4","last_reported":1701054468,"current_range_meters":31200,"station_id":"ce4bgv12rcd13ifvqcp0","pricing_plan_id":"free"},{"bike_id":"d3e198b8-f388-4abe-988d-ccea449e23dd","system_id":"levelo_inurba_marseille","lat":43.311722,"lon":5.387247,"is_reserved":false,"is_disabled":false,"rental_uris":{"android":"levelo://app?vid=d3e198b8-f388-4abe-988d-ccea449e23dd","ios":"levelo://app?vid=d3e198b8-f388-4abe-988d-ccea449e23dd"},"vehicle_type_id":"4","last_reported":1701054468,"current_range_meters":31200,"station_id":"ce4bgv12rcd13ifvqcp0","pricing_plan_id":"free"},{"bike_id":"0e0dc626-2248-4572-be33-1c526b12105e","system_id":"levelo_inurba_marseille","lat":43.311722,"lon":5.387247,"is_reserved":false,"is_disabled":false,"rental_uris":{"android":"levelo://app?vid=0e0dc626-2248-4572-be33-1c526b12105e","ios":"levelo://app?vid=0e0dc626-2248-4572-be33-1c526b12105e"},"vehicle_type_id":"4","last_reported":1701054468,"current_range_meters":26800,"station_id":"ce4bgv12rcd13ifvqcp0","pricing_plan_id":"free"},{"bike_id":"20b48e7c-44f1-4ba3-b6b2-257a6bdff23e","system_id":"levelo_inurba_marseille","lat":43.32818,"lon":5.36696,"is_reserved":false,"is_disabled":false,"rental_uris":{"android":"levelo://app?vid=20b48e7c-44f1-4ba3-b6b2-257a6bdff23e","ios":"levelo://app?vid=20b48e7c-44f1-4ba3-b6b2-257a6bdff23e"},"vehicle_type_id":"4","last_reported":1701054468,"current_range_meters":0,"station_id":"ce4bhs92rcd13ifvqi0g","pricing_plan_id":"free"},{"bike_id":"d4f8eaeb-1157-4ebd-9969-eb4a257af8ee","system_id":"levelo_inurba_marseille","lat":43.328251,"lon":5.366786,"is_reserved":false,"is_disabled":false,"rental_uris":{"android":"levelo://app?vid=d4f8eaeb-1157-4ebd-9969-eb4a257af8ee","ios":"levelo://app?vid=d4f8eaeb-1157-4ebd-9969-eb4a257af8ee"},"vehicle_type_id":"4","last_reported":1701054468,"current_range_meters":14000,"station_id":"ce4bhs92rcd13ifvqi0g","pricing_plan_id":"free"},{"bike_id":"c57375d0-3fc9-4bbc-9de2-2d75c7626d44","system_id":"levelo_inurba_marseille","lat":43.297163,"lon":5.365866,"is_reserved":false,"is_disabled":false,"rental_uris":{"android":"levelo://app?vid=c57375d0-3fc9-4bbc-9de2-2d75c7626d44","ios":"levelo://app?vid=c57375d0-3fc9-4bbc-9de2-2d75c7626d44"},"vehicle_type_id":"4","last_reported":1701054468,"current_range_meters":26400,"station_id":"ce4bgn12rcd13ifvqbt0","pricing_plan_id":"free"},{"bike_id":"84e79bc2-f872-4461-b5dc-11392b156935","system_id":"levelo_inurba_marseille","lat":43.32831,"lon":5.36678,"is_reserved":false,"is_disabled":false,"rental_uris":{"android":"levelo://app?vid=84e79bc2-f872-4461-b5dc-11392b156935","ios":"levelo://app?vid=84e79bc2-f872-4461-b5dc-11392b156935"},"vehicle_type_id":"4","last_reported":1701054468,"current_range_meters":17600,"station_id":"ce4bhs92rcd13ifvqi0g","pricing_plan_id":"free"},{"bike_id":"5028f56d-c7ad-4d21-9d37-36b3da921171","system_id":"levelo_inurba_marseille","lat":43.297163,"lon":5.365866,"is_reserved":false,"is_disabled":false,"rental_uris":{"android":"levelo://app?vid=5028f56d-c7ad-4d21-9d37-36b3da921171","ios":"levelo://app?vid=5028f56d-c7ad-4d21-9d37-36b3da921171"},"vehicle_type_id":"4","last_reported":1701054468,"current_range_meters":20000,"station_id":"ce4bgn12rcd13ifvqbt0","pricing_plan_id":"free"},{"bike_id":"a5da601e-e514-4354-a856-ff62a81a8ac8","system_id":"levelo_inurba_marseille","lat":43.29573,"lon":5.367355,"is_reserved":false,"is_disabled":false,"rental_uris":{"android":"levelo://app?vid=a5da601e-e514-4354-a856-ff62a81a8ac8","ios":"levelo://app?vid=a5da601e-e514-4354-a856-ff62a81a8ac8"},"vehicle_type_id":"4","last_reported":1701054468,"current_range_meters":31600,"station_id":"ce4bgph2rcd13ifvqc2g","pricing_plan_id":"free"},{"bike_id":"91cf2b2a-855f-4734-9188-91ee71d17ca1","system_id":"levelo_inurba_marseille","lat":43.29573,"lon":5.367355,"is_reserved":false,"is_disabled":false,"rental_uris":{"android":"levelo://app?vid=91cf2b2a-855f-4734-9188-91ee71d17ca1","ios":"levelo://app?vid=91cf2b2a-855f-4734-9188-91ee71d17ca1"},"vehicle_type_id":"4","last_reported":1701054468,"current_range_meters":29200,"station_id":"ce4bgph2rcd13ifvqc2g","pricing_plan_id":"free"},{"bike_id":"d8613364-3af9-4e42-ad90-5312bafdca5b","system_id":"levelo_inurba_marseille","lat":43.29573,"lon":5.367355,"is_reserved":false,"is_disabled":false,"rental_uris":{"android":"levelo://app?vid=d8613364-3af9-4e42-ad90-5312bafdca5b","ios":"levelo://app?vid=d8613364-3af9-4e42-ad90-5312bafdca5b"},"vehicle_type_id":"4","last_reported":1701054468,"current_range_meters":20400,"station_id":"ce4bgph2rcd13ifvqc2g","pricing_plan_id":"free"},{"bike_id":"2a3acb06-8222-43d3-99c6-46dd09e64d00","system_id":"levelo_inurba_marseille","lat":43.29573,"lon":5.367355,"is_reserved":false,"is_disabled":false,"rental_uris":{"android":"levelo://app?vid=2a3acb06-8222-43d3-99c6-46dd09e64d00","ios":"levelo://app?vid=2a3acb06-8222-43d3-99c6-46dd09e64d00"},"vehicle_type_id":"4","last_reported":1701054468,"current_range_meters":24000,"station_id":"ce4bgph2rcd13ifvqc2g","pricing_plan_id":"free"},{"bike_id":"91815f0e-280f-4f47-95a0-ea694b142381","system_id":"levelo_inurba_marseille","lat":43.29573,"lon":5.367355,"is_reserved":false,"is_disabled":false,"rental_uris":{"android":"levelo://app?vid=91815f0e-280f-4f47-95a0-ea694b142381","ios":"levelo://app?vid=91815f0e-280f-4f47-95a0-ea694b142381"},"vehicle_type_id":"4","last_reported":1701054468,"current_range_meters":13200,"station_id":"ce4bgph2rcd13ifvqc2g","pricing_plan_id":"free"},{"bike_id":"4c2cfcb4-6536-421f-a5c1-5b85a8f464cb","system_id":"levelo_inurba_marseille","lat":43.29573,"lon":5.367355,"is_reserved":false,"is_disabled":false,"rental_uris":{"android":"levelo://app?vid=4c2cfcb4-6536-421f-a5c1-5b85a8f464cb","ios":"levelo://app?vid=4c2cfcb4-6536-421f-a5c1-5b85a8f464cb"},"vehicle_type_id":"4","last_reported":1701054468,"current_range_meters":30800,"station_id":"ce4bgph2rcd13ifvqc2g","pricing_plan_id":"free"},{"bike_id":"35364ef1-dae4-40dd-97db-5a72fa7d07a1","system_id":"levelo_inurba_marseille","lat":43.29573,"lon":5.367355,"is_reserved":false,"is_disabled":false,"rental_uris":{"android":"levelo://app?vid=35364ef1-dae4-40dd-97db-5a72fa7d07a1","ios":"levelo://app?vid=35364ef1-dae4-40dd-97db-5a72fa7d07a1"},"vehicle_type_id":"4","last_reported":1701054468,"current_range_meters":1600,"station_id":"ce4bgph2rcd13ifvqc2g","pricing_plan_id":"free"},{"bike_id":"4a05ac65-f220-41ad-b9bc-20102080b17f","system_id":"levelo_inurba_marseille","lat":43.29573,"lon":5.367355,"is_reserved":false,"is_disabled":false,"rental_uris":{"android":"levelo://app?vid=4a05ac65-f220-41ad-b9bc-20102080b17f","ios":"levelo://app?vid=4a05ac65-f220-41ad-b9bc-20102080b17f"},"vehicle_type_id":"4","last_reported":1701054468,"current_range_meters":27200,"station_id":"ce4bgph2rcd13ifvqc2g","pricing_plan_id":"free"},{"bike_id":"2b06041f-69f2-44de-ad07-d9b60527ea8a","system_id":"levelo_inurba_marseille","lat":43.299028,"lon":5.381509,"is_reserved":false,"is_disabled":false,"rental_uris":{"android":"levelo://app?vid=2b06041f-69f2-44de-ad07-d9b60527ea8a","ios":"levelo://app?vid=2b06041f-69f2-44de-ad07-d9b60527ea8a"},"vehicle_type_id":"4","last_reported":1701054468,"current_range_meters":29600,"station_id":"ce4bgj12rcd13ifvqbc0","pricing_plan_id":"free"},{"bike_id":"481da8a5-9736-4e3e-9f42-fa158be8bb91","system_id":"levelo_inurba_marseille","lat":43.317557,"lon":5.390173,"is_reserved":false,"is_disabled":false,"rental_uris":{"android":"levelo://app?vid=481da8a5-9736-4e3e-9f42-fa158be8bb91","ios":"levelo://app?vid=481da8a5-9736-4e3e-9f42-fa158be8bb91"},"vehicle_type_id":"4","last_reported":1701054468,"current_range_meters":30800,"station_id":"ce4bhqp2rcd13ifvqhng","pricing_plan_id":"free"},{"bike_id":"0e989155-0084-4b7d-9871-66aba2e50822","system_id":"levelo_inurba_marseille","lat":43.317557,"lon":5.390173,"is_reserved":false,"is_disabled":false,"rental_uris":{"android":"levelo://app?vid=0e989155-0084-4b7d-9871-66aba2e50822","ios":"levelo://app?vid=0e989155-0084-4b7d-9871-66aba2e50822"},"vehicle_type_id":"4","last_reported":1701054468,"current_range_meters":16000,"station_id":"ce4bhqp2rcd13ifvqhng","pricing_plan_id":"free"},{"bike_id":"1e31f1da-b974-4527-82e9-a4d160a41255","system_id":"levelo_inurba_marseille","lat":43.317557,"lon":5.390173,"is_reserved":false,"is_disabled":false,"rental_uris":{"android":"levelo://app?vid=1e31f1da-b974-4527-82e9-a4d160a41255","ios":"levelo://app?vid=1e31f1da-b974-4527-82e9-a4d160a41255"},"vehicle_type_id":"4","last_reported":1701054468,"current_range_meters":31200,"station_id":"ce4bhqp2rcd13ifvqhng","pricing_plan_id":"free"},{"bike_id":"16e42908-1ee7-44fb-a91b-10be8fd13dc6","system_id":"levelo_inurba_marseille","lat":43.304278,"lon":5.388868,"is_reserved":false,"is_disabled":false,"rental_uris":{"android":"levelo://app?vid=16e42908-1ee7-44fb-a91b-10be8fd13dc6","ios":"levelo://app?vid=16e42908-1ee7-44fb-a91b-10be8fd13dc6"},"vehicle_type_id":"4","last_reported":1701054468,"current_range_meters":27200,"station_id":"ce4bgk12rcd13ifvqbi0","pricing_plan_id":"free"},{"bike_id":"ddd61bce-03d4-4f1e-8020-8ef45188a057","system_id":"levelo_inurba_marseille","lat":43.295748,"lon":5.37522,"is_reserved":false,"is_disabled":false,"rental_uris":{"android":"levelo://app?vid=ddd61bce-03d4-4f1e-8020-8ef45188a057","ios":"levelo://app?vid=ddd61bce-03d4-4f1e-8020-8ef45188a057"},"vehicle_type_id":"4","last_reported":1701054468,"current_range_meters":21200,"station_id":"ce4bgh92rcd13ifvqb50","pricing_plan_id":"free"},{"bike_id":"4ca2b5ca-c2f1-493c-954f-03557be74c1d","system_id":"levelo_inurba_marseille","lat":43.296263,"lon":5.377094,"is_reserved":false,"is_disabled":false,"rental_uris":{"android":"levelo://app?vid=4ca2b5ca-c2f1-493c-954f-03557be74c1d","ios":"levelo://app?vid=4ca2b5ca-c2f1-493c-954f-03557be74c1d"},"vehicle_type_id":"4","last_reported":1701054468,"current_range_meters":31200,"station_id":"ce4bgi92rcd13ifvqb90","pricing_plan_id":"free"},{"bike_id":"27089d29-57a2-405e-bd55-edb40f29cfc7","system_id":"levelo_inurba_marseille","lat":43.29615,"lon":5.377256,"is_reserved":false,"is_disabled":false,"rental_uris":{"android":"levelo://app?vid=27089d29-57a2-405e-bd55-edb40f29cfc7","ios":"levelo://app?vid=27089d29-57a2-405e-bd55-edb40f29cfc7"},"vehicle_type_id":"4","last_reported":1701054468,"current_range_meters":29600,"station_id":"ce4bgi92rcd13ifvqb90","pricing_plan_id":"free"},{"bike_id":"6b621983-5e9e-42f7-990d-ad5a093820d2","system_id":"levelo_inurba_marseille","lat":43.293801,"lon":5.363066,"is_reserved":false,"is_disabled":false,"rental_uris":{"android":"levelo://app?vid=6b621983-5e9e-42f7-990d-ad5a093820d2","ios":"levelo://app?vid=6b621983-5e9e-42f7-990d-ad5a093820d2"},"vehicle_type_id":"4","last_reported":1701054468,"current_range_meters":0,"station_id":"","pricing_plan_id":"free"},{"bike_id":"df25f6c2-d285-4e87-97d4-41e0630e71fc","system_id":"levelo_inurba_marseille","lat":43.32367,"lon":5.388836,"is_reserved":false,"is_disabled":false,"rental_uris":{"android":"levelo://app?vid=df25f6c2-d285-4e87-97d4-41e0630e71fc","ios":"levelo://app?vid=df25f6c2-d285-4e87-97d4-41e0630e71fc"},"vehicle_type_id":"4","last_reported":1701054468,"current_range_meters":30400,"station_id":"ce4bhqp2rcd13ifvqhog","pricing_plan_id":"free"},{"bike_id":"220fbc58-b4d8-4266-ad0c-5373115a323e","system_id":"levelo_inurba_marseille","lat":43.32367,"lon":5.388836,"is_reserved":false,"is_disabled":false,"rental_uris":{"android":"levelo://app?vid=220fbc58-b4d8-4266-ad0c-5373115a323e","ios":"levelo://app?vid=220fbc58-b4d8-4266-ad0c-5373115a323e"},"vehicle_type_id":"4","last_reported":1701054468,"current_range_meters":25200,"station_id":"ce4bhqp2rcd13ifvqhog","pricing_plan_id":"free"},{"bike_id":"e133423d-c208-4747-b655-65bddbd463d9","system_id":"levelo_inurba_marseille","lat":43.32365,"lon":5.38886,"is_reserved":false,"is_disabled":false,"rental_uris":{"android":"levelo://app?vid=e133423d-c208-4747-b655-65bddbd463d9","ios":"levelo://app?vid=e133423d-c208-4747-b655-65bddbd463d9"},"vehicle_type_id":"4","last_reported":1701054468,"current_range_meters":28000,"station_id":"ce4bhqp2rcd13ifvqhog","pricing_plan_id":"free"},{"bike_id":"94649983-6a82-4a6b-bb12-0170167fc5a3","system_id":"levelo_inurba_marseille","lat":43.32365,"lon":5.38886,"is_reserved":false,"is_disabled":false,"rental_uris":{"android":"levelo://app?vid=94649983-6a82-4a6b-bb12-0170167fc5a3","ios":"levelo://app?vid=94649983-6a82-4a6b-bb12-0170167fc5a3"},"vehicle_type_id":"4","last_reported":1701054468,"current_range_meters":31200,"station_id":"ce4bhqp2rcd13ifvqhog","pricing_plan_id":"free"},{"bike_id":"d414e3d5-f259-49c7-bfe6-66aa31e18f2c","system_id":"levelo_inurba_marseille","lat":43.293075,"lon":5.371785,"is_reserved":false,"is_disabled":false,"rental_uris":{"android":"levelo://app?vid=d414e3d5-f259-49c7-bfe6-66aa31e18f2c","ios":"levelo://app?vid=d414e3d5-f259-49c7-bfe6-66aa31e18f2c"},"vehicle_type_id":"4","last_reported":1701054468,"current_range_meters":27600,"station_id":"ce4bgh92rcd13ifvqb40","pricing_plan_id":"free"},{"bike_id":"ab396960-887f-44a0-a40d-92e0edb21dfc","system_id":"levelo_inurba_marseille","lat":43.292767,"lon":5.368503,"is_reserved":false,"is_disabled":false,"rental_uris":{"android":"levelo://app?vid=ab396960-887f-44a0-a40d-92e0edb21dfc","ios":"levelo://app?vid=ab396960-887f-44a0-a40d-92e0edb21dfc"},"vehicle_type_id":"4","last_reported":1701054468,"current_range_meters":31200,"station_id":"ce4bhbp2rcd13ifvqesg","pricing_plan_id":"free"},{"bike_id":"fdc8ca1c-79b4-464d-a6c2-30fc54a45f4e","system_id":"levelo_inurba_marseille","lat":43.29275,"lon":5.36849,"is_reserved":false,"is_disabled":false,"rental_uris":{"android":"levelo://app?vid=fdc8ca1c-79b4-464d-a6c2-30fc54a45f4e","ios":"levelo://app?vid=fdc8ca1c-79b4-464d-a6c2-30fc54a45f4e"},"vehicle_type_id":"4","last_reported":1701054468,"current_range_meters":29200,"station_id":"ce4bhbp2rcd13ifvqesg","pricing_plan_id":"free"},{"bike_id":"133ae045-234f-4f44-9ef9-d5f8dd19ea1d","system_id":"levelo_inurba_marseille","lat":43.2936,"lon":5.37835,"is_reserved":false,"is_disabled":false,"rental_uris":{"android":"levelo://app?vid=133ae045-234f-4f44-9ef9-d5f8dd19ea1d","ios":"levelo://app?vid=133ae045-234f-4f44-9ef9-d5f8dd19ea1d"},"vehicle_type_id":"4","last_reported":1701054468,"current_range_meters":28400,"station_id":"ce4bgjh2rcd13ifvqbf0","pricing_plan_id":"free"},{"bike_id":"e79feb9f-ce4b-45ab-bd41-ff9e2f699f7a","system_id":"levelo_inurba_marseille","lat":43.30085,"lon":5.390856,"is_reserved":false,"is_disabled":false,"rental_uris":{"android":"levelo://app?vid=e79feb9f-ce4b-45ab-bd41-ff9e2f699f7a","ios":"levelo://app?vid=e79feb9f-ce4b-45ab-bd41-ff9e2f699f7a"},"vehicle_type_id":"4","last_reported":1701054468,"current_range_meters":27200,"station_id":"ce4bh192rcd13ifvqdb0","pricing_plan_id":"free"},{"bike_id":"20894f0c-a016-4e6c-91a2-42eaf42972c0","system_id":"levelo_inurba_marseille","lat":43.291994,"lon":5.357886,"is_reserved":false,"is_disabled":false,"rental_uris":{"android":"levelo://app?vid=20894f0c-a016-4e6c-91a2-42eaf42972c0","ios":"levelo://app?vid=20894f0c-a016-4e6c-91a2-42eaf42972c0"},"vehicle_type_id":"4","last_reported":1701054468,"current_range_meters":25600,"station_id":"ce4bhb12rcd13ifvqel0","pricing_plan_id":"free"},{"bike_id":"dfa2cb77-50cd-4655-a3e3-3f1b190e3453","system_id":"levelo_inurba_marseille","lat":43.308869,"lon":5.396418,"is_reserved":false,"is_disabled":false,"rental_uris":{"android":"levelo://app?vid=dfa2cb77-50cd-4655-a3e3-3f1b190e3453","ios":"levelo://app?vid=dfa2cb77-50cd-4655-a3e3-3f1b190e3453"},"vehicle_type_id":"4","last_reported":1701054468,"current_range_meters":24800,"station_id":"ce4bh012rcd13ifvqcv0","pricing_plan_id":"free"},{"bike_id":"ac1d2fcb-bb0e-4913-9855-079024a010e5","system_id":"levelo_inurba_marseille","lat":43.291924,"lon":5.357989,"is_reserved":false,"is_disabled":false,"rental_uris":{"android":"levelo://app?vid=ac1d2fcb-bb0e-4913-9855-079024a010e5","ios":"levelo://app?vid=ac1d2fcb-bb0e-4913-9855-079024a010e5"},"vehicle_type_id":"4","last_reported":1701054468,"current_range_meters":27200,"station_id":"ce4bhb12rcd13ifvqel0","pricing_plan_id":"free"},{"bike_id":"6bbafb0e-de5a-4e53-8fdf-6383a175b2b5","system_id":"levelo_inurba_marseille","lat":43.313291,"lon":5.396838,"is_reserved":false,"is_disabled":false,"rental_uris":{"android":"levelo://app?vid=6bbafb0e-de5a-4e53-8fdf-6383a175b2b5","ios":"levelo://app?vid=6bbafb0e-de5a-4e53-8fdf-6383a175b2b5"},"vehicle_type_id":"4","last_reported":1701054468,"current_range_meters":29600,"station_id":"ce4bgvp2rcd13ifvqcu0","pricing_plan_id":"free"},{"bike_id":"3579a8ed-7d34-4c46-8eeb-6385e5c60a39","system_id":"levelo_inurba_marseille","lat":43.309038,"lon":5.396546,"is_reserved":false,"is_disabled":false,"rental_uris":{"android":"levelo://app?vid=3579a8ed-7d34-4c46-8eeb-6385e5c60a39","ios":"levelo://app?vid=3579a8ed-7d34-4c46-8eeb-6385e5c60a39"},"vehicle_type_id":"4","last_reported":1701054468,"current_range_meters":22000,"station_id":"ce4bh012rcd13ifvqcv0","pricing_plan_id":"free"},{"bike_id":"671bd9cd-e961-4631-b707-bbdd5cdcd4d3","system_id":"levelo_inurba_marseille","lat":43.309038,"lon":5.396546,"is_reserved":false,"is_disabled":false,"rental_uris":{"android":"levelo://app?vid=671bd9cd-e961-4631-b707-bbdd5cdcd4d3","ios":"levelo://app?vid=671bd9cd-e961-4631-b707-bbdd5cdcd4d3"},"vehicle_type_id":"4","last_reported":1701054468,"current_range_meters":30800,"station_id":"ce4bh012rcd13ifvqcv0","pricing_plan_id":"free"},{"bike_id":"a9185b0c-f524-4acc-8618-ed48811f1e0a","system_id":"levelo_inurba_marseille","lat":43.309038,"lon":5.396546,"is_reserved":false,"is_disabled":false,"rental_uris":{"android":"levelo://app?vid=a9185b0c-f524-4acc-8618-ed48811f1e0a","ios":"levelo://app?vid=a9185b0c-f524-4acc-8618-ed48811f1e0a"},"vehicle_type_id":"4","last_reported":1701054468,"current_range_meters":31200,"station_id":"ce4bh012rcd13ifvqcv0","pricing_plan_id":"free"},{"bike_id":"25f5b4b6-212c-4289-9186-562841da850a","system_id":"levelo_inurba_marseille","lat":43.313291,"lon":5.396838,"is_reserved":false,"is_disabled":false,"rental_uris":{"android":"levelo://app?vid=25f5b4b6-212c-4289-9186-562841da850a","ios":"levelo://app?vid=25f5b4b6-212c-4289-9186-562841da850a"},"vehicle_type_id":"4","last_reported":1701054468,"current_range_meters":31200,"station_id":"ce4bgvp2rcd13ifvqcu0","pricing_plan_id":"free"},{"bike_id":"8a83f809-f9a2-432d-b6b1-6a7f60ede647","system_id":"levelo_inurba_marseille","lat":43.309038,"lon":5.396546,"is_reserved":false,"is_disabled":false,"rental_uris":{"android":"levelo://app?vid=8a83f809-f9a2-432d-b6b1-6a7f60ede647","ios":"levelo://app?vid=8a83f809-f9a2-432d-b6b1-6a7f60ede647"},"vehicle_type_id":"4","last_reported":1701054468,"current_range_meters":23200,"station_id":"ce4bh012rcd13ifvqcv0","pricing_plan_id":"free"},{"bike_id":"8571f734-2140-4a15-85b5-a20822c00c22","system_id":"levelo_inurba_marseille","lat":43.313291,"lon":5.396838,"is_reserved":false,"is_disabled":false,"rental_uris":{"android":"levelo://app?vid=8571f734-2140-4a15-85b5-a20822c00c22","ios":"levelo://app?vid=8571f734-2140-4a15-85b5-a20822c00c22"},"vehicle_type_id":"4","last_reported":1701054468,"current_range_meters":29200,"station_id":"ce4bgvp2rcd13ifvqcu0","pricing_plan_id":"free"},{"bike_id":"0f64690a-4a7c-44f0-93e1-22385a64d3d4","system_id":"levelo_inurba_marseille","lat":43.29066,"lon":5.3713,"is_reserved":false,"is_disabled":false,"rental_uris":{"android":"levelo://app?vid=0f64690a-4a7c-44f0-93e1-22385a64d3d4","ios":"levelo://app?vid=0f64690a-4a7c-44f0-93e1-22385a64d3d4"},"vehicle_type_id":"4","last_reported":1701054468,"current_range_meters":30000,"station_id":"ce4bh5p2rcd13ifvqe4g","pricing_plan_id":"free"},{"bike_id":"63135695-51c7-47cd-9ed2-bdf2474ef39f","system_id":"levelo_inurba_marseille","lat":43.290689,"lon":5.371639,"is_reserved":false,"is_disabled":false,"rental_uris":{"android":"levelo://app?vid=63135695-51c7-47cd-9ed2-bdf2474ef39f","ios":"levelo://app?vid=63135695-51c7-47cd-9ed2-bdf2474ef39f"},"vehicle_type_id":"4","last_reported":1701054468,"current_range_meters":28000,"station_id":"ce4bh5p2rcd13ifvqe4g","pricing_plan_id":"free"},{"bike_id":"8ea77280-c5e7-4be5-8cf2-17c791fb547c","system_id":"levelo_inurba_marseille","lat":43.290631,"lon":5.359244,"is_reserved":false,"is_disabled":false,"rental_uris":{"android":"levelo://app?vid=8ea77280-c5e7-4be5-8cf2-17c791fb547c","ios":"levelo://app?vid=8ea77280-c5e7-4be5-8cf2-17c791fb547c"},"vehicle_type_id":"4","last_reported":1701054468,"current_range_meters":28800,"station_id":"ce4bha92rcd13ifvqeg0","pricing_plan_id":"free"},{"bike_id":"0c24fd48-904b-4b73-990f-8a7b74144662","system_id":"levelo_inurba_marseille","lat":43.28948,"lon":5.36402,"is_reserved":false,"is_disabled":false,"rental_uris":{"android":"levelo://app?vid=0c24fd48-904b-4b73-990f-8a7b74144662","ios":"levelo://app?vid=0c24fd48-904b-4b73-990f-8a7b74144662"},"vehicle_type_id":"4","last_reported":1701054468,"current_range_meters":27600,"station_id":"ce4bhc92rcd13ifvqetg","pricing_plan_id":"free"},{"bike_id":"ef33afc3-01f9-4dfe-9580-3e3f08c9e9a2","system_id":"levelo_inurba_marseille","lat":43.28933,"lon":5.36636,"is_reserved":false,"is_disabled":false,"rental_uris":{"android":"levelo://app?vid=ef33afc3-01f9-4dfe-9580-3e3f08c9e9a2","ios":"levelo://app?vid=ef33afc3-01f9-4dfe-9580-3e3f08c9e9a2"},"vehicle_type_id":"4","last_reported":1701054468,"current_range_meters":16000,"station_id":"ce4bhap2rcd13ifvqek0","pricing_plan_id":"free"},{"bike_id":"8047288c-8905-4027-a13f-b509494979fd","system_id":"levelo_inurba_marseille","lat":43.289285,"lon":5.366283,"is_reserved":false,"is_disabled":false,"rental_uris":{"android":"levelo://app?vid=8047288c-8905-4027-a13f-b509494979fd","ios":"levelo://app?vid=8047288c-8905-4027-a13f-b509494979fd"},"vehicle_type_id":"4","last_reported":1701054468,"current_range_meters":10400,"station_id":"ce4bhap2rcd13ifvqek0","pricing_plan_id":"free"},{"bike_id":"bf1a2e6a-ae3a-4fea-ba45-2a10bfbec28c","system_id":"levelo_inurba_marseille","lat":43.3304,"lon":5.38914,"is_reserved":false,"is_disabled":false,"rental_uris":{"android":"levelo://app?vid=bf1a2e6a-ae3a-4fea-ba45-2a10bfbec28c","ios":"levelo://app?vid=bf1a2e6a-ae3a-4fea-ba45-2a10bfbec28c"},"vehicle_type_id":"4","last_reported":1701054468,"current_range_meters":31200,"station_id":"ce4bhr92rcd13ifvqhrg","pricing_plan_id":"free"},{"bike_id":"c395b8e8-fb4e-4ba8-8b8c-69b2950a1b7b","system_id":"levelo_inurba_marseille","lat":43.330403,"lon":5.389189,"is_reserved":false,"is_disabled":false,"rental_uris":{"android":"levelo://app?vid=c395b8e8-fb4e-4ba8-8b8c-69b2950a1b7b","ios":"levelo://app?vid=c395b8e8-fb4e-4ba8-8b8c-69b2950a1b7b"},"vehicle_type_id":"4","last_reported":1701054468,"current_range_meters":31200,"station_id":"ce4bhr92rcd13ifvqhrg","pricing_plan_id":"free"},{"bike_id":"ff8fd207-fcad-4b50-857f-5cf3ed8cc5d6","system_id":"levelo_inurba_marseille","lat":43.33038,"lon":5.38924,"is_reserved":false,"is_disabled":false,"rental_uris":{"android":"levelo://app?vid=ff8fd207-fcad-4b50-857f-5cf3ed8cc5d6","ios":"levelo://app?vid=ff8fd207-fcad-4b50-857f-5cf3ed8cc5d6"},"vehicle_type_id":"4","last_reported":1701054468,"current_range_meters":6400,"station_id":"ce4bhr92rcd13ifvqhrg","pricing_plan_id":"free"},{"bike_id":"2b5fcc23-1081-4e98-8b02-791f8b42c3e1","system_id":"levelo_inurba_marseille","lat":43.290104,"lon":5.356111,"is_reserved":false,"is_disabled":false,"rental_uris":{"android":"levelo://app?vid=2b5fcc23-1081-4e98-8b02-791f8b42c3e1","ios":"levelo://app?vid=2b5fcc23-1081-4e98-8b02-791f8b42c3e1"},"vehicle_type_id":"4","last_reported":1701054468,"current_range_meters":27200,"station_id":"ce4bhb92rcd13ifvqen0","pricing_plan_id":"free"},{"bike_id":"c55c8bad-bae4-40d1-83a2-b49dd8cb5bd9","system_id":"levelo_inurba_marseille","lat":43.29004,"lon":5.35614,"is_reserved":false,"is_disabled":false,"rental_uris":{"android":"levelo://app?vid=c55c8bad-bae4-40d1-83a2-b49dd8cb5bd9","ios":"levelo://app?vid=c55c8bad-bae4-40d1-83a2-b49dd8cb5bd9"},"vehicle_type_id":"4","last_reported":1701054468,"current_range_meters":26400,"station_id":"ce4bhb92rcd13ifvqen0","pricing_plan_id":"free"},{"bike_id":"f7d03061-58bd-4d69-897b-6d4c2ef675db","system_id":"levelo_inurba_marseille","lat":43.290104,"lon":5.356111,"is_reserved":false,"is_disabled":false,"rental_uris":{"android":"levelo://app?vid=f7d03061-58bd-4d69-897b-6d4c2ef675db","ios":"levelo://app?vid=f7d03061-58bd-4d69-897b-6d4c2ef675db"},"vehicle_type_id":"4","last_reported":1701054468,"current_range_meters":24400,"station_id":"ce4bhb92rcd13ifvqen0","pricing_plan_id":"free"},{"bike_id":"856c023f-a8df-47d9-a6d8-d1ea2cb6ecf0","system_id":"levelo_inurba_marseille","lat":43.290104,"lon":5.356111,"is_reserved":false,"is_disabled":false,"rental_uris":{"android":"levelo://app?vid=856c023f-a8df-47d9-a6d8-d1ea2cb6ecf0","ios":"levelo://app?vid=856c023f-a8df-47d9-a6d8-d1ea2cb6ecf0"},"vehicle_type_id":"4","last_reported":1701054468,"current_range_meters":26000,"station_id":"ce4bhb92rcd13ifvqen0","pricing_plan_id":"free"},{"bike_id":"a73b6046-000f-4c98-a1fc-51cac1ba1906","system_id":"levelo_inurba_marseille","lat":43.29002,"lon":5.35597,"is_reserved":false,"is_disabled":false,"rental_uris":{"android":"levelo://app?vid=a73b6046-000f-4c98-a1fc-51cac1ba1906","ios":"levelo://app?vid=a73b6046-000f-4c98-a1fc-51cac1ba1906"},"vehicle_type_id":"4","last_reported":1701054468,"current_range_meters":28400,"station_id":"ce4bhb92rcd13ifvqen0","pricing_plan_id":"free"},{"bike_id":"8c8ef7b8-d18c-45af-99a2-f5e7693c25bf","system_id":"levelo_inurba_marseille","lat":43.2979,"lon":5.393403,"is_reserved":false,"is_disabled":false,"rental_uris":{"android":"levelo://app?vid=8c8ef7b8-d18c-45af-99a2-f5e7693c25bf","ios":"levelo://app?vid=8c8ef7b8-d18c-45af-99a2-f5e7693c25bf"},"vehicle_type_id":"4","last_reported":1701054468,"current_range_meters":30400,"station_id":"chh1huq6cuj3fo74tm60","pricing_plan_id":"free"},{"bike_id":"b7cf4f00-af52-4ef6-9e33-1bf79e23c1fc","system_id":"levelo_inurba_marseille","lat":43.295169,"lon":5.390426,"is_reserved":false,"is_disabled":false,"rental_uris":{"android":"levelo://app?vid=b7cf4f00-af52-4ef6-9e33-1bf79e23c1fc","ios":"levelo://app?vid=b7cf4f00-af52-4ef6-9e33-1bf79e23c1fc"},"vehicle_type_id":"4","last_reported":1701054468,"current_range_meters":24400,"station_id":"ce4bh3p2rcd13ifvqdp0","pricing_plan_id":"free"},{"bike_id":"bcf153d0-a004-45a2-bd1b-3bc8ded0c2fc","system_id":"levelo_inurba_marseille","lat":43.28856,"lon":5.358371,"is_reserved":false,"is_disabled":false,"rental_uris":{"android":"levelo://app?vid=bcf153d0-a004-45a2-bd1b-3bc8ded0c2fc","ios":"levelo://app?vid=bcf153d0-a004-45a2-bd1b-3bc8ded0c2fc"},"vehicle_type_id":"4","last_reported":1701054468,"current_range_meters":23600,"station_id":"ce4bhb12rcd13ifvqem0","pricing_plan_id":"free"},{"bike_id":"14ece8fa-7a31-43b7-a735-f64bdfdfd330","system_id":"levelo_inurba_marseille","lat":43.309358,"lon":5.40141,"is_reserved":false,"is_disabled":false,"rental_uris":{"android":"levelo://app?vid=14ece8fa-7a31-43b7-a735-f64bdfdfd330","ios":"levelo://app?vid=14ece8fa-7a31-43b7-a735-f64bdfdfd330"},"vehicle_type_id":"4","last_reported":1701054468,"current_range_meters":23600,"station_id":"ce4bgvp2rcd13ifvqct0","pricing_plan_id":"free"},{"bike_id":"6f70af8c-322c-4dc6-97c0-732a8decc587","system_id":"levelo_inurba_marseille","lat":43.309371,"lon":5.401449,"is_reserved":false,"is_disabled":false,"rental_uris":{"android":"levelo://app?vid=6f70af8c-322c-4dc6-97c0-732a8decc587","ios":"levelo://app?vid=6f70af8c-322c-4dc6-97c0-732a8decc587"},"vehicle_type_id":"4","last_reported":1701054468,"current_range_meters":30800,"station_id":"ce4bgvp2rcd13ifvqct0","pricing_plan_id":"free"},{"bike_id":"65572c20-8faf-4843-a577-1787e87a1498","system_id":"levelo_inurba_marseille","lat":43.309371,"lon":5.401449,"is_reserved":false,"is_disabled":false,"rental_uris":{"android":"levelo://app?vid=65572c20-8faf-4843-a577-1787e87a1498","ios":"levelo://app?vid=65572c20-8faf-4843-a577-1787e87a1498"},"vehicle_type_id":"4","last_reported":1701054468,"current_range_meters":13200,"station_id":"ce4bgvp2rcd13ifvqct0","pricing_plan_id":"free"},{"bike_id":"ce4c3d71-1878-45b3-b3aa-66ea154cc4f5","system_id":"levelo_inurba_marseille","lat":43.309371,"lon":5.401449,"is_reserved":false,"is_disabled":false,"rental_uris":{"android":"levelo://app?vid=ce4c3d71-1878-45b3-b3aa-66ea154cc4f5","ios":"levelo://app?vid=ce4c3d71-1878-45b3-b3aa-66ea154cc4f5"},"vehicle_type_id":"4","last_reported":1701054468,"current_range_meters":28800,"station_id":"ce4bgvp2rcd13ifvqct0","pricing_plan_id":"free"},{"bike_id":"1427eb31-f9b3-4bc2-8e1d-dfd6fbe51be5","system_id":"levelo_inurba_marseille","lat":43.309371,"lon":5.401449,"is_reserved":false,"is_disabled":false,"rental_uris":{"android":"levelo://app?vid=1427eb31-f9b3-4bc2-8e1d-dfd6fbe51be5","ios":"levelo://app?vid=1427eb31-f9b3-4bc2-8e1d-dfd6fbe51be5"},"vehicle_type_id":"4","last_reported":1701054468,"current_range_meters":28000,"station_id":"ce4bgvp2rcd13ifvqct0","pricing_plan_id":"free"},{"bike_id":"ef5f3793-784d-4448-a586-c772771d64b0","system_id":"levelo_inurba_marseille","lat":43.306412,"lon":5.401035,"is_reserved":false,"is_disabled":false,"rental_uris":{"android":"levelo://app?vid=ef5f3793-784d-4448-a586-c772771d64b0","ios":"levelo://app?vid=ef5f3793-784d-4448-a586-c772771d64b0"},"vehicle_type_id":"4","last_reported":1701054468,"current_range_meters":28800,"station_id":"ce4bh112rcd13ifvqda0","pricing_plan_id":"free"},{"bike_id":"ca25d9c1-4f19-424d-807d-70610c016d13","system_id":"levelo_inurba_marseille","lat":43.28727,"lon":5.36078,"is_reserved":false,"is_disabled":false,"rental_uris":{"android":"levelo://app?vid=ca25d9c1-4f19-424d-807d-70610c016d13","ios":"levelo://app?vid=ca25d9c1-4f19-424d-807d-70610c016d13"},"vehicle_type_id":"4","last_reported":1701054468,"current_range_meters":24400,"station_id":"cki0cbj6b192h4jlfktg","pricing_plan_id":"free"},{"bike_id":"2e46bdc4-6ca9-492e-a039-67d62d664d65","system_id":"levelo_inurba_marseille","lat":43.28727,"lon":5.36078,"is_reserved":false,"is_disabled":false,"rental_uris":{"android":"levelo://app?vid=2e46bdc4-6ca9-492e-a039-67d62d664d65","ios":"levelo://app?vid=2e46bdc4-6ca9-492e-a039-67d62d664d65"},"vehicle_type_id":"4","last_reported":1701054468,"current_range_meters":31200,"station_id":"cki0cbj6b192h4jlfktg","pricing_plan_id":"free"},{"bike_id":"6ad298fa-f49c-461a-b002-e1ed806a452f","system_id":"levelo_inurba_marseille","lat":43.28727,"lon":5.36078,"is_reserved":false,"is_disabled":false,"rental_uris":{"android":"levelo://app?vid=6ad298fa-f49c-461a-b002-e1ed806a452f","ios":"levelo://app?vid=6ad298fa-f49c-461a-b002-e1ed806a452f"},"vehicle_type_id":"4","last_reported":1701054468,"current_range_meters":28000,"station_id":"cki0cbj6b192h4jlfktg","pricing_plan_id":"free"},{"bike_id":"f5e42b48-2769-4098-98f6-041122c23ac6","system_id":"levelo_inurba_marseille","lat":43.286591,"lon":5.363346,"is_reserved":false,"is_disabled":false,"rental_uris":{"android":"levelo://app?vid=f5e42b48-2769-4098-98f6-041122c23ac6","ios":"levelo://app?vid=f5e42b48-2769-4098-98f6-041122c23ac6"},"vehicle_type_id":"4","last_reported":1701054468,"current_range_meters":31200,"station_id":"ce4bhah2rcd13ifvqej0","pricing_plan_id":"free"},{"bike_id":"ebfb025a-2731-489b-a44d-803b65f0d09c","system_id":"levelo_inurba_marseille","lat":43.286961,"lon":5.373785,"is_reserved":false,"is_disabled":false,"rental_uris":{"android":"levelo://app?vid=ebfb025a-2731-489b-a44d-803b65f0d09c","ios":"levelo://app?vid=ebfb025a-2731-489b-a44d-803b65f0d09c"},"vehicle_type_id":"4","last_reported":1701054468,"current_range_meters":30400,"station_id":"ce4bh3p2rcd13ifvqdq0","pricing_plan_id":"free"},{"bike_id":"7fcd4c87-3875-4011-9eda-96edabc2b0b2","system_id":"levelo_inurba_marseille","lat":43.286591,"lon":5.363346,"is_reserved":false,"is_disabled":false,"rental_uris":{"android":"levelo://app?vid=7fcd4c87-3875-4011-9eda-96edabc2b0b2","ios":"levelo://app?vid=7fcd4c87-3875-4011-9eda-96edabc2b0b2"},"vehicle_type_id":"4","last_reported":1701054468,"current_range_meters":21200,"station_id":"ce4bhah2rcd13ifvqej0","pricing_plan_id":"free"},{"bike_id":"a0c873d9-1f45-473b-a9b8-0c589f32082d","system_id":"levelo_inurba_marseille","lat":43.286961,"lon":5.373785,"is_reserved":false,"is_disabled":false,"rental_uris":{"android":"levelo://app?vid=a0c873d9-1f45-473b-a9b8-0c589f32082d","ios":"levelo://app?vid=a0c873d9-1f45-473b-a9b8-0c589f32082d"},"vehicle_type_id":"4","last_reported":1701054468,"current_range_meters":31200,"station_id":"ce4bh3p2rcd13ifvqdq0","pricing_plan_id":"free"},{"bike_id":"1c32affe-751e-423a-827d-76d95953688c","system_id":"levelo_inurba_marseille","lat":43.286961,"lon":5.373785,"is_reserved":false,"is_disabled":false,"rental_uris":{"android":"levelo://app?vid=1c32affe-751e-423a-827d-76d95953688c","ios":"levelo://app?vid=1c32affe-751e-423a-827d-76d95953688c"},"vehicle_type_id":"4","last_reported":1701054468,"current_range_meters":23600,"station_id":"ce4bh3p2rcd13ifvqdq0","pricing_plan_id":"free"},{"bike_id":"dcf573ef-83ac-4b1e-b6ab-23ddd59c18af","system_id":"levelo_inurba_marseille","lat":43.286591,"lon":5.363346,"is_reserved":false,"is_disabled":false,"rental_uris":{"android":"levelo://app?vid=dcf573ef-83ac-4b1e-b6ab-23ddd59c18af","ios":"levelo://app?vid=dcf573ef-83ac-4b1e-b6ab-23ddd59c18af"},"vehicle_type_id":"4","last_reported":1701054468,"current_range_meters":21200,"station_id":"ce4bhah2rcd13ifvqej0","pricing_plan_id":"free"},{"bike_id":"fc98fb73-4605-44a9-bb4a-de405e1f6e1b","system_id":"levelo_inurba_marseille","lat":43.286953,"lon":5.373767,"is_reserved":false,"is_disabled":false,"rental_uris":{"android":"levelo://app?vid=fc98fb73-4605-44a9-bb4a-de405e1f6e1b","ios":"levelo://app?vid=fc98fb73-4605-44a9-bb4a-de405e1f6e1b"},"vehicle_type_id":"4","last_reported":1701054468,"current_range_meters":29200,"station_id":"ce4bh3p2rcd13ifvqdq0","pricing_plan_id":"free"},{"bike_id":"ba9e7323-6ff2-4a20-ab80-de03392e8f38","system_id":"levelo_inurba_marseille","lat":43.295169,"lon":5.394053,"is_reserved":false,"is_disabled":false,"rental_uris":{"android":"levelo://app?vid=ba9e7323-6ff2-4a20-ab80-de03392e8f38","ios":"levelo://app?vid=ba9e7323-6ff2-4a20-ab80-de03392e8f38"},"vehicle_type_id":"4","last_reported":1701054468,"current_range_meters":0,"station_id":"ce4bh292rcd13ifvqdf0","pricing_plan_id":"free"},{"bike_id":"e789888f-326c-49d1-8a3c-867761f6ec50","system_id":"levelo_inurba_marseille","lat":43.287203,"lon":5.379233,"is_reserved":false,"is_disabled":false,"rental_uris":{"android":"levelo://app?vid=e789888f-326c-49d1-8a3c-867761f6ec50","ios":"levelo://app?vid=e789888f-326c-49d1-8a3c-867761f6ec50"},"vehicle_type_id":"4","last_reported":1701054468,"current_range_meters":31200,"station_id":"ce4bh9p2rcd13ifvqec0","pricing_plan_id":"free"},{"bike_id":"5071acbb-3c43-4521-abe3-333426fed992","system_id":"levelo_inurba_marseille","lat":43.31643,"lon":5.40432,"is_reserved":false,"is_disabled":false,"rental_uris":{"android":"levelo://app?vid=5071acbb-3c43-4521-abe3-333426fed992","ios":"levelo://app?vid=5071acbb-3c43-4521-abe3-333426fed992"},"vehicle_type_id":"4","last_reported":1701054468,"current_range_meters":0,"station_id":"ce4bh012rcd13ifvqd00","pricing_plan_id":"free"},{"bike_id":"c55477f8-cb17-4436-905c-65a287b08fd9","system_id":"levelo_inurba_marseille","lat":43.31641,"lon":5.40435,"is_reserved":false,"is_disabled":false,"rental_uris":{"android":"levelo://app?vid=c55477f8-cb17-4436-905c-65a287b08fd9","ios":"levelo://app?vid=c55477f8-cb17-4436-905c-65a287b08fd9"},"vehicle_type_id":"4","last_reported":1701054468,"current_range_meters":0,"station_id":"ce4bh012rcd13ifvqd00","pricing_plan_id":"free"},{"bike_id":"c2267585-6099-44fd-8c74-85997bcc0857","system_id":"levelo_inurba_marseille","lat":43.284538,"lon":5.358657,"is_reserved":false,"is_disabled":false,"rental_uris":{"android":"levelo://app?vid=c2267585-6099-44fd-8c74-85997bcc0857","ios":"levelo://app?vid=c2267585-6099-44fd-8c74-85997bcc0857"},"vehicle_type_id":"4","last_reported":1701054468,"current_range_meters":31200,"station_id":"ce4bhah2rcd13ifvqei0","pricing_plan_id":"free"},{"bike_id":"3a12544e-6647-4f7d-916e-8dd35fbfa4a7","system_id":"levelo_inurba_marseille","lat":43.284538,"lon":5.358657,"is_reserved":false,"is_disabled":false,"rental_uris":{"android":"levelo://app?vid=3a12544e-6647-4f7d-916e-8dd35fbfa4a7","ios":"levelo://app?vid=3a12544e-6647-4f7d-916e-8dd35fbfa4a7"},"vehicle_type_id":"4","last_reported":1701054468,"current_range_meters":31200,"station_id":"ce4bhah2rcd13ifvqei0","pricing_plan_id":"free"},{"bike_id":"b50ae186-df09-4f5a-b559-f9ad162971a5","system_id":"levelo_inurba_marseille","lat":43.284534,"lon":5.358662,"is_reserved":false,"is_disabled":false,"rental_uris":{"android":"levelo://app?vid=b50ae186-df09-4f5a-b559-f9ad162971a5","ios":"levelo://app?vid=b50ae186-df09-4f5a-b559-f9ad162971a5"},"vehicle_type_id":"4","last_reported":1701054468,"current_range_meters":28000,"station_id":"ce4bhah2rcd13ifvqei0","pricing_plan_id":"free"},{"bike_id":"11d7d85f-e794-4877-bab0-4dcf8b4131c6","system_id":"levelo_inurba_marseille","lat":43.284538,"lon":5.358657,"is_reserved":false,"is_disabled":false,"rental_uris":{"android":"levelo://app?vid=11d7d85f-e794-4877-bab0-4dcf8b4131c6","ios":"levelo://app?vid=11d7d85f-e794-4877-bab0-4dcf8b4131c6"},"vehicle_type_id":"4","last_reported":1701054468,"current_range_meters":10000,"station_id":"ce4bhah2rcd13ifvqei0","pricing_plan_id":"free"},{"bike_id":"cca47f6e-60f8-436b-adf0-19b7d5d3337a","system_id":"levelo_inurba_marseille","lat":43.284564,"lon":5.358934,"is_reserved":false,"is_disabled":false,"rental_uris":{"android":"levelo://app?vid=cca47f6e-60f8-436b-adf0-19b7d5d3337a","ios":"levelo://app?vid=cca47f6e-60f8-436b-adf0-19b7d5d3337a"},"vehicle_type_id":"4","last_reported":1701054468,"current_range_meters":2000,"station_id":"ce4bhah2rcd13ifvqei0","pricing_plan_id":"free"},{"bike_id":"a05121bd-52ec-4304-ba7f-dc7667e8acfa","system_id":"levelo_inurba_marseille","lat":43.284538,"lon":5.358657,"is_reserved":false,"is_disabled":false,"rental_uris":{"android":"levelo://app?vid=a05121bd-52ec-4304-ba7f-dc7667e8acfa","ios":"levelo://app?vid=a05121bd-52ec-4304-ba7f-dc7667e8acfa"},"vehicle_type_id":"4","last_reported":1701054468,"current_range_meters":31200,"station_id":"ce4bhah2rcd13ifvqei0","pricing_plan_id":"free"},{"bike_id":"850cce33-980b-4e96-b6bc-65a30fad8f45","system_id":"levelo_inurba_marseille","lat":43.284538,"lon":5.358657,"is_reserved":false,"is_disabled":false,"rental_uris":{"android":"levelo://app?vid=850cce33-980b-4e96-b6bc-65a30fad8f45","ios":"levelo://app?vid=850cce33-980b-4e96-b6bc-65a30fad8f45"},"vehicle_type_id":"4","last_reported":1701054468,"current_range_meters":19200,"station_id":"ce4bhah2rcd13ifvqei0","pricing_plan_id":"free"},{"bike_id":"3b1acaa6-131d-4c7d-925c-ce75c27018a2","system_id":"levelo_inurba_marseille","lat":43.284534,"lon":5.358662,"is_reserved":false,"is_disabled":false,"rental_uris":{"android":"levelo://app?vid=3b1acaa6-131d-4c7d-925c-ce75c27018a2","ios":"levelo://app?vid=3b1acaa6-131d-4c7d-925c-ce75c27018a2"},"vehicle_type_id":"4","last_reported":1701054468,"current_range_meters":25600,"station_id":"ce4bhah2rcd13ifvqei0","pricing_plan_id":"free"},{"bike_id":"fe0fe934-bb7d-4407-bbd5-06ef34c57eca","system_id":"levelo_inurba_marseille","lat":43.294314,"lon":5.397498,"is_reserved":false,"is_disabled":false,"rental_uris":{"android":"levelo://app?vid=fe0fe934-bb7d-4407-bbd5-06ef34c57eca","ios":"levelo://app?vid=fe0fe934-bb7d-4407-bbd5-06ef34c57eca"},"vehicle_type_id":"4","last_reported":1701054468,"current_range_meters":28800,"station_id":"ce4bh3h2rcd13ifvqdo0","pricing_plan_id":"free"},{"bike_id":"08618197-6e99-466b-a18c-0874f38b1cda","system_id":"levelo_inurba_marseille","lat":43.284534,"lon":5.358662,"is_reserved":false,"is_disabled":false,"rental_uris":{"android":"levelo://app?vid=08618197-6e99-466b-a18c-0874f38b1cda","ios":"levelo://app?vid=08618197-6e99-466b-a18c-0874f38b1cda"},"vehicle_type_id":"4","last_reported":1701054468,"current_range_meters":17200,"station_id":"ce4bhah2rcd13ifvqei0","pricing_plan_id":"free"},{"bike_id":"0b39e07e-65a2-47af-897f-62a887b80617","system_id":"levelo_inurba_marseille","lat":43.284534,"lon":5.358662,"is_reserved":false,"is_disabled":false,"rental_uris":{"android":"levelo://app?vid=0b39e07e-65a2-47af-897f-62a887b80617","ios":"levelo://app?vid=0b39e07e-65a2-47af-897f-62a887b80617"},"vehicle_type_id":"4","last_reported":1701054468,"current_range_meters":27600,"station_id":"ce4bhah2rcd13ifvqei0","pricing_plan_id":"free"},{"bike_id":"568497a1-972c-4ea6-a9c2-3bf92c65cd91","system_id":"levelo_inurba_marseille","lat":43.294314,"lon":5.397498,"is_reserved":false,"is_disabled":false,"rental_uris":{"android":"levelo://app?vid=568497a1-972c-4ea6-a9c2-3bf92c65cd91","ios":"levelo://app?vid=568497a1-972c-4ea6-a9c2-3bf92c65cd91"},"vehicle_type_id":"4","last_reported":1701054468,"current_range_meters":21200,"station_id":"ce4bh3h2rcd13ifvqdo0","pricing_plan_id":"free"},{"bike_id":"d9b0c75d-ad0b-4ca2-9642-6f6a5b7879ef","system_id":"levelo_inurba_marseille","lat":43.2842,"lon":5.3751,"is_reserved":false,"is_disabled":false,"rental_uris":{"android":"levelo://app?vid=d9b0c75d-ad0b-4ca2-9642-6f6a5b7879ef","ios":"levelo://app?vid=d9b0c75d-ad0b-4ca2-9642-6f6a5b7879ef"},"vehicle_type_id":"4","last_reported":1701054468,"current_range_meters":14000,"station_id":"ce4bh412rcd13ifvqds0","pricing_plan_id":"free"},{"bike_id":"42786884-d38c-48b0-a5d6-623538999e27","system_id":"levelo_inurba_marseille","lat":43.283998,"lon":5.375062,"is_reserved":false,"is_disabled":false,"rental_uris":{"android":"levelo://app?vid=42786884-d38c-48b0-a5d6-623538999e27","ios":"levelo://app?vid=42786884-d38c-48b0-a5d6-623538999e27"},"vehicle_type_id":"4","last_reported":1701054468,"current_range_meters":30800,"station_id":"ce4bh412rcd13ifvqds0","pricing_plan_id":"free"},{"bike_id":"a8a17ccd-d9c5-41c3-b5f8-672224c7163c","system_id":"levelo_inurba_marseille","lat":43.283998,"lon":5.375062,"is_reserved":false,"is_disabled":false,"rental_uris":{"android":"levelo://app?vid=a8a17ccd-d9c5-41c3-b5f8-672224c7163c","ios":"levelo://app?vid=a8a17ccd-d9c5-41c3-b5f8-672224c7163c"},"vehicle_type_id":"4","last_reported":1701054468,"current_range_meters":16800,"station_id":"ce4bh412rcd13ifvqds0","pricing_plan_id":"free"},{"bike_id":"a6879ab5-3df1-4dd7-9453-c866c0e70ca6","system_id":"levelo_inurba_marseille","lat":43.283998,"lon":5.375062,"is_reserved":false,"is_disabled":false,"rental_uris":{"android":"levelo://app?vid=a6879ab5-3df1-4dd7-9453-c866c0e70ca6","ios":"levelo://app?vid=a6879ab5-3df1-4dd7-9453-c866c0e70ca6"},"vehicle_type_id":"4","last_reported":1701054468,"current_range_meters":28800,"station_id":"ce4bh412rcd13ifvqds0","pricing_plan_id":"free"},{"bike_id":"e7dc17b0-fdb9-4451-b469-58da0c1d5449","system_id":"levelo_inurba_marseille","lat":43.295713,"lon":5.399639,"is_reserved":false,"is_disabled":false,"rental_uris":{"android":"levelo://app?vid=e7dc17b0-fdb9-4451-b469-58da0c1d5449","ios":"levelo://app?vid=e7dc17b0-fdb9-4451-b469-58da0c1d5449"},"vehicle_type_id":"4","last_reported":1701054468,"current_range_meters":21200,"station_id":"ce4bh312rcd13ifvqdj0","pricing_plan_id":"free"},{"bike_id":"da5750a3-07f1-47a0-940a-d928d9d09031","system_id":"levelo_inurba_marseille","lat":43.295656,"lon":5.399822,"is_reserved":false,"is_disabled":false,"rental_uris":{"android":"levelo://app?vid=da5750a3-07f1-47a0-940a-d928d9d09031","ios":"levelo://app?vid=da5750a3-07f1-47a0-940a-d928d9d09031"},"vehicle_type_id":"4","last_reported":1701054468,"current_range_meters":26000,"station_id":"ce4bh312rcd13ifvqdj0","pricing_plan_id":"free"},{"bike_id":"debcf2dd-0944-44f5-bd2f-27b8c9dc604c","system_id":"levelo_inurba_marseille","lat":43.286595,"lon":5.386795,"is_reserved":false,"is_disabled":false,"rental_uris":{"android":"levelo://app?vid=debcf2dd-0944-44f5-bd2f-27b8c9dc604c","ios":"levelo://app?vid=debcf2dd-0944-44f5-bd2f-27b8c9dc604c"},"vehicle_type_id":"4","last_reported":1701054468,"current_range_meters":25600,"station_id":"ce4bh492rcd13ifvqdug","pricing_plan_id":"free"},{"bike_id":"8ecb12d4-7af4-4f31-91f2-67b55cc12b86","system_id":"levelo_inurba_marseille","lat":43.319179,"lon":5.407725,"is_reserved":false,"is_disabled":false,"rental_uris":{"android":"levelo://app?vid=8ecb12d4-7af4-4f31-91f2-67b55cc12b86","ios":"levelo://app?vid=8ecb12d4-7af4-4f31-91f2-67b55cc12b86"},"vehicle_type_id":"4","last_reported":1701054468,"current_range_meters":28000,"station_id":"ce4bhq12rcd13ifvqhig","pricing_plan_id":"free"},{"bike_id":"13628b6d-8599-44e8-bb7c-6a27cfebb6fe","system_id":"levelo_inurba_marseille","lat":43.323464,"lon":5.406297,"is_reserved":false,"is_disabled":false,"rental_uris":{"android":"levelo://app?vid=13628b6d-8599-44e8-bb7c-6a27cfebb6fe","ios":"levelo://app?vid=13628b6d-8599-44e8-bb7c-6a27cfebb6fe"},"vehicle_type_id":"4","last_reported":1701054468,"current_range_meters":31200,"station_id":"ce4bhq92rcd13ifvqhjg","pricing_plan_id":"free"},{"bike_id":"5b3bb01f-e6fd-486d-94d5-0af0ba6741fa","system_id":"levelo_inurba_marseille","lat":43.323464,"lon":5.406297,"is_reserved":false,"is_disabled":false,"rental_uris":{"android":"levelo://app?vid=5b3bb01f-e6fd-486d-94d5-0af0ba6741fa","ios":"levelo://app?vid=5b3bb01f-e6fd-486d-94d5-0af0ba6741fa"},"vehicle_type_id":"4","last_reported":1701054468,"current_range_meters":30000,"station_id":"ce4bhq92rcd13ifvqhjg","pricing_plan_id":"free"},{"bike_id":"ff4fb401-f94e-420f-8187-24139e386930","system_id":"levelo_inurba_marseille","lat":43.323464,"lon":5.406297,"is_reserved":false,"is_disabled":false,"rental_uris":{"android":"levelo://app?vid=ff4fb401-f94e-420f-8187-24139e386930","ios":"levelo://app?vid=ff4fb401-f94e-420f-8187-24139e386930"},"vehicle_type_id":"4","last_reported":1701054468,"current_range_meters":30400,"station_id":"ce4bhq92rcd13ifvqhjg","pricing_plan_id":"free"},{"bike_id":"73537df4-f4d7-416f-8db8-c3c13efaae8f","system_id":"levelo_inurba_marseille","lat":43.323464,"lon":5.406297,"is_reserved":false,"is_disabled":false,"rental_uris":{"android":"levelo://app?vid=73537df4-f4d7-416f-8db8-c3c13efaae8f","ios":"levelo://app?vid=73537df4-f4d7-416f-8db8-c3c13efaae8f"},"vehicle_type_id":"4","last_reported":1701054468,"current_range_meters":18400,"station_id":"ce4bhq92rcd13ifvqhjg","pricing_plan_id":"free"},{"bike_id":"89cfc896-f202-4c11-8524-3c312d434839","system_id":"levelo_inurba_marseille","lat":43.283494,"lon":5.380945,"is_reserved":false,"is_disabled":false,"rental_uris":{"android":"levelo://app?vid=89cfc896-f202-4c11-8524-3c312d434839","ios":"levelo://app?vid=89cfc896-f202-4c11-8524-3c312d434839"},"vehicle_type_id":"4","last_reported":1701054468,"current_range_meters":29600,"station_id":"ce4bh412rcd13ifvqdr0","pricing_plan_id":"free"},{"bike_id":"10e7f472-b511-40cd-8937-e5a5d9f2abf3","system_id":"levelo_inurba_marseille","lat":43.283498,"lon":5.380948,"is_reserved":false,"is_disabled":false,"rental_uris":{"android":"levelo://app?vid=10e7f472-b511-40cd-8937-e5a5d9f2abf3","ios":"levelo://app?vid=10e7f472-b511-40cd-8937-e5a5d9f2abf3"},"vehicle_type_id":"4","last_reported":1701054468,"current_range_meters":28000,"station_id":"ce4bh412rcd13ifvqdr0","pricing_plan_id":"free"},{"bike_id":"c5bbff28-4de4-4ca1-9d97-a35c3db07119","system_id":"levelo_inurba_marseille","lat":43.283494,"lon":5.380945,"is_reserved":false,"is_disabled":false,"rental_uris":{"android":"levelo://app?vid=c5bbff28-4de4-4ca1-9d97-a35c3db07119","ios":"levelo://app?vid=c5bbff28-4de4-4ca1-9d97-a35c3db07119"},"vehicle_type_id":"4","last_reported":1701054468,"current_range_meters":30000,"station_id":"ce4bh412rcd13ifvqdr0","pricing_plan_id":"free"},{"bike_id":"89fdca47-2c1f-4794-b682-ee4029b7699b","system_id":"levelo_inurba_marseille","lat":43.284206,"lon":5.349873,"is_reserved":false,"is_disabled":false,"rental_uris":{"android":"levelo://app?vid=89fdca47-2c1f-4794-b682-ee4029b7699b","ios":"levelo://app?vid=89fdca47-2c1f-4794-b682-ee4029b7699b"},"vehicle_type_id":"4","last_reported":1701054468,"current_range_meters":31200,"station_id":"ce4bhbh2rcd13ifvqepg","pricing_plan_id":"free"},{"bike_id":"189a88c5-3283-4c87-852a-221767b11fd8","system_id":"levelo_inurba_marseille","lat":43.282744,"lon":5.350533,"is_reserved":false,"is_disabled":false,"rental_uris":{"android":"levelo://app?vid=189a88c5-3283-4c87-852a-221767b11fd8","ios":"levelo://app?vid=189a88c5-3283-4c87-852a-221767b11fd8"},"vehicle_type_id":"4","last_reported":1701054468,"current_range_meters":31200,"station_id":"ce4bhbp2rcd13ifvqerg","pricing_plan_id":"free"},{"bike_id":"e2284003-4e46-4e0a-93e7-73d05c3666d9","system_id":"levelo_inurba_marseille","lat":43.33508,"lon":5.397755,"is_reserved":false,"is_disabled":false,"rental_uris":{"android":"levelo://app?vid=e2284003-4e46-4e0a-93e7-73d05c3666d9","ios":"levelo://app?vid=e2284003-4e46-4e0a-93e7-73d05c3666d9"},"vehicle_type_id":"4","last_reported":1701054468,"current_range_meters":16400,"station_id":"","pricing_plan_id":"free"},{"bike_id":"fb05a2a1-1da2-4416-9b70-864091572caf","system_id":"levelo_inurba_marseille","lat":43.292724,"lon":5.401131,"is_reserved":false,"is_disabled":false,"rental_uris":{"android":"levelo://app?vid=fb05a2a1-1da2-4416-9b70-864091572caf","ios":"levelo://app?vid=fb05a2a1-1da2-4416-9b70-864091572caf"},"vehicle_type_id":"4","last_reported":1701054468,"current_range_meters":28400,"station_id":"ce4bh312rcd13ifvqdk0","pricing_plan_id":"free"},{"bike_id":"00584029-8953-4993-b331-cbca650b790e","system_id":"levelo_inurba_marseille","lat":43.28274,"lon":5.35075,"is_reserved":false,"is_disabled":false,"rental_uris":{"android":"levelo://app?vid=00584029-8953-4993-b331-cbca650b790e","ios":"levelo://app?vid=00584029-8953-4993-b331-cbca650b790e"},"vehicle_type_id":"4","last_reported":1701054468,"current_range_meters":21200,"station_id":"ce4bhbp2rcd13ifvqerg","pricing_plan_id":"free"},{"bike_id":"b79fcaa7-c964-4223-9658-a23ecbc4d3b4","system_id":"levelo_inurba_marseille","lat":43.282701,"lon":5.350759,"is_reserved":false,"is_disabled":false,"rental_uris":{"android":"levelo://app?vid=b79fcaa7-c964-4223-9658-a23ecbc4d3b4","ios":"levelo://app?vid=b79fcaa7-c964-4223-9658-a23ecbc4d3b4"},"vehicle_type_id":"4","last_reported":1701054468,"current_range_meters":30000,"station_id":"ce4bhbp2rcd13ifvqerg","pricing_plan_id":"free"},{"bike_id":"0e81f73b-0d7a-48f3-8b31-863970ac5987","system_id":"levelo_inurba_marseille","lat":43.283502,"lon":5.386471,"is_reserved":false,"is_disabled":false,"rental_uris":{"android":"levelo://app?vid=0e81f73b-0d7a-48f3-8b31-863970ac5987","ios":"levelo://app?vid=0e81f73b-0d7a-48f3-8b31-863970ac5987"},"vehicle_type_id":"4","last_reported":1701054468,"current_range_meters":1200,"station_id":"ce4bh492rcd13ifvqdvg","pricing_plan_id":"free"},{"bike_id":"2b8b4312-9908-4d24-9a48-03f8ae87c750","system_id":"levelo_inurba_marseille","lat":43.282754,"lon":5.350519,"is_reserved":false,"is_disabled":false,"rental_uris":{"android":"levelo://app?vid=2b8b4312-9908-4d24-9a48-03f8ae87c750","ios":"levelo://app?vid=2b8b4312-9908-4d24-9a48-03f8ae87c750"},"vehicle_type_id":"4","last_reported":1701054468,"current_range_meters":28000,"station_id":"ce4bhbp2rcd13ifvqerg","pricing_plan_id":"free"},{"bike_id":"77e2e818-f7b1-4cb5-8029-fbcbcafefa21","system_id":"levelo_inurba_marseille","lat":43.282744,"lon":5.350533,"is_reserved":false,"is_disabled":false,"rental_uris":{"android":"levelo://app?vid=77e2e818-f7b1-4cb5-8029-fbcbcafefa21","ios":"levelo://app?vid=77e2e818-f7b1-4cb5-8029-fbcbcafefa21"},"vehicle_type_id":"4","last_reported":1701054468,"current_range_meters":31200,"station_id":"ce4bhbp2rcd13ifvqerg","pricing_plan_id":"free"},{"bike_id":"bda0e9c6-2d4a-469b-9aec-e0a20139ff9c","system_id":"levelo_inurba_marseille","lat":43.282744,"lon":5.350533,"is_reserved":false,"is_disabled":false,"rental_uris":{"android":"levelo://app?vid=bda0e9c6-2d4a-469b-9aec-e0a20139ff9c","ios":"levelo://app?vid=bda0e9c6-2d4a-469b-9aec-e0a20139ff9c"},"vehicle_type_id":"4","last_reported":1701054468,"current_range_meters":31200,"station_id":"ce4bhbp2rcd13ifvqerg","pricing_plan_id":"free"},{"bike_id":"bac6088f-6bc3-42d3-8bba-42726760c5cd","system_id":"levelo_inurba_marseille","lat":43.282754,"lon":5.350519,"is_reserved":false,"is_disabled":false,"rental_uris":{"android":"levelo://app?vid=bac6088f-6bc3-42d3-8bba-42726760c5cd","ios":"levelo://app?vid=bac6088f-6bc3-42d3-8bba-42726760c5cd"},"vehicle_type_id":"4","last_reported":1701054468,"current_range_meters":30000,"station_id":"ce4bhbp2rcd13ifvqerg","pricing_plan_id":"free"},{"bike_id":"6b0f7bb4-d7c0-4aec-9bc1-3e53a2e8a5bd","system_id":"levelo_inurba_marseille","lat":43.282744,"lon":5.350533,"is_reserved":false,"is_disabled":false,"rental_uris":{"android":"levelo://app?vid=6b0f7bb4-d7c0-4aec-9bc1-3e53a2e8a5bd","ios":"levelo://app?vid=6b0f7bb4-d7c0-4aec-9bc1-3e53a2e8a5bd"},"vehicle_type_id":"4","last_reported":1701054468,"current_range_meters":31200,"station_id":"ce4bhbp2rcd13ifvqerg","pricing_plan_id":"free"},{"bike_id":"bd965618-76dd-4142-8f38-ac650bb39851","system_id":"levelo_inurba_marseille","lat":43.283502,"lon":5.386471,"is_reserved":false,"is_disabled":false,"rental_uris":{"android":"levelo://app?vid=bd965618-76dd-4142-8f38-ac650bb39851","ios":"levelo://app?vid=bd965618-76dd-4142-8f38-ac650bb39851"},"vehicle_type_id":"4","last_reported":1701054468,"current_range_meters":28800,"station_id":"ce4bh492rcd13ifvqdvg","pricing_plan_id":"free"},{"bike_id":"0ad9877e-cee8-451f-8a2e-1a9ddaf5f37b","system_id":"levelo_inurba_marseille","lat":43.28039,"lon":5.369297,"is_reserved":false,"is_disabled":false,"rental_uris":{"android":"levelo://app?vid=0ad9877e-cee8-451f-8a2e-1a9ddaf5f37b","ios":"levelo://app?vid=0ad9877e-cee8-451f-8a2e-1a9ddaf5f37b"},"vehicle_type_id":"4","last_reported":1701054468,"current_range_meters":28000,"station_id":"ce4bha12rcd13ifvqef0","pricing_plan_id":"free"},{"bike_id":"9da362a8-ca99-49f2-aa37-8e35a69e2e8e","system_id":"levelo_inurba_marseille","lat":43.28039,"lon":5.369297,"is_reserved":false,"is_disabled":false,"rental_uris":{"android":"levelo://app?vid=9da362a8-ca99-49f2-aa37-8e35a69e2e8e","ios":"levelo://app?vid=9da362a8-ca99-49f2-aa37-8e35a69e2e8e"},"vehicle_type_id":"4","last_reported":1701054468,"current_range_meters":29600,"station_id":"ce4bha12rcd13ifvqef0","pricing_plan_id":"free"},{"bike_id":"029a9228-388e-43a6-950c-fa16cb234930","system_id":"levelo_inurba_marseille","lat":43.280382,"lon":5.369291,"is_reserved":false,"is_disabled":false,"rental_uris":{"android":"levelo://app?vid=029a9228-388e-43a6-950c-fa16cb234930","ios":"levelo://app?vid=029a9228-388e-43a6-950c-fa16cb234930"},"vehicle_type_id":"4","last_reported":1701054468,"current_range_meters":10400,"station_id":"ce4bha12rcd13ifvqef0","pricing_plan_id":"free"},{"bike_id":"59774753-ee6f-4231-9434-3d844a52292e","system_id":"levelo_inurba_marseille","lat":43.280382,"lon":5.369291,"is_reserved":false,"is_disabled":false,"rental_uris":{"android":"levelo://app?vid=59774753-ee6f-4231-9434-3d844a52292e","ios":"levelo://app?vid=59774753-ee6f-4231-9434-3d844a52292e"},"vehicle_type_id":"4","last_reported":1701054468,"current_range_meters":31200,"station_id":"ce4bha12rcd13ifvqef0","pricing_plan_id":"free"},{"bike_id":"d2207928-eba9-4665-b971-7ab180d4c279","system_id":"levelo_inurba_marseille","lat":43.29037,"lon":5.39954,"is_reserved":false,"is_disabled":false,"rental_uris":{"android":"levelo://app?vid=d2207928-eba9-4665-b971-7ab180d4c279","ios":"levelo://app?vid=d2207928-eba9-4665-b971-7ab180d4c279"},"vehicle_type_id":"4","last_reported":1701054468,"current_range_meters":26000,"station_id":"ce4bh392rcd13ifvqdm0","pricing_plan_id":"free"},{"bike_id":"42d73782-c327-4c58-83a9-7c704aa57631","system_id":"levelo_inurba_marseille","lat":43.290412,"lon":5.399633,"is_reserved":false,"is_disabled":false,"rental_uris":{"android":"levelo://app?vid=42d73782-c327-4c58-83a9-7c704aa57631","ios":"levelo://app?vid=42d73782-c327-4c58-83a9-7c704aa57631"},"vehicle_type_id":"4","last_reported":1701054468,"current_range_meters":28800,"station_id":"ce4bh392rcd13ifvqdm0","pricing_plan_id":"free"},{"bike_id":"840401f9-55c0-4bde-8444-184748ef16ff","system_id":"levelo_inurba_marseille","lat":43.290334,"lon":5.399586,"is_reserved":false,"is_disabled":false,"rental_uris":{"android":"levelo://app?vid=840401f9-55c0-4bde-8444-184748ef16ff","ios":"levelo://app?vid=840401f9-55c0-4bde-8444-184748ef16ff"},"vehicle_type_id":"4","last_reported":1701054468,"current_range_meters":21200,"station_id":"","pricing_plan_id":"free"},{"bike_id":"0e807ab9-996f-43fb-a980-786a91f63f39","system_id":"levelo_inurba_marseille","lat":43.29034,"lon":5.39964,"is_reserved":false,"is_disabled":false,"rental_uris":{"android":"levelo://app?vid=0e807ab9-996f-43fb-a980-786a91f63f39","ios":"levelo://app?vid=0e807ab9-996f-43fb-a980-786a91f63f39"},"vehicle_type_id":"4","last_reported":1701054468,"current_range_meters":21600,"station_id":"ce4bh392rcd13ifvqdm0","pricing_plan_id":"free"},{"bike_id":"3dea0516-1f46-411f-8ae5-14daccadd3b2","system_id":"levelo_inurba_marseille","lat":43.290361,"lon":5.39969,"is_reserved":false,"is_disabled":false,"rental_uris":{"android":"levelo://app?vid=3dea0516-1f46-411f-8ae5-14daccadd3b2","ios":"levelo://app?vid=3dea0516-1f46-411f-8ae5-14daccadd3b2"},"vehicle_type_id":"4","last_reported":1701054468,"current_range_meters":12400,"station_id":"ce4bh392rcd13ifvqdm0","pricing_plan_id":"free"},{"bike_id":"919c4cb2-875d-4bf0-bcc5-66e2c59dee89","system_id":"levelo_inurba_marseille","lat":43.281044,"lon":5.378308,"is_reserved":false,"is_disabled":false,"rental_uris":{"android":"levelo://app?vid=919c4cb2-875d-4bf0-bcc5-66e2c59dee89","ios":"levelo://app?vid=919c4cb2-875d-4bf0-bcc5-66e2c59dee89"},"vehicle_type_id":"4","last_reported":1701054468,"current_range_meters":24800,"station_id":"ce4bha12rcd13ifvqee0","pricing_plan_id":"free"},{"bike_id":"eac18d60-16ca-4394-ba55-e719355b5ec9","system_id":"levelo_inurba_marseille","lat":43.296263,"lon":5.40601,"is_reserved":false,"is_disabled":false,"rental_uris":{"android":"levelo://app?vid=eac18d60-16ca-4394-ba55-e719355b5ec9","ios":"levelo://app?vid=eac18d60-16ca-4394-ba55-e719355b5ec9"},"vehicle_type_id":"4","last_reported":1701054468,"current_range_meters":28400,"station_id":"ce4bh0h2rcd13ifvqd60","pricing_plan_id":"free"},{"bike_id":"ca7dfa77-1663-4860-9d30-410aaae6251f","system_id":"levelo_inurba_marseille","lat":43.285742,"lon":5.395004,"is_reserved":false,"is_disabled":false,"rental_uris":{"android":"levelo://app?vid=ca7dfa77-1663-4860-9d30-410aaae6251f","ios":"levelo://app?vid=ca7dfa77-1663-4860-9d30-410aaae6251f"},"vehicle_type_id":"4","last_reported":1701054468,"current_range_meters":30000,"station_id":"ce4bh292rcd13ifvqdg0","pricing_plan_id":"free"},{"bike_id":"0fe9ba7e-d8ec-4567-9276-c6bf2e3723c7","system_id":"levelo_inurba_marseille","lat":43.28573,"lon":5.394992,"is_reserved":false,"is_disabled":false,"rental_uris":{"android":"levelo://app?vid=0fe9ba7e-d8ec-4567-9276-c6bf2e3723c7","ios":"levelo://app?vid=0fe9ba7e-d8ec-4567-9276-c6bf2e3723c7"},"vehicle_type_id":"4","last_reported":1701054468,"current_range_meters":26000,"station_id":"ce4bh292rcd13ifvqdg0","pricing_plan_id":"free"},{"bike_id":"8b7867de-be99-478a-83b5-50287d6625dd","system_id":"levelo_inurba_marseille","lat":43.291542,"lon":5.403764,"is_reserved":false,"is_disabled":false,"rental_uris":{"android":"levelo://app?vid=8b7867de-be99-478a-83b5-50287d6625dd","ios":"levelo://app?vid=8b7867de-be99-478a-83b5-50287d6625dd"},"vehicle_type_id":"4","last_reported":1701054468,"current_range_meters":5200,"station_id":"","pricing_plan_id":"free"},{"bike_id":"064cf4cb-d40a-47a3-bb84-802c2defe67c","system_id":"levelo_inurba_marseille","lat":43.304188,"lon":5.412904,"is_reserved":false,"is_disabled":false,"rental_uris":{"android":"levelo://app?vid=064cf4cb-d40a-47a3-bb84-802c2defe67c","ios":"levelo://app?vid=064cf4cb-d40a-47a3-bb84-802c2defe67c"},"vehicle_type_id":"4","last_reported":1701054468,"current_range_meters":26800,"station_id":"ce4bhop2rcd13ifvqh8g","pricing_plan_id":"free"},{"bike_id":"4eafc249-a85d-4181-aeba-e8fcc9e94f4e","system_id":"levelo_inurba_marseille","lat":43.279087,"lon":5.380114,"is_reserved":false,"is_disabled":false,"rental_uris":{"android":"levelo://app?vid=4eafc249-a85d-4181-aeba-e8fcc9e94f4e","ios":"levelo://app?vid=4eafc249-a85d-4181-aeba-e8fcc9e94f4e"},"vehicle_type_id":"4","last_reported":1701054468,"current_range_meters":31200,"station_id":"ce4bhf92rcd13ifvqf50","pricing_plan_id":"free"},{"bike_id":"b20f0108-436f-47f7-bb1f-edd5a0bb8632","system_id":"levelo_inurba_marseille","lat":43.279087,"lon":5.380114,"is_reserved":false,"is_disabled":false,"rental_uris":{"android":"levelo://app?vid=b20f0108-436f-47f7-bb1f-edd5a0bb8632","ios":"levelo://app?vid=b20f0108-436f-47f7-bb1f-edd5a0bb8632"},"vehicle_type_id":"4","last_reported":1701054468,"current_range_meters":31200,"station_id":"ce4bhf92rcd13ifvqf50","pricing_plan_id":"free"},{"bike_id":"0bdca69c-6b20-4f5b-a4ca-d2a7eacb8224","system_id":"levelo_inurba_marseille","lat":43.279087,"lon":5.380114,"is_reserved":false,"is_disabled":false,"rental_uris":{"android":"levelo://app?vid=0bdca69c-6b20-4f5b-a4ca-d2a7eacb8224","ios":"levelo://app?vid=0bdca69c-6b20-4f5b-a4ca-d2a7eacb8224"},"vehicle_type_id":"4","last_reported":1701054468,"current_range_meters":17600,"station_id":"ce4bhf92rcd13ifvqf50","pricing_plan_id":"free"},{"bike_id":"75597bfa-bfd6-4455-ad96-621216d1bace","system_id":"levelo_inurba_marseille","lat":43.287154,"lon":5.399979,"is_reserved":false,"is_disabled":false,"rental_uris":{"android":"levelo://app?vid=75597bfa-bfd6-4455-ad96-621216d1bace","ios":"levelo://app?vid=75597bfa-bfd6-4455-ad96-621216d1bace"},"vehicle_type_id":"4","last_reported":1701054468,"current_range_meters":31200,"station_id":"ce4bho92rcd13ifvqh3g","pricing_plan_id":"free"},{"bike_id":"5252a133-c24c-4c3e-a0ed-6c58bbd231b2","system_id":"levelo_inurba_marseille","lat":43.287154,"lon":5.399979,"is_reserved":false,"is_disabled":false,"rental_uris":{"android":"levelo://app?vid=5252a133-c24c-4c3e-a0ed-6c58bbd231b2","ios":"levelo://app?vid=5252a133-c24c-4c3e-a0ed-6c58bbd231b2"},"vehicle_type_id":"4","last_reported":1701054468,"current_range_meters":28000,"station_id":"ce4bho92rcd13ifvqh3g","pricing_plan_id":"free"},{"bike_id":"d045fc31-b7dc-4ad1-afe9-817bc49a0ef7","system_id":"levelo_inurba_marseille","lat":43.287154,"lon":5.399979,"is_reserved":false,"is_disabled":false,"rental_uris":{"android":"levelo://app?vid=d045fc31-b7dc-4ad1-afe9-817bc49a0ef7","ios":"levelo://app?vid=d045fc31-b7dc-4ad1-afe9-817bc49a0ef7"},"vehicle_type_id":"4","last_reported":1701054468,"current_range_meters":31200,"station_id":"ce4bho92rcd13ifvqh3g","pricing_plan_id":"free"},{"bike_id":"ede3770c-45e7-465c-8b19-e16fc4b02701","system_id":"levelo_inurba_marseille","lat":43.287154,"lon":5.399979,"is_reserved":false,"is_disabled":false,"rental_uris":{"android":"levelo://app?vid=ede3770c-45e7-465c-8b19-e16fc4b02701","ios":"levelo://app?vid=ede3770c-45e7-465c-8b19-e16fc4b02701"},"vehicle_type_id":"4","last_reported":1701054468,"current_range_meters":30400,"station_id":"ce4bho92rcd13ifvqh3g","pricing_plan_id":"free"},{"bike_id":"6d8912c6-7d65-4a6e-83fe-0ee4753c1bae","system_id":"levelo_inurba_marseille","lat":43.287154,"lon":5.399979,"is_reserved":false,"is_disabled":false,"rental_uris":{"android":"levelo://app?vid=6d8912c6-7d65-4a6e-83fe-0ee4753c1bae","ios":"levelo://app?vid=6d8912c6-7d65-4a6e-83fe-0ee4753c1bae"},"vehicle_type_id":"4","last_reported":1701054468,"current_range_meters":30000,"station_id":"ce4bho92rcd13ifvqh3g","pricing_plan_id":"free"},{"bike_id":"4ef5e57b-9188-4d35-834b-a653430bc87e","system_id":"levelo_inurba_marseille","lat":43.287154,"lon":5.399979,"is_reserved":false,"is_disabled":false,"rental_uris":{"android":"levelo://app?vid=4ef5e57b-9188-4d35-834b-a653430bc87e","ios":"levelo://app?vid=4ef5e57b-9188-4d35-834b-a653430bc87e"},"vehicle_type_id":"4","last_reported":1701054468,"current_range_meters":2000,"station_id":"ce4bho92rcd13ifvqh3g","pricing_plan_id":"free"},{"bike_id":"1eaa795f-aa2a-4c79-aa91-3324f0ba820b","system_id":"levelo_inurba_marseille","lat":43.287154,"lon":5.399979,"is_reserved":false,"is_disabled":false,"rental_uris":{"android":"levelo://app?vid=1eaa795f-aa2a-4c79-aa91-3324f0ba820b","ios":"levelo://app?vid=1eaa795f-aa2a-4c79-aa91-3324f0ba820b"},"vehicle_type_id":"4","last_reported":1701054468,"current_range_meters":28800,"station_id":"ce4bho92rcd13ifvqh3g","pricing_plan_id":"free"},{"bike_id":"c103b530-9c6d-4ac7-adf6-4ae019cb5aa9","system_id":"levelo_inurba_marseille","lat":43.299579,"lon":5.413255,"is_reserved":false,"is_disabled":false,"rental_uris":{"android":"levelo://app?vid=c103b530-9c6d-4ac7-adf6-4ae019cb5aa9","ios":"levelo://app?vid=c103b530-9c6d-4ac7-adf6-4ae019cb5aa9"},"vehicle_type_id":"4","last_reported":1701054468,"current_range_meters":30000,"station_id":"ce4bhp12rcd13ifvqh9g","pricing_plan_id":"free"},{"bike_id":"6526cad1-2f4b-4db1-8d6b-ce04bc407b31","system_id":"levelo_inurba_marseille","lat":43.34883,"lon":5.37501,"is_reserved":false,"is_disabled":false,"rental_uris":{"android":"levelo://app?vid=6526cad1-2f4b-4db1-8d6b-ce04bc407b31","ios":"levelo://app?vid=6526cad1-2f4b-4db1-8d6b-ce04bc407b31"},"vehicle_type_id":"4","last_reported":1701054468,"current_range_meters":0,"station_id":"","pricing_plan_id":"free"},{"bike_id":"cd83fb33-b485-4433-a047-6640d87078e7","system_id":"levelo_inurba_marseille","lat":43.292571,"lon":5.409107,"is_reserved":false,"is_disabled":false,"rental_uris":{"android":"levelo://app?vid=cd83fb33-b485-4433-a047-6640d87078e7","ios":"levelo://app?vid=cd83fb33-b485-4433-a047-6640d87078e7"},"vehicle_type_id":"4","last_reported":1701054468,"current_range_meters":27200,"station_id":"ce4bh192rcd13ifvqdc0","pricing_plan_id":"free"},{"bike_id":"ea97ff8c-669e-4c95-8b1d-a9d6b5aa2231","system_id":"levelo_inurba_marseille","lat":43.27615,"lon":5.36112,"is_reserved":false,"is_disabled":false,"rental_uris":{"android":"levelo://app?vid=ea97ff8c-669e-4c95-8b1d-a9d6b5aa2231","ios":"levelo://app?vid=ea97ff8c-669e-4c95-8b1d-a9d6b5aa2231"},"vehicle_type_id":"4","last_reported":1701054468,"current_range_meters":30800,"station_id":"ce4bgj92rcd13ifvqbe0","pricing_plan_id":"free"},{"bike_id":"7b3f2857-4020-4e9a-9572-5065d96ebff7","system_id":"levelo_inurba_marseille","lat":43.27613,"lon":5.36106,"is_reserved":false,"is_disabled":false,"rental_uris":{"android":"levelo://app?vid=7b3f2857-4020-4e9a-9572-5065d96ebff7","ios":"levelo://app?vid=7b3f2857-4020-4e9a-9572-5065d96ebff7"},"vehicle_type_id":"4","last_reported":1701054468,"current_range_meters":22000,"station_id":"ce4bgj92rcd13ifvqbe0","pricing_plan_id":"free"},{"bike_id":"dc5d04d2-2b09-4dea-8be4-a32c69f01655","system_id":"levelo_inurba_marseille","lat":43.276179,"lon":5.361009,"is_reserved":false,"is_disabled":false,"rental_uris":{"android":"levelo://app?vid=dc5d04d2-2b09-4dea-8be4-a32c69f01655","ios":"levelo://app?vid=dc5d04d2-2b09-4dea-8be4-a32c69f01655"},"vehicle_type_id":"4","last_reported":1701054468,"current_range_meters":31200,"station_id":"ce4bgj92rcd13ifvqbe0","pricing_plan_id":"free"},{"bike_id":"d7d5ad38-a706-46bf-a9f7-837653392e36","system_id":"levelo_inurba_marseille","lat":43.303503,"lon":5.418694,"is_reserved":false,"is_disabled":false,"rental_uris":{"android":"levelo://app?vid=d7d5ad38-a706-46bf-a9f7-837653392e36","ios":"levelo://app?vid=d7d5ad38-a706-46bf-a9f7-837653392e36"},"vehicle_type_id":"4","last_reported":1701054468,"current_range_meters":14000,"station_id":"ce4bhop2rcd13ifvqh7g","pricing_plan_id":"free"},{"bike_id":"5ee57155-df57-4962-9544-56ad6c09b1e3","system_id":"levelo_inurba_marseille","lat":43.30352,"lon":5.41874,"is_reserved":false,"is_disabled":false,"rental_uris":{"android":"levelo://app?vid=5ee57155-df57-4962-9544-56ad6c09b1e3","ios":"levelo://app?vid=5ee57155-df57-4962-9544-56ad6c09b1e3"},"vehicle_type_id":"4","last_reported":1701054468,"current_range_meters":24800,"station_id":"ce4bhop2rcd13ifvqh7g","pricing_plan_id":"free"},{"bike_id":"b0ed4a91-f4d2-43e8-b684-e4e09d3127b8","system_id":"levelo_inurba_marseille","lat":43.30354,"lon":5.41885,"is_reserved":false,"is_disabled":false,"rental_uris":{"android":"levelo://app?vid=b0ed4a91-f4d2-43e8-b684-e4e09d3127b8","ios":"levelo://app?vid=b0ed4a91-f4d2-43e8-b684-e4e09d3127b8"},"vehicle_type_id":"4","last_reported":1701054468,"current_range_meters":6000,"station_id":"ce4bhop2rcd13ifvqh7g","pricing_plan_id":"free"},{"bike_id":"938042bb-67bd-4cac-9c74-0343979cc05f","system_id":"levelo_inurba_marseille","lat":43.278399,"lon":5.392139,"is_reserved":false,"is_disabled":false,"rental_uris":{"android":"levelo://app?vid=938042bb-67bd-4cac-9c74-0343979cc05f","ios":"levelo://app?vid=938042bb-67bd-4cac-9c74-0343979cc05f"},"vehicle_type_id":"4","last_reported":1701054468,"current_range_meters":20800,"station_id":"ce4bhjp2rcd13ifvqga0","pricing_plan_id":"free"},{"bike_id":"3e34d9a2-69c9-4958-a90a-184ecf2ebc53","system_id":"levelo_inurba_marseille","lat":43.278215,"lon":5.392056,"is_reserved":false,"is_disabled":false,"rental_uris":{"android":"levelo://app?vid=3e34d9a2-69c9-4958-a90a-184ecf2ebc53","ios":"levelo://app?vid=3e34d9a2-69c9-4958-a90a-184ecf2ebc53"},"vehicle_type_id":"4","last_reported":1701054468,"current_range_meters":0,"station_id":"ce4bhjp2rcd13ifvqga0","pricing_plan_id":"free"},{"bike_id":"5d295a7b-ec68-4a9b-9615-d333d1ba1c9b","system_id":"levelo_inurba_marseille","lat":43.33612,"lon":5.410321,"is_reserved":false,"is_disabled":false,"rental_uris":{"android":"levelo://app?vid=5d295a7b-ec68-4a9b-9615-d333d1ba1c9b","ios":"levelo://app?vid=5d295a7b-ec68-4a9b-9615-d333d1ba1c9b"},"vehicle_type_id":"4","last_reported":1701054468,"current_range_meters":27600,"station_id":"ce4bhqh2rcd13ifvqhmg","pricing_plan_id":"free"},{"bike_id":"8a758c03-c255-4159-b68e-42f6c427f52d","system_id":"levelo_inurba_marseille","lat":43.336148,"lon":5.410349,"is_reserved":false,"is_disabled":false,"rental_uris":{"android":"levelo://app?vid=8a758c03-c255-4159-b68e-42f6c427f52d","ios":"levelo://app?vid=8a758c03-c255-4159-b68e-42f6c427f52d"},"vehicle_type_id":"4","last_reported":1701054468,"current_range_meters":30000,"station_id":"ce4bhqh2rcd13ifvqhmg","pricing_plan_id":"free"},{"bike_id":"0e9d8071-a79f-4cb5-8a26-65abcc36a97f","system_id":"levelo_inurba_marseille","lat":43.276659,"lon":5.38917,"is_reserved":false,"is_disabled":false,"rental_uris":{"android":"levelo://app?vid=0e9d8071-a79f-4cb5-8a26-65abcc36a97f","ios":"levelo://app?vid=0e9d8071-a79f-4cb5-8a26-65abcc36a97f"},"vehicle_type_id":"4","last_reported":1701054468,"current_range_meters":0,"station_id":"ce4bhi12rcd13ifvqfo0","pricing_plan_id":"free"},{"bike_id":"7299bf0e-29ca-4d07-932f-b76ad466a440","system_id":"levelo_inurba_marseille","lat":43.279952,"lon":5.400085,"is_reserved":false,"is_disabled":false,"rental_uris":{"android":"levelo://app?vid=7299bf0e-29ca-4d07-932f-b76ad466a440","ios":"levelo://app?vid=7299bf0e-29ca-4d07-932f-b76ad466a440"},"vehicle_type_id":"4","last_reported":1701054468,"current_range_meters":26400,"station_id":"ce4bho92rcd13ifvqh4g","pricing_plan_id":"free"},{"bike_id":"ac4f3636-b7e0-458a-8d11-f43534af96bf","system_id":"levelo_inurba_marseille","lat":43.317121,"lon":5.423936,"is_reserved":false,"is_disabled":false,"rental_uris":{"android":"levelo://app?vid=ac4f3636-b7e0-458a-8d11-f43534af96bf","ios":"levelo://app?vid=ac4f3636-b7e0-458a-8d11-f43534af96bf"},"vehicle_type_id":"4","last_reported":1701054468,"current_range_meters":30000,"station_id":"ce4bhp92rcd13ifvqhbg","pricing_plan_id":"free"},{"bike_id":"8eb5bdb0-5c9b-4999-93c3-a1a499ccf536","system_id":"levelo_inurba_marseille","lat":43.31075,"lon":5.42426,"is_reserved":false,"is_disabled":false,"rental_uris":{"android":"levelo://app?vid=8eb5bdb0-5c9b-4999-93c3-a1a499ccf536","ios":"levelo://app?vid=8eb5bdb0-5c9b-4999-93c3-a1a499ccf536"},"vehicle_type_id":"4","last_reported":1701054468,"current_range_meters":29200,"station_id":"ce4bhp92rcd13ifvqhag","pricing_plan_id":"free"},{"bike_id":"7424a429-0fb8-48ee-b6d6-d90c89061a07","system_id":"levelo_inurba_marseille","lat":43.31084,"lon":5.42428,"is_reserved":false,"is_disabled":false,"rental_uris":{"android":"levelo://app?vid=7424a429-0fb8-48ee-b6d6-d90c89061a07","ios":"levelo://app?vid=7424a429-0fb8-48ee-b6d6-d90c89061a07"},"vehicle_type_id":"4","last_reported":1701054468,"current_range_meters":26000,"station_id":"ce4bhp92rcd13ifvqhag","pricing_plan_id":"free"},{"bike_id":"2bac63be-2248-4f83-9913-6fa6e719b914","system_id":"levelo_inurba_marseille","lat":43.31088,"lon":5.42436,"is_reserved":false,"is_disabled":false,"rental_uris":{"android":"levelo://app?vid=2bac63be-2248-4f83-9913-6fa6e719b914","ios":"levelo://app?vid=2bac63be-2248-4f83-9913-6fa6e719b914"},"vehicle_type_id":"4","last_reported":1701054468,"current_range_meters":10000,"station_id":"ce4bhp92rcd13ifvqhag","pricing_plan_id":"free"},{"bike_id":"956ba346-5ecd-400b-a5ec-d1812886f5f5","system_id":"levelo_inurba_marseille","lat":43.340804,"lon":5.410219,"is_reserved":false,"is_disabled":false,"rental_uris":{"android":"levelo://app?vid=956ba346-5ecd-400b-a5ec-d1812886f5f5","ios":"levelo://app?vid=956ba346-5ecd-400b-a5ec-d1812886f5f5"},"vehicle_type_id":"4","last_reported":1701054468,"current_range_meters":29200,"station_id":"ce4bhqh2rcd13ifvqhlg","pricing_plan_id":"free"},{"bike_id":"41dcae60-2c28-4a0f-83a9-e8df85c25bef","system_id":"levelo_inurba_marseille","lat":43.340804,"lon":5.410219,"is_reserved":false,"is_disabled":false,"rental_uris":{"android":"levelo://app?vid=41dcae60-2c28-4a0f-83a9-e8df85c25bef","ios":"levelo://app?vid=41dcae60-2c28-4a0f-83a9-e8df85c25bef"},"vehicle_type_id":"4","last_reported":1701054468,"current_range_meters":26800,"station_id":"ce4bhqh2rcd13ifvqhlg","pricing_plan_id":"free"},{"bike_id":"8ef87ac3-8a0d-4ac6-80c0-266e2621bf7f","system_id":"levelo_inurba_marseille","lat":43.27605,"lon":5.39488,"is_reserved":false,"is_disabled":false,"rental_uris":{"android":"levelo://app?vid=8ef87ac3-8a0d-4ac6-80c0-266e2621bf7f","ios":"levelo://app?vid=8ef87ac3-8a0d-4ac6-80c0-266e2621bf7f"},"vehicle_type_id":"4","last_reported":1701054468,"current_range_meters":0,"station_id":"","pricing_plan_id":"free"},{"bike_id":"3029bb9c-a722-4a0b-80d7-eaec226f56af","system_id":"levelo_inurba_marseille","lat":43.295511,"lon":5.422926,"is_reserved":false,"is_disabled":false,"rental_uris":{"android":"levelo://app?vid=3029bb9c-a722-4a0b-80d7-eaec226f56af","ios":"levelo://app?vid=3029bb9c-a722-4a0b-80d7-eaec226f56af"},"vehicle_type_id":"4","last_reported":1701054468,"current_range_meters":24400,"station_id":"ce4bhph2rcd13ifvqhdg","pricing_plan_id":"free"},{"bike_id":"487e8935-2222-4e65-8507-6d483307a42a","system_id":"levelo_inurba_marseille","lat":43.295511,"lon":5.422926,"is_reserved":false,"is_disabled":false,"rental_uris":{"android":"levelo://app?vid=487e8935-2222-4e65-8507-6d483307a42a","ios":"levelo://app?vid=487e8935-2222-4e65-8507-6d483307a42a"},"vehicle_type_id":"4","last_reported":1701054468,"current_range_meters":32000,"station_id":"ce4bhph2rcd13ifvqhdg","pricing_plan_id":"free"},{"bike_id":"11c530ef-3a1e-4341-9786-f43509d01bc1","system_id":"levelo_inurba_marseille","lat":43.2993,"lon":5.42563,"is_reserved":false,"is_disabled":false,"rental_uris":{"android":"levelo://app?vid=11c530ef-3a1e-4341-9786-f43509d01bc1","ios":"levelo://app?vid=11c530ef-3a1e-4341-9786-f43509d01bc1"},"vehicle_type_id":"4","last_reported":1701054468,"current_range_meters":1600,"station_id":"","pricing_plan_id":"free"},{"bike_id":"0d37c74b-b317-4b8b-9dae-c96829bfd787","system_id":"levelo_inurba_marseille","lat":43.278128,"lon":5.407195,"is_reserved":false,"is_disabled":false,"rental_uris":{"android":"levelo://app?vid=0d37c74b-b317-4b8b-9dae-c96829bfd787","ios":"levelo://app?vid=0d37c74b-b317-4b8b-9dae-c96829bfd787"},"vehicle_type_id":"4","last_reported":1701054468,"current_range_meters":25600,"station_id":"ce4bhnh2rcd13ifvqgtg","pricing_plan_id":"free"},{"bike_id":"cbe622da-a5ba-4176-a39d-cb65b3e29ba5","system_id":"levelo_inurba_marseille","lat":43.278128,"lon":5.407195,"is_reserved":false,"is_disabled":false,"rental_uris":{"android":"levelo://app?vid=cbe622da-a5ba-4176-a39d-cb65b3e29ba5","ios":"levelo://app?vid=cbe622da-a5ba-4176-a39d-cb65b3e29ba5"},"vehicle_type_id":"4","last_reported":1701054468,"current_range_meters":15200,"station_id":"ce4bhnh2rcd13ifvqgtg","pricing_plan_id":"free"},{"bike_id":"7d32123f-0f2a-40a0-9f54-d34d85af9911","system_id":"levelo_inurba_marseille","lat":43.2795,"lon":5.41035,"is_reserved":false,"is_disabled":false,"rental_uris":{"android":"levelo://app?vid=7d32123f-0f2a-40a0-9f54-d34d85af9911","ios":"levelo://app?vid=7d32123f-0f2a-40a0-9f54-d34d85af9911"},"vehicle_type_id":"4","last_reported":1701054468,"current_range_meters":11600,"station_id":"ce4bhnp2rcd13ifvqh0g","pricing_plan_id":"free"},{"bike_id":"f3ec215e-f334-4077-a0c0-e1f91072683e","system_id":"levelo_inurba_marseille","lat":43.279465,"lon":5.410561,"is_reserved":false,"is_disabled":false,"rental_uris":{"android":"levelo://app?vid=f3ec215e-f334-4077-a0c0-e1f91072683e","ios":"levelo://app?vid=f3ec215e-f334-4077-a0c0-e1f91072683e"},"vehicle_type_id":"4","last_reported":1701054468,"current_range_meters":7200,"station_id":"ce4bhnp2rcd13ifvqh0g","pricing_plan_id":"free"},{"bike_id":"c4b5f840-54cd-4b74-8f00-741178b7e63a","system_id":"levelo_inurba_marseille","lat":43.279465,"lon":5.410561,"is_reserved":false,"is_disabled":false,"rental_uris":{"android":"levelo://app?vid=c4b5f840-54cd-4b74-8f00-741178b7e63a","ios":"levelo://app?vid=c4b5f840-54cd-4b74-8f00-741178b7e63a"},"vehicle_type_id":"4","last_reported":1701054468,"current_range_meters":6800,"station_id":"ce4bhnp2rcd13ifvqh0g","pricing_plan_id":"free"},{"bike_id":"5b80a15b-62f8-4223-8cd5-7917d408e46c","system_id":"levelo_inurba_marseille","lat":43.27948,"lon":5.41048,"is_reserved":false,"is_disabled":false,"rental_uris":{"android":"levelo://app?vid=5b80a15b-62f8-4223-8cd5-7917d408e46c","ios":"levelo://app?vid=5b80a15b-62f8-4223-8cd5-7917d408e46c"},"vehicle_type_id":"4","last_reported":1701054468,"current_range_meters":23200,"station_id":"ce4bhnp2rcd13ifvqh0g","pricing_plan_id":"free"},{"bike_id":"7032fd98-beb0-40f3-a78f-bb1f4bf5cc5d","system_id":"levelo_inurba_marseille","lat":43.27942,"lon":5.410412,"is_reserved":false,"is_disabled":false,"rental_uris":{"android":"levelo://app?vid=7032fd98-beb0-40f3-a78f-bb1f4bf5cc5d","ios":"levelo://app?vid=7032fd98-beb0-40f3-a78f-bb1f4bf5cc5d"},"vehicle_type_id":"4","last_reported":1701054468,"current_range_meters":0,"station_id":"ce4bhnp2rcd13ifvqh0g","pricing_plan_id":"free"},{"bike_id":"f23d8119-b478-4639-98c5-6883279f9f84","system_id":"levelo_inurba_marseille","lat":43.32592,"lon":5.43067,"is_reserved":false,"is_disabled":false,"rental_uris":{"android":"levelo://app?vid=f23d8119-b478-4639-98c5-6883279f9f84","ios":"levelo://app?vid=f23d8119-b478-4639-98c5-6883279f9f84"},"vehicle_type_id":"4","last_reported":1701054468,"current_range_meters":20800,"station_id":"","pricing_plan_id":"free"},{"bike_id":"ed30d6a1-b23a-49e5-9c83-5546be72a734","system_id":"levelo_inurba_marseille","lat":43.3259,"lon":5.43075,"is_reserved":false,"is_disabled":false,"rental_uris":{"android":"levelo://app?vid=ed30d6a1-b23a-49e5-9c83-5546be72a734","ios":"levelo://app?vid=ed30d6a1-b23a-49e5-9c83-5546be72a734"},"vehicle_type_id":"4","last_reported":1701054468,"current_range_meters":15600,"station_id":"","pricing_plan_id":"free"},{"bike_id":"d67469ee-5362-4610-a163-fe05ae3cf4f7","system_id":"levelo_inurba_marseille","lat":43.32604,"lon":5.430817,"is_reserved":false,"is_disabled":false,"rental_uris":{"android":"levelo://app?vid=d67469ee-5362-4610-a163-fe05ae3cf4f7","ios":"levelo://app?vid=d67469ee-5362-4610-a163-fe05ae3cf4f7"},"vehicle_type_id":"4","last_reported":1701054468,"current_range_meters":4000,"station_id":"","pricing_plan_id":"free"},{"bike_id":"0921b03f-27ff-4fe8-bdad-8bda3f689d07","system_id":"levelo_inurba_marseille","lat":43.27998,"lon":5.41661,"is_reserved":false,"is_disabled":false,"rental_uris":{"android":"levelo://app?vid=0921b03f-27ff-4fe8-bdad-8bda3f689d07","ios":"levelo://app?vid=0921b03f-27ff-4fe8-bdad-8bda3f689d07"},"vehicle_type_id":"4","last_reported":1701054468,"current_range_meters":21200,"station_id":"ce4bho12rcd13ifvqh1g","pricing_plan_id":"free"},{"bike_id":"2b5f0b27-ae58-4e9e-bd76-c585f78e8a73","system_id":"levelo_inurba_marseille","lat":43.26386,"lon":5.37454,"is_reserved":false,"is_disabled":false,"rental_uris":{"android":"levelo://app?vid=2b5f0b27-ae58-4e9e-bd76-c585f78e8a73","ios":"levelo://app?vid=2b5f0b27-ae58-4e9e-bd76-c585f78e8a73"},"vehicle_type_id":"4","last_reported":1701054468,"current_range_meters":4800,"station_id":"","pricing_plan_id":"free"},{"bike_id":"4e51360c-c0f2-4ec8-9cc6-e51aefb6dc54","system_id":"levelo_inurba_marseille","lat":43.26553,"lon":5.38994,"is_reserved":false,"is_disabled":false,"rental_uris":{"android":"levelo://app?vid=4e51360c-c0f2-4ec8-9cc6-e51aefb6dc54","ios":"levelo://app?vid=4e51360c-c0f2-4ec8-9cc6-e51aefb6dc54"},"vehicle_type_id":"4","last_reported":1701054468,"current_range_meters":10000,"station_id":"ce4bhe12rcd13ifvqf30","pricing_plan_id":"free"},{"bike_id":"81417be7-c0f3-482c-a0f1-9cf2b55f2dfc","system_id":"levelo_inurba_marseille","lat":43.265455,"lon":5.38995,"is_reserved":false,"is_disabled":false,"rental_uris":{"android":"levelo://app?vid=81417be7-c0f3-482c-a0f1-9cf2b55f2dfc","ios":"levelo://app?vid=81417be7-c0f3-482c-a0f1-9cf2b55f2dfc"},"vehicle_type_id":"4","last_reported":1701054468,"current_range_meters":24000,"station_id":"ce4bhe12rcd13ifvqf30","pricing_plan_id":"free"},{"bike_id":"de4d28fd-57f7-4f8a-b8e1-b582f6c4e453","system_id":"levelo_inurba_marseille","lat":43.26949,"lon":5.40262,"is_reserved":false,"is_disabled":false,"rental_uris":{"android":"levelo://app?vid=de4d28fd-57f7-4f8a-b8e1-b582f6c4e453","ios":"levelo://app?vid=de4d28fd-57f7-4f8a-b8e1-b582f6c4e453"},"vehicle_type_id":"4","last_reported":1701054468,"current_range_meters":24000,"station_id":"cjm6bp8fraef2m0cb0m0","pricing_plan_id":"free"},{"bike_id":"debae947-3edd-44f6-81a3-5297bb92b7ac","system_id":"levelo_inurba_marseille","lat":43.26949,"lon":5.40262,"is_reserved":false,"is_disabled":false,"rental_uris":{"android":"levelo://app?vid=debae947-3edd-44f6-81a3-5297bb92b7ac","ios":"levelo://app?vid=debae947-3edd-44f6-81a3-5297bb92b7ac"},"vehicle_type_id":"4","last_reported":1701054468,"current_range_meters":18800,"station_id":"cjm6bp8fraef2m0cb0m0","pricing_plan_id":"free"},{"bike_id":"ea936c59-3b60-4450-9e0c-fefa9fcaf0ba","system_id":"levelo_inurba_marseille","lat":43.26188,"lon":5.37438,"is_reserved":false,"is_disabled":false,"rental_uris":{"android":"levelo://app?vid=ea936c59-3b60-4450-9e0c-fefa9fcaf0ba","ios":"levelo://app?vid=ea936c59-3b60-4450-9e0c-fefa9fcaf0ba"},"vehicle_type_id":"4","last_reported":1701054468,"current_range_meters":31200,"station_id":"ce4bhgp2rcd13ifvqfc0","pricing_plan_id":"free"},{"bike_id":"f92e00e9-659a-41bb-a3f4-5a1ca414b1f4","system_id":"levelo_inurba_marseille","lat":43.31708,"lon":5.43701,"is_reserved":false,"is_disabled":false,"rental_uris":{"android":"levelo://app?vid=f92e00e9-659a-41bb-a3f4-5a1ca414b1f4","ios":"levelo://app?vid=f92e00e9-659a-41bb-a3f4-5a1ca414b1f4"},"vehicle_type_id":"4","last_reported":1701054468,"current_range_meters":0,"station_id":"ce4bhp92rcd13ifvqhcg","pricing_plan_id":"free"},{"bike_id":"10157d4f-d2f9-44a6-80b1-568063d58c65","system_id":"levelo_inurba_marseille","lat":43.26185,"lon":5.37441,"is_reserved":false,"is_disabled":false,"rental_uris":{"android":"levelo://app?vid=10157d4f-d2f9-44a6-80b1-568063d58c65","ios":"levelo://app?vid=10157d4f-d2f9-44a6-80b1-568063d58c65"},"vehicle_type_id":"4","last_reported":1701054468,"current_range_meters":28400,"station_id":"ce4bhgp2rcd13ifvqfc0","pricing_plan_id":"free"},{"bike_id":"97f80185-fa05-4829-9ebf-943295623d1e","system_id":"levelo_inurba_marseille","lat":43.317104,"lon":5.436818,"is_reserved":false,"is_disabled":false,"rental_uris":{"android":"levelo://app?vid=97f80185-fa05-4829-9ebf-943295623d1e","ios":"levelo://app?vid=97f80185-fa05-4829-9ebf-943295623d1e"},"vehicle_type_id":"4","last_reported":1701054468,"current_range_meters":24800,"station_id":"ce4bhp92rcd13ifvqhcg","pricing_plan_id":"free"},{"bike_id":"cdf2c497-f033-4c0f-80f4-b4e51e4970c2","system_id":"levelo_inurba_marseille","lat":43.271756,"lon":5.409934,"is_reserved":false,"is_disabled":false,"rental_uris":{"android":"levelo://app?vid=cdf2c497-f033-4c0f-80f4-b4e51e4970c2","ios":"levelo://app?vid=cdf2c497-f033-4c0f-80f4-b4e51e4970c2"},"vehicle_type_id":"4","last_reported":1701054468,"current_range_meters":20800,"station_id":"ce4bhl12rcd13ifvqgf0","pricing_plan_id":"free"},{"bike_id":"1426b61d-5217-4b75-a9b4-4304bec2e8ef","system_id":"levelo_inurba_marseille","lat":43.271388,"lon":5.409269,"is_reserved":false,"is_disabled":false,"rental_uris":{"android":"levelo://app?vid=1426b61d-5217-4b75-a9b4-4304bec2e8ef","ios":"levelo://app?vid=1426b61d-5217-4b75-a9b4-4304bec2e8ef"},"vehicle_type_id":"4","last_reported":1701054468,"current_range_meters":30000,"station_id":"ce4bhl12rcd13ifvqgf0","pricing_plan_id":"free"},