{"last_updated":1737824793,"ttl":60,"version":"2.2","data":{"bikes":[{"bike_id":"81938429-321b-4b4b-835d-3847ffd42bd2","system_id":"levelo_inurba_marseille","lat":43.2621,"lon":5.37454,"is_reserved":false,"is_disabled":false,"rental_uris":{"android":"levelo://app?vid=81938429-321b-4b4b-835d-3847ffd42bd2","ios":"levelo://app?vid=81938429-321b-4b4b-835d-3847ffd42bd2"},"vehicle_type_id":"4","last_reported":1737824793,"current_range_meters":36400,"station_id":"ce4bhgp2rcd13ifvqfc0","pricing_plan_id":"cebpf4jnsgd1na2vs0mg"},{"bike_id":"03c64e80-5e01-4332-bc90-93a2fb6ac145","system_id":"levelo_inurba_marseille","lat":43.22931,"lon":5.35381,"is_reserved":false,"is_disabled":false,"rental_uris":{"android":"levelo://app?vid=03c64e80-5e01-4332-bc90-93a2fb6ac145","ios":"levelo://app?vid=03c64e80-5e01-4332-bc90-93a2fb6ac145"},"vehicle_type_id":"4","last_reported":1737824793,"current_range_meters":38800,"station_id":"cpo3532slgdg3j2ikp40","pricing_plan_id":"cebpf4jnsgd1na2vs0mg"},{"bike_id":"d2761b5d-d954-42ab-98b1-5cfb383757cf","system_id":"levelo_inurba_marseille","lat":43.32066,"lon":5.41579,"is_reserved":false,"is_disabled":false,"rental_uris":{"android":"levelo://app?vid=d2761b5d-d954-42ab-98b1-5cfb383757cf","ios":"levelo://app?vid=d2761b5d-d954-42ab-98b1-5cfb383757cf"},"vehicle_type_id":"4","last_reported":1737824793,"current_range_meters":38800,"station_id":"ce4bhq92rcd13ifvqhkg","pricing_plan_id":"cebpf4jnsgd1na2vs0mg"},{"bike_id":"bd5f217e-417e-4712-9e07-68c4d0e32de9","system_id":"levelo_inurba_marseille","lat":43.29277,"lon":5.40109,"is_reserved":false,"is_disabled":false,"rental_uris":{"android":"levelo://app?vid=bd5f217e-417e-4712-9e07-68c4d0e32de9","ios":"levelo://app?vid=bd5f217e-417e-4712-9e07-68c4d0e32de9"},"vehicle_type_id":"4","last_reported":1737824793,"current_range_meters":18800,"station_id":"ce4bh312rcd13ifvqdk0","pricing_plan_id":"cebpf4jnsgd1na2vs0mg"},{"bike_id":"22fdda07-29f7-4097-aa7c-457566d3caba","system_id":"levelo_inurba_marseille","lat":43.2509,"lon":5.39539,"is_reserved":false,"is_disabled":false,"rental_uris":{"android":"levelo://app?vid=22fdda07-29f7-4097-aa7c-457566d3caba","ios":"levelo://app?vid=22fdda07-29f7-4097-aa7c-457566d3caba"},"vehicle_type_id":"4","last_reported":1737824793,"current_range_meters":28800,"station_id":"ce4bhm12rcd13ifvqgkg","pricing_plan_id":"cebpf4jnsgd1na2vs0mg"},{"bike_id":"f81854b0-6016-45c2-9228-e88730ea0397","system_id":"levelo_inurba_marseille","lat":43.28483,"lon":5.38553,"is_reserved":false,"is_disabled":false,"rental_uris":{"android":"levelo://app?vid=f81854b0-6016-45c2-9228-e88730ea0397","ios":"levelo://app?vid=f81854b0-6016-45c2-9228-e88730ea0397"},"vehicle_type_id":"4","last_reported":1737824793,"current_range_meters":38800,"station_id":"ce4bh8p2rcd13ifvqeb0","pricing_plan_id":"cebpf4jnsgd1na2vs0mg"},{"bike_id":"145a44c8-ca5d-440d-9cd8-e6a7ddb9f6f8","system_id":"levelo_inurba_marseille","lat":43.30537,"lon":5.36718,"is_reserved":false,"is_disabled":false,"rental_uris":{"android":"levelo://app?vid=145a44c8-ca5d-440d-9cd8-e6a7ddb9f6f8","ios":"levelo://app?vid=145a44c8-ca5d-440d-9cd8-e6a7ddb9f6f8"},"vehicle_type_id":"4","last_reported":1737824793,"current_range_meters":37600,"station_id":"ce4bgrp2rcd13ifvqc9g","pricing_plan_id":"cebpf4jnsgd1na2vs0mg"},{"bike_id":"72374c99-e823-4062-ade9-c1c9eb14311c","system_id":"levelo_inurba_marseille","lat":43.29032,"lon":5.37575,"is_reserved":false,"is_disabled":false,"rental_uris":{"android":"levelo://app?vid=72374c99-e823-4062-ade9-c1c9eb14311c","ios":"levelo://app?vid=72374c99-e823-4062-ade9-c1c9eb14311c"},"vehicle_type_id":"4","last_reported":1737824793,"current_range_meters":10800,"station_id":"ce4bh692rcd13ifvqe90","pricing_plan_id":"cebpf4jnsgd1na2vs0mg"},{"bike_id":"58d9e3df-28a3-4560-b2cd-4d33fefbd544","system_id":"levelo_inurba_marseille","lat":43.28348,"lon":5.38104,"is_reserved":false,"is_disabled":true,"rental_uris":{"android":"levelo://app?vid=58d9e3df-28a3-4560-b2cd-4d33fefbd544","ios":"levelo://app?vid=58d9e3df-28a3-4560-b2cd-4d33fefbd544"},"vehicle_type_id":"4","last_reported":1737824793,"current_range_meters":22000,"station_id":"ce4bh412rcd13ifvqdr0","pricing_plan_id":"cebpf4jnsgd1na2vs0mg"},{"bike_id":"4914872c-162c-4b5d-a9af-cff65f389580","system_id":"levelo_inurba_marseille","lat":43.29605,"lon":5.38095,"is_reserved":false,"is_disabled":true,"rental_uris":{"android":"levelo://app?vid=4914872c-162c-4b5d-a9af-cff65f389580","ios":"levelo://app?vid=4914872c-162c-4b5d-a9af-cff65f389580"},"vehicle_type_id":"4","last_reported":1737824793,"current_range_meters":0,"station_id":"ce4bgl12rcd13ifvqbo0","pricing_plan_id":"cebpf4jnsgd1na2vs0mg"},{"bike_id":"3699157f-fa7e-4c80-aa52-121db9e3606c","system_id":"levelo_inurba_marseille","lat":43.2894,"lon":5.36406,"is_reserved":false,"is_disabled":false,"rental_uris":{"android":"levelo://app?vid=3699157f-fa7e-4c80-aa52-121db9e3606c","ios":"levelo://app?vid=3699157f-fa7e-4c80-aa52-121db9e3606c"},"vehicle_type_id":"4","last_reported":1737824793,"current_range_meters":34000,"station_id":"ce4bhc92rcd13ifvqetg","pricing_plan_id":"cebpf4jnsgd1na2vs0mg"},{"bike_id":"7a948520-d35f-473f-a31c-b05cc8bdb9fc","system_id":"levelo_inurba_marseille","lat":43.26536,"lon":5.37307,"is_reserved":false,"is_disabled":false,"rental_uris":{"android":"levelo://app?vid=7a948520-d35f-473f-a31c-b05cc8bdb9fc","ios":"levelo://app?vid=7a948520-d35f-473f-a31c-b05cc8bdb9fc"},"vehicle_type_id":"4","last_reported":1737824793,"current_range_meters":21600,"station_id":"ce4bhg12rcd13ifvqf70","pricing_plan_id":"cebpf4jnsgd1na2vs0mg"},{"bike_id":"b1279c7a-1446-4139-9aa3-d2ea00fcb203","system_id":"levelo_inurba_marseille","lat":43.32531,"lon":5.41404,"is_reserved":false,"is_disabled":false,"rental_uris":{"android":"levelo://app?vid=b1279c7a-1446-4139-9aa3-d2ea00fcb203","ios":"levelo://app?vid=b1279c7a-1446-4139-9aa3-d2ea00fcb203"},"vehicle_type_id":"4","last_reported":1737824793,"current_range_meters":36800,"station_id":"ce4bhq12rcd13ifvqhhg","pricing_plan_id":"cebpf4jnsgd1na2vs0mg"},{"bike_id":"6ac29944-6eeb-4139-aeea-7607582dec80","system_id":"levelo_inurba_marseille","lat":43.25105,"lon":5.40328,"is_reserved":false,"is_disabled":false,"rental_uris":{"android":"levelo://app?vid=6ac29944-6eeb-4139-aeea-7607582dec80","ios":"levelo://app?vid=6ac29944-6eeb-4139-aeea-7607582dec80"},"vehicle_type_id":"4","last_reported":1737824793,"current_range_meters":38800,"station_id":"ce4bhlh2rcd13ifvqgig","pricing_plan_id":"cebpf4jnsgd1na2vs0mg"},{"bike_id":"457dbd0e-8f95-45e9-8ae6-40b39a5ca596","system_id":"levelo_inurba_marseille","lat":43.23199,"lon":5.35537,"is_reserved":false,"is_disabled":false,"rental_uris":{"android":"levelo://app?vid=457dbd0e-8f95-45e9-8ae6-40b39a5ca596","ios":"levelo://app?vid=457dbd0e-8f95-45e9-8ae6-40b39a5ca596"},"vehicle_type_id":"4","last_reported":1737824793,"current_range_meters":38800,"station_id":"ce4bhu92rcd13ifvqi70","pricing_plan_id":"cebpf4jnsgd1na2vs0mg"},{"bike_id":"e5a30d51-78ea-43cc-a39d-c28354fa034e","system_id":"levelo_inurba_marseille","lat":43.29921,"lon":5.38149,"is_reserved":false,"is_disabled":false,"rental_uris":{"android":"levelo://app?vid=e5a30d51-78ea-43cc-a39d-c28354fa034e","ios":"levelo://app?vid=e5a30d51-78ea-43cc-a39d-c28354fa034e"},"vehicle_type_id":"4","last_reported":1737824793,"current_range_meters":38000,"station_id":"ce4bgj12rcd13ifvqbc0","pricing_plan_id":"cebpf4jnsgd1na2vs0mg"},{"bike_id":"34fd7956-88f6-4bc0-8512-2636610900a4","system_id":"levelo_inurba_marseille","lat":43.23196,"lon":5.35561,"is_reserved":false,"is_disabled":false,"rental_uris":{"android":"levelo://app?vid=34fd7956-88f6-4bc0-8512-2636610900a4","ios":"levelo://app?vid=34fd7956-88f6-4bc0-8512-2636610900a4"},"vehicle_type_id":"4","last_reported":1737824793,"current_range_meters":38800,"station_id":"ce4bhu92rcd13ifvqi70","pricing_plan_id":"cebpf4jnsgd1na2vs0mg"},{"bike_id":"b8dabcf6-0a30-4ef3-864d-5a2b0008cb16","system_id":"levelo_inurba_marseille","lat":43.31708,"lon":5.43701,"is_reserved":false,"is_disabled":false,"rental_uris":{"android":"levelo://app?vid=b8dabcf6-0a30-4ef3-864d-5a2b0008cb16","ios":"levelo://app?vid=b8dabcf6-0a30-4ef3-864d-5a2b0008cb16"},"vehicle_type_id":"4","last_reported":1737824793,"current_range_meters":17200,"station_id":"ce4bhp92rcd13ifvqhcg","pricing_plan_id":"cebpf4jnsgd1na2vs0mg"},{"bike_id":"d06b6dd8-7b26-4e14-8483-8f8817ba9baf","system_id":"levelo_inurba_marseille","lat":43.32048,"lon":5.41575,"is_reserved":false,"is_disabled":false,"rental_uris":{"android":"levelo://app?vid=d06b6dd8-7b26-4e14-8483-8f8817ba9baf","ios":"levelo://app?vid=d06b6dd8-7b26-4e14-8483-8f8817ba9baf"},"vehicle_type_id":"4","last_reported":1737824793,"current_range_meters":37600,"station_id":"ce4bhq92rcd13ifvqhkg","pricing_plan_id":"cebpf4jnsgd1na2vs0mg"},{"bike_id":"74e364cc-2306-441e-81f3-ee04e55cb71d","system_id":"levelo_inurba_marseille","lat":43.32363,"lon":5.36744,"is_reserved":false,"is_disabled":false,"rental_uris":{"android":"levelo://app?vid=74e364cc-2306-441e-81f3-ee04e55cb71d","ios":"levelo://app?vid=74e364cc-2306-441e-81f3-ee04e55cb71d"},"vehicle_type_id":"4","last_reported":1737824793,"current_range_meters":2800,"station_id":"ce4bhsh2rcd13ifvqi2g","pricing_plan_id":"cebpf4jnsgd1na2vs0mg"},{"bike_id":"19fff28a-36d5-4675-9d79-9415d5a8db52","system_id":"levelo_inurba_marseille","lat":43.255,"lon":5.37666,"is_reserved":false,"is_disabled":false,"rental_uris":{"android":"levelo://app?vid=19fff28a-36d5-4675-9d79-9415d5a8db52","ios":"levelo://app?vid=19fff28a-36d5-4675-9d79-9415d5a8db52"},"vehicle_type_id":"4","last_reported":1737824793,"current_range_meters":38400,"station_id":"ce4bhh12rcd13ifvqff0","pricing_plan_id":"cebpf4jnsgd1na2vs0mg"},{"bike_id":"4e4c21f1-31be-4bf3-860c-01436ea78d15","system_id":"levelo_inurba_marseille","lat":43.27373,"lon":5.36251,"is_reserved":false,"is_disabled":false,"rental_uris":{"android":"levelo://app?vid=4e4c21f1-31be-4bf3-860c-01436ea78d15","ios":"levelo://app?vid=4e4c21f1-31be-4bf3-860c-01436ea78d15"},"vehicle_type_id":"4","last_reported":1737824793,"current_range_meters":7200,"station_id":"ce4bhbh2rcd13ifvqeo0","pricing_plan_id":"cebpf4jnsgd1na2vs0mg"},{"bike_id":"762818e3-c65d-4faf-b459-a0c9abe8e26d","system_id":"levelo_inurba_marseille","lat":43.29022,"lon":5.38132,"is_reserved":false,"is_disabled":false,"rental_uris":{"android":"levelo://app?vid=762818e3-c65d-4faf-b459-a0c9abe8e26d","ios":"levelo://app?vid=762818e3-c65d-4faf-b459-a0c9abe8e26d"},"vehicle_type_id":"4","last_reported":1737824793,"current_range_meters":4800,"station_id":"ce4bh4p2rcd13ifvqe1g","pricing_plan_id":"cebpf4jnsgd1na2vs0mg"},{"bike_id":"e9b18d33-2c32-4c0b-bac5-aee7380b5154","system_id":"levelo_inurba_marseille","lat":43.25086,"lon":5.39527,"is_reserved":false,"is_disabled":false,"rental_uris":{"android":"levelo://app?vid=e9b18d33-2c32-4c0b-bac5-aee7380b5154","ios":"levelo://app?vid=e9b18d33-2c32-4c0b-bac5-aee7380b5154"},"vehicle_type_id":"4","last_reported":1737824793,"current_range_meters":30800,"station_id":"ce4bhm12rcd13ifvqgkg","pricing_plan_id":"cebpf4jnsgd1na2vs0mg"},{"bike_id":"2dde1f1c-4dc9-4033-bf0d-6771e7af02b4","system_id":"levelo_inurba_marseille","lat":43.26225,"lon":5.37429,"is_reserved":false,"is_disabled":false,"rental_uris":{"android":"levelo://app?vid=2dde1f1c-4dc9-4033-bf0d-6771e7af02b4","ios":"levelo://app?vid=2dde1f1c-4dc9-4033-bf0d-6771e7af02b4"},"vehicle_type_id":"4","last_reported":1737824793,"current_range_meters":12000,"station_id":"","pricing_plan_id":"cebpf4jnsgd1na2vs0mg"},{"bike_id":"7ff41bb0-58bb-4e7a-856f-2a2aba66f15e","system_id":"levelo_inurba_marseille","lat":43.317107,"lon":5.437089,"is_reserved":false,"is_disabled":false,"rental_uris":{"android":"levelo://app?vid=7ff41bb0-58bb-4e7a-856f-2a2aba66f15e","ios":"levelo://app?vid=7ff41bb0-58bb-4e7a-856f-2a2aba66f15e"},"vehicle_type_id":"4","last_reported":1737824793,"current_range_meters":38800,"station_id":"ce4bhp92rcd13ifvqhcg","pricing_plan_id":"cebpf4jnsgd1na2vs0mg"},{"bike_id":"d9aadc80-1871-4c53-a775-34210c7bc15c","system_id":"levelo_inurba_marseille","lat":43.26567,"lon":5.39012,"is_reserved":false,"is_disabled":false,"rental_uris":{"android":"levelo://app?vid=d9aadc80-1871-4c53-a775-34210c7bc15c","ios":"levelo://app?vid=d9aadc80-1871-4c53-a775-34210c7bc15c"},"vehicle_type_id":"4","last_reported":1737824793,"current_range_meters":22000,"station_id":"ce4bhe12rcd13ifvqf30","pricing_plan_id":"cebpf4jnsgd1na2vs0mg"},{"bike_id":"b8c7ac08-94bb-4c1a-be59-442ad905fc87","system_id":"levelo_inurba_marseille","lat":43.292286,"lon":5.36618,"is_reserved":false,"is_disabled":false,"rental_uris":{"android":"levelo://app?vid=b8c7ac08-94bb-4c1a-be59-442ad905fc87","ios":"levelo://app?vid=b8c7ac08-94bb-4c1a-be59-442ad905fc87"},"vehicle_type_id":"4","last_reported":1737824793,"current_range_meters":34000,"station_id":"","pricing_plan_id":"cebpf4jnsgd1na2vs0mg"},{"bike_id":"47344f6b-c478-4169-9f67-1f0e1752d440","system_id":"levelo_inurba_marseille","lat":43.25575,"lon":5.38211,"is_reserved":false,"is_disabled":false,"rental_uris":{"android":"levelo://app?vid=47344f6b-c478-4169-9f67-1f0e1752d440","ios":"levelo://app?vid=47344f6b-c478-4169-9f67-1f0e1752d440"},"vehicle_type_id":"4","last_reported":1737824793,"current_range_meters":38400,"station_id":"ce4bhih2rcd13ifvqfs0","pricing_plan_id":"cebpf4jnsgd1na2vs0mg"},{"bike_id":"1261b509-8885-4cc1-a428-b6274d9a5c58","system_id":"levelo_inurba_marseille","lat":43.29275,"lon":5.36854,"is_reserved":false,"is_disabled":false,"rental_uris":{"android":"levelo://app?vid=1261b509-8885-4cc1-a428-b6274d9a5c58","ios":"levelo://app?vid=1261b509-8885-4cc1-a428-b6274d9a5c58"},"vehicle_type_id":"4","last_reported":1737824793,"current_range_meters":38800,"station_id":"ce4bhbp2rcd13ifvqesg","pricing_plan_id":"cebpf4jnsgd1na2vs0mg"},{"bike_id":"d97b23ac-1532-416d-97a4-ebdf3acd4687","system_id":"levelo_inurba_marseille","lat":43.28433,"lon":5.34994,"is_reserved":false,"is_disabled":false,"rental_uris":{"android":"levelo://app?vid=d97b23ac-1532-416d-97a4-ebdf3acd4687","ios":"levelo://app?vid=d97b23ac-1532-416d-97a4-ebdf3acd4687"},"vehicle_type_id":"4","last_reported":1737824793,"current_range_meters":24400,"station_id":"ce4bhbh2rcd13ifvqepg","pricing_plan_id":"cebpf4jnsgd1na2vs0mg"},{"bike_id":"75ffd56f-679a-4cc1-ba88-e5c3c526aecc","system_id":"levelo_inurba_marseille","lat":43.30331,"lon":5.4043,"is_reserved":false,"is_disabled":false,"rental_uris":{"android":"levelo://app?vid=75ffd56f-679a-4cc1-ba88-e5c3c526aecc","ios":"levelo://app?vid=75ffd56f-679a-4cc1-ba88-e5c3c526aecc"},"vehicle_type_id":"4","last_reported":1737824793,"current_range_meters":17600,"station_id":"ce4bh012rcd13ifvqd10","pricing_plan_id":"cebpf4jnsgd1na2vs0mg"},{"bike_id":"490d0328-f4f9-4271-b716-377e453f81b2","system_id":"levelo_inurba_marseille","lat":43.30214,"lon":5.39485,"is_reserved":false,"is_disabled":false,"rental_uris":{"android":"levelo://app?vid=490d0328-f4f9-4271-b716-377e453f81b2","ios":"levelo://app?vid=490d0328-f4f9-4271-b716-377e453f81b2"},"vehicle_type_id":"4","last_reported":1737824793,"current_range_meters":12000,"station_id":"ce4bh0p2rcd13ifvqd70","pricing_plan_id":"cebpf4jnsgd1na2vs0mg"},{"bike_id":"711c3cf7-fe0b-45d6-8662-1b1177943e69","system_id":"levelo_inurba_marseille","lat":43.28999,"lon":5.3562,"is_reserved":false,"is_disabled":false,"rental_uris":{"android":"levelo://app?vid=711c3cf7-fe0b-45d6-8662-1b1177943e69","ios":"levelo://app?vid=711c3cf7-fe0b-45d6-8662-1b1177943e69"},"vehicle_type_id":"4","last_reported":1737824793,"current_range_meters":4800,"station_id":"ce4bhb92rcd13ifvqen0","pricing_plan_id":"cebpf4jnsgd1na2vs0mg"},{"bike_id":"ccdb8a2b-01c2-4b37-a5ed-ebbf0d9ec862","system_id":"levelo_inurba_marseille","lat":43.26562,"lon":5.37299,"is_reserved":false,"is_disabled":true,"rental_uris":{"android":"levelo://app?vid=ccdb8a2b-01c2-4b37-a5ed-ebbf0d9ec862","ios":"levelo://app?vid=ccdb8a2b-01c2-4b37-a5ed-ebbf0d9ec862"},"vehicle_type_id":"4","last_reported":1737824793,"current_range_meters":0,"station_id":"ce4bhg12rcd13ifvqf70","pricing_plan_id":"cebpf4jnsgd1na2vs0mg"},{"bike_id":"eaee1b0f-f06d-45f6-a98c-ea80c9270f5e","system_id":"levelo_inurba_marseille","lat":43.27368,"lon":5.36261,"is_reserved":false,"is_disabled":true,"rental_uris":{"android":"levelo://app?vid=eaee1b0f-f06d-45f6-a98c-ea80c9270f5e","ios":"levelo://app?vid=eaee1b0f-f06d-45f6-a98c-ea80c9270f5e"},"vehicle_type_id":"4","last_reported":1737824793,"current_range_meters":0,"station_id":"ce4bhbh2rcd13ifvqeo0","pricing_plan_id":"cebpf4jnsgd1na2vs0mg"},{"bike_id":"2581265e-461e-4093-96e3-176dcfa2ce51","system_id":"levelo_inurba_marseille","lat":43.24642,"lon":5.3889,"is_reserved":false,"is_disabled":false,"rental_uris":{"android":"levelo://app?vid=2581265e-461e-4093-96e3-176dcfa2ce51","ios":"levelo://app?vid=2581265e-461e-4093-96e3-176dcfa2ce51"},"vehicle_type_id":"4","last_reported":1737824793,"current_range_meters":38800,"station_id":"ce4bhg12rcd13ifvqf60","pricing_plan_id":"cebpf4jnsgd1na2vs0mg"},{"bike_id":"68a99331-dfb4-4d61-ac24-be703fbf4c74","system_id":"levelo_inurba_marseille","lat":43.29784,"lon":5.37106,"is_reserved":false,"is_disabled":false,"rental_uris":{"android":"levelo://app?vid=68a99331-dfb4-4d61-ac24-be703fbf4c74","ios":"levelo://app?vid=68a99331-dfb4-4d61-ac24-be703fbf4c74"},"vehicle_type_id":"4","last_reported":1737824793,"current_range_meters":8000,"station_id":"ce4bgop2rcd13ifvqc1g","pricing_plan_id":"cebpf4jnsgd1na2vs0mg"},{"bike_id":"17ef082e-a3c4-420b-b159-1c0b23b8592b","system_id":"levelo_inurba_marseille","lat":43.24672,"lon":5.38158,"is_reserved":false,"is_disabled":true,"rental_uris":{"android":"levelo://app?vid=17ef082e-a3c4-420b-b159-1c0b23b8592b","ios":"levelo://app?vid=17ef082e-a3c4-420b-b159-1c0b23b8592b"},"vehicle_type_id":"4","last_reported":1737824793,"current_range_meters":0,"station_id":"ce4bhih2rcd13ifvqfr0","pricing_plan_id":"cebpf4jnsgd1na2vs0mg"},{"bike_id":"8255dbbf-6c45-432a-91ed-9addf8fa8ef1","system_id":"levelo_inurba_marseille","lat":43.27373,"lon":5.36265,"is_reserved":false,"is_disabled":false,"rental_uris":{"android":"levelo://app?vid=8255dbbf-6c45-432a-91ed-9addf8fa8ef1","ios":"levelo://app?vid=8255dbbf-6c45-432a-91ed-9addf8fa8ef1"},"vehicle_type_id":"4","last_reported":1737824793,"current_range_meters":28000,"station_id":"ce4bhbh2rcd13ifvqeo0","pricing_plan_id":"cebpf4jnsgd1na2vs0mg"},{"bike_id":"bf1ec2c0-0ca8-4d94-bd5c-961034437bda","system_id":"levelo_inurba_marseille","lat":43.30431,"lon":5.39741,"is_reserved":false,"is_disabled":false,"rental_uris":{"android":"levelo://app?vid=bf1ec2c0-0ca8-4d94-bd5c-961034437bda","ios":"levelo://app?vid=bf1ec2c0-0ca8-4d94-bd5c-961034437bda"},"vehicle_type_id":"4","last_reported":1737824793,"current_range_meters":18800,"station_id":"ce4bh092rcd13ifvqd20","pricing_plan_id":"cebpf4jnsgd1na2vs0mg"},{"bike_id":"c199c1c9-8f8a-4b30-aa40-bcc1cb054df9","system_id":"levelo_inurba_marseille","lat":43.26944,"lon":5.40265,"is_reserved":false,"is_disabled":false,"rental_uris":{"android":"levelo://app?vid=c199c1c9-8f8a-4b30-aa40-bcc1cb054df9","ios":"levelo://app?vid=c199c1c9-8f8a-4b30-aa40-bcc1cb054df9"},"vehicle_type_id":"4","last_reported":1737824793,"current_range_meters":18000,"station_id":"cjm6bp8fraef2m0cb0m0","pricing_plan_id":"cebpf4jnsgd1na2vs0mg"},{"bike_id":"bf3c03cd-7438-4933-8f22-68c815fbf96c","system_id":"levelo_inurba_marseille","lat":43.28622,"lon":5.35099,"is_reserved":false,"is_disabled":false,"rental_uris":{"android":"levelo://app?vid=bf3c03cd-7438-4933-8f22-68c815fbf96c","ios":"levelo://app?vid=bf3c03cd-7438-4933-8f22-68c815fbf96c"},"vehicle_type_id":"4","last_reported":1737824793,"current_range_meters":38800,"station_id":"ce4bhch2rcd13ifvqeug","pricing_plan_id":"cebpf4jnsgd1na2vs0mg"},{"bike_id":"0e001b2a-b7b7-4fb4-a122-0698ac80a2cd","system_id":"levelo_inurba_marseille","lat":43.30436,"lon":5.38888,"is_reserved":false,"is_disabled":false,"rental_uris":{"android":"levelo://app?vid=0e001b2a-b7b7-4fb4-a122-0698ac80a2cd","ios":"levelo://app?vid=0e001b2a-b7b7-4fb4-a122-0698ac80a2cd"},"vehicle_type_id":"4","last_reported":1737824793,"current_range_meters":21600,"station_id":"ce4bgk12rcd13ifvqbi0","pricing_plan_id":"cebpf4jnsgd1na2vs0mg"},{"bike_id":"fc976295-b469-4b54-b659-e50549d6abb7","system_id":"levelo_inurba_marseille","lat":43.2901,"lon":5.35624,"is_reserved":false,"is_disabled":false,"rental_uris":{"android":"levelo://app?vid=fc976295-b469-4b54-b659-e50549d6abb7","ios":"levelo://app?vid=fc976295-b469-4b54-b659-e50549d6abb7"},"vehicle_type_id":"4","last_reported":1737824793,"current_range_meters":9200,"station_id":"ce4bhb92rcd13ifvqen0","pricing_plan_id":"cebpf4jnsgd1na2vs0mg"},{"bike_id":"6c4bb03b-e5d1-4a1e-bed7-99a76a42e7ea","system_id":"levelo_inurba_marseille","lat":43.29526,"lon":5.39406,"is_reserved":false,"is_disabled":false,"rental_uris":{"android":"levelo://app?vid=6c4bb03b-e5d1-4a1e-bed7-99a76a42e7ea","ios":"levelo://app?vid=6c4bb03b-e5d1-4a1e-bed7-99a76a42e7ea"},"vehicle_type_id":"4","last_reported":1737824793,"current_range_meters":4400,"station_id":"ce4bh292rcd13ifvqdf0","pricing_plan_id":"cebpf4jnsgd1na2vs0mg"},{"bike_id":"c0030335-2289-4626-b5c0-20adae3b94f5","system_id":"levelo_inurba_marseille","lat":43.29592,"lon":5.36734,"is_reserved":false,"is_disabled":false,"rental_uris":{"android":"levelo://app?vid=c0030335-2289-4626-b5c0-20adae3b94f5","ios":"levelo://app?vid=c0030335-2289-4626-b5c0-20adae3b94f5"},"vehicle_type_id":"4","last_reported":1737824793,"current_range_meters":4400,"station_id":"ce4bgph2rcd13ifvqc2g","pricing_plan_id":"cebpf4jnsgd1na2vs0mg"},{"bike_id":"c54f5b2e-f783-418a-8119-a38c5ea2c0aa","system_id":"levelo_inurba_marseille","lat":43.29,"lon":5.35616,"is_reserved":false,"is_disabled":true,"rental_uris":{"android":"levelo://app?vid=c54f5b2e-f783-418a-8119-a38c5ea2c0aa","ios":"levelo://app?vid=c54f5b2e-f783-418a-8119-a38c5ea2c0aa"},"vehicle_type_id":"4","last_reported":1737824793,"current_range_meters":8800,"station_id":"ce4bhb92rcd13ifvqen0","pricing_plan_id":"cebpf4jnsgd1na2vs0mg"},{"bike_id":"9838cc78-2b53-49d3-ae13-82df62c4fd64","system_id":"levelo_inurba_marseille","lat":43.28439,"lon":5.40934,"is_reserved":false,"is_disabled":true,"rental_uris":{"android":"levelo://app?vid=9838cc78-2b53-49d3-ae13-82df62c4fd64","ios":"levelo://app?vid=9838cc78-2b53-49d3-ae13-82df62c4fd64"},"vehicle_type_id":"4","last_reported":1737824793,"current_range_meters":0,"station_id":"","pricing_plan_id":"cebpf4jnsgd1na2vs0mg"},{"bike_id":"cd2c3e6b-4e99-4030-8f38-99ce34b03608","system_id":"levelo_inurba_marseille","lat":43.26559,"lon":5.38997,"is_reserved":false,"is_disabled":true,"rental_uris":{"android":"levelo://app?vid=cd2c3e6b-4e99-4030-8f38-99ce34b03608","ios":"levelo://app?vid=cd2c3e6b-4e99-4030-8f38-99ce34b03608"},"vehicle_type_id":"4","last_reported":1737824793,"current_range_meters":800,"station_id":"ce4bhe12rcd13ifvqf30","pricing_plan_id":"cebpf4jnsgd1na2vs0mg"},{"bike_id":"f6b896f2-48fc-4d80-93a1-f56b278daada","system_id":"levelo_inurba_marseille","lat":43.24673,"lon":5.38166,"is_reserved":false,"is_disabled":false,"rental_uris":{"android":"levelo://app?vid=f6b896f2-48fc-4d80-93a1-f56b278daada","ios":"levelo://app?vid=f6b896f2-48fc-4d80-93a1-f56b278daada"},"vehicle_type_id":"4","last_reported":1737824793,"current_range_meters":6800,"station_id":"ce4bhih2rcd13ifvqfr0","pricing_plan_id":"cebpf4jnsgd1na2vs0mg"},{"bike_id":"bf096a89-ee72-4f37-85bd-7b3cf9f0cb41","system_id":"levelo_inurba_marseille","lat":43.33731,"lon":5.39185,"is_reserved":false,"is_disabled":false,"rental_uris":{"android":"levelo://app?vid=bf096a89-ee72-4f37-85bd-7b3cf9f0cb41","ios":"levelo://app?vid=bf096a89-ee72-4f37-85bd-7b3cf9f0cb41"},"vehicle_type_id":"4","last_reported":1737824793,"current_range_meters":30400,"station_id":"ce4bhr92rcd13ifvqhsg","pricing_plan_id":"cebpf4jnsgd1na2vs0mg"},{"bike_id":"66d1f8cf-8260-44c6-89e8-aa09a832fe98","system_id":"levelo_inurba_marseille","lat":43.24702,"lon":5.3818,"is_reserved":false,"is_disabled":false,"rental_uris":{"android":"levelo://app?vid=66d1f8cf-8260-44c6-89e8-aa09a832fe98","ios":"levelo://app?vid=66d1f8cf-8260-44c6-89e8-aa09a832fe98"},"vehicle_type_id":"4","last_reported":1737824793,"current_range_meters":38800,"station_id":"ce4bhih2rcd13ifvqfr0","pricing_plan_id":"cebpf4jnsgd1na2vs0mg"},{"bike_id":"c2378bb1-796c-4edf-bf87-198266dfa5e8","system_id":"levelo_inurba_marseille","lat":43.23195,"lon":5.35546,"is_reserved":false,"is_disabled":false,"rental_uris":{"android":"levelo://app?vid=c2378bb1-796c-4edf-bf87-198266dfa5e8","ios":"levelo://app?vid=c2378bb1-796c-4edf-bf87-198266dfa5e8"},"vehicle_type_id":"4","last_reported":1737824793,"current_range_meters":5600,"station_id":"ce4bhu92rcd13ifvqi70","pricing_plan_id":"cebpf4jnsgd1na2vs0mg"},{"bike_id":"55484666-3036-4f10-9cf4-3205ec5b4812","system_id":"levelo_inurba_marseille","lat":43.26569,"lon":5.39007,"is_reserved":false,"is_disabled":true,"rental_uris":{"android":"levelo://app?vid=55484666-3036-4f10-9cf4-3205ec5b4812","ios":"levelo://app?vid=55484666-3036-4f10-9cf4-3205ec5b4812"},"vehicle_type_id":"4","last_reported":1737824793,"current_range_meters":0,"station_id":"ce4bhe12rcd13ifvqf30","pricing_plan_id":"cebpf4jnsgd1na2vs0mg"},{"bike_id":"d69cf1fa-59ad-4f44-a9fb-82fbbe1b6b05","system_id":"levelo_inurba_marseille","lat":43.30818,"lon":5.4352,"is_reserved":false,"is_disabled":false,"rental_uris":{"android":"levelo://app?vid=d69cf1fa-59ad-4f44-a9fb-82fbbe1b6b05","ios":"levelo://app?vid=d69cf1fa-59ad-4f44-a9fb-82fbbe1b6b05"},"vehicle_type_id":"4","last_reported":1737824793,"current_range_meters":28000,"station_id":"ce4bhph2rcd13ifvqheg","pricing_plan_id":"cebpf4jnsgd1na2vs0mg"},{"bike_id":"f6e2a664-8ca3-4446-8dcf-4e69c7308a82","system_id":"levelo_inurba_marseille","lat":43.28623,"lon":5.35104,"is_reserved":false,"is_disabled":false,"rental_uris":{"android":"levelo://app?vid=f6e2a664-8ca3-4446-8dcf-4e69c7308a82","ios":"levelo://app?vid=f6e2a664-8ca3-4446-8dcf-4e69c7308a82"},"vehicle_type_id":"4","last_reported":1737824793,"current_range_meters":38800,"station_id":"ce4bhch2rcd13ifvqeug","pricing_plan_id":"cebpf4jnsgd1na2vs0mg"},{"bike_id":"2e0a8b86-b457-48a0-8577-213b01080398","system_id":"levelo_inurba_marseille","lat":43.23195,"lon":5.35552,"is_reserved":false,"is_disabled":false,"rental_uris":{"android":"levelo://app?vid=2e0a8b86-b457-48a0-8577-213b01080398","ios":"levelo://app?vid=2e0a8b86-b457-48a0-8577-213b01080398"},"vehicle_type_id":"4","last_reported":1737824793,"current_range_meters":39200,"station_id":"ce4bhu92rcd13ifvqi70","pricing_plan_id":"cebpf4jnsgd1na2vs0mg"},{"bike_id":"a7cf4467-440c-4bb8-a849-e8f193507576","system_id":"levelo_inurba_marseille","lat":43.29694,"lon":5.37584,"is_reserved":false,"is_disabled":false,"rental_uris":{"android":"levelo://app?vid=a7cf4467-440c-4bb8-a849-e8f193507576","ios":"levelo://app?vid=a7cf4467-440c-4bb8-a849-e8f193507576"},"vehicle_type_id":"4","last_reported":1737824793,"current_range_meters":31200,"station_id":"","pricing_plan_id":"cebpf4jnsgd1na2vs0mg"},{"bike_id":"e82397ad-f05a-47b8-82e7-cc53537eb579","system_id":"levelo_inurba_marseille","lat":43.25016,"lon":5.38919,"is_reserved":false,"is_disabled":false,"rental_uris":{"android":"levelo://app?vid=e82397ad-f05a-47b8-82e7-cc53537eb579","ios":"levelo://app?vid=e82397ad-f05a-47b8-82e7-cc53537eb579"},"vehicle_type_id":"4","last_reported":1737824793,"current_range_meters":9600,"station_id":"ce4bhgp2rcd13ifvqfd0","pricing_plan_id":"cebpf4jnsgd1na2vs0mg"},{"bike_id":"87a5bed0-aef1-423b-bd85-fe44fdeeb863","system_id":"levelo_inurba_marseille","lat":43.33729,"lon":5.3918,"is_reserved":false,"is_disabled":false,"rental_uris":{"android":"levelo://app?vid=87a5bed0-aef1-423b-bd85-fe44fdeeb863","ios":"levelo://app?vid=87a5bed0-aef1-423b-bd85-fe44fdeeb863"},"vehicle_type_id":"4","last_reported":1737824793,"current_range_meters":37600,"station_id":"ce4bhr92rcd13ifvqhsg","pricing_plan_id":"cebpf4jnsgd1na2vs0mg"},{"bike_id":"770988d0-47fd-4d12-8823-5c1dca0d5dcb","system_id":"levelo_inurba_marseille","lat":43.27376,"lon":5.36265,"is_reserved":false,"is_disabled":false,"rental_uris":{"android":"levelo://app?vid=770988d0-47fd-4d12-8823-5c1dca0d5dcb","ios":"levelo://app?vid=770988d0-47fd-4d12-8823-5c1dca0d5dcb"},"vehicle_type_id":"4","last_reported":1737824793,"current_range_meters":6800,"station_id":"ce4bhbh2rcd13ifvqeo0","pricing_plan_id":"cebpf4jnsgd1na2vs0mg"},{"bike_id":"fd8f2994-c7c9-41f0-99c7-d549f96ac5ca","system_id":"levelo_inurba_marseille","lat":43.26939,"lon":5.40252,"is_reserved":false,"is_disabled":false,"rental_uris":{"android":"levelo://app?vid=fd8f2994-c7c9-41f0-99c7-d549f96ac5ca","ios":"levelo://app?vid=fd8f2994-c7c9-41f0-99c7-d549f96ac5ca"},"vehicle_type_id":"4","last_reported":1737824793,"current_range_meters":38400,"station_id":"cjm6bp8fraef2m0cb0m0","pricing_plan_id":"cebpf4jnsgd1na2vs0mg"},{"bike_id":"38f21755-fecd-4714-b7e8-fcdf19677865","system_id":"levelo_inurba_marseille","lat":43.29589,"lon":5.3751,"is_reserved":false,"is_disabled":false,"rental_uris":{"android":"levelo://app?vid=38f21755-fecd-4714-b7e8-fcdf19677865","ios":"levelo://app?vid=38f21755-fecd-4714-b7e8-fcdf19677865"},"vehicle_type_id":"4","last_reported":1737824793,"current_range_meters":10800,"station_id":"ce4bgh92rcd13ifvqb50","pricing_plan_id":"cebpf4jnsgd1na2vs0mg"},{"bike_id":"024aaa43-98dc-4f3b-bcfc-6594e26f63d6","system_id":"levelo_inurba_marseille","lat":43.33734,"lon":5.39173,"is_reserved":false,"is_disabled":false,"rental_uris":{"android":"levelo://app?vid=024aaa43-98dc-4f3b-bcfc-6594e26f63d6","ios":"levelo://app?vid=024aaa43-98dc-4f3b-bcfc-6594e26f63d6"},"vehicle_type_id":"4","last_reported":1737824793,"current_range_meters":34800,"station_id":"ce4bhr92rcd13ifvqhsg","pricing_plan_id":"cebpf4jnsgd1na2vs0mg"},{"bike_id":"0d5b9b51-4234-4bfe-bad6-8df6d7edd077","system_id":"levelo_inurba_marseille","lat":43.31075,"lon":5.3835,"is_reserved":false,"is_disabled":false,"rental_uris":{"android":"levelo://app?vid=0d5b9b51-4234-4bfe-bad6-8df6d7edd077","ios":"levelo://app?vid=0d5b9b51-4234-4bfe-bad6-8df6d7edd077"},"vehicle_type_id":"4","last_reported":1737824793,"current_range_meters":36400,"station_id":"ce4bgv92rcd13ifvqcr0","pricing_plan_id":"cebpf4jnsgd1na2vs0mg"},{"bike_id":"c959572c-6974-4ed4-8889-654758c49222","system_id":"levelo_inurba_marseille","lat":43.26571,"lon":5.39012,"is_reserved":false,"is_disabled":true,"rental_uris":{"android":"levelo://app?vid=c959572c-6974-4ed4-8889-654758c49222","ios":"levelo://app?vid=c959572c-6974-4ed4-8889-654758c49222"},"vehicle_type_id":"4","last_reported":1737824793,"current_range_meters":400,"station_id":"ce4bhe12rcd13ifvqf30","pricing_plan_id":"cebpf4jnsgd1na2vs0mg"},{"bike_id":"9d847ad0-ef54-4fc6-8d0a-9543630ebbba","system_id":"levelo_inurba_marseille","lat":43.27993,"lon":5.40023,"is_reserved":false,"is_disabled":false,"rental_uris":{"android":"levelo://app?vid=9d847ad0-ef54-4fc6-8d0a-9543630ebbba","ios":"levelo://app?vid=9d847ad0-ef54-4fc6-8d0a-9543630ebbba"},"vehicle_type_id":"4","last_reported":1737824793,"current_range_meters":38800,"station_id":"ce4bho92rcd13ifvqh4g","pricing_plan_id":"cebpf4jnsgd1na2vs0mg"},{"bike_id":"e1d4d7c5-c0e7-498b-96a6-d67495add96e","system_id":"levelo_inurba_marseille","lat":43.23963,"lon":5.36636,"is_reserved":false,"is_disabled":false,"rental_uris":{"android":"levelo://app?vid=e1d4d7c5-c0e7-498b-96a6-d67495add96e","ios":"levelo://app?vid=e1d4d7c5-c0e7-498b-96a6-d67495add96e"},"vehicle_type_id":"4","last_reported":1737824793,"current_range_meters":30800,"station_id":"ce4bhi12rcd13ifvqfp0","pricing_plan_id":"cebpf4jnsgd1na2vs0mg"},{"bike_id":"53035af4-ce28-4b9e-9322-5b8d4befc56f","system_id":"levelo_inurba_marseille","lat":43.29556,"lon":5.42259,"is_reserved":false,"is_disabled":false,"rental_uris":{"android":"levelo://app?vid=53035af4-ce28-4b9e-9322-5b8d4befc56f","ios":"levelo://app?vid=53035af4-ce28-4b9e-9322-5b8d4befc56f"},"vehicle_type_id":"4","last_reported":1737824793,"current_range_meters":38800,"station_id":"ce4bhph2rcd13ifvqhdg","pricing_plan_id":"cebpf4jnsgd1na2vs0mg"},{"bike_id":"5d94a5f3-6724-45da-a6b8-1c6ad20706f4","system_id":"levelo_inurba_marseille","lat":43.27617,"lon":5.36116,"is_reserved":false,"is_disabled":false,"rental_uris":{"android":"levelo://app?vid=5d94a5f3-6724-45da-a6b8-1c6ad20706f4","ios":"levelo://app?vid=5d94a5f3-6724-45da-a6b8-1c6ad20706f4"},"vehicle_type_id":"4","last_reported":1737824793,"current_range_meters":28400,"station_id":"ce4bgj92rcd13ifvqbe0","pricing_plan_id":"cebpf4jnsgd1na2vs0mg"},{"bike_id":"b942ba61-21e3-4cd1-b317-ebec467d46ba","system_id":"levelo_inurba_marseille","lat":43.28154,"lon":5.42647,"is_reserved":false,"is_disabled":true,"rental_uris":{"android":"levelo://app?vid=b942ba61-21e3-4cd1-b317-ebec467d46ba","ios":"levelo://app?vid=b942ba61-21e3-4cd1-b317-ebec467d46ba"},"vehicle_type_id":"4","last_reported":1737824793,"current_range_meters":1600,"station_id":"ce4bhnh2rcd13ifvqgug","pricing_plan_id":"cebpf4jnsgd1na2vs0mg"},{"bike_id":"c8287ba9-d8c7-4f27-b0e5-4cd3d06c39ab","system_id":"levelo_inurba_marseille","lat":43.29264,"lon":5.38449,"is_reserved":false,"is_disabled":false,"rental_uris":{"android":"levelo://app?vid=c8287ba9-d8c7-4f27-b0e5-4cd3d06c39ab","ios":"levelo://app?vid=c8287ba9-d8c7-4f27-b0e5-4cd3d06c39ab"},"vehicle_type_id":"4","last_reported":1737824793,"current_range_meters":9600,"station_id":"ce4bh692rcd13ifvqea0","pricing_plan_id":"cebpf4jnsgd1na2vs0mg"},{"bike_id":"0efff2f7-79c7-4011-a6d4-0010e4d39997","system_id":"levelo_inurba_marseille","lat":43.31485,"lon":5.37307,"is_reserved":false,"is_disabled":true,"rental_uris":{"android":"levelo://app?vid=0efff2f7-79c7-4011-a6d4-0010e4d39997","ios":"levelo://app?vid=0efff2f7-79c7-4011-a6d4-0010e4d39997"},"vehicle_type_id":"4","last_reported":1737824793,"current_range_meters":0,"station_id":"ce4bgt12rcd13ifvqcd0","pricing_plan_id":"cebpf4jnsgd1na2vs0mg"},{"bike_id":"28e7993a-e915-4037-8df1-40ab752bb183","system_id":"levelo_inurba_marseille","lat":43.27494,"lon":5.42452,"is_reserved":false,"is_disabled":false,"rental_uris":{"android":"levelo://app?vid=28e7993a-e915-4037-8df1-40ab752bb183","ios":"levelo://app?vid=28e7993a-e915-4037-8df1-40ab752bb183"},"vehicle_type_id":"4","last_reported":1737824793,"current_range_meters":29600,"station_id":"ce4bhn92rcd13ifvqgrg","pricing_plan_id":"cebpf4jnsgd1na2vs0mg"},{"bike_id":"a53e9d4c-b183-40da-a832-e938a905f29d","system_id":"levelo_inurba_marseille","lat":43.28272,"lon":5.3506,"is_reserved":false,"is_disabled":false,"rental_uris":{"android":"levelo://app?vid=a53e9d4c-b183-40da-a832-e938a905f29d","ios":"levelo://app?vid=a53e9d4c-b183-40da-a832-e938a905f29d"},"vehicle_type_id":"4","last_reported":1737824793,"current_range_meters":6400,"station_id":"ce4bhbp2rcd13ifvqerg","pricing_plan_id":"cebpf4jnsgd1na2vs0mg"},{"bike_id":"1381c82b-781b-48b3-9ba7-8ac35f03e497","system_id":"levelo_inurba_marseille","lat":43.30618,"lon":5.39366,"is_reserved":false,"is_disabled":false,"rental_uris":{"android":"levelo://app?vid=1381c82b-781b-48b3-9ba7-8ac35f03e497","ios":"levelo://app?vid=1381c82b-781b-48b3-9ba7-8ac35f03e497"},"vehicle_type_id":"4","last_reported":1737824793,"current_range_meters":33600,"station_id":"ce4bh0p2rcd13ifvqd80","pricing_plan_id":"cebpf4jnsgd1na2vs0mg"},{"bike_id":"521291d0-08b4-4890-9b70-4c0e5b1f66f1","system_id":"levelo_inurba_marseille","lat":43.29363,"lon":5.37852,"is_reserved":false,"is_disabled":false,"rental_uris":{"android":"levelo://app?vid=521291d0-08b4-4890-9b70-4c0e5b1f66f1","ios":"levelo://app?vid=521291d0-08b4-4890-9b70-4c0e5b1f66f1"},"vehicle_type_id":"4","last_reported":1737824793,"current_range_meters":36000,"station_id":"ce4bgjh2rcd13ifvqbf0","pricing_plan_id":"cebpf4jnsgd1na2vs0mg"},{"bike_id":"14c8f656-abd4-45d3-a639-f6da8119502e","system_id":"levelo_inurba_marseille","lat":43.30645,"lon":5.40071,"is_reserved":false,"is_disabled":false,"rental_uris":{"android":"levelo://app?vid=14c8f656-abd4-45d3-a639-f6da8119502e","ios":"levelo://app?vid=14c8f656-abd4-45d3-a639-f6da8119502e"},"vehicle_type_id":"4","last_reported":1737824793,"current_range_meters":38400,"station_id":"ce4bh112rcd13ifvqda0","pricing_plan_id":"cebpf4jnsgd1na2vs0mg"},{"bike_id":"ebbb6dd1-ea2a-4b9e-a0fd-f2fc38df1042","system_id":"levelo_inurba_marseille","lat":43.25018,"lon":5.38931,"is_reserved":false,"is_disabled":true,"rental_uris":{"android":"levelo://app?vid=ebbb6dd1-ea2a-4b9e-a0fd-f2fc38df1042","ios":"levelo://app?vid=ebbb6dd1-ea2a-4b9e-a0fd-f2fc38df1042"},"vehicle_type_id":"4","last_reported":1737824793,"current_range_meters":0,"station_id":"ce4bhgp2rcd13ifvqfd0","pricing_plan_id":"cebpf4jnsgd1na2vs0mg"},{"bike_id":"f76a8511-1638-4bbc-81b6-3e86daf501f9","system_id":"levelo_inurba_marseille","lat":43.29244,"lon":5.36447,"is_reserved":false,"is_disabled":true,"rental_uris":{"android":"levelo://app?vid=f76a8511-1638-4bbc-81b6-3e86daf501f9","ios":"levelo://app?vid=f76a8511-1638-4bbc-81b6-3e86daf501f9"},"vehicle_type_id":"4","last_reported":1737824793,"current_range_meters":0,"station_id":"","pricing_plan_id":"cebpf4jnsgd1na2vs0mg"},{"bike_id":"d30b3783-8233-407d-9dc8-76ac03b68013","system_id":"levelo_inurba_marseille","lat":43.298,"lon":5.38115,"is_reserved":false,"is_disabled":false,"rental_uris":{"android":"levelo://app?vid=d30b3783-8233-407d-9dc8-76ac03b68013","ios":"levelo://app?vid=d30b3783-8233-407d-9dc8-76ac03b68013"},"vehicle_type_id":"4","last_reported":1737824793,"current_range_meters":7200,"station_id":"ce4bgip2rcd13ifvqbb0","pricing_plan_id":"cebpf4jnsgd1na2vs0mg"},{"bike_id":"0af52f93-e2ad-4e70-93eb-a6c272fbfbe2","system_id":"levelo_inurba_marseille","lat":43.31224,"lon":5.36875,"is_reserved":false,"is_disabled":false,"rental_uris":{"android":"levelo://app?vid=0af52f93-e2ad-4e70-93eb-a6c272fbfbe2","ios":"levelo://app?vid=0af52f93-e2ad-4e70-93eb-a6c272fbfbe2"},"vehicle_type_id":"4","last_reported":1737824793,"current_range_meters":38000,"station_id":"ce4bgl92rcd13ifvqbq0","pricing_plan_id":"cebpf4jnsgd1na2vs0mg"},{"bike_id":"34f0ba41-05fb-4c53-bc56-6c0cc888280d","system_id":"levelo_inurba_marseille","lat":43.26215,"lon":5.37444,"is_reserved":false,"is_disabled":false,"rental_uris":{"android":"levelo://app?vid=34f0ba41-05fb-4c53-bc56-6c0cc888280d","ios":"levelo://app?vid=34f0ba41-05fb-4c53-bc56-6c0cc888280d"},"vehicle_type_id":"4","last_reported":1737824793,"current_range_meters":20400,"station_id":"ce4bhgp2rcd13ifvqfc0","pricing_plan_id":"cebpf4jnsgd1na2vs0mg"},{"bike_id":"291f6139-94ed-4344-845c-7c4cce8ad0df","system_id":"levelo_inurba_marseille","lat":43.28841,"lon":5.39326,"is_reserved":false,"is_disabled":false,"rental_uris":{"android":"levelo://app?vid=291f6139-94ed-4344-845c-7c4cce8ad0df","ios":"levelo://app?vid=291f6139-94ed-4344-845c-7c4cce8ad0df"},"vehicle_type_id":"4","last_reported":1737824793,"current_range_meters":3600,"station_id":"ce4bh2p2rcd13ifvqdi0","pricing_plan_id":"cebpf4jnsgd1na2vs0mg"},{"bike_id":"99e5a445-cdc2-4210-a04c-7608d52032be","system_id":"levelo_inurba_marseille","lat":43.31191,"lon":5.36948,"is_reserved":false,"is_disabled":true,"rental_uris":{"android":"levelo://app?vid=99e5a445-cdc2-4210-a04c-7608d52032be","ios":"levelo://app?vid=99e5a445-cdc2-4210-a04c-7608d52032be"},"vehicle_type_id":"4","last_reported":1737824793,"current_range_meters":0,"station_id":"","pricing_plan_id":"cebpf4jnsgd1na2vs0mg"},{"bike_id":"39923cc4-1937-4bbd-91a3-8c29bbe6e516","system_id":"levelo_inurba_marseille","lat":43.24172,"lon":5.39715,"is_reserved":false,"is_disabled":false,"rental_uris":{"android":"levelo://app?vid=39923cc4-1937-4bbd-91a3-8c29bbe6e516","ios":"levelo://app?vid=39923cc4-1937-4bbd-91a3-8c29bbe6e516"},"vehicle_type_id":"4","last_reported":1737824793,"current_range_meters":22800,"station_id":"ce4bhn12rcd13ifvqgpg","pricing_plan_id":"cebpf4jnsgd1na2vs0mg"},{"bike_id":"d54e7416-9133-47cb-bc55-3d590b1f98b8","system_id":"levelo_inurba_marseille","lat":43.28672,"lon":5.3631,"is_reserved":false,"is_disabled":true,"rental_uris":{"android":"levelo://app?vid=d54e7416-9133-47cb-bc55-3d590b1f98b8","ios":"levelo://app?vid=d54e7416-9133-47cb-bc55-3d590b1f98b8"},"vehicle_type_id":"4","last_reported":1737824793,"current_range_meters":0,"station_id":"ce4bhah2rcd13ifvqej0","pricing_plan_id":"cebpf4jnsgd1na2vs0mg"},{"bike_id":"57c70a1e-3417-40c8-a330-5d6598b77653","system_id":"levelo_inurba_marseille","lat":43.32534,"lon":5.42878,"is_reserved":false,"is_disabled":true,"rental_uris":{"android":"levelo://app?vid=57c70a1e-3417-40c8-a330-5d6598b77653","ios":"levelo://app?vid=57c70a1e-3417-40c8-a330-5d6598b77653"},"vehicle_type_id":"4","last_reported":1737824793,"current_range_meters":1600,"station_id":"","pricing_plan_id":"cebpf4jnsgd1na2vs0mg"},{"bike_id":"8f418039-64b4-4f8b-9b93-bbb14214da89","system_id":"levelo_inurba_marseille","lat":43.31708,"lon":5.37755,"is_reserved":false,"is_disabled":false,"rental_uris":{"android":"levelo://app?vid=8f418039-64b4-4f8b-9b93-bbb14214da89","ios":"levelo://app?vid=8f418039-64b4-4f8b-9b93-bbb14214da89"},"vehicle_type_id":"4","last_reported":1737824793,"current_range_meters":16000,"station_id":"ce4bgth2rcd13ifvqch0","pricing_plan_id":"cebpf4jnsgd1na2vs0mg"},{"bike_id":"4ba17b62-67ad-47d4-ae06-50d84fbf1296","system_id":"levelo_inurba_marseille","lat":43.29899,"lon":5.43668,"is_reserved":false,"is_disabled":false,"rental_uris":{"android":"levelo://app?vid=4ba17b62-67ad-47d4-ae06-50d84fbf1296","ios":"levelo://app?vid=4ba17b62-67ad-47d4-ae06-50d84fbf1296"},"vehicle_type_id":"4","last_reported":1737824793,"current_range_meters":12000,"station_id":"ce4bhpp2rcd13ifvqhfg","pricing_plan_id":"cebpf4jnsgd1na2vs0mg"},{"bike_id":"a1614f1b-e4e7-45c2-a013-68f98231ef53","system_id":"levelo_inurba_marseille","lat":43.28473,"lon":5.38424,"is_reserved":false,"is_disabled":false,"rental_uris":{"android":"levelo://app?vid=a1614f1b-e4e7-45c2-a013-68f98231ef53","ios":"levelo://app?vid=a1614f1b-e4e7-45c2-a013-68f98231ef53"},"vehicle_type_id":"4","last_reported":1737824793,"current_range_meters":7200,"station_id":"ce4bh512rcd13ifvqe3g","pricing_plan_id":"cebpf4jnsgd1na2vs0mg"},{"bike_id":"1c35c755-8b1c-439e-8798-f1a001a3969d","system_id":"levelo_inurba_marseille","lat":43.28108,"lon":5.37842,"is_reserved":false,"is_disabled":true,"rental_uris":{"android":"levelo://app?vid=1c35c755-8b1c-439e-8798-f1a001a3969d","ios":"levelo://app?vid=1c35c755-8b1c-439e-8798-f1a001a3969d"},"vehicle_type_id":"4","last_reported":1737824793,"current_range_meters":0,"station_id":"ce4bha12rcd13ifvqee0","pricing_plan_id":"cebpf4jnsgd1na2vs0mg"},{"bike_id":"884f4337-debb-4f4e-9ffb-854d7bf11416","system_id":"levelo_inurba_marseille","lat":43.31327,"lon":5.3968,"is_reserved":false,"is_disabled":true,"rental_uris":{"android":"levelo://app?vid=884f4337-debb-4f4e-9ffb-854d7bf11416","ios":"levelo://app?vid=884f4337-debb-4f4e-9ffb-854d7bf11416"},"vehicle_type_id":"4","last_reported":1737824793,"current_range_meters":0,"station_id":"ce4bgvp2rcd13ifvqcu0","pricing_plan_id":"cebpf4jnsgd1na2vs0mg"},{"bike_id":"f9cb1191-a42f-4b90-9de1-48cb61ff3747","system_id":"levelo_inurba_marseille","lat":43.31686,"lon":5.40472,"is_reserved":false,"is_disabled":false,"rental_uris":{"android":"levelo://app?vid=f9cb1191-a42f-4b90-9de1-48cb61ff3747","ios":"levelo://app?vid=f9cb1191-a42f-4b90-9de1-48cb61ff3747"},"vehicle_type_id":"4","last_reported":1737824793,"current_range_meters":13600,"station_id":"ce4bh012rcd13ifvqd00","pricing_plan_id":"cebpf4jnsgd1na2vs0mg"},{"bike_id":"4b379ac1-4632-436a-ac1c-80bbe1f462c4","system_id":"levelo_inurba_marseille","lat":43.2959,"lon":5.36737,"is_reserved":false,"is_disabled":false,"rental_uris":{"android":"levelo://app?vid=4b379ac1-4632-436a-ac1c-80bbe1f462c4","ios":"levelo://app?vid=4b379ac1-4632-436a-ac1c-80bbe1f462c4"},"vehicle_type_id":"4","last_reported":1737824793,"current_range_meters":28800,"station_id":"ce4bgph2rcd13ifvqc2g","pricing_plan_id":"cebpf4jnsgd1na2vs0mg"},{"bike_id":"3a50cba4-791e-4240-a3e9-a38905811f0f","system_id":"levelo_inurba_marseille","lat":43.27025,"lon":5.4031,"is_reserved":false,"is_disabled":false,"rental_uris":{"android":"levelo://app?vid=3a50cba4-791e-4240-a3e9-a38905811f0f","ios":"levelo://app?vid=3a50cba4-791e-4240-a3e9-a38905811f0f"},"vehicle_type_id":"4","last_reported":1737824793,"current_range_meters":8400,"station_id":"ce4bhk92rcd13ifvqgc0","pricing_plan_id":"cebpf4jnsgd1na2vs0mg"},{"bike_id":"b96c22ba-a4c6-4ca8-b881-a2a2972e9bc2","system_id":"levelo_inurba_marseille","lat":43.26028,"lon":5.37556,"is_reserved":false,"is_disabled":true,"rental_uris":{"android":"levelo://app?vid=b96c22ba-a4c6-4ca8-b881-a2a2972e9bc2","ios":"levelo://app?vid=b96c22ba-a4c6-4ca8-b881-a2a2972e9bc2"},"vehicle_type_id":"4","last_reported":1737824793,"current_range_meters":36400,"station_id":"ce4bhgh2rcd13ifvqfa0","pricing_plan_id":"cebpf4jnsgd1na2vs0mg"},{"bike_id":"f491d9c2-444f-4ed3-b72a-c0c6bed5c56c","system_id":"levelo_inurba_marseille","lat":43.27561,"lon":5.38423,"is_reserved":false,"is_disabled":false,"rental_uris":{"android":"levelo://app?vid=f491d9c2-444f-4ed3-b72a-c0c6bed5c56c","ios":"levelo://app?vid=f491d9c2-444f-4ed3-b72a-c0c6bed5c56c"},"vehicle_type_id":"4","last_reported":1737824793,"current_range_meters":9600,"station_id":"ce4bhh92rcd13ifvqfi0","pricing_plan_id":"cebpf4jnsgd1na2vs0mg"},{"bike_id":"9f2f6632-ae23-43ee-b9a4-817a900de6a3","system_id":"levelo_inurba_marseille","lat":43.29846,"lon":5.36276,"is_reserved":false,"is_disabled":false,"rental_uris":{"android":"levelo://app?vid=9f2f6632-ae23-43ee-b9a4-817a900de6a3","ios":"levelo://app?vid=9f2f6632-ae23-43ee-b9a4-817a900de6a3"},"vehicle_type_id":"4","last_reported":1737824793,"current_range_meters":12800,"station_id":"ce4bgpp2rcd13ifvqc3g","pricing_plan_id":"cebpf4jnsgd1na2vs0mg"},{"bike_id":"b47f799a-f941-4397-8de5-dca6e611fe13","system_id":"levelo_inurba_marseille","lat":43.29207,"lon":5.3933,"is_reserved":false,"is_disabled":false,"rental_uris":{"android":"levelo://app?vid=b47f799a-f941-4397-8de5-dca6e611fe13","ios":"levelo://app?vid=b47f799a-f941-4397-8de5-dca6e611fe13"},"vehicle_type_id":"4","last_reported":1737824793,"current_range_meters":17200,"station_id":"ce4bh192rcd13ifvqdd0","pricing_plan_id":"cebpf4jnsgd1na2vs0mg"},{"bike_id":"7ead54e2-38b1-4eff-8b45-1b324dd32e5b","system_id":"levelo_inurba_marseille","lat":43.26039,"lon":5.37555,"is_reserved":false,"is_disabled":false,"rental_uris":{"android":"levelo://app?vid=7ead54e2-38b1-4eff-8b45-1b324dd32e5b","ios":"levelo://app?vid=7ead54e2-38b1-4eff-8b45-1b324dd32e5b"},"vehicle_type_id":"4","last_reported":1737824793,"current_range_meters":4400,"station_id":"ce4bhgh2rcd13ifvqfa0","pricing_plan_id":"cebpf4jnsgd1na2vs0mg"},{"bike_id":"1346ff93-9ddb-4093-aa5d-b6cb09dfef3c","system_id":"levelo_inurba_marseille","lat":43.28486,"lon":5.36819,"is_reserved":false,"is_disabled":true,"rental_uris":{"android":"levelo://app?vid=1346ff93-9ddb-4093-aa5d-b6cb09dfef3c","ios":"levelo://app?vid=1346ff93-9ddb-4093-aa5d-b6cb09dfef3c"},"vehicle_type_id":"4","last_reported":1737824793,"current_range_meters":0,"station_id":"","pricing_plan_id":"cebpf4jnsgd1na2vs0mg"},{"bike_id":"f017f668-80b8-49aa-97b1-6c2ec87c0502","system_id":"levelo_inurba_marseille","lat":43.29279,"lon":5.36839,"is_reserved":false,"is_disabled":false,"rental_uris":{"android":"levelo://app?vid=f017f668-80b8-49aa-97b1-6c2ec87c0502","ios":"levelo://app?vid=f017f668-80b8-49aa-97b1-6c2ec87c0502"},"vehicle_type_id":"4","last_reported":1737824793,"current_range_meters":36400,"station_id":"ce4bhbp2rcd13ifvqesg","pricing_plan_id":"cebpf4jnsgd1na2vs0mg"},{"bike_id":"e478c5f4-7d6a-49b2-983e-0fc446c91566","system_id":"levelo_inurba_marseille","lat":43.28614,"lon":5.35108,"is_reserved":false,"is_disabled":false,"rental_uris":{"android":"levelo://app?vid=e478c5f4-7d6a-49b2-983e-0fc446c91566","ios":"levelo://app?vid=e478c5f4-7d6a-49b2-983e-0fc446c91566"},"vehicle_type_id":"4","last_reported":1737824793,"current_range_meters":27600,"station_id":"ce4bhch2rcd13ifvqeug","pricing_plan_id":"cebpf4jnsgd1na2vs0mg"},{"bike_id":"356c444f-e992-4c1e-bfda-b4c9d6e8f1bf","system_id":"levelo_inurba_marseille","lat":43.27814,"lon":5.4072,"is_reserved":false,"is_disabled":false,"rental_uris":{"android":"levelo://app?vid=356c444f-e992-4c1e-bfda-b4c9d6e8f1bf","ios":"levelo://app?vid=356c444f-e992-4c1e-bfda-b4c9d6e8f1bf"},"vehicle_type_id":"4","last_reported":1737824793,"current_range_meters":20800,"station_id":"ce4bhnh2rcd13ifvqgtg","pricing_plan_id":"cebpf4jnsgd1na2vs0mg"},{"bike_id":"d0b97dd4-6015-4f42-b5f6-8f3b6c506949","system_id":"levelo_inurba_marseille","lat":43.29551,"lon":5.42289,"is_reserved":false,"is_disabled":false,"rental_uris":{"android":"levelo://app?vid=d0b97dd4-6015-4f42-b5f6-8f3b6c506949","ios":"levelo://app?vid=d0b97dd4-6015-4f42-b5f6-8f3b6c506949"},"vehicle_type_id":"4","last_reported":1737824793,"current_range_meters":38000,"station_id":"ce4bhph2rcd13ifvqhdg","pricing_plan_id":"cebpf4jnsgd1na2vs0mg"},{"bike_id":"d5665470-c1b3-45e5-80ac-4df7d60c2564","system_id":"levelo_inurba_marseille","lat":43.32104,"lon":5.36793,"is_reserved":false,"is_disabled":false,"rental_uris":{"android":"levelo://app?vid=d5665470-c1b3-45e5-80ac-4df7d60c2564","ios":"levelo://app?vid=d5665470-c1b3-45e5-80ac-4df7d60c2564"},"vehicle_type_id":"4","last_reported":1737824793,"current_range_meters":32400,"station_id":"ce4bhrh2rcd13ifvqhug","pricing_plan_id":"cebpf4jnsgd1na2vs0mg"},{"bike_id":"5658bf19-5e40-4edf-ac7a-3999a5207afd","system_id":"levelo_inurba_marseille","lat":43.23198,"lon":5.3555,"is_reserved":false,"is_disabled":false,"rental_uris":{"android":"levelo://app?vid=5658bf19-5e40-4edf-ac7a-3999a5207afd","ios":"levelo://app?vid=5658bf19-5e40-4edf-ac7a-3999a5207afd"},"vehicle_type_id":"4","last_reported":1737824793,"current_range_meters":7200,"station_id":"ce4bhu92rcd13ifvqi70","pricing_plan_id":"cebpf4jnsgd1na2vs0mg"},{"bike_id":"c0816cea-d6ad-48b9-9219-c1d6b41ea962","system_id":"levelo_inurba_marseille","lat":43.26207,"lon":5.37444,"is_reserved":false,"is_disabled":false,"rental_uris":{"android":"levelo://app?vid=c0816cea-d6ad-48b9-9219-c1d6b41ea962","ios":"levelo://app?vid=c0816cea-d6ad-48b9-9219-c1d6b41ea962"},"vehicle_type_id":"4","last_reported":1737824793,"current_range_meters":9600,"station_id":"ce4bhgp2rcd13ifvqfc0","pricing_plan_id":"cebpf4jnsgd1na2vs0mg"},{"bike_id":"7a84fa89-d629-4532-82f1-b70076392810","system_id":"levelo_inurba_marseille","lat":43.28854,"lon":5.3587,"is_reserved":false,"is_disabled":true,"rental_uris":{"android":"levelo://app?vid=7a84fa89-d629-4532-82f1-b70076392810","ios":"levelo://app?vid=7a84fa89-d629-4532-82f1-b70076392810"},"vehicle_type_id":"4","last_reported":1737824793,"current_range_meters":0,"station_id":"ce4bhb12rcd13ifvqem0","pricing_plan_id":"cebpf4jnsgd1na2vs0mg"},{"bike_id":"479cb780-8c58-44a6-99d3-0353db3a07bb","system_id":"levelo_inurba_marseille","lat":43.30801,"lon":5.43524,"is_reserved":false,"is_disabled":false,"rental_uris":{"android":"levelo://app?vid=479cb780-8c58-44a6-99d3-0353db3a07bb","ios":"levelo://app?vid=479cb780-8c58-44a6-99d3-0353db3a07bb"},"vehicle_type_id":"4","last_reported":1737824793,"current_range_meters":36800,"station_id":"ce4bhph2rcd13ifvqheg","pricing_plan_id":"cebpf4jnsgd1na2vs0mg"},{"bike_id":"6df622cf-2b94-459d-83ad-09577dedd11f","system_id":"levelo_inurba_marseille","lat":43.32058,"lon":5.41536,"is_reserved":false,"is_disabled":false,"rental_uris":{"android":"levelo://app?vid=6df622cf-2b94-459d-83ad-09577dedd11f","ios":"levelo://app?vid=6df622cf-2b94-459d-83ad-09577dedd11f"},"vehicle_type_id":"4","last_reported":1737824793,"current_range_meters":23200,"station_id":"ce4bhq92rcd13ifvqhkg","pricing_plan_id":"cebpf4jnsgd1na2vs0mg"},{"bike_id":"b3aeadb8-10e3-46bf-9b68-e8ada58cee80","system_id":"levelo_inurba_marseille","lat":43.29543,"lon":5.38543,"is_reserved":false,"is_disabled":false,"rental_uris":{"android":"levelo://app?vid=b3aeadb8-10e3-46bf-9b68-e8ada58cee80","ios":"levelo://app?vid=b3aeadb8-10e3-46bf-9b68-e8ada58cee80"},"vehicle_type_id":"4","last_reported":1737824793,"current_range_meters":8400,"station_id":"ce4bgih2rcd13ifvqba0","pricing_plan_id":"cebpf4jnsgd1na2vs0mg"},{"bike_id":"9f5ef00e-1f5d-4a4c-b17f-ec0fd2052c5a","system_id":"levelo_inurba_marseille","lat":43.31764,"lon":5.39021,"is_reserved":false,"is_disabled":true,"rental_uris":{"android":"levelo://app?vid=9f5ef00e-1f5d-4a4c-b17f-ec0fd2052c5a","ios":"levelo://app?vid=9f5ef00e-1f5d-4a4c-b17f-ec0fd2052c5a"},"vehicle_type_id":"4","last_reported":1737824793,"current_range_meters":0,"station_id":"ce4bhqp2rcd13ifvqhng","pricing_plan_id":"cebpf4jnsgd1na2vs0mg"},{"bike_id":"f6158160-d306-4653-9a02-6a00b40ba94f","system_id":"levelo_inurba_marseille","lat":43.2997,"lon":5.38491,"is_reserved":false,"is_disabled":false,"rental_uris":{"android":"levelo://app?vid=f6158160-d306-4653-9a02-6a00b40ba94f","ios":"levelo://app?vid=f6158160-d306-4653-9a02-6a00b40ba94f"},"vehicle_type_id":"4","last_reported":1737824793,"current_range_meters":32800,"station_id":"ce4bgj92rcd13ifvqbd0","pricing_plan_id":"cebpf4jnsgd1na2vs0mg"},{"bike_id":"14549f3c-9b93-4dce-b64e-10da7e275aeb","system_id":"levelo_inurba_marseille","lat":43.31101,"lon":5.3716,"is_reserved":false,"is_disabled":false,"rental_uris":{"android":"levelo://app?vid=14549f3c-9b93-4dce-b64e-10da7e275aeb","ios":"levelo://app?vid=14549f3c-9b93-4dce-b64e-10da7e275aeb"},"vehicle_type_id":"4","last_reported":1737824793,"current_range_meters":34800,"station_id":"","pricing_plan_id":"cebpf4jnsgd1na2vs0mg"},{"bike_id":"e84ea28d-d6c1-4a23-bfa5-fecf89bc2a9f","system_id":"levelo_inurba_marseille","lat":43.32477,"lon":5.36562,"is_reserved":false,"is_disabled":false,"rental_uris":{"android":"levelo://app?vid=e84ea28d-d6c1-4a23-bfa5-fecf89bc2a9f","ios":"levelo://app?vid=e84ea28d-d6c1-4a23-bfa5-fecf89bc2a9f"},"vehicle_type_id":"4","last_reported":1737824793,"current_range_meters":35200,"station_id":"ce4bhs12rcd13ifvqhvg","pricing_plan_id":"cebpf4jnsgd1na2vs0mg"},{"bike_id":"57823e25-308b-4f11-a2b6-a7f52902c1c5","system_id":"levelo_inurba_marseille","lat":43.30806,"lon":5.38142,"is_reserved":false,"is_disabled":true,"rental_uris":{"android":"levelo://app?vid=57823e25-308b-4f11-a2b6-a7f52902c1c5","ios":"levelo://app?vid=57823e25-308b-4f11-a2b6-a7f52902c1c5"},"vehicle_type_id":"4","last_reported":1737824793,"current_range_meters":29600,"station_id":"ce4bgt12rcd13ifvqce0","pricing_plan_id":"cebpf4jnsgd1na2vs0mg"},{"bike_id":"236ee024-d4e7-485e-aa96-157fc277c396","system_id":"levelo_inurba_marseille","lat":43.29897,"lon":5.43671,"is_reserved":false,"is_disabled":false,"rental_uris":{"android":"levelo://app?vid=236ee024-d4e7-485e-aa96-157fc277c396","ios":"levelo://app?vid=236ee024-d4e7-485e-aa96-157fc277c396"},"vehicle_type_id":"4","last_reported":1737824793,"current_range_meters":8800,"station_id":"ce4bhpp2rcd13ifvqhfg","pricing_plan_id":"cebpf4jnsgd1na2vs0mg"},{"bike_id":"787fabc3-eb91-469a-81b6-44a6fdcc4a9b","system_id":"levelo_inurba_marseille","lat":43.23076,"lon":5.35487,"is_reserved":false,"is_disabled":false,"rental_uris":{"android":"levelo://app?vid=787fabc3-eb91-469a-81b6-44a6fdcc4a9b","ios":"levelo://app?vid=787fabc3-eb91-469a-81b6-44a6fdcc4a9b"},"vehicle_type_id":"4","last_reported":1737824793,"current_range_meters":38800,"station_id":"cpo3342slgdg3j2ifvpg","pricing_plan_id":"cebpf4jnsgd1na2vs0mg"},{"bike_id":"e78c1169-47c8-4567-972b-d01ea79ea5f0","system_id":"levelo_inurba_marseille","lat":43.32473,"lon":5.36551,"is_reserved":false,"is_disabled":false,"rental_uris":{"android":"levelo://app?vid=e78c1169-47c8-4567-972b-d01ea79ea5f0","ios":"levelo://app?vid=e78c1169-47c8-4567-972b-d01ea79ea5f0"},"vehicle_type_id":"4","last_reported":1737824793,"current_range_meters":17600,"station_id":"ce4bhs12rcd13ifvqhvg","pricing_plan_id":"cebpf4jnsgd1na2vs0mg"},{"bike_id":"1e328aaf-06e5-4767-a395-a9b21576497f","system_id":"levelo_inurba_marseille","lat":43.29768,"lon":5.37103,"is_reserved":false,"is_disabled":true,"rental_uris":{"android":"levelo://app?vid=1e328aaf-06e5-4767-a395-a9b21576497f","ios":"levelo://app?vid=1e328aaf-06e5-4767-a395-a9b21576497f"},"vehicle_type_id":"4","last_reported":1737824793,"current_range_meters":22400,"station_id":"ce4bgop2rcd13ifvqc1g","pricing_plan_id":"cebpf4jnsgd1na2vs0mg"},{"bike_id":"62580646-675f-4585-9d52-a495b9a04a8d","system_id":"levelo_inurba_marseille","lat":43.26553,"lon":5.373,"is_reserved":false,"is_disabled":false,"rental_uris":{"android":"levelo://app?vid=62580646-675f-4585-9d52-a495b9a04a8d","ios":"levelo://app?vid=62580646-675f-4585-9d52-a495b9a04a8d"},"vehicle_type_id":"4","last_reported":1737824793,"current_range_meters":5600,"station_id":"ce4bhg12rcd13ifvqf70","pricing_plan_id":"cebpf4jnsgd1na2vs0mg"},{"bike_id":"7facede7-71a3-4129-a1f3-f8692190d63d","system_id":"levelo_inurba_marseille","lat":43.32481,"lon":5.36571,"is_reserved":false,"is_disabled":false,"rental_uris":{"android":"levelo://app?vid=7facede7-71a3-4129-a1f3-f8692190d63d","ios":"levelo://app?vid=7facede7-71a3-4129-a1f3-f8692190d63d"},"vehicle_type_id":"4","last_reported":1737824793,"current_range_meters":22800,"station_id":"ce4bhs12rcd13ifvqhvg","pricing_plan_id":"cebpf4jnsgd1na2vs0mg"},{"bike_id":"ea624404-124a-4128-9041-089ad79942c5","system_id":"levelo_inurba_marseille","lat":43.29548,"lon":5.422864,"is_reserved":false,"is_disabled":false,"rental_uris":{"android":"levelo://app?vid=ea624404-124a-4128-9041-089ad79942c5","ios":"levelo://app?vid=ea624404-124a-4128-9041-089ad79942c5"},"vehicle_type_id":"4","last_reported":1737824793,"current_range_meters":31200,"station_id":"ce4bhph2rcd13ifvqhdg","pricing_plan_id":"cebpf4jnsgd1na2vs0mg"},{"bike_id":"ad243039-16c6-42b3-baed-a49a90967726","system_id":"levelo_inurba_marseille","lat":43.29287,"lon":5.36841,"is_reserved":false,"is_disabled":false,"rental_uris":{"android":"levelo://app?vid=ad243039-16c6-42b3-baed-a49a90967726","ios":"levelo://app?vid=ad243039-16c6-42b3-baed-a49a90967726"},"vehicle_type_id":"4","last_reported":1737824793,"current_range_meters":25600,"station_id":"ce4bhbp2rcd13ifvqesg","pricing_plan_id":"cebpf4jnsgd1na2vs0mg"},{"bike_id":"662826ac-353a-4d90-b4d6-b01a8f2632b2","system_id":"levelo_inurba_marseille","lat":43.2293,"lon":5.35393,"is_reserved":false,"is_disabled":false,"rental_uris":{"android":"levelo://app?vid=662826ac-353a-4d90-b4d6-b01a8f2632b2","ios":"levelo://app?vid=662826ac-353a-4d90-b4d6-b01a8f2632b2"},"vehicle_type_id":"4","last_reported":1737824793,"current_range_meters":38000,"station_id":"cpo3532slgdg3j2ikp40","pricing_plan_id":"cebpf4jnsgd1na2vs0mg"},{"bike_id":"8eb05232-4fdc-4de3-839e-8e8e57e6815b","system_id":"levelo_inurba_marseille","lat":43.30091,"lon":5.39074,"is_reserved":false,"is_disabled":true,"rental_uris":{"android":"levelo://app?vid=8eb05232-4fdc-4de3-839e-8e8e57e6815b","ios":"levelo://app?vid=8eb05232-4fdc-4de3-839e-8e8e57e6815b"},"vehicle_type_id":"4","last_reported":1737824793,"current_range_meters":0,"station_id":"ce4bh192rcd13ifvqdb0","pricing_plan_id":"cebpf4jnsgd1na2vs0mg"},{"bike_id":"163b0be8-f1db-4665-a41b-823b767c63a6","system_id":"levelo_inurba_marseille","lat":43.26966,"lon":5.40232,"is_reserved":false,"is_disabled":false,"rental_uris":{"android":"levelo://app?vid=163b0be8-f1db-4665-a41b-823b767c63a6","ios":"levelo://app?vid=163b0be8-f1db-4665-a41b-823b767c63a6"},"vehicle_type_id":"4","last_reported":1737824793,"current_range_meters":36400,"station_id":"cjm6bp8fraef2m0cb0m0","pricing_plan_id":"cebpf4jnsgd1na2vs0mg"},{"bike_id":"837fa73d-e9ad-4480-990e-af28b2f2d20c","system_id":"levelo_inurba_marseille","lat":43.26684,"lon":5.38269,"is_reserved":false,"is_disabled":false,"rental_uris":{"android":"levelo://app?vid=837fa73d-e9ad-4480-990e-af28b2f2d20c","ios":"levelo://app?vid=837fa73d-e9ad-4480-990e-af28b2f2d20c"},"vehicle_type_id":"4","last_reported":1737824793,"current_range_meters":26000,"station_id":"ce4bhg92rcd13ifvqf90","pricing_plan_id":"cebpf4jnsgd1na2vs0mg"},{"bike_id":"668e54e8-b716-48f5-86d6-47b1d4aa41b3","system_id":"levelo_inurba_marseille","lat":43.29568,"lon":5.39983,"is_reserved":false,"is_disabled":false,"rental_uris":{"android":"levelo://app?vid=668e54e8-b716-48f5-86d6-47b1d4aa41b3","ios":"levelo://app?vid=668e54e8-b716-48f5-86d6-47b1d4aa41b3"},"vehicle_type_id":"4","last_reported":1737824793,"current_range_meters":5600,"station_id":"ce4bh312rcd13ifvqdj0","pricing_plan_id":"cebpf4jnsgd1na2vs0mg"},{"bike_id":"2cadf354-5c71-4dd8-ab00-2c0fa05f1da5","system_id":"levelo_inurba_marseille","lat":43.28669,"lon":5.36322,"is_reserved":false,"is_disabled":false,"rental_uris":{"android":"levelo://app?vid=2cadf354-5c71-4dd8-ab00-2c0fa05f1da5","ios":"levelo://app?vid=2cadf354-5c71-4dd8-ab00-2c0fa05f1da5"},"vehicle_type_id":"4","last_reported":1737824793,"current_range_meters":38800,"station_id":"ce4bhah2rcd13ifvqej0","pricing_plan_id":"cebpf4jnsgd1na2vs0mg"},{"bike_id":"54e8e461-4c35-4169-ab56-14b4101e1734","system_id":"levelo_inurba_marseille","lat":43.284634,"lon":5.358927,"is_reserved":false,"is_disabled":false,"rental_uris":{"android":"levelo://app?vid=54e8e461-4c35-4169-ab56-14b4101e1734","ios":"levelo://app?vid=54e8e461-4c35-4169-ab56-14b4101e1734"},"vehicle_type_id":"4","last_reported":1737824793,"current_range_meters":39200,"station_id":"ce4bhah2rcd13ifvqei0","pricing_plan_id":"cebpf4jnsgd1na2vs0mg"},{"bike_id":"c683b8d7-700b-46ff-afa9-73683eb8ee8c","system_id":"levelo_inurba_marseille","lat":43.29798,"lon":5.4042,"is_reserved":false,"is_disabled":false,"rental_uris":{"android":"levelo://app?vid=c683b8d7-700b-46ff-afa9-73683eb8ee8c","ios":"levelo://app?vid=c683b8d7-700b-46ff-afa9-73683eb8ee8c"},"vehicle_type_id":"4","last_reported":1737824793,"current_range_meters":38800,"station_id":"ce4bh112rcd13ifvqd90","pricing_plan_id":"cebpf4jnsgd1na2vs0mg"},{"bike_id":"742633e7-1bda-4279-983a-a2b3233611e7","system_id":"levelo_inurba_marseille","lat":43.29223,"lon":5.36069,"is_reserved":false,"is_disabled":false,"rental_uris":{"android":"levelo://app?vid=742633e7-1bda-4279-983a-a2b3233611e7","ios":"levelo://app?vid=742633e7-1bda-4279-983a-a2b3233611e7"},"vehicle_type_id":"4","last_reported":1737824793,"current_range_meters":35200,"station_id":"ce4bhbh2rcd13ifvqeqg","pricing_plan_id":"cebpf4jnsgd1na2vs0mg"},{"bike_id":"4fd81f51-66cd-49c2-8173-f14e49403f39","system_id":"levelo_inurba_marseille","lat":43.281,"lon":5.37835,"is_reserved":false,"is_disabled":false,"rental_uris":{"android":"levelo://app?vid=4fd81f51-66cd-49c2-8173-f14e49403f39","ios":"levelo://app?vid=4fd81f51-66cd-49c2-8173-f14e49403f39"},"vehicle_type_id":"4","last_reported":1737824793,"current_range_meters":24800,"station_id":"ce4bha12rcd13ifvqee0","pricing_plan_id":"cebpf4jnsgd1na2vs0mg"},{"bike_id":"7532e7c4-2524-427b-b547-730d4ba49800","system_id":"levelo_inurba_marseille","lat":43.2841,"lon":5.37512,"is_reserved":false,"is_disabled":true,"rental_uris":{"android":"levelo://app?vid=7532e7c4-2524-427b-b547-730d4ba49800","ios":"levelo://app?vid=7532e7c4-2524-427b-b547-730d4ba49800"},"vehicle_type_id":"4","last_reported":1737824793,"current_range_meters":0,"station_id":"ce4bh412rcd13ifvqds0","pricing_plan_id":"cebpf4jnsgd1na2vs0mg"},{"bike_id":"03deefff-87ac-4b19-8932-093032a2512e","system_id":"levelo_inurba_marseille","lat":43.32282,"lon":5.38253,"is_reserved":false,"is_disabled":false,"rental_uris":{"android":"levelo://app?vid=03deefff-87ac-4b19-8932-093032a2512e","ios":"levelo://app?vid=03deefff-87ac-4b19-8932-093032a2512e"},"vehicle_type_id":"4","last_reported":1737824793,"current_range_meters":34000,"station_id":"ce4bhr12rcd13ifvqhqg","pricing_plan_id":"cebpf4jnsgd1na2vs0mg"},{"bike_id":"eece5cfa-324b-4f7e-b6f8-f2cfdc2c2158","system_id":"levelo_inurba_marseille","lat":43.28004,"lon":5.4001,"is_reserved":false,"is_disabled":false,"rental_uris":{"android":"levelo://app?vid=eece5cfa-324b-4f7e-b6f8-f2cfdc2c2158","ios":"levelo://app?vid=eece5cfa-324b-4f7e-b6f8-f2cfdc2c2158"},"vehicle_type_id":"4","last_reported":1737824793,"current_range_meters":20400,"station_id":"ce4bho92rcd13ifvqh4g","pricing_plan_id":"cebpf4jnsgd1na2vs0mg"},{"bike_id":"9c35a641-d8de-4ad6-aa48-5402a47894a7","system_id":"levelo_inurba_marseille","lat":43.32658,"lon":5.40989,"is_reserved":false,"is_disabled":false,"rental_uris":{"android":"levelo://app?vid=9c35a641-d8de-4ad6-aa48-5402a47894a7","ios":"levelo://app?vid=9c35a641-d8de-4ad6-aa48-5402a47894a7"},"vehicle_type_id":"4","last_reported":1737824793,"current_range_meters":37600,"station_id":"ce4bhpp2rcd13ifvqhgg","pricing_plan_id":"cebpf4jnsgd1na2vs0mg"},{"bike_id":"258e6798-08f1-4042-a334-2465a7133c40","system_id":"levelo_inurba_marseille","lat":43.25503,"lon":5.37659,"is_reserved":false,"is_disabled":false,"rental_uris":{"android":"levelo://app?vid=258e6798-08f1-4042-a334-2465a7133c40","ios":"levelo://app?vid=258e6798-08f1-4042-a334-2465a7133c40"},"vehicle_type_id":"4","last_reported":1737824793,"current_range_meters":38800,"station_id":"ce4bhh12rcd13ifvqff0","pricing_plan_id":"cebpf4jnsgd1na2vs0mg"},{"bike_id":"1b961552-d77a-4e68-b07c-bb1bfa7f2db8","system_id":"levelo_inurba_marseille","lat":43.29839,"lon":5.36273,"is_reserved":false,"is_disabled":false,"rental_uris":{"android":"levelo://app?vid=1b961552-d77a-4e68-b07c-bb1bfa7f2db8","ios":"levelo://app?vid=1b961552-d77a-4e68-b07c-bb1bfa7f2db8"},"vehicle_type_id":"4","last_reported":1737824793,"current_range_meters":38800,"station_id":"ce4bgpp2rcd13ifvqc3g","pricing_plan_id":"cebpf4jnsgd1na2vs0mg"},{"bike_id":"1b17030e-1c94-45ad-92ef-ad73fc94a81c","system_id":"levelo_inurba_marseille","lat":43.29895,"lon":5.43652,"is_reserved":false,"is_disabled":false,"rental_uris":{"android":"levelo://app?vid=1b17030e-1c94-45ad-92ef-ad73fc94a81c","ios":"levelo://app?vid=1b17030e-1c94-45ad-92ef-ad73fc94a81c"},"vehicle_type_id":"4","last_reported":1737824793,"current_range_meters":23200,"station_id":"ce4bhpp2rcd13ifvqhfg","pricing_plan_id":"cebpf4jnsgd1na2vs0mg"},{"bike_id":"67f5dd83-daae-42c6-a9f0-9a7cbe73ce85","system_id":"levelo_inurba_marseille","lat":43.29972,"lon":5.41308,"is_reserved":false,"is_disabled":false,"rental_uris":{"android":"levelo://app?vid=67f5dd83-daae-42c6-a9f0-9a7cbe73ce85","ios":"levelo://app?vid=67f5dd83-daae-42c6-a9f0-9a7cbe73ce85"},"vehicle_type_id":"4","last_reported":1737824793,"current_range_meters":35200,"station_id":"ce4bhp12rcd13ifvqh9g","pricing_plan_id":"cebpf4jnsgd1na2vs0mg"},{"bike_id":"6a9e34c1-9f2c-44ed-af34-4f040d9ae6f3","system_id":"levelo_inurba_marseille","lat":43.2958,"lon":5.42258,"is_reserved":false,"is_disabled":false,"rental_uris":{"android":"levelo://app?vid=6a9e34c1-9f2c-44ed-af34-4f040d9ae6f3","ios":"levelo://app?vid=6a9e34c1-9f2c-44ed-af34-4f040d9ae6f3"},"vehicle_type_id":"4","last_reported":1737824793,"current_range_meters":22000,"station_id":"ce4bhph2rcd13ifvqhdg","pricing_plan_id":"cebpf4jnsgd1na2vs0mg"},{"bike_id":"7f94b57f-e0f8-45f0-8394-4dedd17df1a0","system_id":"levelo_inurba_marseille","lat":43.28442,"lon":5.39185,"is_reserved":false,"is_disabled":true,"rental_uris":{"android":"levelo://app?vid=7f94b57f-e0f8-45f0-8394-4dedd17df1a0","ios":"levelo://app?vid=7f94b57f-e0f8-45f0-8394-4dedd17df1a0"},"vehicle_type_id":"4","last_reported":1737824793,"current_range_meters":0,"station_id":"ce4bhoh2rcd13ifvqh5g","pricing_plan_id":"cebpf4jnsgd1na2vs0mg"},{"bike_id":"d310d1e2-9c45-4033-ae67-5460960ae570","system_id":"levelo_inurba_marseille","lat":43.30162,"lon":5.39298,"is_reserved":false,"is_disabled":false,"rental_uris":{"android":"levelo://app?vid=d310d1e2-9c45-4033-ae67-5460960ae570","ios":"levelo://app?vid=d310d1e2-9c45-4033-ae67-5460960ae570"},"vehicle_type_id":"4","last_reported":1737824793,"current_range_meters":23200,"station_id":"","pricing_plan_id":"cebpf4jnsgd1na2vs0mg"},{"bike_id":"f9c62656-c213-4d37-bccf-53ca245dbdbd","system_id":"levelo_inurba_marseille","lat":43.32646,"lon":5.3923,"is_reserved":false,"is_disabled":false,"rental_uris":{"android":"levelo://app?vid=f9c62656-c213-4d37-bccf-53ca245dbdbd","ios":"levelo://app?vid=f9c62656-c213-4d37-bccf-53ca245dbdbd"},"vehicle_type_id":"4","last_reported":1737824793,"current_range_meters":11600,"station_id":"","pricing_plan_id":"cebpf4jnsgd1na2vs0mg"},{"bike_id":"26d3de6a-b7db-4cd7-885c-9cb71bb28aa5","system_id":"levelo_inurba_marseille","lat":43.27367,"lon":5.36247,"is_reserved":false,"is_disabled":false,"rental_uris":{"android":"levelo://app?vid=26d3de6a-b7db-4cd7-885c-9cb71bb28aa5","ios":"levelo://app?vid=26d3de6a-b7db-4cd7-885c-9cb71bb28aa5"},"vehicle_type_id":"4","last_reported":1737824793,"current_range_meters":38800,"station_id":"ce4bhbh2rcd13ifvqeo0","pricing_plan_id":"cebpf4jnsgd1na2vs0mg"},{"bike_id":"0c21f865-7b69-4aae-b926-535c6e7e0c30","system_id":"levelo_inurba_marseille","lat":43.2512,"lon":5.40334,"is_reserved":false,"is_disabled":false,"rental_uris":{"android":"levelo://app?vid=0c21f865-7b69-4aae-b926-535c6e7e0c30","ios":"levelo://app?vid=0c21f865-7b69-4aae-b926-535c6e7e0c30"},"vehicle_type_id":"4","last_reported":1737824793,"current_range_meters":38800,"station_id":"ce4bhlh2rcd13ifvqgig","pricing_plan_id":"cebpf4jnsgd1na2vs0mg"},{"bike_id":"7c78a755-c7f5-4f07-a96b-621451d47948","system_id":"levelo_inurba_marseille","lat":43.29945,"lon":5.4357,"is_reserved":false,"is_disabled":false,"rental_uris":{"android":"levelo://app?vid=7c78a755-c7f5-4f07-a96b-621451d47948","ios":"levelo://app?vid=7c78a755-c7f5-4f07-a96b-621451d47948"},"vehicle_type_id":"4","last_reported":1737824793,"current_range_meters":36000,"station_id":"ce4bhpp2rcd13ifvqhfg","pricing_plan_id":"cebpf4jnsgd1na2vs0mg"},{"bike_id":"918347e5-343f-4309-8229-46eec4c078df","system_id":"levelo_inurba_marseille","lat":43.29963,"lon":5.38495,"is_reserved":false,"is_disabled":false,"rental_uris":{"android":"levelo://app?vid=918347e5-343f-4309-8229-46eec4c078df","ios":"levelo://app?vid=918347e5-343f-4309-8229-46eec4c078df"},"vehicle_type_id":"4","last_reported":1737824793,"current_range_meters":11200,"station_id":"ce4bgj92rcd13ifvqbd0","pricing_plan_id":"cebpf4jnsgd1na2vs0mg"},{"bike_id":"c69d1b2a-5537-4cf0-8c1d-991576479533","system_id":"levelo_inurba_marseille","lat":43.29168,"lon":5.37152,"is_reserved":false,"is_disabled":true,"rental_uris":{"android":"levelo://app?vid=c69d1b2a-5537-4cf0-8c1d-991576479533","ios":"levelo://app?vid=c69d1b2a-5537-4cf0-8c1d-991576479533"},"vehicle_type_id":"4","last_reported":1737824793,"current_range_meters":400,"station_id":"ce4bha92rcd13ifvqeh0","pricing_plan_id":"cebpf4jnsgd1na2vs0mg"},{"bike_id":"a9d8de31-0dd9-4943-a5a7-a41649763c7b","system_id":"levelo_inurba_marseille","lat":43.26203,"lon":5.3744,"is_reserved":false,"is_disabled":false,"rental_uris":{"android":"levelo://app?vid=a9d8de31-0dd9-4943-a5a7-a41649763c7b","ios":"levelo://app?vid=a9d8de31-0dd9-4943-a5a7-a41649763c7b"},"vehicle_type_id":"4","last_reported":1737824793,"current_range_meters":16400,"station_id":"ce4bhgp2rcd13ifvqfc0","pricing_plan_id":"cebpf4jnsgd1na2vs0mg"},{"bike_id":"82ec0886-3d42-4f0a-9369-661f6aff911b","system_id":"levelo_inurba_marseille","lat":43.28705,"lon":5.39998,"is_reserved":false,"is_disabled":false,"rental_uris":{"android":"levelo://app?vid=82ec0886-3d42-4f0a-9369-661f6aff911b","ios":"levelo://app?vid=82ec0886-3d42-4f0a-9369-661f6aff911b"},"vehicle_type_id":"4","last_reported":1737824793,"current_range_meters":17600,"station_id":"ce4bho92rcd13ifvqh3g","pricing_plan_id":"cebpf4jnsgd1na2vs0mg"},{"bike_id":"8586a018-4fea-4b1c-99a3-10529402c58c","system_id":"levelo_inurba_marseille","lat":43.29195,"lon":5.39319,"is_reserved":false,"is_disabled":false,"rental_uris":{"android":"levelo://app?vid=8586a018-4fea-4b1c-99a3-10529402c58c","ios":"levelo://app?vid=8586a018-4fea-4b1c-99a3-10529402c58c"},"vehicle_type_id":"4","last_reported":1737824793,"current_range_meters":3600,"station_id":"ce4bh192rcd13ifvqdd0","pricing_plan_id":"cebpf4jnsgd1na2vs0mg"},{"bike_id":"b88515f4-c0ae-406a-9ff9-71ba549bef06","system_id":"levelo_inurba_marseille","lat":43.23961,"lon":5.36625,"is_reserved":false,"is_disabled":false,"rental_uris":{"android":"levelo://app?vid=b88515f4-c0ae-406a-9ff9-71ba549bef06","ios":"levelo://app?vid=b88515f4-c0ae-406a-9ff9-71ba549bef06"},"vehicle_type_id":"4","last_reported":1737824793,"current_range_meters":4000,"station_id":"ce4bhi12rcd13ifvqfp0","pricing_plan_id":"cebpf4jnsgd1na2vs0mg"},{"bike_id":"a48a4fa8-387b-4ecc-bc7a-c3f07822bf47","system_id":"levelo_inurba_marseille","lat":43.27057,"lon":5.39223,"is_reserved":false,"is_disabled":true,"rental_uris":{"android":"levelo://app?vid=a48a4fa8-387b-4ecc-bc7a-c3f07822bf47","ios":"levelo://app?vid=a48a4fa8-387b-4ecc-bc7a-c3f07822bf47"},"vehicle_type_id":"4","last_reported":1737824793,"current_range_meters":0,"station_id":"","pricing_plan_id":"cebpf4jnsgd1na2vs0mg"},{"bike_id":"c1d942e2-a6de-4958-9395-579cc65e2439","system_id":"levelo_inurba_marseille","lat":43.31364,"lon":5.38506,"is_reserved":false,"is_disabled":false,"rental_uris":{"android":"levelo://app?vid=c1d942e2-a6de-4958-9395-579cc65e2439","ios":"levelo://app?vid=c1d942e2-a6de-4958-9395-579cc65e2439"},"vehicle_type_id":"4","last_reported":1737824793,"current_range_meters":12800,"station_id":"ce4bgt92rcd13ifvqcf0","pricing_plan_id":"cebpf4jnsgd1na2vs0mg"},{"bike_id":"5b059397-def6-43a8-8ac7-c9f7afbc2013","system_id":"levelo_inurba_marseille","lat":43.29762,"lon":5.38101,"is_reserved":false,"is_disabled":false,"rental_uris":{"android":"levelo://app?vid=5b059397-def6-43a8-8ac7-c9f7afbc2013","ios":"levelo://app?vid=5b059397-def6-43a8-8ac7-c9f7afbc2013"},"vehicle_type_id":"4","last_reported":1737824793,"current_range_meters":6000,"station_id":"","pricing_plan_id":"cebpf4jnsgd1na2vs0mg"},{"bike_id":"7efe2e23-4eb5-42e6-bdfe-af45bc849b33","system_id":"levelo_inurba_marseille","lat":43.25115,"lon":5.40325,"is_reserved":false,"is_disabled":false,"rental_uris":{"android":"levelo://app?vid=7efe2e23-4eb5-42e6-bdfe-af45bc849b33","ios":"levelo://app?vid=7efe2e23-4eb5-42e6-bdfe-af45bc849b33"},"vehicle_type_id":"4","last_reported":1737824793,"current_range_meters":7200,"station_id":"ce4bhlh2rcd13ifvqgig","pricing_plan_id":"cebpf4jnsgd1na2vs0mg"},{"bike_id":"8fd0082a-8558-471d-bd5c-8f2bb03de120","system_id":"levelo_inurba_marseille","lat":43.2871,"lon":5.39991,"is_reserved":false,"is_disabled":true,"rental_uris":{"android":"levelo://app?vid=8fd0082a-8558-471d-bd5c-8f2bb03de120","ios":"levelo://app?vid=8fd0082a-8558-471d-bd5c-8f2bb03de120"},"vehicle_type_id":"4","last_reported":1737824793,"current_range_meters":30000,"station_id":"ce4bho92rcd13ifvqh3g","pricing_plan_id":"cebpf4jnsgd1na2vs0mg"},{"bike_id":"d366cae2-82ff-4e64-9fca-0a14d02521b6","system_id":"levelo_inurba_marseille","lat":43.31064,"lon":5.38351,"is_reserved":false,"is_disabled":true,"rental_uris":{"android":"levelo://app?vid=d366cae2-82ff-4e64-9fca-0a14d02521b6","ios":"levelo://app?vid=d366cae2-82ff-4e64-9fca-0a14d02521b6"},"vehicle_type_id":"4","last_reported":1737824793,"current_range_meters":0,"station_id":"ce4bgv92rcd13ifvqcr0","pricing_plan_id":"cebpf4jnsgd1na2vs0mg"},{"bike_id":"c176098d-ddec-48fd-92f9-beab1541433f","system_id":"levelo_inurba_marseille","lat":43.2894,"lon":5.3663,"is_reserved":false,"is_disabled":false,"rental_uris":{"android":"levelo://app?vid=c176098d-ddec-48fd-92f9-beab1541433f","ios":"levelo://app?vid=c176098d-ddec-48fd-92f9-beab1541433f"},"vehicle_type_id":"4","last_reported":1737824793,"current_range_meters":38800,"station_id":"ce4bhap2rcd13ifvqek0","pricing_plan_id":"cebpf4jnsgd1na2vs0mg"},{"bike_id":"08fc771d-4572-4ccd-82e8-cd527975f4d8","system_id":"levelo_inurba_marseille","lat":43.281467,"lon":5.426446,"is_reserved":false,"is_disabled":false,"rental_uris":{"android":"levelo://app?vid=08fc771d-4572-4ccd-82e8-cd527975f4d8","ios":"levelo://app?vid=08fc771d-4572-4ccd-82e8-cd527975f4d8"},"vehicle_type_id":"4","last_reported":1737824793,"current_range_meters":9200,"station_id":"ce4bhnh2rcd13ifvqgug","pricing_plan_id":"cebpf4jnsgd1na2vs0mg"},{"bike_id":"73d27b13-6621-4778-b1e2-880fe74c6cc8","system_id":"levelo_inurba_marseille","lat":43.29779,"lon":5.38126,"is_reserved":false,"is_disabled":false,"rental_uris":{"android":"levelo://app?vid=73d27b13-6621-4778-b1e2-880fe74c6cc8","ios":"levelo://app?vid=73d27b13-6621-4778-b1e2-880fe74c6cc8"},"vehicle_type_id":"4","last_reported":1737824793,"current_range_meters":38800,"station_id":"ce4bgip2rcd13ifvqbb0","pricing_plan_id":"cebpf4jnsgd1na2vs0mg"},{"bike_id":"b996c87f-d903-42b5-80db-0cef1eda72fd","system_id":"levelo_inurba_marseille","lat":43.23074,"lon":5.35486,"is_reserved":false,"is_disabled":false,"rental_uris":{"android":"levelo://app?vid=b996c87f-d903-42b5-80db-0cef1eda72fd","ios":"levelo://app?vid=b996c87f-d903-42b5-80db-0cef1eda72fd"},"vehicle_type_id":"4","last_reported":1737824793,"current_range_meters":8400,"station_id":"cpo3342slgdg3j2ifvpg","pricing_plan_id":"cebpf4jnsgd1na2vs0mg"},{"bike_id":"323d4be9-bd67-43e2-8721-837d10bc21f2","system_id":"levelo_inurba_marseille","lat":43.29413,"lon":5.38618,"is_reserved":false,"is_disabled":false,"rental_uris":{"android":"levelo://app?vid=323d4be9-bd67-43e2-8721-837d10bc21f2","ios":"levelo://app?vid=323d4be9-bd67-43e2-8721-837d10bc21f2"},"vehicle_type_id":"4","last_reported":1737824793,"current_range_meters":31200,"station_id":"ce4bh2h2rcd13ifvqdh0","pricing_plan_id":"cebpf4jnsgd1na2vs0mg"},{"bike_id":"9ac6df9c-934d-4765-89a0-d998eb54f95e","system_id":"levelo_inurba_marseille","lat":43.29536,"lon":5.38553,"is_reserved":false,"is_disabled":false,"rental_uris":{"android":"levelo://app?vid=9ac6df9c-934d-4765-89a0-d998eb54f95e","ios":"levelo://app?vid=9ac6df9c-934d-4765-89a0-d998eb54f95e"},"vehicle_type_id":"4","last_reported":1737824793,"current_range_meters":16800,"station_id":"ce4bgih2rcd13ifvqba0","pricing_plan_id":"cebpf4jnsgd1na2vs0mg"},{"bike_id":"51b4fb33-4ef7-42cf-9089-5858c08fd78b","system_id":"levelo_inurba_marseille","lat":43.31331,"lon":5.3969,"is_reserved":false,"is_disabled":false,"rental_uris":{"android":"levelo://app?vid=51b4fb33-4ef7-42cf-9089-5858c08fd78b","ios":"levelo://app?vid=51b4fb33-4ef7-42cf-9089-5858c08fd78b"},"vehicle_type_id":"4","last_reported":1737824793,"current_range_meters":12000,"station_id":"ce4bgvp2rcd13ifvqcu0","pricing_plan_id":"cebpf4jnsgd1na2vs0mg"},{"bike_id":"9f0c46f0-4fb9-4e17-b4b9-e5ede73a87dc","system_id":"levelo_inurba_marseille","lat":43.323701,"lon":5.389003,"is_reserved":false,"is_disabled":false,"rental_uris":{"android":"levelo://app?vid=9f0c46f0-4fb9-4e17-b4b9-e5ede73a87dc","ios":"levelo://app?vid=9f0c46f0-4fb9-4e17-b4b9-e5ede73a87dc"},"vehicle_type_id":"4","last_reported":1737824793,"current_range_meters":28800,"station_id":"ce4bhqp2rcd13ifvqhog","pricing_plan_id":"cebpf4jnsgd1na2vs0mg"},{"bike_id":"882e4d97-ad36-4f32-b0ee-359384324109","system_id":"levelo_inurba_marseille","lat":43.29906,"lon":5.38128,"is_reserved":false,"is_disabled":false,"rental_uris":{"android":"levelo://app?vid=882e4d97-ad36-4f32-b0ee-359384324109","ios":"levelo://app?vid=882e4d97-ad36-4f32-b0ee-359384324109"},"vehicle_type_id":"4","last_reported":1737824793,"current_range_meters":32000,"station_id":"ce4bgj12rcd13ifvqbc0","pricing_plan_id":"cebpf4jnsgd1na2vs0mg"},{"bike_id":"309fba1c-052c-46a9-9b8a-4b4506ddc339","system_id":"levelo_inurba_marseille","lat":43.26947,"lon":5.38636,"is_reserved":false,"is_disabled":false,"rental_uris":{"android":"levelo://app?vid=309fba1c-052c-46a9-9b8a-4b4506ddc339","ios":"levelo://app?vid=309fba1c-052c-46a9-9b8a-4b4506ddc339"},"vehicle_type_id":"4","last_reported":1737824793,"current_range_meters":8800,"station_id":"ce4bhh92rcd13ifvqfh0","pricing_plan_id":"cebpf4jnsgd1na2vs0mg"},{"bike_id":"35b4539c-ff66-40b1-b56f-a956749f9d8a","system_id":"levelo_inurba_marseille","lat":43.32658,"lon":5.4099,"is_reserved":false,"is_disabled":true,"rental_uris":{"android":"levelo://app?vid=35b4539c-ff66-40b1-b56f-a956749f9d8a","ios":"levelo://app?vid=35b4539c-ff66-40b1-b56f-a956749f9d8a"},"vehicle_type_id":"4","last_reported":1737824793,"current_range_meters":0,"station_id":"ce4bhpp2rcd13ifvqhgg","pricing_plan_id":"cebpf4jnsgd1na2vs0mg"},{"bike_id":"d5d932cd-00ef-4374-a2a5-9e2b3b96d9a7","system_id":"levelo_inurba_marseille","lat":43.29872,"lon":5.39727,"is_reserved":false,"is_disabled":false,"rental_uris":{"android":"levelo://app?vid=d5d932cd-00ef-4374-a2a5-9e2b3b96d9a7","ios":"levelo://app?vid=d5d932cd-00ef-4374-a2a5-9e2b3b96d9a7"},"vehicle_type_id":"4","last_reported":1737824793,"current_range_meters":19600,"station_id":"ce4bh0h2rcd13ifvqd50","pricing_plan_id":"cebpf4jnsgd1na2vs0mg"},{"bike_id":"8d4ddec4-c5b1-4949-8b22-91bcf0236bb4","system_id":"levelo_inurba_marseille","lat":43.24641,"lon":5.38897,"is_reserved":false,"is_disabled":false,"rental_uris":{"android":"levelo://app?vid=8d4ddec4-c5b1-4949-8b22-91bcf0236bb4","ios":"levelo://app?vid=8d4ddec4-c5b1-4949-8b22-91bcf0236bb4"},"vehicle_type_id":"4","last_reported":1737824793,"current_range_meters":38800,"station_id":"ce4bhg12rcd13ifvqf60","pricing_plan_id":"cebpf4jnsgd1na2vs0mg"},{"bike_id":"18470566-fe48-47d7-9c35-3751bec3cd8b","system_id":"levelo_inurba_marseille","lat":43.29571,"lon":5.39976,"is_reserved":false,"is_disabled":true,"rental_uris":{"android":"levelo://app?vid=18470566-fe48-47d7-9c35-3751bec3cd8b","ios":"levelo://app?vid=18470566-fe48-47d7-9c35-3751bec3cd8b"},"vehicle_type_id":"4","last_reported":1737824793,"current_range_meters":28400,"station_id":"ce4bh312rcd13ifvqdj0","pricing_plan_id":"cebpf4jnsgd1na2vs0mg"},{"bike_id":"10a16e86-bffa-4f98-b4ba-0b88a73eeab1","system_id":"levelo_inurba_marseille","lat":43.29419,"lon":5.38629,"is_reserved":false,"is_disabled":false,"rental_uris":{"android":"levelo://app?vid=10a16e86-bffa-4f98-b4ba-0b88a73eeab1","ios":"levelo://app?vid=10a16e86-bffa-4f98-b4ba-0b88a73eeab1"},"vehicle_type_id":"4","last_reported":1737824793,"current_range_meters":6800,"station_id":"ce4bh2h2rcd13ifvqdh0","pricing_plan_id":"cebpf4jnsgd1na2vs0mg"},{"bike_id":"16cba4e1-cb10-44ef-b1a1-eca95385335f","system_id":"levelo_inurba_marseille","lat":43.28421,"lon":5.34985,"is_reserved":false,"is_disabled":true,"rental_uris":{"android":"levelo://app?vid=16cba4e1-cb10-44ef-b1a1-eca95385335f","ios":"levelo://app?vid=16cba4e1-cb10-44ef-b1a1-eca95385335f"},"vehicle_type_id":"4","last_reported":1737824793,"current_range_meters":16400,"station_id":"ce4bhbh2rcd13ifvqepg","pricing_plan_id":"cebpf4jnsgd1na2vs0mg"},{"bike_id":"fee1ac8f-fe44-4315-b4c7-a1c6ff4fbe35","system_id":"levelo_inurba_marseille","lat":43.2894,"lon":5.36404,"is_reserved":false,"is_disabled":false,"rental_uris":{"android":"levelo://app?vid=fee1ac8f-fe44-4315-b4c7-a1c6ff4fbe35","ios":"levelo://app?vid=fee1ac8f-fe44-4315-b4c7-a1c6ff4fbe35"},"vehicle_type_id":"4","last_reported":1737824793,"current_range_meters":38000,"station_id":"ce4bhc92rcd13ifvqetg","pricing_plan_id":"cebpf4jnsgd1na2vs0mg"},{"bike_id":"966b4a91-dc17-4454-87c2-83934787ca0f","system_id":"levelo_inurba_marseille","lat":43.28617,"lon":5.35108,"is_reserved":false,"is_disabled":false,"rental_uris":{"android":"levelo://app?vid=966b4a91-dc17-4454-87c2-83934787ca0f","ios":"levelo://app?vid=966b4a91-dc17-4454-87c2-83934787ca0f"},"vehicle_type_id":"4","last_reported":1737824793,"current_range_meters":18000,"station_id":"ce4bhch2rcd13ifvqeug","pricing_plan_id":"cebpf4jnsgd1na2vs0mg"},{"bike_id":"b77efc8b-41fe-4709-b58e-05026c2b2ca6","system_id":"levelo_inurba_marseille","lat":43.30797,"lon":5.4353,"is_reserved":false,"is_disabled":false,"rental_uris":{"android":"levelo://app?vid=b77efc8b-41fe-4709-b58e-05026c2b2ca6","ios":"levelo://app?vid=b77efc8b-41fe-4709-b58e-05026c2b2ca6"},"vehicle_type_id":"4","last_reported":1737824793,"current_range_meters":20000,"station_id":"ce4bhph2rcd13ifvqheg","pricing_plan_id":"cebpf4jnsgd1na2vs0mg"},{"bike_id":"56e06e5d-0c92-4ed6-ad0e-da9c2654744d","system_id":"levelo_inurba_marseille","lat":43.28663,"lon":5.36356,"is_reserved":false,"is_disabled":false,"rental_uris":{"android":"levelo://app?vid=56e06e5d-0c92-4ed6-ad0e-da9c2654744d","ios":"levelo://app?vid=56e06e5d-0c92-4ed6-ad0e-da9c2654744d"},"vehicle_type_id":"4","last_reported":1737824793,"current_range_meters":18000,"station_id":"ce4bhah2rcd13ifvqej0","pricing_plan_id":"cebpf4jnsgd1na2vs0mg"},{"bike_id":"8fc5f132-29ed-47c1-bff0-bf17728d82ae","system_id":"levelo_inurba_marseille","lat":43.29394,"lon":5.37852,"is_reserved":false,"is_disabled":true,"rental_uris":{"android":"levelo://app?vid=8fc5f132-29ed-47c1-bff0-bf17728d82ae","ios":"levelo://app?vid=8fc5f132-29ed-47c1-bff0-bf17728d82ae"},"vehicle_type_id":"4","last_reported":1737824793,"current_range_meters":37600,"station_id":"ce4bgjh2rcd13ifvqbf0","pricing_plan_id":"cebpf4jnsgd1na2vs0mg"},{"bike_id":"5f8ee669-dbac-4c91-b474-6f128339f560","system_id":"levelo_inurba_marseille","lat":43.29421,"lon":5.38632,"is_reserved":false,"is_disabled":false,"rental_uris":{"android":"levelo://app?vid=5f8ee669-dbac-4c91-b474-6f128339f560","ios":"levelo://app?vid=5f8ee669-dbac-4c91-b474-6f128339f560"},"vehicle_type_id":"4","last_reported":1737824793,"current_range_meters":25200,"station_id":"ce4bh2h2rcd13ifvqdh0","pricing_plan_id":"cebpf4jnsgd1na2vs0mg"},{"bike_id":"c16d00c1-2940-4df7-9a7c-69f7d70e0cd8","system_id":"levelo_inurba_marseille","lat":43.28612,"lon":5.35103,"is_reserved":false,"is_disabled":false,"rental_uris":{"android":"levelo://app?vid=c16d00c1-2940-4df7-9a7c-69f7d70e0cd8","ios":"levelo://app?vid=c16d00c1-2940-4df7-9a7c-69f7d70e0cd8"},"vehicle_type_id":"4","last_reported":1737824793,"current_range_meters":17200,"station_id":"ce4bhch2rcd13ifvqeug","pricing_plan_id":"cebpf4jnsgd1na2vs0mg"},{"bike_id":"b1fc8f75-0c16-48fa-8a05-a6d170203b29","system_id":"levelo_inurba_marseille","lat":43.30422,"lon":5.41281,"is_reserved":false,"is_disabled":false,"rental_uris":{"android":"levelo://app?vid=b1fc8f75-0c16-48fa-8a05-a6d170203b29","ios":"levelo://app?vid=b1fc8f75-0c16-48fa-8a05-a6d170203b29"},"vehicle_type_id":"4","last_reported":1737824793,"current_range_meters":7200,"station_id":"ce4bhop2rcd13ifvqh8g","pricing_plan_id":"cebpf4jnsgd1na2vs0mg"},{"bike_id":"5d796598-fff4-4103-8ddc-c4cdf3bb951a","system_id":"levelo_inurba_marseille","lat":43.30551,"lon":5.39329,"is_reserved":false,"is_disabled":false,"rental_uris":{"android":"levelo://app?vid=5d796598-fff4-4103-8ddc-c4cdf3bb951a","ios":"levelo://app?vid=5d796598-fff4-4103-8ddc-c4cdf3bb951a"},"vehicle_type_id":"4","last_reported":1737824793,"current_range_meters":38800,"station_id":"ce4bh0p2rcd13ifvqd80","pricing_plan_id":"cebpf4jnsgd1na2vs0mg"},{"bike_id":"c08e7b2f-e829-4ab0-b741-4cc16102febe","system_id":"levelo_inurba_marseille","lat":43.30428,"lon":5.38881,"is_reserved":false,"is_disabled":true,"rental_uris":{"android":"levelo://app?vid=c08e7b2f-e829-4ab0-b741-4cc16102febe","ios":"levelo://app?vid=c08e7b2f-e829-4ab0-b741-4cc16102febe"},"vehicle_type_id":"4","last_reported":1737824793,"current_range_meters":1200,"station_id":"ce4bgk12rcd13ifvqbi0","pricing_plan_id":"cebpf4jnsgd1na2vs0mg"},{"bike_id":"85761197-1b99-4949-8f45-69b5505af59b","system_id":"levelo_inurba_marseille","lat":43.26787,"lon":5.39419,"is_reserved":false,"is_disabled":true,"rental_uris":{"android":"levelo://app?vid=85761197-1b99-4949-8f45-69b5505af59b","ios":"levelo://app?vid=85761197-1b99-4949-8f45-69b5505af59b"},"vehicle_type_id":"4","last_reported":1737824793,"current_range_meters":0,"station_id":"ce4bhh12rcd13ifvqfg0","pricing_plan_id":"cebpf4jnsgd1na2vs0mg"},{"bike_id":"b903f8f1-6325-41ae-8102-c0ae64059491","system_id":"levelo_inurba_marseille","lat":43.26659,"lon":5.38231,"is_reserved":false,"is_disabled":false,"rental_uris":{"android":"levelo://app?vid=b903f8f1-6325-41ae-8102-c0ae64059491","ios":"levelo://app?vid=b903f8f1-6325-41ae-8102-c0ae64059491"},"vehicle_type_id":"4","last_reported":1737824793,"current_range_meters":39200,"station_id":"ce4bhg92rcd13ifvqf90","pricing_plan_id":"cebpf4jnsgd1na2vs0mg"},{"bike_id":"f4a67fd7-7ba0-462e-b321-724410a83bc3","system_id":"levelo_inurba_marseille","lat":43.28629,"lon":5.35104,"is_reserved":false,"is_disabled":true,"rental_uris":{"android":"levelo://app?vid=f4a67fd7-7ba0-462e-b321-724410a83bc3","ios":"levelo://app?vid=f4a67fd7-7ba0-462e-b321-724410a83bc3"},"vehicle_type_id":"4","last_reported":1737824793,"current_range_meters":16400,"station_id":"ce4bhch2rcd13ifvqeug","pricing_plan_id":"cebpf4jnsgd1na2vs0mg"},{"bike_id":"f22610a0-abd0-4f20-b768-bfd9b1c56b23","system_id":"levelo_inurba_marseille","lat":43.2901,"lon":5.35615,"is_reserved":false,"is_disabled":false,"rental_uris":{"android":"levelo://app?vid=f22610a0-abd0-4f20-b768-bfd9b1c56b23","ios":"levelo://app?vid=f22610a0-abd0-4f20-b768-bfd9b1c56b23"},"vehicle_type_id":"4","last_reported":1737824793,"current_range_meters":35600,"station_id":"ce4bhb92rcd13ifvqen0","pricing_plan_id":"cebpf4jnsgd1na2vs0mg"},{"bike_id":"7779e28d-a91b-493e-83cf-08a9195c73c5","system_id":"levelo_inurba_marseille","lat":43.29285,"lon":5.36813,"is_reserved":false,"is_disabled":true,"rental_uris":{"android":"levelo://app?vid=7779e28d-a91b-493e-83cf-08a9195c73c5","ios":"levelo://app?vid=7779e28d-a91b-493e-83cf-08a9195c73c5"},"vehicle_type_id":"4","last_reported":1737824793,"current_range_meters":2000,"station_id":"ce4bhbp2rcd13ifvqesg","pricing_plan_id":"cebpf4jnsgd1na2vs0mg"},{"bike_id":"34ad125d-ed2e-4b82-84f0-6e7b5ceef009","system_id":"levelo_inurba_marseille","lat":43.28841,"lon":5.39328,"is_reserved":false,"is_disabled":false,"rental_uris":{"android":"levelo://app?vid=34ad125d-ed2e-4b82-84f0-6e7b5ceef009","ios":"levelo://app?vid=34ad125d-ed2e-4b82-84f0-6e7b5ceef009"},"vehicle_type_id":"4","last_reported":1737824793,"current_range_meters":24400,"station_id":"ce4bh2p2rcd13ifvqdi0","pricing_plan_id":"cebpf4jnsgd1na2vs0mg"},{"bike_id":"a0a7eaaa-48bd-4be7-a329-3c746288a46b","system_id":"levelo_inurba_marseille","lat":43.29443,"lon":5.39756,"is_reserved":false,"is_disabled":true,"rental_uris":{"android":"levelo://app?vid=a0a7eaaa-48bd-4be7-a329-3c746288a46b","ios":"levelo://app?vid=a0a7eaaa-48bd-4be7-a329-3c746288a46b"},"vehicle_type_id":"4","last_reported":1737824793,"current_range_meters":23200,"station_id":"ce4bh3h2rcd13ifvqdo0","pricing_plan_id":"cebpf4jnsgd1na2vs0mg"},{"bike_id":"5c995afd-2cd1-49c1-8bf9-110c6b679d80","system_id":"levelo_inurba_marseille","lat":43.24051,"lon":5.37743,"is_reserved":false,"is_disabled":false,"rental_uris":{"android":"levelo://app?vid=5c995afd-2cd1-49c1-8bf9-110c6b679d80","ios":"levelo://app?vid=5c995afd-2cd1-49c1-8bf9-110c6b679d80"},"vehicle_type_id":"4","last_reported":1737824793,"current_range_meters":7200,"station_id":"ce4bhnp2rcd13ifvqgvg","pricing_plan_id":"cebpf4jnsgd1na2vs0mg"},{"bike_id":"496dc01f-0296-4272-b3aa-6d788c2b1587","system_id":"levelo_inurba_marseille","lat":43.27378,"lon":5.36251,"is_reserved":false,"is_disabled":false,"rental_uris":{"android":"levelo://app?vid=496dc01f-0296-4272-b3aa-6d788c2b1587","ios":"levelo://app?vid=496dc01f-0296-4272-b3aa-6d788c2b1587"},"vehicle_type_id":"4","last_reported":1737824793,"current_range_meters":19600,"station_id":"ce4bhbh2rcd13ifvqeo0","pricing_plan_id":"cebpf4jnsgd1na2vs0mg"},{"bike_id":"b64d880e-4583-44f0-8c16-3495e23cf3e5","system_id":"levelo_inurba_marseille","lat":43.29901,"lon":5.43667,"is_reserved":false,"is_disabled":false,"rental_uris":{"android":"levelo://app?vid=b64d880e-4583-44f0-8c16-3495e23cf3e5","ios":"levelo://app?vid=b64d880e-4583-44f0-8c16-3495e23cf3e5"},"vehicle_type_id":"4","last_reported":1737824793,"current_range_meters":24000,"station_id":"ce4bhpp2rcd13ifvqhfg","pricing_plan_id":"cebpf4jnsgd1na2vs0mg"},{"bike_id":"32040e23-9a86-407a-854f-682fe1845080","system_id":"levelo_inurba_marseille","lat":43.27817,"lon":5.40711,"is_reserved":false,"is_disabled":false,"rental_uris":{"android":"levelo://app?vid=32040e23-9a86-407a-854f-682fe1845080","ios":"levelo://app?vid=32040e23-9a86-407a-854f-682fe1845080"},"vehicle_type_id":"4","last_reported":1737824793,"current_range_meters":16800,"station_id":"ce4bhnh2rcd13ifvqgtg","pricing_plan_id":"cebpf4jnsgd1na2vs0mg"},{"bike_id":"f5bbcc37-8dad-4ac4-b1ba-1ac855ced75d","system_id":"levelo_inurba_marseille","lat":43.29279,"lon":5.40114,"is_reserved":false,"is_disabled":false,"rental_uris":{"android":"levelo://app?vid=f5bbcc37-8dad-4ac4-b1ba-1ac855ced75d","ios":"levelo://app?vid=f5bbcc37-8dad-4ac4-b1ba-1ac855ced75d"},"vehicle_type_id":"4","last_reported":1737824793,"current_range_meters":29600,"station_id":"ce4bh312rcd13ifvqdk0","pricing_plan_id":"cebpf4jnsgd1na2vs0mg"},{"bike_id":"7aa8cafa-e0d0-41f2-9b79-b42d1ac42a66","system_id":"levelo_inurba_marseille","lat":43.28714,"lon":5.3793,"is_reserved":false,"is_disabled":false,"rental_uris":{"android":"levelo://app?vid=7aa8cafa-e0d0-41f2-9b79-b42d1ac42a66","ios":"levelo://app?vid=7aa8cafa-e0d0-41f2-9b79-b42d1ac42a66"},"vehicle_type_id":"4","last_reported":1737824793,"current_range_meters":36400,"station_id":"ce4bh9p2rcd13ifvqec0","pricing_plan_id":"cebpf4jnsgd1na2vs0mg"},{"bike_id":"15f1cb86-c496-43db-823a-e6e487ef942e","system_id":"levelo_inurba_marseille","lat":43.29227,"lon":5.36126,"is_reserved":false,"is_disabled":true,"rental_uris":{"android":"levelo://app?vid=15f1cb86-c496-43db-823a-e6e487ef942e","ios":"levelo://app?vid=15f1cb86-c496-43db-823a-e6e487ef942e"},"vehicle_type_id":"4","last_reported":1737824793,"current_range_meters":0,"station_id":"ce4bhbh2rcd13ifvqeqg","pricing_plan_id":"cebpf4jnsgd1na2vs0mg"},{"bike_id":"f80d01d0-a712-409a-8ab3-b8a044fec525","system_id":"levelo_inurba_marseille","lat":43.25861,"lon":5.39901,"is_reserved":false,"is_disabled":true,"rental_uris":{"android":"levelo://app?vid=f80d01d0-a712-409a-8ab3-b8a044fec525","ios":"levelo://app?vid=f80d01d0-a712-409a-8ab3-b8a044fec525"},"vehicle_type_id":"4","last_reported":1737824793,"current_range_meters":38000,"station_id":"ce4bhl92rcd13ifvqghg","pricing_plan_id":"cebpf4jnsgd1na2vs0mg"},{"bike_id":"28402c12-3870-48a3-8053-af6228bdd1c3","system_id":"levelo_inurba_marseille","lat":43.3095,"lon":5.39032,"is_reserved":false,"is_disabled":false,"rental_uris":{"android":"levelo://app?vid=28402c12-3870-48a3-8053-af6228bdd1c3","ios":"levelo://app?vid=28402c12-3870-48a3-8053-af6228bdd1c3"},"vehicle_type_id":"4","last_reported":1737824793,"current_range_meters":16400,"station_id":"ce4bgup2rcd13ifvqco0","pricing_plan_id":"cebpf4jnsgd1na2vs0mg"},{"bike_id":"cb912ba4-0408-4b1c-bde0-e0d4cff8863b","system_id":"levelo_inurba_marseille","lat":43.29912,"lon":5.38139,"is_reserved":false,"is_disabled":false,"rental_uris":{"android":"levelo://app?vid=cb912ba4-0408-4b1c-bde0-e0d4cff8863b","ios":"levelo://app?vid=cb912ba4-0408-4b1c-bde0-e0d4cff8863b"},"vehicle_type_id":"4","last_reported":1737824793,"current_range_meters":6800,"station_id":"ce4bgj12rcd13ifvqbc0","pricing_plan_id":"cebpf4jnsgd1na2vs0mg"},{"bike_id":"dffb8151-40f6-42da-a0b6-87d8999b99ad","system_id":"levelo_inurba_marseille","lat":43.29372,"lon":5.37876,"is_reserved":false,"is_disabled":false,"rental_uris":{"android":"levelo://app?vid=dffb8151-40f6-42da-a0b6-87d8999b99ad","ios":"levelo://app?vid=dffb8151-40f6-42da-a0b6-87d8999b99ad"},"vehicle_type_id":"4","last_reported":1737824793,"current_range_meters":38800,"station_id":"ce4bgjh2rcd13ifvqbf0","pricing_plan_id":"cebpf4jnsgd1na2vs0mg"},{"bike_id":"782df80d-7d55-4a3b-9c3c-c4fb0a988b88","system_id":"levelo_inurba_marseille","lat":43.31169,"lon":5.38718,"is_reserved":false,"is_disabled":false,"rental_uris":{"android":"levelo://app?vid=782df80d-7d55-4a3b-9c3c-c4fb0a988b88","ios":"levelo://app?vid=782df80d-7d55-4a3b-9c3c-c4fb0a988b88"},"vehicle_type_id":"4","last_reported":1737824793,"current_range_meters":24800,"station_id":"ce4bgv12rcd13ifvqcp0","pricing_plan_id":"cebpf4jnsgd1na2vs0mg"},{"bike_id":"c50cf93a-6b59-47ad-b33e-2c9c3fe13678","system_id":"levelo_inurba_marseille","lat":43.30488,"lon":5.36972,"is_reserved":false,"is_disabled":false,"rental_uris":{"android":"levelo://app?vid=c50cf93a-6b59-47ad-b33e-2c9c3fe13678","ios":"levelo://app?vid=c50cf93a-6b59-47ad-b33e-2c9c3fe13678"},"vehicle_type_id":"4","last_reported":1737824793,"current_range_meters":3600,"station_id":"","pricing_plan_id":"cebpf4jnsgd1na2vs0mg"},{"bike_id":"ac6cea7c-f0c5-43cb-8b7f-69ede3888e10","system_id":"levelo_inurba_marseille","lat":43.32492,"lon":5.36584,"is_reserved":false,"is_disabled":false,"rental_uris":{"android":"levelo://app?vid=ac6cea7c-f0c5-43cb-8b7f-69ede3888e10","ios":"levelo://app?vid=ac6cea7c-f0c5-43cb-8b7f-69ede3888e10"},"vehicle_type_id":"4","last_reported":1737824793,"current_range_meters":36800,"station_id":"ce4bhs12rcd13ifvqhvg","pricing_plan_id":"cebpf4jnsgd1na2vs0mg"},{"bike_id":"41febc00-f626-4357-8c07-2b788d761bd3","system_id":"levelo_inurba_marseille","lat":43.29781,"lon":5.37103,"is_reserved":false,"is_disabled":false,"rental_uris":{"android":"levelo://app?vid=41febc00-f626-4357-8c07-2b788d761bd3","ios":"levelo://app?vid=41febc00-f626-4357-8c07-2b788d761bd3"},"vehicle_type_id":"4","last_reported":1737824793,"current_range_meters":39200,"station_id":"ce4bgop2rcd13ifvqc1g","pricing_plan_id":"cebpf4jnsgd1na2vs0mg"},{"bike_id":"a51534b1-a3f9-4b13-9e41-c82f29cefd5b","system_id":"levelo_inurba_marseille","lat":43.2953,"lon":5.39039,"is_reserved":false,"is_disabled":false,"rental_uris":{"android":"levelo://app?vid=a51534b1-a3f9-4b13-9e41-c82f29cefd5b","ios":"levelo://app?vid=a51534b1-a3f9-4b13-9e41-c82f29cefd5b"},"vehicle_type_id":"4","last_reported":1737824793,"current_range_meters":36000,"station_id":"ce4bh3p2rcd13ifvqdp0","pricing_plan_id":"cebpf4jnsgd1na2vs0mg"},{"bike_id":"421962b1-e9b5-4248-8c61-fcd576606a31","system_id":"levelo_inurba_marseille","lat":43.29329,"lon":5.41162,"is_reserved":false,"is_disabled":false,"rental_uris":{"android":"levelo://app?vid=421962b1-e9b5-4248-8c61-fcd576606a31","ios":"levelo://app?vid=421962b1-e9b5-4248-8c61-fcd576606a31"},"vehicle_type_id":"4","last_reported":1737824793,"current_range_meters":4400,"station_id":"","pricing_plan_id":"cebpf4jnsgd1na2vs0mg"},{"bike_id":"a6d17ccb-3f8f-41a7-8b50-be41882720a8","system_id":"levelo_inurba_marseille","lat":43.29578,"lon":5.39991,"is_reserved":false,"is_disabled":false,"rental_uris":{"android":"levelo://app?vid=a6d17ccb-3f8f-41a7-8b50-be41882720a8","ios":"levelo://app?vid=a6d17ccb-3f8f-41a7-8b50-be41882720a8"},"vehicle_type_id":"4","last_reported":1737824793,"current_range_meters":36800,"station_id":"ce4bh312rcd13ifvqdj0","pricing_plan_id":"cebpf4jnsgd1na2vs0mg"},{"bike_id":"58c22710-0fe6-474e-9381-6600a6aefe34","system_id":"levelo_inurba_marseille","lat":43.26944,"lon":5.38906,"is_reserved":false,"is_disabled":false,"rental_uris":{"android":"levelo://app?vid=58c22710-0fe6-474e-9381-6600a6aefe34","ios":"levelo://app?vid=58c22710-0fe6-474e-9381-6600a6aefe34"},"vehicle_type_id":"4","last_reported":1737824793,"current_range_meters":12000,"station_id":"ce4bhhh2rcd13ifvqfl0","pricing_plan_id":"cebpf4jnsgd1na2vs0mg"},{"bike_id":"a1f5beb6-d8e0-46ab-b76f-679b3402e686","system_id":"levelo_inurba_marseille","lat":43.28401,"lon":5.37537,"is_reserved":false,"is_disabled":true,"rental_uris":{"android":"levelo://app?vid=a1f5beb6-d8e0-46ab-b76f-679b3402e686","ios":"levelo://app?vid=a1f5beb6-d8e0-46ab-b76f-679b3402e686"},"vehicle_type_id":"4","last_reported":1737824793,"current_range_meters":10000,"station_id":"ce4bh412rcd13ifvqds0","pricing_plan_id":"cebpf4jnsgd1na2vs0mg"},{"bike_id":"5579510c-00c8-488b-b720-3d7775b78dfb","system_id":"levelo_inurba_marseille","lat":43.29539,"lon":5.39038,"is_reserved":false,"is_disabled":false,"rental_uris":{"android":"levelo://app?vid=5579510c-00c8-488b-b720-3d7775b78dfb","ios":"levelo://app?vid=5579510c-00c8-488b-b720-3d7775b78dfb"},"vehicle_type_id":"4","last_reported":1737824793,"current_range_meters":38800,"station_id":"ce4bh3p2rcd13ifvqdp0","pricing_plan_id":"cebpf4jnsgd1na2vs0mg"},{"bike_id":"c7a363dc-0dff-40d0-b187-cec821ef023b","system_id":"levelo_inurba_marseille","lat":43.28026,"lon":5.38633,"is_reserved":false,"is_disabled":false,"rental_uris":{"android":"levelo://app?vid=c7a363dc-0dff-40d0-b187-cec821ef023b","ios":"levelo://app?vid=c7a363dc-0dff-40d0-b187-cec821ef023b"},"vehicle_type_id":"4","last_reported":1737824793,"current_range_meters":38400,"station_id":"ce4bhg12rcd13ifvqf80","pricing_plan_id":"cebpf4jnsgd1na2vs0mg"},{"bike_id":"213355e1-5261-4721-af28-e0a5203d83ce","system_id":"levelo_inurba_marseille","lat":43.26556,"lon":5.37287,"is_reserved":false,"is_disabled":false,"rental_uris":{"android":"levelo://app?vid=213355e1-5261-4721-af28-e0a5203d83ce","ios":"levelo://app?vid=213355e1-5261-4721-af28-e0a5203d83ce"},