{"last_updated":1752869525,"ttl":60,"version":"2.2","data":{"bikes":[{"bike_id":"53b742a7-31ae-4272-9bba-7740339e2a2f","system_id":"levelo_inurba_marseille","lat":43.33747,"lon":5.37463,"is_reserved":false,"is_disabled":false,"rental_uris":{"android":"levelo://app?vid=53b742a7-31ae-4272-9bba-7740339e2a2f","ios":"levelo://app?vid=53b742a7-31ae-4272-9bba-7740339e2a2f"},"vehicle_type_id":"1","last_reported":1752869525,"current_range_meters":18800,"station_id":"","pricing_plan_id":"cebpf4jnsgd1na2vs0mg"},{"bike_id":"21ba59b8-e450-4e88-b50d-1bf7684f5e42","system_id":"levelo_inurba_marseille","lat":43.27908,"lon":5.38018,"is_reserved":false,"is_disabled":false,"rental_uris":{"android":"levelo://app?vid=21ba59b8-e450-4e88-b50d-1bf7684f5e42","ios":"levelo://app?vid=21ba59b8-e450-4e88-b50d-1bf7684f5e42"},"vehicle_type_id":"4","last_reported":1752869525,"current_range_meters":2800,"station_id":"ce4bhf92rcd13ifvqf50","pricing_plan_id":"cebpf4jnsgd1na2vs0mg"},{"bike_id":"8e4c2514-3c9b-411b-86f3-399cb52bdc0e","system_id":"levelo_inurba_marseille","lat":43.305998,"lon":5.393639,"is_reserved":false,"is_disabled":false,"rental_uris":{"android":"levelo://app?vid=8e4c2514-3c9b-411b-86f3-399cb52bdc0e","ios":"levelo://app?vid=8e4c2514-3c9b-411b-86f3-399cb52bdc0e"},"vehicle_type_id":"4","last_reported":1752869525,"current_range_meters":2800,"station_id":"ce4bh0p2rcd13ifvqd80","pricing_plan_id":"cebpf4jnsgd1na2vs0mg"},{"bike_id":"69197d9a-3c0e-45b5-9535-ffb84db26a58","system_id":"levelo_inurba_marseille","lat":43.29695,"lon":5.37694,"is_reserved":false,"is_disabled":false,"rental_uris":{"android":"levelo://app?vid=69197d9a-3c0e-45b5-9535-ffb84db26a58","ios":"levelo://app?vid=69197d9a-3c0e-45b5-9535-ffb84db26a58"},"vehicle_type_id":"4","last_reported":1752869525,"current_range_meters":3200,"station_id":"ce4bgkh2rcd13ifvqbl0","pricing_plan_id":"cebpf4jnsgd1na2vs0mg"},{"bike_id":"06e1cccd-6629-4210-822c-70b8aaff8295","system_id":"levelo_inurba_marseille","lat":43.29111,"lon":5.38128,"is_reserved":false,"is_disabled":false,"rental_uris":{"android":"levelo://app?vid=06e1cccd-6629-4210-822c-70b8aaff8295","ios":"levelo://app?vid=06e1cccd-6629-4210-822c-70b8aaff8295"},"vehicle_type_id":"4","last_reported":1752869525,"current_range_meters":2800,"station_id":"ce4bh512rcd13ifvqe2g","pricing_plan_id":"cebpf4jnsgd1na2vs0mg"},{"bike_id":"4eeadbe2-4317-4401-b23c-c9fdcd8b8eba","system_id":"levelo_inurba_marseille","lat":43.290802,"lon":5.371773,"is_reserved":false,"is_disabled":false,"rental_uris":{"android":"levelo://app?vid=4eeadbe2-4317-4401-b23c-c9fdcd8b8eba","ios":"levelo://app?vid=4eeadbe2-4317-4401-b23c-c9fdcd8b8eba"},"vehicle_type_id":"4","last_reported":1752869525,"current_range_meters":3200,"station_id":"ce4bh5p2rcd13ifvqe4g","pricing_plan_id":"cebpf4jnsgd1na2vs0mg"},{"bike_id":"d222b7d2-3e07-48b5-9f9a-9e2f54f5dc64","system_id":"levelo_inurba_marseille","lat":43.29194,"lon":5.39314,"is_reserved":false,"is_disabled":false,"rental_uris":{"android":"levelo://app?vid=d222b7d2-3e07-48b5-9f9a-9e2f54f5dc64","ios":"levelo://app?vid=d222b7d2-3e07-48b5-9f9a-9e2f54f5dc64"},"vehicle_type_id":"4","last_reported":1752869525,"current_range_meters":3600,"station_id":"ce4bh192rcd13ifvqdd0","pricing_plan_id":"cebpf4jnsgd1na2vs0mg"},{"bike_id":"c4925089-9095-4f5c-9593-de89e8fcc0da","system_id":"levelo_inurba_marseille","lat":43.30636,"lon":5.40065,"is_reserved":false,"is_disabled":false,"rental_uris":{"android":"levelo://app?vid=c4925089-9095-4f5c-9593-de89e8fcc0da","ios":"levelo://app?vid=c4925089-9095-4f5c-9593-de89e8fcc0da"},"vehicle_type_id":"4","last_reported":1752869525,"current_range_meters":3600,"station_id":"ce4bh112rcd13ifvqda0","pricing_plan_id":"cebpf4jnsgd1na2vs0mg"},{"bike_id":"fdcf5670-4739-49b6-b696-21402e7970fe","system_id":"levelo_inurba_marseille","lat":43.286895,"lon":5.351765,"is_reserved":false,"is_disabled":false,"rental_uris":{"android":"levelo://app?vid=fdcf5670-4739-49b6-b696-21402e7970fe","ios":"levelo://app?vid=fdcf5670-4739-49b6-b696-21402e7970fe"},"vehicle_type_id":"4","last_reported":1752869525,"current_range_meters":4400,"station_id":"ce4bhh92rcd13ifvqfi0","pricing_plan_id":"cebpf4jnsgd1na2vs0mg"},{"bike_id":"20e1cc30-ccbe-478e-bcb7-dc20e13576d1","system_id":"levelo_inurba_marseille","lat":43.28436,"lon":5.34986,"is_reserved":false,"is_disabled":true,"rental_uris":{"android":"levelo://app?vid=20e1cc30-ccbe-478e-bcb7-dc20e13576d1","ios":"levelo://app?vid=20e1cc30-ccbe-478e-bcb7-dc20e13576d1"},"vehicle_type_id":"4","last_reported":1752869525,"current_range_meters":4800,"station_id":"ce4bhbh2rcd13ifvqepg","pricing_plan_id":"cebpf4jnsgd1na2vs0mg"},{"bike_id":"6b96b1d8-5478-4ee0-8192-ce1ec3235a51","system_id":"levelo_inurba_marseille","lat":43.289907,"lon":5.381439,"is_reserved":false,"is_disabled":false,"rental_uris":{"android":"levelo://app?vid=6b96b1d8-5478-4ee0-8192-ce1ec3235a51","ios":"levelo://app?vid=6b96b1d8-5478-4ee0-8192-ce1ec3235a51"},"vehicle_type_id":"4","last_reported":1752869525,"current_range_meters":5600,"station_id":"ce4bh492rcd13ifvqdug","pricing_plan_id":"cebpf4jnsgd1na2vs0mg"},{"bike_id":"2d58fbfc-296b-415b-8ac3-808333771079","system_id":"levelo_inurba_marseille","lat":43.29278,"lon":5.38414,"is_reserved":false,"is_disabled":false,"rental_uris":{"android":"levelo://app?vid=2d58fbfc-296b-415b-8ac3-808333771079","ios":"levelo://app?vid=2d58fbfc-296b-415b-8ac3-808333771079"},"vehicle_type_id":"4","last_reported":1752869525,"current_range_meters":5600,"station_id":"ce4bh692rcd13ifvqea0","pricing_plan_id":"cebpf4jnsgd1na2vs0mg"},{"bike_id":"7696d455-e597-4fa8-9e54-8a119f431f1f","system_id":"levelo_inurba_marseille","lat":43.298047,"lon":5.381008,"is_reserved":false,"is_disabled":false,"rental_uris":{"android":"levelo://app?vid=7696d455-e597-4fa8-9e54-8a119f431f1f","ios":"levelo://app?vid=7696d455-e597-4fa8-9e54-8a119f431f1f"},"vehicle_type_id":"4","last_reported":1752869525,"current_range_meters":6000,"station_id":"ce4bgip2rcd13ifvqbb0","pricing_plan_id":"cebpf4jnsgd1na2vs0mg"},{"bike_id":"0552ea12-01c1-4fc3-9631-ab4df8c50dde","system_id":"levelo_inurba_marseille","lat":43.22506,"lon":5.34783,"is_reserved":false,"is_disabled":false,"rental_uris":{"android":"levelo://app?vid=0552ea12-01c1-4fc3-9631-ab4df8c50dde","ios":"levelo://app?vid=0552ea12-01c1-4fc3-9631-ab4df8c50dde"},"vehicle_type_id":"4","last_reported":1752869525,"current_range_meters":6000,"station_id":"st_cvj5dfep6f1abm77gieg","pricing_plan_id":"cebpf4jnsgd1na2vs0mg"},{"bike_id":"73ff1806-19c7-483d-8971-40efae8a6b78","system_id":"levelo_inurba_marseille","lat":43.23967,"lon":5.36629,"is_reserved":false,"is_disabled":false,"rental_uris":{"android":"levelo://app?vid=73ff1806-19c7-483d-8971-40efae8a6b78","ios":"levelo://app?vid=73ff1806-19c7-483d-8971-40efae8a6b78"},"vehicle_type_id":"4","last_reported":1752869525,"current_range_meters":6400,"station_id":"ce4bhi12rcd13ifvqfp0","pricing_plan_id":"cebpf4jnsgd1na2vs0mg"},{"bike_id":"6d91fc26-cde5-4995-9791-4b3ae53aa479","system_id":"levelo_inurba_marseille","lat":43.31119,"lon":5.37774,"is_reserved":false,"is_disabled":false,"rental_uris":{"android":"levelo://app?vid=6d91fc26-cde5-4995-9791-4b3ae53aa479","ios":"levelo://app?vid=6d91fc26-cde5-4995-9791-4b3ae53aa479"},"vehicle_type_id":"4","last_reported":1752869525,"current_range_meters":3600,"station_id":"ce4bgt92rcd13ifvqcg0","pricing_plan_id":"cebpf4jnsgd1na2vs0mg"},{"bike_id":"a4996856-11f7-4ea3-9873-4e40bacd815a","system_id":"levelo_inurba_marseille","lat":43.31371,"lon":5.38491,"is_reserved":false,"is_disabled":false,"rental_uris":{"android":"levelo://app?vid=a4996856-11f7-4ea3-9873-4e40bacd815a","ios":"levelo://app?vid=a4996856-11f7-4ea3-9873-4e40bacd815a"},"vehicle_type_id":"4","last_reported":1752869525,"current_range_meters":6400,"station_id":"ce4bgt92rcd13ifvqcf0","pricing_plan_id":"cebpf4jnsgd1na2vs0mg"},{"bike_id":"70f67173-a7e8-474a-a3c1-be62743a54e3","system_id":"levelo_inurba_marseille","lat":43.29427,"lon":5.38596,"is_reserved":false,"is_disabled":false,"rental_uris":{"android":"levelo://app?vid=70f67173-a7e8-474a-a3c1-be62743a54e3","ios":"levelo://app?vid=70f67173-a7e8-474a-a3c1-be62743a54e3"},"vehicle_type_id":"4","last_reported":1752869525,"current_range_meters":6400,"station_id":"ce4bh2h2rcd13ifvqdh0","pricing_plan_id":"cebpf4jnsgd1na2vs0mg"},{"bike_id":"e95b1477-33a1-48a7-a021-3878a6895222","system_id":"levelo_inurba_marseille","lat":43.2173,"lon":5.34604,"is_reserved":false,"is_disabled":false,"rental_uris":{"android":"levelo://app?vid=e95b1477-33a1-48a7-a021-3878a6895222","ios":"levelo://app?vid=e95b1477-33a1-48a7-a021-3878a6895222"},"vehicle_type_id":"4","last_reported":1752869525,"current_range_meters":6400,"station_id":"st_cvj6r9ubvosntc0bgbag","pricing_plan_id":"cebpf4jnsgd1na2vs0mg"},{"bike_id":"04d15a50-cb94-495c-969c-c09473f1fcda","system_id":"levelo_inurba_marseille","lat":43.296196,"lon":5.377039,"is_reserved":false,"is_disabled":true,"rental_uris":{"android":"levelo://app?vid=04d15a50-cb94-495c-969c-c09473f1fcda","ios":"levelo://app?vid=04d15a50-cb94-495c-969c-c09473f1fcda"},"vehicle_type_id":"4","last_reported":1752869525,"current_range_meters":6800,"station_id":"","pricing_plan_id":"cebpf4jnsgd1na2vs0mg"},{"bike_id":"37437322-8c8c-42de-b8fa-18f1317c54a8","system_id":"levelo_inurba_marseille","lat":43.23288,"lon":5.36816,"is_reserved":false,"is_disabled":false,"rental_uris":{"android":"levelo://app?vid=37437322-8c8c-42de-b8fa-18f1317c54a8","ios":"levelo://app?vid=37437322-8c8c-42de-b8fa-18f1317c54a8"},"vehicle_type_id":"4","last_reported":1752869525,"current_range_meters":6800,"station_id":"","pricing_plan_id":"cebpf4jnsgd1na2vs0mg"},{"bike_id":"83ad0abd-8943-4804-a515-02bf0fa6068a","system_id":"levelo_inurba_marseille","lat":43.29565,"lon":5.42287,"is_reserved":false,"is_disabled":false,"rental_uris":{"android":"levelo://app?vid=83ad0abd-8943-4804-a515-02bf0fa6068a","ios":"levelo://app?vid=83ad0abd-8943-4804-a515-02bf0fa6068a"},"vehicle_type_id":"4","last_reported":1752869525,"current_range_meters":6800,"station_id":"ce4bhph2rcd13ifvqhdg","pricing_plan_id":"cebpf4jnsgd1na2vs0mg"},{"bike_id":"3444bdc6-514a-4ba6-9650-f9073305e33d","system_id":"levelo_inurba_marseille","lat":43.29682,"lon":5.3698,"is_reserved":false,"is_disabled":false,"rental_uris":{"android":"levelo://app?vid=3444bdc6-514a-4ba6-9650-f9073305e33d","ios":"levelo://app?vid=3444bdc6-514a-4ba6-9650-f9073305e33d"},"vehicle_type_id":"4","last_reported":1752869525,"current_range_meters":7200,"station_id":"","pricing_plan_id":"cebpf4jnsgd1na2vs0mg"},{"bike_id":"0d117c08-45c5-4391-8104-7f24647faf95","system_id":"levelo_inurba_marseille","lat":43.30288,"lon":5.39259,"is_reserved":false,"is_disabled":false,"rental_uris":{"android":"levelo://app?vid=0d117c08-45c5-4391-8104-7f24647faf95","ios":"levelo://app?vid=0d117c08-45c5-4391-8104-7f24647faf95"},"vehicle_type_id":"4","last_reported":1752869525,"current_range_meters":7200,"station_id":"ce4bgkh2rcd13ifvqbk0","pricing_plan_id":"cebpf4jnsgd1na2vs0mg"},{"bike_id":"015e2317-6c66-4d52-9650-fc42e795f182","system_id":"levelo_inurba_marseille","lat":43.30605,"lon":5.39347,"is_reserved":false,"is_disabled":true,"rental_uris":{"android":"levelo://app?vid=015e2317-6c66-4d52-9650-fc42e795f182","ios":"levelo://app?vid=015e2317-6c66-4d52-9650-fc42e795f182"},"vehicle_type_id":"4","last_reported":1752869525,"current_range_meters":7200,"station_id":"ce4bh0p2rcd13ifvqd80","pricing_plan_id":"cebpf4jnsgd1na2vs0mg"},{"bike_id":"fcb43646-13dd-4cea-b3e4-460cae3cbed7","system_id":"levelo_inurba_marseille","lat":43.22476,"lon":5.34827,"is_reserved":false,"is_disabled":false,"rental_uris":{"android":"levelo://app?vid=fcb43646-13dd-4cea-b3e4-460cae3cbed7","ios":"levelo://app?vid=fcb43646-13dd-4cea-b3e4-460cae3cbed7"},"vehicle_type_id":"4","last_reported":1752869525,"current_range_meters":7200,"station_id":"st_cvj5dfep6f1abm77gieg","pricing_plan_id":"cebpf4jnsgd1na2vs0mg"},{"bike_id":"81b8982e-0de9-4985-b907-712e742b4afd","system_id":"levelo_inurba_marseille","lat":43.29795,"lon":5.38154,"is_reserved":false,"is_disabled":false,"rental_uris":{"android":"levelo://app?vid=81b8982e-0de9-4985-b907-712e742b4afd","ios":"levelo://app?vid=81b8982e-0de9-4985-b907-712e742b4afd"},"vehicle_type_id":"4","last_reported":1752869525,"current_range_meters":7200,"station_id":"","pricing_plan_id":"cebpf4jnsgd1na2vs0mg"},{"bike_id":"555bc53e-5286-4fb6-9154-af42b3fd9792","system_id":"levelo_inurba_marseille","lat":43.300724,"lon":5.372824,"is_reserved":false,"is_disabled":false,"rental_uris":{"android":"levelo://app?vid=555bc53e-5286-4fb6-9154-af42b3fd9792","ios":"levelo://app?vid=555bc53e-5286-4fb6-9154-af42b3fd9792"},"vehicle_type_id":"4","last_reported":1752869525,"current_range_meters":7200,"station_id":"","pricing_plan_id":"cebpf4jnsgd1na2vs0mg"},{"bike_id":"18665a3d-1eec-4392-9623-a615275afd9c","system_id":"levelo_inurba_marseille","lat":43.32334,"lon":5.36765,"is_reserved":false,"is_disabled":false,"rental_uris":{"android":"levelo://app?vid=18665a3d-1eec-4392-9623-a615275afd9c","ios":"levelo://app?vid=18665a3d-1eec-4392-9623-a615275afd9c"},"vehicle_type_id":"4","last_reported":1752869525,"current_range_meters":7200,"station_id":"ce4bhsh2rcd13ifvqi2g","pricing_plan_id":"cebpf4jnsgd1na2vs0mg"},{"bike_id":"80376873-e696-4387-b31d-fa867bfbe982","system_id":"levelo_inurba_marseille","lat":43.309663,"lon":5.390373,"is_reserved":false,"is_disabled":false,"rental_uris":{"android":"levelo://app?vid=80376873-e696-4387-b31d-fa867bfbe982","ios":"levelo://app?vid=80376873-e696-4387-b31d-fa867bfbe982"},"vehicle_type_id":"4","last_reported":1752869525,"current_range_meters":7200,"station_id":"ce4bgup2rcd13ifvqco0","pricing_plan_id":"cebpf4jnsgd1na2vs0mg"},{"bike_id":"7aae8e2b-0bbf-4707-9905-362aa6bf73f4","system_id":"levelo_inurba_marseille","lat":43.27563,"lon":5.38423,"is_reserved":false,"is_disabled":false,"rental_uris":{"android":"levelo://app?vid=7aae8e2b-0bbf-4707-9905-362aa6bf73f4","ios":"levelo://app?vid=7aae8e2b-0bbf-4707-9905-362aa6bf73f4"},"vehicle_type_id":"4","last_reported":1752869525,"current_range_meters":9600,"station_id":"ce4bhh92rcd13ifvqfi0","pricing_plan_id":"cebpf4jnsgd1na2vs0mg"},{"bike_id":"dcd095d5-4ee5-4886-b281-0377ecddc832","system_id":"levelo_inurba_marseille","lat":43.28942,"lon":5.39619,"is_reserved":false,"is_disabled":false,"rental_uris":{"android":"levelo://app?vid=dcd095d5-4ee5-4886-b281-0377ecddc832","ios":"levelo://app?vid=dcd095d5-4ee5-4886-b281-0377ecddc832"},"vehicle_type_id":"4","last_reported":1752869525,"current_range_meters":8000,"station_id":"ce4bh3h2rcd13ifvqdn0","pricing_plan_id":"cebpf4jnsgd1na2vs0mg"},{"bike_id":"d1b1ae6f-562f-42f0-a958-cbc912a1619d","system_id":"levelo_inurba_marseille","lat":43.27606,"lon":5.36108,"is_reserved":false,"is_disabled":true,"rental_uris":{"android":"levelo://app?vid=d1b1ae6f-562f-42f0-a958-cbc912a1619d","ios":"levelo://app?vid=d1b1ae6f-562f-42f0-a958-cbc912a1619d"},"vehicle_type_id":"4","last_reported":1752869525,"current_range_meters":8000,"station_id":"ce4bgj92rcd13ifvqbe0","pricing_plan_id":"cebpf4jnsgd1na2vs0mg"},{"bike_id":"888282af-6fd9-417f-a335-312db15192e8","system_id":"levelo_inurba_marseille","lat":43.28462,"lon":5.35889,"is_reserved":false,"is_disabled":false,"rental_uris":{"android":"levelo://app?vid=888282af-6fd9-417f-a335-312db15192e8","ios":"levelo://app?vid=888282af-6fd9-417f-a335-312db15192e8"},"vehicle_type_id":"4","last_reported":1752869525,"current_range_meters":8000,"station_id":"ce4bhah2rcd13ifvqei0","pricing_plan_id":"cebpf4jnsgd1na2vs0mg"},{"bike_id":"28d27c17-e6ca-4cec-aec9-f1f6696b8a12","system_id":"levelo_inurba_marseille","lat":43.29945,"lon":5.4363,"is_reserved":false,"is_disabled":true,"rental_uris":{"android":"levelo://app?vid=28d27c17-e6ca-4cec-aec9-f1f6696b8a12","ios":"levelo://app?vid=28d27c17-e6ca-4cec-aec9-f1f6696b8a12"},"vehicle_type_id":"4","last_reported":1752869525,"current_range_meters":8000,"station_id":"","pricing_plan_id":"cebpf4jnsgd1na2vs0mg"},{"bike_id":"db59d7ba-800d-4556-bf76-ed6ad11c1be1","system_id":"levelo_inurba_marseille","lat":43.30883,"lon":5.39643,"is_reserved":false,"is_disabled":false,"rental_uris":{"android":"levelo://app?vid=db59d7ba-800d-4556-bf76-ed6ad11c1be1","ios":"levelo://app?vid=db59d7ba-800d-4556-bf76-ed6ad11c1be1"},"vehicle_type_id":"4","last_reported":1752869525,"current_range_meters":8000,"station_id":"ce4bh012rcd13ifvqcv0","pricing_plan_id":"cebpf4jnsgd1na2vs0mg"},{"bike_id":"d456cf40-b5a7-4df4-a461-ee16e3d5becd","system_id":"levelo_inurba_marseille","lat":43.2737,"lon":5.36257,"is_reserved":false,"is_disabled":false,"rental_uris":{"android":"levelo://app?vid=d456cf40-b5a7-4df4-a461-ee16e3d5becd","ios":"levelo://app?vid=d456cf40-b5a7-4df4-a461-ee16e3d5becd"},"vehicle_type_id":"4","last_reported":1752869525,"current_range_meters":8400,"station_id":"ce4bhbh2rcd13ifvqeo0","pricing_plan_id":"cebpf4jnsgd1na2vs0mg"},{"bike_id":"56d35fb4-c3fa-422a-a14b-9ed987a4f56f","system_id":"levelo_inurba_marseille","lat":43.24824,"lon":5.37458,"is_reserved":false,"is_disabled":true,"rental_uris":{"android":"levelo://app?vid=56d35fb4-c3fa-422a-a14b-9ed987a4f56f","ios":"levelo://app?vid=56d35fb4-c3fa-422a-a14b-9ed987a4f56f"},"vehicle_type_id":"4","last_reported":1752869525,"current_range_meters":8400,"station_id":"ce4bhgh2rcd13ifvqfb0","pricing_plan_id":"cebpf4jnsgd1na2vs0mg"},{"bike_id":"c2495178-f557-4b30-b46f-0341c51cce8c","system_id":"levelo_inurba_marseille","lat":43.31824,"lon":5.37286,"is_reserved":false,"is_disabled":false,"rental_uris":{"android":"levelo://app?vid=c2495178-f557-4b30-b46f-0341c51cce8c","ios":"levelo://app?vid=c2495178-f557-4b30-b46f-0341c51cce8c"},"vehicle_type_id":"4","last_reported":1752869525,"current_range_meters":8400,"station_id":"","pricing_plan_id":"cebpf4jnsgd1na2vs0mg"},{"bike_id":"22a8c001-bc75-4a05-9f44-7ade6a207ee0","system_id":"levelo_inurba_marseille","lat":43.30597,"lon":5.39365,"is_reserved":false,"is_disabled":false,"rental_uris":{"android":"levelo://app?vid=22a8c001-bc75-4a05-9f44-7ade6a207ee0","ios":"levelo://app?vid=22a8c001-bc75-4a05-9f44-7ade6a207ee0"},"vehicle_type_id":"4","last_reported":1752869525,"current_range_meters":8400,"station_id":"ce4bh0p2rcd13ifvqd80","pricing_plan_id":"cebpf4jnsgd1na2vs0mg"},{"bike_id":"017c02f7-cae9-42c7-94b2-627e79bae1eb","system_id":"levelo_inurba_marseille","lat":43.30745,"lon":5.38212,"is_reserved":false,"is_disabled":false,"rental_uris":{"android":"levelo://app?vid=017c02f7-cae9-42c7-94b2-627e79bae1eb","ios":"levelo://app?vid=017c02f7-cae9-42c7-94b2-627e79bae1eb"},"vehicle_type_id":"4","last_reported":1752869525,"current_range_meters":8400,"station_id":"ce4bgt12rcd13ifvqce0","pricing_plan_id":"cebpf4jnsgd1na2vs0mg"},{"bike_id":"5dea2c06-fe27-45cc-aa5e-358e3932912d","system_id":"levelo_inurba_marseille","lat":43.31326,"lon":5.39687,"is_reserved":false,"is_disabled":false,"rental_uris":{"android":"levelo://app?vid=5dea2c06-fe27-45cc-aa5e-358e3932912d","ios":"levelo://app?vid=5dea2c06-fe27-45cc-aa5e-358e3932912d"},"vehicle_type_id":"4","last_reported":1752869525,"current_range_meters":8000,"station_id":"ce4bgvp2rcd13ifvqcu0","pricing_plan_id":"cebpf4jnsgd1na2vs0mg"},{"bike_id":"07f5ae19-0925-43ef-aab4-48ec58bc62b9","system_id":"levelo_inurba_marseille","lat":43.314637,"lon":5.374127,"is_reserved":false,"is_disabled":false,"rental_uris":{"android":"levelo://app?vid=07f5ae19-0925-43ef-aab4-48ec58bc62b9","ios":"levelo://app?vid=07f5ae19-0925-43ef-aab4-48ec58bc62b9"},"vehicle_type_id":"4","last_reported":1752869525,"current_range_meters":8400,"station_id":"","pricing_plan_id":"cebpf4jnsgd1na2vs0mg"},{"bike_id":"f897316b-05ba-46b0-b0d4-12469937bce4","system_id":"levelo_inurba_marseille","lat":43.32988,"lon":5.39076,"is_reserved":false,"is_disabled":false,"rental_uris":{"android":"levelo://app?vid=f897316b-05ba-46b0-b0d4-12469937bce4","ios":"levelo://app?vid=f897316b-05ba-46b0-b0d4-12469937bce4"},"vehicle_type_id":"4","last_reported":1752869525,"current_range_meters":8400,"station_id":"ce4bhr92rcd13ifvqhrg","pricing_plan_id":"cebpf4jnsgd1na2vs0mg"},{"bike_id":"7ec44908-1504-4ee4-ab69-d94fd54b0e31","system_id":"levelo_inurba_marseille","lat":43.28153,"lon":5.42653,"is_reserved":false,"is_disabled":false,"rental_uris":{"android":"levelo://app?vid=7ec44908-1504-4ee4-ab69-d94fd54b0e31","ios":"levelo://app?vid=7ec44908-1504-4ee4-ab69-d94fd54b0e31"},"vehicle_type_id":"4","last_reported":1752869525,"current_range_meters":8800,"station_id":"ce4bhnh2rcd13ifvqgug","pricing_plan_id":"cebpf4jnsgd1na2vs0mg"},{"bike_id":"600ce411-a2cd-4cfb-b393-c3e72d5cd832","system_id":"levelo_inurba_marseille","lat":43.31707,"lon":5.40455,"is_reserved":false,"is_disabled":false,"rental_uris":{"android":"levelo://app?vid=600ce411-a2cd-4cfb-b393-c3e72d5cd832","ios":"levelo://app?vid=600ce411-a2cd-4cfb-b393-c3e72d5cd832"},"vehicle_type_id":"4","last_reported":1752869525,"current_range_meters":8800,"station_id":"ce4bh012rcd13ifvqd00","pricing_plan_id":"cebpf4jnsgd1na2vs0mg"},{"bike_id":"5c512656-cb55-4e17-89ea-c883f7f63553","system_id":"levelo_inurba_marseille","lat":43.21748,"lon":5.34597,"is_reserved":false,"is_disabled":true,"rental_uris":{"android":"levelo://app?vid=5c512656-cb55-4e17-89ea-c883f7f63553","ios":"levelo://app?vid=5c512656-cb55-4e17-89ea-c883f7f63553"},"vehicle_type_id":"4","last_reported":1752869525,"current_range_meters":8800,"station_id":"st_cvj6r9ubvosntc0bgbag","pricing_plan_id":"cebpf4jnsgd1na2vs0mg"},{"bike_id":"6b6f11be-d523-4885-a1b3-bd117c484a8f","system_id":"levelo_inurba_marseille","lat":43.30946,"lon":5.39016,"is_reserved":false,"is_disabled":false,"rental_uris":{"android":"levelo://app?vid=6b6f11be-d523-4885-a1b3-bd117c484a8f","ios":"levelo://app?vid=6b6f11be-d523-4885-a1b3-bd117c484a8f"},"vehicle_type_id":"4","last_reported":1752869525,"current_range_meters":9200,"station_id":"ce4bgup2rcd13ifvqco0","pricing_plan_id":"cebpf4jnsgd1na2vs0mg"},{"bike_id":"79e00cba-979b-4370-b320-7e4857db9893","system_id":"levelo_inurba_marseille","lat":43.337715,"lon":5.374385,"is_reserved":false,"is_disabled":false,"rental_uris":{"android":"levelo://app?vid=79e00cba-979b-4370-b320-7e4857db9893","ios":"levelo://app?vid=79e00cba-979b-4370-b320-7e4857db9893"},"vehicle_type_id":"4","last_reported":1752869525,"current_range_meters":9200,"station_id":"","pricing_plan_id":"cebpf4jnsgd1na2vs0mg"},{"bike_id":"03d20209-21c1-4072-b8c2-45ceff954e8b","system_id":"levelo_inurba_marseille","lat":43.30793,"lon":5.38158,"is_reserved":false,"is_disabled":false,"rental_uris":{"android":"levelo://app?vid=03d20209-21c1-4072-b8c2-45ceff954e8b","ios":"levelo://app?vid=03d20209-21c1-4072-b8c2-45ceff954e8b"},"vehicle_type_id":"4","last_reported":1752869525,"current_range_meters":9200,"station_id":"ce4bgt12rcd13ifvqce0","pricing_plan_id":"cebpf4jnsgd1na2vs0mg"},{"bike_id":"255f63b3-d391-461e-9168-7b692342f2c5","system_id":"levelo_inurba_marseille","lat":43.2118,"lon":5.35083,"is_reserved":false,"is_disabled":false,"rental_uris":{"android":"levelo://app?vid=255f63b3-d391-461e-9168-7b692342f2c5","ios":"levelo://app?vid=255f63b3-d391-461e-9168-7b692342f2c5"},"vehicle_type_id":"4","last_reported":1752869525,"current_range_meters":9200,"station_id":"st_cvj6sg6p6f1abm77japg","pricing_plan_id":"cebpf4jnsgd1na2vs0mg"},{"bike_id":"2ac93549-5c94-4228-8eea-782a21384d10","system_id":"levelo_inurba_marseille","lat":43.29634,"lon":5.37793,"is_reserved":false,"is_disabled":false,"rental_uris":{"android":"levelo://app?vid=2ac93549-5c94-4228-8eea-782a21384d10","ios":"levelo://app?vid=2ac93549-5c94-4228-8eea-782a21384d10"},"vehicle_type_id":"4","last_reported":1752869525,"current_range_meters":9200,"station_id":"","pricing_plan_id":"cebpf4jnsgd1na2vs0mg"},{"bike_id":"00ecada3-8577-4c51-98e2-f760bc2bb718","system_id":"levelo_inurba_marseille","lat":43.29395,"lon":5.39848,"is_reserved":false,"is_disabled":false,"rental_uris":{"android":"levelo://app?vid=00ecada3-8577-4c51-98e2-f760bc2bb718","ios":"levelo://app?vid=00ecada3-8577-4c51-98e2-f760bc2bb718"},"vehicle_type_id":"4","last_reported":1752869525,"current_range_meters":9200,"station_id":"","pricing_plan_id":"cebpf4jnsgd1na2vs0mg"},{"bike_id":"d2fd2e94-1f9d-40a9-9988-3a1ee295f5b4","system_id":"levelo_inurba_marseille","lat":43.309514,"lon":5.390345,"is_reserved":false,"is_disabled":false,"rental_uris":{"android":"levelo://app?vid=d2fd2e94-1f9d-40a9-9988-3a1ee295f5b4","ios":"levelo://app?vid=d2fd2e94-1f9d-40a9-9988-3a1ee295f5b4"},"vehicle_type_id":"4","last_reported":1752869525,"current_range_meters":9600,"station_id":"","pricing_plan_id":"cebpf4jnsgd1na2vs0mg"},{"bike_id":"f7fbbde8-fe8b-4a95-b249-f700175d7312","system_id":"levelo_inurba_marseille","lat":43.31232,"lon":5.36871,"is_reserved":false,"is_disabled":false,"rental_uris":{"android":"levelo://app?vid=f7fbbde8-fe8b-4a95-b249-f700175d7312","ios":"levelo://app?vid=f7fbbde8-fe8b-4a95-b249-f700175d7312"},"vehicle_type_id":"4","last_reported":1752869525,"current_range_meters":9600,"station_id":"ce4bgl92rcd13ifvqbq0","pricing_plan_id":"cebpf4jnsgd1na2vs0mg"},{"bike_id":"da891840-0cec-4ccc-961c-48903736c6fa","system_id":"levelo_inurba_marseille","lat":43.31139,"lon":5.37692,"is_reserved":false,"is_disabled":false,"rental_uris":{"android":"levelo://app?vid=da891840-0cec-4ccc-961c-48903736c6fa","ios":"levelo://app?vid=da891840-0cec-4ccc-961c-48903736c6fa"},"vehicle_type_id":"4","last_reported":1752869525,"current_range_meters":9600,"station_id":"","pricing_plan_id":"cebpf4jnsgd1na2vs0mg"},{"bike_id":"1f1f9bfc-c701-4b41-a5c5-4a1605c71f30","system_id":"levelo_inurba_marseille","lat":43.29534,"lon":5.37555,"is_reserved":false,"is_disabled":false,"rental_uris":{"android":"levelo://app?vid=1f1f9bfc-c701-4b41-a5c5-4a1605c71f30","ios":"levelo://app?vid=1f1f9bfc-c701-4b41-a5c5-4a1605c71f30"},"vehicle_type_id":"4","last_reported":1752869525,"current_range_meters":9600,"station_id":"","pricing_plan_id":"cebpf4jnsgd1na2vs0mg"},{"bike_id":"3d88934d-3780-4bd0-bec3-c443fe2fa1e1","system_id":"levelo_inurba_marseille","lat":43.24785,"lon":5.37453,"is_reserved":false,"is_disabled":false,"rental_uris":{"android":"levelo://app?vid=3d88934d-3780-4bd0-bec3-c443fe2fa1e1","ios":"levelo://app?vid=3d88934d-3780-4bd0-bec3-c443fe2fa1e1"},"vehicle_type_id":"4","last_reported":1752869525,"current_range_meters":9600,"station_id":"ce4bhgh2rcd13ifvqfb0","pricing_plan_id":"cebpf4jnsgd1na2vs0mg"},{"bike_id":"e555b545-304c-4dce-8496-1643c0f2600e","system_id":"levelo_inurba_marseille","lat":43.337444,"lon":5.374475,"is_reserved":false,"is_disabled":false,"rental_uris":{"android":"levelo://app?vid=e555b545-304c-4dce-8496-1643c0f2600e","ios":"levelo://app?vid=e555b545-304c-4dce-8496-1643c0f2600e"},"vehicle_type_id":"4","last_reported":1752869525,"current_range_meters":9600,"station_id":"","pricing_plan_id":"cebpf4jnsgd1na2vs0mg"},{"bike_id":"b228c903-9cc7-40b8-8298-9f633a6b4640","system_id":"levelo_inurba_marseille","lat":43.29538,"lon":5.38548,"is_reserved":false,"is_disabled":false,"rental_uris":{"android":"levelo://app?vid=b228c903-9cc7-40b8-8298-9f633a6b4640","ios":"levelo://app?vid=b228c903-9cc7-40b8-8298-9f633a6b4640"},"vehicle_type_id":"4","last_reported":1752869525,"current_range_meters":9600,"station_id":"ce4bgih2rcd13ifvqba0","pricing_plan_id":"cebpf4jnsgd1na2vs0mg"},{"bike_id":"b73efc86-7ada-42ae-a2b9-a0552c42b695","system_id":"levelo_inurba_marseille","lat":43.29576,"lon":5.37512,"is_reserved":false,"is_disabled":false,"rental_uris":{"android":"levelo://app?vid=b73efc86-7ada-42ae-a2b9-a0552c42b695","ios":"levelo://app?vid=b73efc86-7ada-42ae-a2b9-a0552c42b695"},"vehicle_type_id":"4","last_reported":1752869525,"current_range_meters":10000,"station_id":"ce4bgh92rcd13ifvqb50","pricing_plan_id":"cebpf4jnsgd1na2vs0mg"},{"bike_id":"a0ad86bd-bcd2-4ce1-99cc-c2c1992891ce","system_id":"levelo_inurba_marseille","lat":43.23202,"lon":5.35547,"is_reserved":false,"is_disabled":false,"rental_uris":{"android":"levelo://app?vid=a0ad86bd-bcd2-4ce1-99cc-c2c1992891ce","ios":"levelo://app?vid=a0ad86bd-bcd2-4ce1-99cc-c2c1992891ce"},"vehicle_type_id":"4","last_reported":1752869525,"current_range_meters":10000,"station_id":"ce4bhu92rcd13ifvqi70","pricing_plan_id":"cebpf4jnsgd1na2vs0mg"},{"bike_id":"1a72943a-8c08-4346-9dc3-e7fffe30ef73","system_id":"levelo_inurba_marseille","lat":43.29536,"lon":5.3854,"is_reserved":false,"is_disabled":false,"rental_uris":{"android":"levelo://app?vid=1a72943a-8c08-4346-9dc3-e7fffe30ef73","ios":"levelo://app?vid=1a72943a-8c08-4346-9dc3-e7fffe30ef73"},"vehicle_type_id":"4","last_reported":1752869525,"current_range_meters":10000,"station_id":"ce4bgih2rcd13ifvqba0","pricing_plan_id":"cebpf4jnsgd1na2vs0mg"},{"bike_id":"531dca68-8617-41b0-a6cd-abffc94e1d45","system_id":"levelo_inurba_marseille","lat":43.312044,"lon":5.373178,"is_reserved":false,"is_disabled":false,"rental_uris":{"android":"levelo://app?vid=531dca68-8617-41b0-a6cd-abffc94e1d45","ios":"levelo://app?vid=531dca68-8617-41b0-a6cd-abffc94e1d45"},"vehicle_type_id":"4","last_reported":1752869525,"current_range_meters":10000,"station_id":"","pricing_plan_id":"cebpf4jnsgd1na2vs0mg"},{"bike_id":"6d4292a7-14aa-4e58-b9b0-cecdf0f43206","system_id":"levelo_inurba_marseille","lat":43.3064,"lon":5.40071,"is_reserved":false,"is_disabled":false,"rental_uris":{"android":"levelo://app?vid=6d4292a7-14aa-4e58-b9b0-cecdf0f43206","ios":"levelo://app?vid=6d4292a7-14aa-4e58-b9b0-cecdf0f43206"},"vehicle_type_id":"4","last_reported":1752869525,"current_range_meters":10000,"station_id":"ce4bh112rcd13ifvqda0","pricing_plan_id":"cebpf4jnsgd1na2vs0mg"},{"bike_id":"4e28ebee-9bc8-40d5-8bfa-a876e311117c","system_id":"levelo_inurba_marseille","lat":43.31247,"lon":5.36861,"is_reserved":false,"is_disabled":false,"rental_uris":{"android":"levelo://app?vid=4e28ebee-9bc8-40d5-8bfa-a876e311117c","ios":"levelo://app?vid=4e28ebee-9bc8-40d5-8bfa-a876e311117c"},"vehicle_type_id":"4","last_reported":1752869525,"current_range_meters":10000,"station_id":"ce4bgl92rcd13ifvqbq0","pricing_plan_id":"cebpf4jnsgd1na2vs0mg"},{"bike_id":"d045b52a-b4cb-44f3-9ab5-c5907043ce5f","system_id":"levelo_inurba_marseille","lat":43.29561,"lon":5.37501,"is_reserved":false,"is_disabled":false,"rental_uris":{"android":"levelo://app?vid=d045b52a-b4cb-44f3-9ab5-c5907043ce5f","ios":"levelo://app?vid=d045b52a-b4cb-44f3-9ab5-c5907043ce5f"},"vehicle_type_id":"4","last_reported":1752869525,"current_range_meters":10800,"station_id":"ce4bgh92rcd13ifvqb50","pricing_plan_id":"cebpf4jnsgd1na2vs0mg"},{"bike_id":"b18457b6-b744-4542-873e-ebb7266cf94f","system_id":"levelo_inurba_marseille","lat":43.28614,"lon":5.37051,"is_reserved":false,"is_disabled":false,"rental_uris":{"android":"levelo://app?vid=b18457b6-b744-4542-873e-ebb7266cf94f","ios":"levelo://app?vid=b18457b6-b744-4542-873e-ebb7266cf94f"},"vehicle_type_id":"4","last_reported":1752869525,"current_range_meters":10800,"station_id":"ce4bht12rcd13ifvqi60","pricing_plan_id":"cebpf4jnsgd1na2vs0mg"},{"bike_id":"c1581133-408d-41b8-baa8-5349a06a2518","system_id":"levelo_inurba_marseille","lat":43.25104,"lon":5.4032,"is_reserved":false,"is_disabled":false,"rental_uris":{"android":"levelo://app?vid=c1581133-408d-41b8-baa8-5349a06a2518","ios":"levelo://app?vid=c1581133-408d-41b8-baa8-5349a06a2518"},"vehicle_type_id":"4","last_reported":1752869525,"current_range_meters":10800,"station_id":"ce4bhlh2rcd13ifvqgig","pricing_plan_id":"cebpf4jnsgd1na2vs0mg"},{"bike_id":"2d1d5d94-c866-46ff-86f4-b92cda25bd71","system_id":"levelo_inurba_marseille","lat":43.28704,"lon":5.39986,"is_reserved":false,"is_disabled":false,"rental_uris":{"android":"levelo://app?vid=2d1d5d94-c866-46ff-86f4-b92cda25bd71","ios":"levelo://app?vid=2d1d5d94-c866-46ff-86f4-b92cda25bd71"},"vehicle_type_id":"4","last_reported":1752869525,"current_range_meters":10800,"station_id":"ce4bho92rcd13ifvqh3g","pricing_plan_id":"cebpf4jnsgd1na2vs0mg"},{"bike_id":"034dd344-c544-4f12-8ea0-01c46916cb73","system_id":"levelo_inurba_marseille","lat":43.25085,"lon":5.39519,"is_reserved":false,"is_disabled":false,"rental_uris":{"android":"levelo://app?vid=034dd344-c544-4f12-8ea0-01c46916cb73","ios":"levelo://app?vid=034dd344-c544-4f12-8ea0-01c46916cb73"},"vehicle_type_id":"4","last_reported":1752869525,"current_range_meters":10800,"station_id":"ce4bhm12rcd13ifvqgkg","pricing_plan_id":"cebpf4jnsgd1na2vs0mg"},{"bike_id":"cd632b59-0e3a-4e0b-9999-f0250b7098b5","system_id":"levelo_inurba_marseille","lat":43.27082,"lon":5.42289,"is_reserved":false,"is_disabled":false,"rental_uris":{"android":"levelo://app?vid=cd632b59-0e3a-4e0b-9999-f0250b7098b5","ios":"levelo://app?vid=cd632b59-0e3a-4e0b-9999-f0250b7098b5"},"vehicle_type_id":"4","last_reported":1752869525,"current_range_meters":11200,"station_id":"ce4bhk92rcd13ifvqgb0","pricing_plan_id":"cebpf4jnsgd1na2vs0mg"},{"bike_id":"199adecb-1e2c-432c-b8bb-b6e69d3fa36d","system_id":"levelo_inurba_marseille","lat":43.29569,"lon":5.375,"is_reserved":false,"is_disabled":false,"rental_uris":{"android":"levelo://app?vid=199adecb-1e2c-432c-b8bb-b6e69d3fa36d","ios":"levelo://app?vid=199adecb-1e2c-432c-b8bb-b6e69d3fa36d"},"vehicle_type_id":"4","last_reported":1752869525,"current_range_meters":10800,"station_id":"ce4bgh92rcd13ifvqb50","pricing_plan_id":"cebpf4jnsgd1na2vs0mg"},{"bike_id":"792c6d19-d2aa-43d0-ba46-67942c12daaa","system_id":"levelo_inurba_marseille","lat":43.28616,"lon":5.37045,"is_reserved":false,"is_disabled":false,"rental_uris":{"android":"levelo://app?vid=792c6d19-d2aa-43d0-ba46-67942c12daaa","ios":"levelo://app?vid=792c6d19-d2aa-43d0-ba46-67942c12daaa"},"vehicle_type_id":"4","last_reported":1752869525,"current_range_meters":10800,"station_id":"ce4bht12rcd13ifvqi60","pricing_plan_id":"cebpf4jnsgd1na2vs0mg"},{"bike_id":"537df271-1e3d-4ffc-ad70-ada379266803","system_id":"levelo_inurba_marseille","lat":43.21747,"lon":5.34602,"is_reserved":false,"is_disabled":false,"rental_uris":{"android":"levelo://app?vid=537df271-1e3d-4ffc-ad70-ada379266803","ios":"levelo://app?vid=537df271-1e3d-4ffc-ad70-ada379266803"},"vehicle_type_id":"4","last_reported":1752869525,"current_range_meters":11200,"station_id":"st_cvj6r9ubvosntc0bgbag","pricing_plan_id":"cebpf4jnsgd1na2vs0mg"},{"bike_id":"37ad51d0-7b11-4f55-bed0-1a76a9df8265","system_id":"levelo_inurba_marseille","lat":43.295404,"lon":5.374942,"is_reserved":false,"is_disabled":false,"rental_uris":{"android":"levelo://app?vid=37ad51d0-7b11-4f55-bed0-1a76a9df8265","ios":"levelo://app?vid=37ad51d0-7b11-4f55-bed0-1a76a9df8265"},"vehicle_type_id":"4","last_reported":1752869525,"current_range_meters":11200,"station_id":"ce4bgkp2rcd13ifvqbmg","pricing_plan_id":"cebpf4jnsgd1na2vs0mg"},{"bike_id":"1195d02e-3542-46dd-9a9a-7a1038333bfe","system_id":"levelo_inurba_marseille","lat":43.24657,"lon":5.38161,"is_reserved":false,"is_disabled":false,"rental_uris":{"android":"levelo://app?vid=1195d02e-3542-46dd-9a9a-7a1038333bfe","ios":"levelo://app?vid=1195d02e-3542-46dd-9a9a-7a1038333bfe"},"vehicle_type_id":"4","last_reported":1752869525,"current_range_meters":11200,"station_id":"ce4bhih2rcd13ifvqfr0","pricing_plan_id":"cebpf4jnsgd1na2vs0mg"},{"bike_id":"5f5c2e96-1642-4cac-988b-7eeec856317b","system_id":"levelo_inurba_marseille","lat":43.2991,"lon":5.37466,"is_reserved":false,"is_disabled":false,"rental_uris":{"android":"levelo://app?vid=5f5c2e96-1642-4cac-988b-7eeec856317b","ios":"levelo://app?vid=5f5c2e96-1642-4cac-988b-7eeec856317b"},"vehicle_type_id":"4","last_reported":1752869525,"current_range_meters":10800,"station_id":"ce4bgjh2rcd13ifvqbg0","pricing_plan_id":"cebpf4jnsgd1na2vs0mg"},{"bike_id":"2d95b47d-d06f-40a4-bb6e-c13e954e3c8f","system_id":"levelo_inurba_marseille","lat":43.27722,"lon":5.41408,"is_reserved":false,"is_disabled":false,"rental_uris":{"android":"levelo://app?vid=2d95b47d-d06f-40a4-bb6e-c13e954e3c8f","ios":"levelo://app?vid=2d95b47d-d06f-40a4-bb6e-c13e954e3c8f"},"vehicle_type_id":"4","last_reported":1752869525,"current_range_meters":11600,"station_id":"","pricing_plan_id":"cebpf4jnsgd1na2vs0mg"},{"bike_id":"43cff8a1-c3df-4ff5-a9f5-92f0afdae9b6","system_id":"levelo_inurba_marseille","lat":43.30332,"lon":5.40434,"is_reserved":false,"is_disabled":false,"rental_uris":{"android":"levelo://app?vid=43cff8a1-c3df-4ff5-a9f5-92f0afdae9b6","ios":"levelo://app?vid=43cff8a1-c3df-4ff5-a9f5-92f0afdae9b6"},"vehicle_type_id":"4","last_reported":1752869525,"current_range_meters":11200,"station_id":"ce4bh012rcd13ifvqd10","pricing_plan_id":"cebpf4jnsgd1na2vs0mg"},{"bike_id":"b004baab-db70-453e-84a5-9312df4bd1d6","system_id":"levelo_inurba_marseille","lat":43.22508,"lon":5.34777,"is_reserved":false,"is_disabled":false,"rental_uris":{"android":"levelo://app?vid=b004baab-db70-453e-84a5-9312df4bd1d6","ios":"levelo://app?vid=b004baab-db70-453e-84a5-9312df4bd1d6"},"vehicle_type_id":"4","last_reported":1752869525,"current_range_meters":11600,"station_id":"st_cvj5dfep6f1abm77gieg","pricing_plan_id":"cebpf4jnsgd1na2vs0mg"},{"bike_id":"2b008ee5-559f-4056-aaf2-742cc0bd26b7","system_id":"levelo_inurba_marseille","lat":43.29204,"lon":5.39325,"is_reserved":false,"is_disabled":false,"rental_uris":{"android":"levelo://app?vid=2b008ee5-559f-4056-aaf2-742cc0bd26b7","ios":"levelo://app?vid=2b008ee5-559f-4056-aaf2-742cc0bd26b7"},"vehicle_type_id":"4","last_reported":1752869525,"current_range_meters":11600,"station_id":"ce4bh192rcd13ifvqdd0","pricing_plan_id":"cebpf4jnsgd1na2vs0mg"},{"bike_id":"ce7bd25b-5213-4881-a28b-f582e6a1d712","system_id":"levelo_inurba_marseille","lat":43.31366,"lon":5.367123,"is_reserved":false,"is_disabled":true,"rental_uris":{"android":"levelo://app?vid=ce7bd25b-5213-4881-a28b-f582e6a1d712","ios":"levelo://app?vid=ce7bd25b-5213-4881-a28b-f582e6a1d712"},"vehicle_type_id":"4","last_reported":1752869525,"current_range_meters":11600,"station_id":"ce4bgr92rcd13ifvqc6g","pricing_plan_id":"cebpf4jnsgd1na2vs0mg"},{"bike_id":"9f6cfdd4-e600-4f85-b50a-e486d10fd7b5","system_id":"levelo_inurba_marseille","lat":43.29567,"lon":5.37503,"is_reserved":false,"is_disabled":false,"rental_uris":{"android":"levelo://app?vid=9f6cfdd4-e600-4f85-b50a-e486d10fd7b5","ios":"levelo://app?vid=9f6cfdd4-e600-4f85-b50a-e486d10fd7b5"},"vehicle_type_id":"4","last_reported":1752869525,"current_range_meters":11600,"station_id":"ce4bgh92rcd13ifvqb50","pricing_plan_id":"cebpf4jnsgd1na2vs0mg"},{"bike_id":"08d7ef87-4199-4137-931e-8c2a99c24a2d","system_id":"levelo_inurba_marseille","lat":43.30739,"lon":5.42441,"is_reserved":false,"is_disabled":false,"rental_uris":{"android":"levelo://app?vid=08d7ef87-4199-4137-931e-8c2a99c24a2d","ios":"levelo://app?vid=08d7ef87-4199-4137-931e-8c2a99c24a2d"},"vehicle_type_id":"4","last_reported":1752869525,"current_range_meters":12000,"station_id":"st_cvj6ca6bvosntc0bfgr0","pricing_plan_id":"cebpf4jnsgd1na2vs0mg"},{"bike_id":"2b329a1d-d76c-4c27-9e3d-409d930af09e","system_id":"levelo_inurba_marseille","lat":43.29537,"lon":5.3854,"is_reserved":false,"is_disabled":false,"rental_uris":{"android":"levelo://app?vid=2b329a1d-d76c-4c27-9e3d-409d930af09e","ios":"levelo://app?vid=2b329a1d-d76c-4c27-9e3d-409d930af09e"},"vehicle_type_id":"4","last_reported":1752869525,"current_range_meters":12000,"station_id":"ce4bgih2rcd13ifvqba0","pricing_plan_id":"cebpf4jnsgd1na2vs0mg"},{"bike_id":"925b96b6-c323-4917-a3b9-15aadd396dd7","system_id":"levelo_inurba_marseille","lat":43.31185,"lon":5.38678,"is_reserved":false,"is_disabled":false,"rental_uris":{"android":"levelo://app?vid=925b96b6-c323-4917-a3b9-15aadd396dd7","ios":"levelo://app?vid=925b96b6-c323-4917-a3b9-15aadd396dd7"},"vehicle_type_id":"4","last_reported":1752869525,"current_range_meters":12000,"station_id":"ce4bgv12rcd13ifvqcp0","pricing_plan_id":"cebpf4jnsgd1na2vs0mg"},{"bike_id":"f258ff73-2a49-4a60-9ce6-6f7708c10850","system_id":"levelo_inurba_marseille","lat":43.31175,"lon":5.38713,"is_reserved":false,"is_disabled":false,"rental_uris":{"android":"levelo://app?vid=f258ff73-2a49-4a60-9ce6-6f7708c10850","ios":"levelo://app?vid=f258ff73-2a49-4a60-9ce6-6f7708c10850"},"vehicle_type_id":"4","last_reported":1752869525,"current_range_meters":12000,"station_id":"ce4bgv12rcd13ifvqcp0","pricing_plan_id":"cebpf4jnsgd1na2vs0mg"},{"bike_id":"7232080a-0ab9-449d-8847-765fcd2dad4f","system_id":"levelo_inurba_marseille","lat":43.311722,"lon":5.38709,"is_reserved":false,"is_disabled":false,"rental_uris":{"android":"levelo://app?vid=7232080a-0ab9-449d-8847-765fcd2dad4f","ios":"levelo://app?vid=7232080a-0ab9-449d-8847-765fcd2dad4f"},"vehicle_type_id":"4","last_reported":1752869525,"current_range_meters":12000,"station_id":"ce4bgv12rcd13ifvqcp0","pricing_plan_id":"cebpf4jnsgd1na2vs0mg"},{"bike_id":"5ac93e7c-286a-4c1e-b6c0-4e9963e5a9f8","system_id":"levelo_inurba_marseille","lat":43.211909,"lon":5.350684,"is_reserved":false,"is_disabled":false,"rental_uris":{"android":"levelo://app?vid=5ac93e7c-286a-4c1e-b6c0-4e9963e5a9f8","ios":"levelo://app?vid=5ac93e7c-286a-4c1e-b6c0-4e9963e5a9f8"},"vehicle_type_id":"4","last_reported":1752869525,"current_range_meters":12000,"station_id":"st_cvj6sg6p6f1abm77japg","pricing_plan_id":"cebpf4jnsgd1na2vs0mg"},{"bike_id":"c6db0f6a-96fe-4e1d-8ded-c2ef38c9bab4","system_id":"levelo_inurba_marseille","lat":43.304183,"lon":5.412838,"is_reserved":false,"is_disabled":true,"rental_uris":{"android":"levelo://app?vid=c6db0f6a-96fe-4e1d-8ded-c2ef38c9bab4","ios":"levelo://app?vid=c6db0f6a-96fe-4e1d-8ded-c2ef38c9bab4"},"vehicle_type_id":"4","last_reported":1752869525,"current_range_meters":12400,"station_id":"ce4bhop2rcd13ifvqh8g","pricing_plan_id":"cebpf4jnsgd1na2vs0mg"},{"bike_id":"3a0f1fe1-54c9-43f9-8fe1-1708ed7ae544","system_id":"levelo_inurba_marseille","lat":43.28227,"lon":5.37274,"is_reserved":false,"is_disabled":false,"rental_uris":{"android":"levelo://app?vid=3a0f1fe1-54c9-43f9-8fe1-1708ed7ae544","ios":"levelo://app?vid=3a0f1fe1-54c9-43f9-8fe1-1708ed7ae544"},"vehicle_type_id":"4","last_reported":1752869525,"current_range_meters":12400,"station_id":"","pricing_plan_id":"cebpf4jnsgd1na2vs0mg"},{"bike_id":"ee5510ee-8e3d-4783-a4e9-9921b4c6b7c1","system_id":"levelo_inurba_marseille","lat":43.29584,"lon":5.37513,"is_reserved":false,"is_disabled":false,"rental_uris":{"android":"levelo://app?vid=ee5510ee-8e3d-4783-a4e9-9921b4c6b7c1","ios":"levelo://app?vid=ee5510ee-8e3d-4783-a4e9-9921b4c6b7c1"},"vehicle_type_id":"4","last_reported":1752869525,"current_range_meters":12400,"station_id":"ce4bgh92rcd13ifvqb50","pricing_plan_id":"cebpf4jnsgd1na2vs0mg"},{"bike_id":"4607398c-5481-406b-ba58-548c4b76f331","system_id":"levelo_inurba_marseille","lat":43.271854,"lon":5.362776,"is_reserved":false,"is_disabled":false,"rental_uris":{"android":"levelo://app?vid=4607398c-5481-406b-ba58-548c4b76f331","ios":"levelo://app?vid=4607398c-5481-406b-ba58-548c4b76f331"},"vehicle_type_id":"4","last_reported":1752869525,"current_range_meters":12400,"station_id":"","pricing_plan_id":"cebpf4jnsgd1na2vs0mg"},{"bike_id":"35965273-4af4-457c-87a3-4f7523a4ce80","system_id":"levelo_inurba_marseille","lat":43.29003,"lon":5.35621,"is_reserved":false,"is_disabled":true,"rental_uris":{"android":"levelo://app?vid=35965273-4af4-457c-87a3-4f7523a4ce80","ios":"levelo://app?vid=35965273-4af4-457c-87a3-4f7523a4ce80"},"vehicle_type_id":"4","last_reported":1752869525,"current_range_meters":12400,"station_id":"ce4bhb92rcd13ifvqen0","pricing_plan_id":"cebpf4jnsgd1na2vs0mg"},{"bike_id":"f800f272-2096-43d2-9adb-f69df8c17de1","system_id":"levelo_inurba_marseille","lat":43.3095,"lon":5.39071,"is_reserved":false,"is_disabled":false,"rental_uris":{"android":"levelo://app?vid=f800f272-2096-43d2-9adb-f69df8c17de1","ios":"levelo://app?vid=f800f272-2096-43d2-9adb-f69df8c17de1"},"vehicle_type_id":"4","last_reported":1752869525,"current_range_meters":12400,"station_id":"ce4bgup2rcd13ifvqco0","pricing_plan_id":"cebpf4jnsgd1na2vs0mg"},{"bike_id":"9e46aa88-7b19-47c3-b789-71b8902b53cb","system_id":"levelo_inurba_marseille","lat":43.28148,"lon":5.42643,"is_reserved":false,"is_disabled":false,"rental_uris":{"android":"levelo://app?vid=9e46aa88-7b19-47c3-b789-71b8902b53cb","ios":"levelo://app?vid=9e46aa88-7b19-47c3-b789-71b8902b53cb"},"vehicle_type_id":"4","last_reported":1752869525,"current_range_meters":12400,"station_id":"ce4bhnh2rcd13ifvqgug","pricing_plan_id":"cebpf4jnsgd1na2vs0mg"},{"bike_id":"7232ee08-5003-42ae-9f5f-daf96cb6b66e","system_id":"levelo_inurba_marseille","lat":43.24775,"lon":5.37477,"is_reserved":false,"is_disabled":false,"rental_uris":{"android":"levelo://app?vid=7232ee08-5003-42ae-9f5f-daf96cb6b66e","ios":"levelo://app?vid=7232ee08-5003-42ae-9f5f-daf96cb6b66e"},"vehicle_type_id":"4","last_reported":1752869525,"current_range_meters":12400,"station_id":"ce4bhgh2rcd13ifvqfb0","pricing_plan_id":"cebpf4jnsgd1na2vs0mg"},{"bike_id":"5a51bba0-b42f-42f0-8cbd-4213ea878a15","system_id":"levelo_inurba_marseille","lat":43.29918,"lon":5.37477,"is_reserved":false,"is_disabled":false,"rental_uris":{"android":"levelo://app?vid=5a51bba0-b42f-42f0-8cbd-4213ea878a15","ios":"levelo://app?vid=5a51bba0-b42f-42f0-8cbd-4213ea878a15"},"vehicle_type_id":"4","last_reported":1752869525,"current_range_meters":12400,"station_id":"ce4bgjh2rcd13ifvqbg0","pricing_plan_id":"cebpf4jnsgd1na2vs0mg"},{"bike_id":"be60c88c-1453-4626-be80-200258f79626","system_id":"levelo_inurba_marseille","lat":43.23199,"lon":5.35546,"is_reserved":false,"is_disabled":false,"rental_uris":{"android":"levelo://app?vid=be60c88c-1453-4626-be80-200258f79626","ios":"levelo://app?vid=be60c88c-1453-4626-be80-200258f79626"},"vehicle_type_id":"4","last_reported":1752869525,"current_range_meters":12400,"station_id":"ce4bhu92rcd13ifvqi70","pricing_plan_id":"cebpf4jnsgd1na2vs0mg"},{"bike_id":"f491512d-ae98-4079-90b8-e206121e26d9","system_id":"levelo_inurba_marseille","lat":43.30931,"lon":5.39038,"is_reserved":false,"is_disabled":false,"rental_uris":{"android":"levelo://app?vid=f491512d-ae98-4079-90b8-e206121e26d9","ios":"levelo://app?vid=f491512d-ae98-4079-90b8-e206121e26d9"},"vehicle_type_id":"4","last_reported":1752869525,"current_range_meters":12400,"station_id":"ce4bgup2rcd13ifvqco0","pricing_plan_id":"cebpf4jnsgd1na2vs0mg"},{"bike_id":"3d4242c2-6e9c-4cbe-8867-5080cdc433e6","system_id":"levelo_inurba_marseille","lat":43.30956,"lon":5.3902,"is_reserved":false,"is_disabled":false,"rental_uris":{"android":"levelo://app?vid=3d4242c2-6e9c-4cbe-8867-5080cdc433e6","ios":"levelo://app?vid=3d4242c2-6e9c-4cbe-8867-5080cdc433e6"},"vehicle_type_id":"4","last_reported":1752869525,"current_range_meters":12800,"station_id":"ce4bgup2rcd13ifvqco0","pricing_plan_id":"cebpf4jnsgd1na2vs0mg"},{"bike_id":"0f50f91d-b1a4-4c34-9f38-624326b8c320","system_id":"levelo_inurba_marseille","lat":43.26184,"lon":5.37451,"is_reserved":false,"is_disabled":false,"rental_uris":{"android":"levelo://app?vid=0f50f91d-b1a4-4c34-9f38-624326b8c320","ios":"levelo://app?vid=0f50f91d-b1a4-4c34-9f38-624326b8c320"},"vehicle_type_id":"4","last_reported":1752869525,"current_range_meters":12800,"station_id":"ce4bhgp2rcd13ifvqfc0","pricing_plan_id":"cebpf4jnsgd1na2vs0mg"},{"bike_id":"5c0132f9-4427-4648-b178-caf09d2eddca","system_id":"levelo_inurba_marseille","lat":43.29714,"lon":5.3662,"is_reserved":false,"is_disabled":false,"rental_uris":{"android":"levelo://app?vid=5c0132f9-4427-4648-b178-caf09d2eddca","ios":"levelo://app?vid=5c0132f9-4427-4648-b178-caf09d2eddca"},"vehicle_type_id":"4","last_reported":1752869525,"current_range_meters":12800,"station_id":"ce4bgn12rcd13ifvqbt0","pricing_plan_id":"cebpf4jnsgd1na2vs0mg"},{"bike_id":"313426e1-aa4c-41c0-81e3-4fb604910541","system_id":"levelo_inurba_marseille","lat":43.30301,"lon":5.39198,"is_reserved":false,"is_disabled":false,"rental_uris":{"android":"levelo://app?vid=313426e1-aa4c-41c0-81e3-4fb604910541","ios":"levelo://app?vid=313426e1-aa4c-41c0-81e3-4fb604910541"},"vehicle_type_id":"4","last_reported":1752869525,"current_range_meters":12800,"station_id":"ce4bgkh2rcd13ifvqbk0","pricing_plan_id":"cebpf4jnsgd1na2vs0mg"},{"bike_id":"79a264ec-4735-451a-bb43-b99b058fae02","system_id":"levelo_inurba_marseille","lat":43.309485,"lon":5.390293,"is_reserved":false,"is_disabled":false,"rental_uris":{"android":"levelo://app?vid=79a264ec-4735-451a-bb43-b99b058fae02","ios":"levelo://app?vid=79a264ec-4735-451a-bb43-b99b058fae02"},"vehicle_type_id":"4","last_reported":1752869525,"current_range_meters":11200,"station_id":"ce4bgup2rcd13ifvqco0","pricing_plan_id":"cebpf4jnsgd1na2vs0mg"},{"bike_id":"166ff00c-044e-4d4b-bdf6-66a6c99d7975","system_id":"levelo_inurba_marseille","lat":43.300716,"lon":5.375405,"is_reserved":false,"is_disabled":false,"rental_uris":{"android":"levelo://app?vid=166ff00c-044e-4d4b-bdf6-66a6c99d7975","ios":"levelo://app?vid=166ff00c-044e-4d4b-bdf6-66a6c99d7975"},"vehicle_type_id":"4","last_reported":1752869525,"current_range_meters":12800,"station_id":"ce4bgs92rcd13ifvqcc0","pricing_plan_id":"cebpf4jnsgd1na2vs0mg"},{"bike_id":"17c76267-52dd-40e4-8752-e830056aab75","system_id":"levelo_inurba_marseille","lat":43.33586,"lon":5.41048,"is_reserved":false,"is_disabled":false,"rental_uris":{"android":"levelo://app?vid=17c76267-52dd-40e4-8752-e830056aab75","ios":"levelo://app?vid=17c76267-52dd-40e4-8752-e830056aab75"},"vehicle_type_id":"4","last_reported":1752869525,"current_range_meters":13600,"station_id":"ce4bhqh2rcd13ifvqhmg","pricing_plan_id":"cebpf4jnsgd1na2vs0mg"},{"bike_id":"f1514e40-c022-4238-9831-96025bee9238","system_id":"levelo_inurba_marseille","lat":43.30591,"lon":5.39348,"is_reserved":false,"is_disabled":false,"rental_uris":{"android":"levelo://app?vid=f1514e40-c022-4238-9831-96025bee9238","ios":"levelo://app?vid=f1514e40-c022-4238-9831-96025bee9238"},"vehicle_type_id":"4","last_reported":1752869525,"current_range_meters":13600,"station_id":"ce4bh0p2rcd13ifvqd80","pricing_plan_id":"cebpf4jnsgd1na2vs0mg"},{"bike_id":"d6a716d6-742e-403e-9c78-02403911bb45","system_id":"levelo_inurba_marseille","lat":43.2955,"lon":5.37492,"is_reserved":false,"is_disabled":false,"rental_uris":{"android":"levelo://app?vid=d6a716d6-742e-403e-9c78-02403911bb45","ios":"levelo://app?vid=d6a716d6-742e-403e-9c78-02403911bb45"},"vehicle_type_id":"4","last_reported":1752869525,"current_range_meters":13600,"station_id":"ce4bgkp2rcd13ifvqbmg","pricing_plan_id":"cebpf4jnsgd1na2vs0mg"},{"bike_id":"cfb52d04-9134-4c86-8269-771716b20f27","system_id":"levelo_inurba_marseille","lat":43.21194,"lon":5.35068,"is_reserved":false,"is_disabled":false,"rental_uris":{"android":"levelo://app?vid=cfb52d04-9134-4c86-8269-771716b20f27","ios":"levelo://app?vid=cfb52d04-9134-4c86-8269-771716b20f27"},"vehicle_type_id":"4","last_reported":1752869525,"current_range_meters":13600,"station_id":"st_cvj6sg6p6f1abm77japg","pricing_plan_id":"cebpf4jnsgd1na2vs0mg"},{"bike_id":"c3ac509c-e93b-452a-bc2a-82079aaa6a85","system_id":"levelo_inurba_marseille","lat":43.30587,"lon":5.40437,"is_reserved":false,"is_disabled":false,"rental_uris":{"android":"levelo://app?vid=c3ac509c-e93b-452a-bc2a-82079aaa6a85","ios":"levelo://app?vid=c3ac509c-e93b-452a-bc2a-82079aaa6a85"},"vehicle_type_id":"4","last_reported":1752869525,"current_range_meters":14000,"station_id":"","pricing_plan_id":"cebpf4jnsgd1na2vs0mg"},{"bike_id":"522c22c0-382d-4b3b-b76d-044d2f9ec382","system_id":"levelo_inurba_marseille","lat":43.297729,"lon":5.37104,"is_reserved":false,"is_disabled":false,"rental_uris":{"android":"levelo://app?vid=522c22c0-382d-4b3b-b76d-044d2f9ec382","ios":"levelo://app?vid=522c22c0-382d-4b3b-b76d-044d2f9ec382"},"vehicle_type_id":"4","last_reported":1752869525,"current_range_meters":14000,"station_id":"ce4bgop2rcd13ifvqc1g","pricing_plan_id":"cebpf4jnsgd1na2vs0mg"},{"bike_id":"0b250332-c99a-4726-ac2a-74deb04ffed3","system_id":"levelo_inurba_marseille","lat":43.27922,"lon":5.39564,"is_reserved":false,"is_disabled":true,"rental_uris":{"android":"levelo://app?vid=0b250332-c99a-4726-ac2a-74deb04ffed3","ios":"levelo://app?vid=0b250332-c99a-4726-ac2a-74deb04ffed3"},"vehicle_type_id":"4","last_reported":1752869525,"current_range_meters":14000,"station_id":"ce4bhf92rcd13ifvqf40","pricing_plan_id":"cebpf4jnsgd1na2vs0mg"},{"bike_id":"797e03c8-9856-46a2-bf76-6e379de6361f","system_id":"levelo_inurba_marseille","lat":43.24812,"lon":5.37459,"is_reserved":false,"is_disabled":true,"rental_uris":{"android":"levelo://app?vid=797e03c8-9856-46a2-bf76-6e379de6361f","ios":"levelo://app?vid=797e03c8-9856-46a2-bf76-6e379de6361f"},"vehicle_type_id":"4","last_reported":1752869525,"current_range_meters":14000,"station_id":"ce4bhgh2rcd13ifvqfb0","pricing_plan_id":"cebpf4jnsgd1na2vs0mg"},{"bike_id":"e99b7f11-7256-4f7b-ab4b-8ab888f22522","system_id":"levelo_inurba_marseille","lat":43.30961,"lon":5.39038,"is_reserved":false,"is_disabled":false,"rental_uris":{"android":"levelo://app?vid=e99b7f11-7256-4f7b-ab4b-8ab888f22522","ios":"levelo://app?vid=e99b7f11-7256-4f7b-ab4b-8ab888f22522"},"vehicle_type_id":"4","last_reported":1752869525,"current_range_meters":14000,"station_id":"ce4bgup2rcd13ifvqco0","pricing_plan_id":"cebpf4jnsgd1na2vs0mg"},{"bike_id":"617264ec-0f40-4c6b-95a4-4be26f934880","system_id":"levelo_inurba_marseille","lat":43.29973,"lon":5.37176,"is_reserved":false,"is_disabled":false,"rental_uris":{"android":"levelo://app?vid=617264ec-0f40-4c6b-95a4-4be26f934880","ios":"levelo://app?vid=617264ec-0f40-4c6b-95a4-4be26f934880"},"vehicle_type_id":"4","last_reported":1752869525,"current_range_meters":13600,"station_id":"ce4bgr92rcd13ifvqc7g","pricing_plan_id":"cebpf4jnsgd1na2vs0mg"},{"bike_id":"a67156ae-789e-45f5-ab3f-ed7d95b24540","system_id":"levelo_inurba_marseille","lat":43.21194,"lon":5.35065,"is_reserved":false,"is_disabled":false,"rental_uris":{"android":"levelo://app?vid=a67156ae-789e-45f5-ab3f-ed7d95b24540","ios":"levelo://app?vid=a67156ae-789e-45f5-ab3f-ed7d95b24540"},"vehicle_type_id":"4","last_reported":1752869525,"current_range_meters":14000,"station_id":"st_cvj6sg6p6f1abm77japg","pricing_plan_id":"cebpf4jnsgd1na2vs0mg"},{"bike_id":"b7fe52dd-f025-4212-9e78-19e7f6f09593","system_id":"levelo_inurba_marseille","lat":43.21184,"lon":5.35046,"is_reserved":false,"is_disabled":false,"rental_uris":{"android":"levelo://app?vid=b7fe52dd-f025-4212-9e78-19e7f6f09593","ios":"levelo://app?vid=b7fe52dd-f025-4212-9e78-19e7f6f09593"},"vehicle_type_id":"4","last_reported":1752869525,"current_range_meters":14000,"station_id":"st_cvj6sg6p6f1abm77japg","pricing_plan_id":"cebpf4jnsgd1na2vs0mg"},{"bike_id":"bbeb3073-8962-402f-94b3-bf11b62d3173","system_id":"levelo_inurba_marseille","lat":43.26186,"lon":5.37469,"is_reserved":false,"is_disabled":false,"rental_uris":{"android":"levelo://app?vid=bbeb3073-8962-402f-94b3-bf11b62d3173","ios":"levelo://app?vid=bbeb3073-8962-402f-94b3-bf11b62d3173"},"vehicle_type_id":"4","last_reported":1752869525,"current_range_meters":14400,"station_id":"ce4bhgp2rcd13ifvqfc0","pricing_plan_id":"cebpf4jnsgd1na2vs0mg"},{"bike_id":"70a3940c-c40a-4ef4-8e48-8b68d4968bc7","system_id":"levelo_inurba_marseille","lat":43.23965,"lon":5.36616,"is_reserved":false,"is_disabled":true,"rental_uris":{"android":"levelo://app?vid=70a3940c-c40a-4ef4-8e48-8b68d4968bc7","ios":"levelo://app?vid=70a3940c-c40a-4ef4-8e48-8b68d4968bc7"},"vehicle_type_id":"4","last_reported":1752869525,"current_range_meters":14400,"station_id":"ce4bhi12rcd13ifvqfp0","pricing_plan_id":"cebpf4jnsgd1na2vs0mg"},{"bike_id":"c740b9e3-5864-4760-90d2-78efdd9dc76c","system_id":"levelo_inurba_marseille","lat":43.302169,"lon":5.394748,"is_reserved":false,"is_disabled":false,"rental_uris":{"android":"levelo://app?vid=c740b9e3-5864-4760-90d2-78efdd9dc76c","ios":"levelo://app?vid=c740b9e3-5864-4760-90d2-78efdd9dc76c"},"vehicle_type_id":"4","last_reported":1752869525,"current_range_meters":14400,"station_id":"ce4bh0p2rcd13ifvqd70","pricing_plan_id":"cebpf4jnsgd1na2vs0mg"},{"bike_id":"edd0079d-996b-4ae3-9a31-d781f3a059ec","system_id":"levelo_inurba_marseille","lat":43.33786,"lon":5.37426,"is_reserved":false,"is_disabled":false,"rental_uris":{"android":"levelo://app?vid=edd0079d-996b-4ae3-9a31-d781f3a059ec","ios":"levelo://app?vid=edd0079d-996b-4ae3-9a31-d781f3a059ec"},"vehicle_type_id":"4","last_reported":1752869525,"current_range_meters":14400,"station_id":"","pricing_plan_id":"cebpf4jnsgd1na2vs0mg"},{"bike_id":"22e7bc3f-edf6-4f47-8bf7-ff057efabae6","system_id":"levelo_inurba_marseille","lat":43.29536,"lon":5.38547,"is_reserved":false,"is_disabled":false,"rental_uris":{"android":"levelo://app?vid=22e7bc3f-edf6-4f47-8bf7-ff057efabae6","ios":"levelo://app?vid=22e7bc3f-edf6-4f47-8bf7-ff057efabae6"},"vehicle_type_id":"4","last_reported":1752869525,"current_range_meters":14800,"station_id":"ce4bgih2rcd13ifvqba0","pricing_plan_id":"cebpf4jnsgd1na2vs0mg"},{"bike_id":"0ffec689-ea73-4886-a8a8-e9075fc0366f","system_id":"levelo_inurba_marseille","lat":43.307351,"lon":5.4245,"is_reserved":false,"is_disabled":true,"rental_uris":{"android":"levelo://app?vid=0ffec689-ea73-4886-a8a8-e9075fc0366f","ios":"levelo://app?vid=0ffec689-ea73-4886-a8a8-e9075fc0366f"},"vehicle_type_id":"4","last_reported":1752869525,"current_range_meters":14800,"station_id":"st_cvj6ca6bvosntc0bfgr0","pricing_plan_id":"cebpf4jnsgd1na2vs0mg"},{"bike_id":"00200085-a7f8-4b07-9428-8d0e79ca8ddb","system_id":"levelo_inurba_marseille","lat":43.3095,"lon":5.39045,"is_reserved":false,"is_disabled":false,"rental_uris":{"android":"levelo://app?vid=00200085-a7f8-4b07-9428-8d0e79ca8ddb","ios":"levelo://app?vid=00200085-a7f8-4b07-9428-8d0e79ca8ddb"},"vehicle_type_id":"4","last_reported":1752869525,"current_range_meters":14800,"station_id":"ce4bgup2rcd13ifvqco0","pricing_plan_id":"cebpf4jnsgd1na2vs0mg"},{"bike_id":"ac0ed4be-466c-4caa-b855-3c6bbe5a11b5","system_id":"levelo_inurba_marseille","lat":43.267576,"lon":5.371773,"is_reserved":false,"is_disabled":false,"rental_uris":{"android":"levelo://app?vid=ac0ed4be-466c-4caa-b855-3c6bbe5a11b5","ios":"levelo://app?vid=ac0ed4be-466c-4caa-b855-3c6bbe5a11b5"},"vehicle_type_id":"4","last_reported":1752869525,"current_range_meters":14800,"station_id":"","pricing_plan_id":"cebpf4jnsgd1na2vs0mg"},{"bike_id":"9834eb32-9578-440b-b872-13d681ac2aa2","system_id":"levelo_inurba_marseille","lat":43.23965,"lon":5.36635,"is_reserved":false,"is_disabled":false,"rental_uris":{"android":"levelo://app?vid=9834eb32-9578-440b-b872-13d681ac2aa2","ios":"levelo://app?vid=9834eb32-9578-440b-b872-13d681ac2aa2"},"vehicle_type_id":"4","last_reported":1752869525,"current_range_meters":14800,"station_id":"ce4bhi12rcd13ifvqfp0","pricing_plan_id":"cebpf4jnsgd1na2vs0mg"},{"bike_id":"3c581b95-22db-4c0d-8237-0e0604583988","system_id":"levelo_inurba_marseille","lat":43.31689,"lon":5.404727,"is_reserved":false,"is_disabled":false,"rental_uris":{"android":"levelo://app?vid=3c581b95-22db-4c0d-8237-0e0604583988","ios":"levelo://app?vid=3c581b95-22db-4c0d-8237-0e0604583988"},"vehicle_type_id":"4","last_reported":1752869525,"current_range_meters":14400,"station_id":"ce4bh012rcd13ifvqd00","pricing_plan_id":"cebpf4jnsgd1na2vs0mg"},{"bike_id":"2fd3d782-24a7-42a3-b248-8e69e5a88f8a","system_id":"levelo_inurba_marseille","lat":43.31663,"lon":5.40507,"is_reserved":false,"is_disabled":false,"rental_uris":{"android":"levelo://app?vid=2fd3d782-24a7-42a3-b248-8e69e5a88f8a","ios":"levelo://app?vid=2fd3d782-24a7-42a3-b248-8e69e5a88f8a"},"vehicle_type_id":"4","last_reported":1752869525,"current_range_meters":14800,"station_id":"ce4bh012rcd13ifvqd00","pricing_plan_id":"cebpf4jnsgd1na2vs0mg"},{"bike_id":"aec74d05-87db-4019-a15b-f438d3f26ba8","system_id":"levelo_inurba_marseille","lat":43.29553,"lon":5.42291,"is_reserved":false,"is_disabled":false,"rental_uris":{"android":"levelo://app?vid=aec74d05-87db-4019-a15b-f438d3f26ba8","ios":"levelo://app?vid=aec74d05-87db-4019-a15b-f438d3f26ba8"},"vehicle_type_id":"4","last_reported":1752869525,"current_range_meters":14800,"station_id":"ce4bhph2rcd13ifvqhdg","pricing_plan_id":"cebpf4jnsgd1na2vs0mg"},{"bike_id":"1ec5a8b9-6c71-4d1e-95be-e71a3adc55d2","system_id":"levelo_inurba_marseille","lat":43.21741,"lon":5.34616,"is_reserved":false,"is_disabled":false,"rental_uris":{"android":"levelo://app?vid=1ec5a8b9-6c71-4d1e-95be-e71a3adc55d2","ios":"levelo://app?vid=1ec5a8b9-6c71-4d1e-95be-e71a3adc55d2"},"vehicle_type_id":"4","last_reported":1752869525,"current_range_meters":15200,"station_id":"st_cvj6r9ubvosntc0bgbag","pricing_plan_id":"cebpf4jnsgd1na2vs0mg"},{"bike_id":"5ed7e33c-75eb-4f80-9ced-f5eee5190af4","system_id":"levelo_inurba_marseille","lat":43.29557,"lon":5.42279,"is_reserved":false,"is_disabled":false,"rental_uris":{"android":"levelo://app?vid=5ed7e33c-75eb-4f80-9ced-f5eee5190af4","ios":"levelo://app?vid=5ed7e33c-75eb-4f80-9ced-f5eee5190af4"},"vehicle_type_id":"4","last_reported":1752869525,"current_range_meters":15200,"station_id":"ce4bhph2rcd13ifvqhdg","pricing_plan_id":"cebpf4jnsgd1na2vs0mg"},{"bike_id":"dc34ecef-ae3e-4a22-8d61-33125ba51dd3","system_id":"levelo_inurba_marseille","lat":43.31995,"lon":5.38164,"is_reserved":false,"is_disabled":false,"rental_uris":{"android":"levelo://app?vid=dc34ecef-ae3e-4a22-8d61-33125ba51dd3","ios":"levelo://app?vid=dc34ecef-ae3e-4a22-8d61-33125ba51dd3"},"vehicle_type_id":"4","last_reported":1752869525,"current_range_meters":14800,"station_id":"ce4bhr12rcd13ifvqhpg","pricing_plan_id":"cebpf4jnsgd1na2vs0mg"},{"bike_id":"8e79a85b-71cd-44e2-9769-4ad285ff7c49","system_id":"levelo_inurba_marseille","lat":43.21736,"lon":5.34604,"is_reserved":false,"is_disabled":false,"rental_uris":{"android":"levelo://app?vid=8e79a85b-71cd-44e2-9769-4ad285ff7c49","ios":"levelo://app?vid=8e79a85b-71cd-44e2-9769-4ad285ff7c49"},"vehicle_type_id":"4","last_reported":1752869525,"current_range_meters":15200,"station_id":"st_cvj6r9ubvosntc0bgbag","pricing_plan_id":"cebpf4jnsgd1na2vs0mg"},{"bike_id":"befb5294-5305-4228-b0c2-b71fe4f51449","system_id":"levelo_inurba_marseille","lat":43.31881,"lon":5.407388,"is_reserved":false,"is_disabled":false,"rental_uris":{"android":"levelo://app?vid=befb5294-5305-4228-b0c2-b71fe4f51449","ios":"levelo://app?vid=befb5294-5305-4228-b0c2-b71fe4f51449"},"vehicle_type_id":"4","last_reported":1752869525,"current_range_meters":15200,"station_id":"ce4bhq12rcd13ifvqhig","pricing_plan_id":"cebpf4jnsgd1na2vs0mg"},{"bike_id":"6c27f4e5-c060-463e-a687-5ab98ee77067","system_id":"levelo_inurba_marseille","lat":43.26221,"lon":5.37419,"is_reserved":false,"is_disabled":false,"rental_uris":{"android":"levelo://app?vid=6c27f4e5-c060-463e-a687-5ab98ee77067","ios":"levelo://app?vid=6c27f4e5-c060-463e-a687-5ab98ee77067"},"vehicle_type_id":"4","last_reported":1752869525,"current_range_meters":15200,"station_id":"","pricing_plan_id":"cebpf4jnsgd1na2vs0mg"},{"bike_id":"7fa35e28-6fd7-47b8-bbaf-3435d6daffce","system_id":"levelo_inurba_marseille","lat":43.311716,"lon":5.387209,"is_reserved":false,"is_disabled":false,"rental_uris":{"android":"levelo://app?vid=7fa35e28-6fd7-47b8-bbaf-3435d6daffce","ios":"levelo://app?vid=7fa35e28-6fd7-47b8-bbaf-3435d6daffce"},"vehicle_type_id":"4","last_reported":1752869525,"current_range_meters":16000,"station_id":"ce4bh0p2rcd13ifvqd80","pricing_plan_id":"cebpf4jnsgd1na2vs0mg"},{"bike_id":"08a94e68-7279-4c26-9ca7-7cd2e2f2fe4c","system_id":"levelo_inurba_marseille","lat":43.24168,"lon":5.36387,"is_reserved":false,"is_disabled":true,"rental_uris":{"android":"levelo://app?vid=08a94e68-7279-4c26-9ca7-7cd2e2f2fe4c","ios":"levelo://app?vid=08a94e68-7279-4c26-9ca7-7cd2e2f2fe4c"},"vehicle_type_id":"4","last_reported":1752869525,"current_range_meters":16000,"station_id":"cpo36qri1sfpv3e86is0","pricing_plan_id":"cebpf4jnsgd1na2vs0mg"},{"bike_id":"262bba80-9a85-4074-97aa-225c3aedc3b7","system_id":"levelo_inurba_marseille","lat":43.30643,"lon":5.40127,"is_reserved":false,"is_disabled":true,"rental_uris":{"android":"levelo://app?vid=262bba80-9a85-4074-97aa-225c3aedc3b7","ios":"levelo://app?vid=262bba80-9a85-4074-97aa-225c3aedc3b7"},"vehicle_type_id":"4","last_reported":1752869525,"current_range_meters":16000,"station_id":"ce4bh112rcd13ifvqda0","pricing_plan_id":"cebpf4jnsgd1na2vs0mg"},{"bike_id":"6208d8d0-a589-4ca9-bc44-8edc449e856c","system_id":"levelo_inurba_marseille","lat":43.2926,"lon":5.37615,"is_reserved":false,"is_disabled":false,"rental_uris":{"android":"levelo://app?vid=6208d8d0-a589-4ca9-bc44-8edc449e856c","ios":"levelo://app?vid=6208d8d0-a589-4ca9-bc44-8edc449e856c"},"vehicle_type_id":"4","last_reported":1752869525,"current_range_meters":16000,"station_id":"ce4bgi12rcd13ifvqb80","pricing_plan_id":"cebpf4jnsgd1na2vs0mg"},{"bike_id":"1a794689-0399-4bd8-871c-778f85fe0438","system_id":"levelo_inurba_marseille","lat":43.27489,"lon":5.424533,"is_reserved":false,"is_disabled":false,"rental_uris":{"android":"levelo://app?vid=1a794689-0399-4bd8-871c-778f85fe0438","ios":"levelo://app?vid=1a794689-0399-4bd8-871c-778f85fe0438"},"vehicle_type_id":"4","last_reported":1752869525,"current_range_meters":16000,"station_id":"ce4bhn92rcd13ifvqgrg","pricing_plan_id":"cebpf4jnsgd1na2vs0mg"},{"bike_id":"8b495a77-e44a-4211-9f12-5262465d1fbb","system_id":"levelo_inurba_marseille","lat":43.32056,"lon":5.41578,"is_reserved":false,"is_disabled":false,"rental_uris":{"android":"levelo://app?vid=8b495a77-e44a-4211-9f12-5262465d1fbb","ios":"levelo://app?vid=8b495a77-e44a-4211-9f12-5262465d1fbb"},"vehicle_type_id":"4","last_reported":1752869525,"current_range_meters":17200,"station_id":"ce4bhq92rcd13ifvqhkg","pricing_plan_id":"cebpf4jnsgd1na2vs0mg"},{"bike_id":"7808e552-e227-406b-b291-4f472904be38","system_id":"levelo_inurba_marseille","lat":43.2621,"lon":5.37434,"is_reserved":false,"is_disabled":false,"rental_uris":{"android":"levelo://app?vid=7808e552-e227-406b-b291-4f472904be38","ios":"levelo://app?vid=7808e552-e227-406b-b291-4f472904be38"},"vehicle_type_id":"4","last_reported":1752869525,"current_range_meters":16000,"station_id":"ce4bhgp2rcd13ifvqfc0","pricing_plan_id":"cebpf4jnsgd1na2vs0mg"},{"bike_id":"112622b0-8e7e-410d-81a6-1032b9887cd2","system_id":"levelo_inurba_marseille","lat":43.3064,"lon":5.40072,"is_reserved":false,"is_disabled":false,"rental_uris":{"android":"levelo://app?vid=112622b0-8e7e-410d-81a6-1032b9887cd2","ios":"levelo://app?vid=112622b0-8e7e-410d-81a6-1032b9887cd2"},"vehicle_type_id":"4","last_reported":1752869525,"current_range_meters":16000,"station_id":"ce4bh112rcd13ifvqda0","pricing_plan_id":"cebpf4jnsgd1na2vs0mg"},{"bike_id":"9ff1fd3c-c920-4dba-94c3-c5ca49db834d","system_id":"levelo_inurba_marseille","lat":43.255726,"lon":5.382287,"is_reserved":false,"is_disabled":false,"rental_uris":{"android":"levelo://app?vid=9ff1fd3c-c920-4dba-94c3-c5ca49db834d","ios":"levelo://app?vid=9ff1fd3c-c920-4dba-94c3-c5ca49db834d"},"vehicle_type_id":"4","last_reported":1752869525,"current_range_meters":16400,"station_id":"ce4bhih2rcd13ifvqfs0","pricing_plan_id":"cebpf4jnsgd1na2vs0mg"},{"bike_id":"e6ed5a81-2a33-4c37-a36e-2bb390f1a720","system_id":"levelo_inurba_marseille","lat":43.27607,"lon":5.36108,"is_reserved":false,"is_disabled":false,"rental_uris":{"android":"levelo://app?vid=e6ed5a81-2a33-4c37-a36e-2bb390f1a720","ios":"levelo://app?vid=e6ed5a81-2a33-4c37-a36e-2bb390f1a720"},"vehicle_type_id":"4","last_reported":1752869525,"current_range_meters":16400,"station_id":"ce4bgj92rcd13ifvqbe0","pricing_plan_id":"cebpf4jnsgd1na2vs0mg"},{"bike_id":"0e3e9a19-a32e-45e2-bce2-fa6c5fad95bf","system_id":"levelo_inurba_marseille","lat":43.31068,"lon":5.38358,"is_reserved":false,"is_disabled":false,"rental_uris":{"android":"levelo://app?vid=0e3e9a19-a32e-45e2-bce2-fa6c5fad95bf","ios":"levelo://app?vid=0e3e9a19-a32e-45e2-bce2-fa6c5fad95bf"},"vehicle_type_id":"4","last_reported":1752869525,"current_range_meters":16400,"station_id":"ce4bgv92rcd13ifvqcr0","pricing_plan_id":"cebpf4jnsgd1na2vs0mg"},{"bike_id":"11e4def9-dcf2-4fdf-9acf-cef9fd3c707c","system_id":"levelo_inurba_marseille","lat":43.31074,"lon":5.38357,"is_reserved":false,"is_disabled":false,"rental_uris":{"android":"levelo://app?vid=11e4def9-dcf2-4fdf-9acf-cef9fd3c707c","ios":"levelo://app?vid=11e4def9-dcf2-4fdf-9acf-cef9fd3c707c"},"vehicle_type_id":"4","last_reported":1752869525,"current_range_meters":16400,"station_id":"ce4bgv92rcd13ifvqcr0","pricing_plan_id":"cebpf4jnsgd1na2vs0mg"},{"bike_id":"3ec898bc-1344-4f3b-aec9-19388bcac888","system_id":"levelo_inurba_marseille","lat":43.31401,"lon":5.38336,"is_reserved":false,"is_disabled":false,"rental_uris":{"android":"levelo://app?vid=3ec898bc-1344-4f3b-aec9-19388bcac888","ios":"levelo://app?vid=3ec898bc-1344-4f3b-aec9-19388bcac888"},"vehicle_type_id":"4","last_reported":1752869525,"current_range_meters":16400,"station_id":"","pricing_plan_id":"cebpf4jnsgd1na2vs0mg"},{"bike_id":"6e7fdf49-e424-46c1-b02b-628c0ea0e41b","system_id":"levelo_inurba_marseille","lat":43.26207,"lon":5.37452,"is_reserved":false,"is_disabled":false,"rental_uris":{"android":"levelo://app?vid=6e7fdf49-e424-46c1-b02b-628c0ea0e41b","ios":"levelo://app?vid=6e7fdf49-e424-46c1-b02b-628c0ea0e41b"},"vehicle_type_id":"4","last_reported":1752869525,"current_range_meters":16400,"station_id":"ce4bhgp2rcd13ifvqfc0","pricing_plan_id":"cebpf4jnsgd1na2vs0mg"},{"bike_id":"7d389564-b94d-4d03-a198-0fceb6692f29","system_id":"levelo_inurba_marseille","lat":43.29033,"lon":5.3864,"is_reserved":false,"is_disabled":false,"rental_uris":{"android":"levelo://app?vid=7d389564-b94d-4d03-a198-0fceb6692f29","ios":"levelo://app?vid=7d389564-b94d-4d03-a198-0fceb6692f29"},"vehicle_type_id":"4","last_reported":1752869525,"current_range_meters":16400,"station_id":"ce4bh4p2rcd13ifvqe0g","pricing_plan_id":"cebpf4jnsgd1na2vs0mg"},{"bike_id":"62c491ba-b22a-42d7-a5e1-b94307cc1c48","system_id":"levelo_inurba_marseille","lat":43.29519,"lon":5.37494,"is_reserved":false,"is_disabled":false,"rental_uris":{"android":"levelo://app?vid=62c491ba-b22a-42d7-a5e1-b94307cc1c48","ios":"levelo://app?vid=62c491ba-b22a-42d7-a5e1-b94307cc1c48"},"vehicle_type_id":"4","last_reported":1752869525,"current_range_meters":16400,"station_id":"ce4bgkp2rcd13ifvqbmg","pricing_plan_id":"cebpf4jnsgd1na2vs0mg"},{"bike_id":"0916292f-c60f-4ec2-a3c5-bb862cec8507","system_id":"levelo_inurba_marseille","lat":43.23192,"lon":5.35555,"is_reserved":false,"is_disabled":false,"rental_uris":{"android":"levelo://app?vid=0916292f-c60f-4ec2-a3c5-bb862cec8507","ios":"levelo://app?vid=0916292f-c60f-4ec2-a3c5-bb862cec8507"},"vehicle_type_id":"4","last_reported":1752869525,"current_range_meters":16400,"station_id":"ce4bhu92rcd13ifvqi70","pricing_plan_id":"cebpf4jnsgd1na2vs0mg"},{"bike_id":"e04643ac-8091-492e-84a0-a953a55c5725","system_id":"levelo_inurba_marseille","lat":43.309448,"lon":5.390299,"is_reserved":false,"is_disabled":false,"rental_uris":{"android":"levelo://app?vid=e04643ac-8091-492e-84a0-a953a55c5725","ios":"levelo://app?vid=e04643ac-8091-492e-84a0-a953a55c5725"},"vehicle_type_id":"4","last_reported":1752869525,"current_range_meters":16400,"station_id":"ce4bgup2rcd13ifvqco0","pricing_plan_id":"cebpf4jnsgd1na2vs0mg"},{"bike_id":"4c41e195-b949-425e-9e7f-a71e3d92996c","system_id":"levelo_inurba_marseille","lat":43.2621,"lon":5.37438,"is_reserved":false,"is_disabled":false,"rental_uris":{"android":"levelo://app?vid=4c41e195-b949-425e-9e7f-a71e3d92996c","ios":"levelo://app?vid=4c41e195-b949-425e-9e7f-a71e3d92996c"},"vehicle_type_id":"4","last_reported":1752869525,"current_range_meters":16400,"station_id":"ce4bhgp2rcd13ifvqfc0","pricing_plan_id":"cebpf4jnsgd1na2vs0mg"},{"bike_id":"717bf606-dadc-4581-9e11-5382f11b8076","system_id":"levelo_inurba_marseille","lat":43.29529,"lon":5.38552,"is_reserved":false,"is_disabled":false,"rental_uris":{"android":"levelo://app?vid=717bf606-dadc-4581-9e11-5382f11b8076","ios":"levelo://app?vid=717bf606-dadc-4581-9e11-5382f11b8076"},"vehicle_type_id":"4","last_reported":1752869525,"current_range_meters":16800,"station_id":"ce4bgih2rcd13ifvqba0","pricing_plan_id":"cebpf4jnsgd1na2vs0mg"},{"bike_id":"7f02cd16-abf2-40a4-97c2-19dc0dd97d66","system_id":"levelo_inurba_marseille","lat":43.26202,"lon":5.40497,"is_reserved":false,"is_disabled":false,"rental_uris":{"android":"levelo://app?vid=7f02cd16-abf2-40a4-97c2-19dc0dd97d66","ios":"levelo://app?vid=7f02cd16-abf2-40a4-97c2-19dc0dd97d66"},"vehicle_type_id":"4","last_reported":1752869525,"current_range_meters":16800,"station_id":"ce4bhmh2rcd13ifvqgmg","pricing_plan_id":"cebpf4jnsgd1na2vs0mg"},{"bike_id":"afc91c81-7042-4270-a28e-07e325ae83c9","system_id":"levelo_inurba_marseille","lat":43.21192,"lon":5.35083,"is_reserved":false,"is_disabled":false,"rental_uris":{"android":"levelo://app?vid=afc91c81-7042-4270-a28e-07e325ae83c9","ios":"levelo://app?vid=afc91c81-7042-4270-a28e-07e325ae83c9"},"vehicle_type_id":"4","last_reported":1752869525,"current_range_meters":16800,"station_id":"st_cvj6sg6p6f1abm77japg","pricing_plan_id":"cebpf4jnsgd1na2vs0mg"},{"bike_id":"f872da29-3864-433e-9d64-838334e7d10f","system_id":"levelo_inurba_marseille","lat":43.26218,"lon":5.37436,"is_reserved":false,"is_disabled":false,"rental_uris":{"android":"levelo://app?vid=f872da29-3864-433e-9d64-838334e7d10f","ios":"levelo://app?vid=f872da29-3864-433e-9d64-838334e7d10f"},"vehicle_type_id":"4","last_reported":1752869525,"current_range_meters":16800,"station_id":"ce4bhgp2rcd13ifvqfc0","pricing_plan_id":"cebpf4jnsgd1na2vs0mg"},{"bike_id":"119d0da6-eac2-4ca1-b3dc-f8e84ebcab4b","system_id":"levelo_inurba_marseille","lat":43.28109,"lon":5.37824,"is_reserved":false,"is_disabled":false,"rental_uris":{"android":"levelo://app?vid=119d0da6-eac2-4ca1-b3dc-f8e84ebcab4b","ios":"levelo://app?vid=119d0da6-eac2-4ca1-b3dc-f8e84ebcab4b"},"vehicle_type_id":"4","last_reported":1752869525,"current_range_meters":16800,"station_id":"ce4bha12rcd13ifvqee0","pricing_plan_id":"cebpf4jnsgd1na2vs0mg"},{"bike_id":"90f1924f-336d-4405-b5b1-03dcfd5afe7c","system_id":"levelo_inurba_marseille","lat":43.27841,"lon":5.38511,"is_reserved":false,"is_disabled":false,"rental_uris":{"android":"levelo://app?vid=90f1924f-336d-4405-b5b1-03dcfd5afe7c","ios":"levelo://app?vid=90f1924f-336d-4405-b5b1-03dcfd5afe7c"},"vehicle_type_id":"4","last_reported":1752869525,"current_range_meters":16800,"station_id":"","pricing_plan_id":"cebpf4jnsgd1na2vs0mg"},{"bike_id":"9d79822c-ba64-4798-8630-701a49bde2a9","system_id":"levelo_inurba_marseille","lat":43.29296,"lon":5.37452,"is_reserved":false,"is_disabled":false,"rental_uris":{"android":"levelo://app?vid=9d79822c-ba64-4798-8630-701a49bde2a9","ios":"levelo://app?vid=9d79822c-ba64-4798-8630-701a49bde2a9"},"vehicle_type_id":"4","last_reported":1752869525,"current_range_meters":16800,"station_id":"ce4bgi12rcd13ifvqb70","pricing_plan_id":"cebpf4jnsgd1na2vs0mg"},{"bike_id":"83a58fe8-eeff-4a92-856b-d25c4e809f7b","system_id":"levelo_inurba_marseille","lat":43.26029,"lon":5.37541,"is_reserved":false,"is_disabled":false,"rental_uris":{"android":"levelo://app?vid=83a58fe8-eeff-4a92-856b-d25c4e809f7b","ios":"levelo://app?vid=83a58fe8-eeff-4a92-856b-d25c4e809f7b"},"vehicle_type_id":"4","last_reported":1752869525,"current_range_meters":16800,"station_id":"ce4bhgh2rcd13ifvqfa0","pricing_plan_id":"cebpf4jnsgd1na2vs0mg"},{"bike_id":"840d15da-ce07-4216-bc7e-2f3d01c3b30c","system_id":"levelo_inurba_marseille","lat":43.29427,"lon":5.38597,"is_reserved":false,"is_disabled":false,"rental_uris":{"android":"levelo://app?vid=840d15da-ce07-4216-bc7e-2f3d01c3b30c","ios":"levelo://app?vid=840d15da-ce07-4216-bc7e-2f3d01c3b30c"},"vehicle_type_id":"4","last_reported":1752869525,"current_range_meters":16800,"station_id":"ce4bh2h2rcd13ifvqdh0","pricing_plan_id":"cebpf4jnsgd1na2vs0mg"},{"bike_id":"df378928-3451-42d5-afc0-16bc320f22be","system_id":"levelo_inurba_marseille","lat":43.29168,"lon":5.37152,"is_reserved":false,"is_disabled":false,"rental_uris":{"android":"levelo://app?vid=df378928-3451-42d5-afc0-16bc320f22be","ios":"levelo://app?vid=df378928-3451-42d5-afc0-16bc320f22be"},"vehicle_type_id":"4","last_reported":1752869525,"current_range_meters":16400,"station_id":"ce4bha92rcd13ifvqeh0","pricing_plan_id":"cebpf4jnsgd1na2vs0mg"},{"bike_id":"94c07cb2-0943-4d24-99f2-97bdab47aa3f","system_id":"levelo_inurba_marseille","lat":43.337444,"lon":5.374475,"is_reserved":false,"is_disabled":false,"rental_uris":{"android":"levelo://app?vid=94c07cb2-0943-4d24-99f2-97bdab47aa3f","ios":"levelo://app?vid=94c07cb2-0943-4d24-99f2-97bdab47aa3f"},"vehicle_type_id":"4","last_reported":1752869525,"current_range_meters":16800,"station_id":"","pricing_plan_id":"cebpf4jnsgd1na2vs0mg"},{"bike_id":"d5cf0ddb-4301-4e01-9253-a4393d968d0a","system_id":"levelo_inurba_marseille","lat":43.22517,"lon":5.34818,"is_reserved":false,"is_disabled":false,"rental_uris":{"android":"levelo://app?vid=d5cf0ddb-4301-4e01-9253-a4393d968d0a","ios":"levelo://app?vid=d5cf0ddb-4301-4e01-9253-a4393d968d0a"},"vehicle_type_id":"4","last_reported":1752869525,"current_range_meters":17200,"station_id":"st_cvj5dfep6f1abm77gieg","pricing_plan_id":"cebpf4jnsgd1na2vs0mg"},{"bike_id":"c38bc073-b027-4117-9379-68bd1ef1d670","system_id":"levelo_inurba_marseille","lat":43.26027,"lon":5.37555,"is_reserved":false,"is_disabled":false,"rental_uris":{"android":"levelo://app?vid=c38bc073-b027-4117-9379-68bd1ef1d670","ios":"levelo://app?vid=c38bc073-b027-4117-9379-68bd1ef1d670"},"vehicle_type_id":"4","last_reported":1752869525,"current_range_meters":16800,"station_id":"ce4bhgh2rcd13ifvqfa0","pricing_plan_id":"cebpf4jnsgd1na2vs0mg"},{"bike_id":"e1ee3b6b-e4c6-41cd-8fc6-59eeb0370b0b","system_id":"levelo_inurba_marseille","lat":43.30953,"lon":5.39022,"is_reserved":false,"is_disabled":false,"rental_uris":{"android":"levelo://app?vid=e1ee3b6b-e4c6-41cd-8fc6-59eeb0370b0b","ios":"levelo://app?vid=e1ee3b6b-e4c6-41cd-8fc6-59eeb0370b0b"},"vehicle_type_id":"4","last_reported":1752869525,"current_range_meters":17200,"station_id":"ce4bgup2rcd13ifvqco0","pricing_plan_id":"cebpf4jnsgd1na2vs0mg"},{"bike_id":"90bc8238-ff07-4cad-a4ea-2d97fe8e0889","system_id":"levelo_inurba_marseille","lat":43.28352,"lon":5.38107,"is_reserved":false,"is_disabled":false,"rental_uris":{"android":"levelo://app?vid=90bc8238-ff07-4cad-a4ea-2d97fe8e0889","ios":"levelo://app?vid=90bc8238-ff07-4cad-a4ea-2d97fe8e0889"},"vehicle_type_id":"4","last_reported":1752869525,"current_range_meters":17200,"station_id":"ce4bh412rcd13ifvqdr0","pricing_plan_id":"cebpf4jnsgd1na2vs0mg"},{"bike_id":"221a8f03-67cb-485b-8573-9abcf816d5d5","system_id":"levelo_inurba_marseille","lat":43.29868,"lon":5.39734,"is_reserved":false,"is_disabled":false,"rental_uris":{"android":"levelo://app?vid=221a8f03-67cb-485b-8573-9abcf816d5d5","ios":"levelo://app?vid=221a8f03-67cb-485b-8573-9abcf816d5d5"},"vehicle_type_id":"4","last_reported":1752869525,"current_range_meters":17200,"station_id":"","pricing_plan_id":"cebpf4jnsgd1na2vs0mg"},{"bike_id":"0f367a38-4fd3-42e0-bfc4-f233e3fd8fbb","system_id":"levelo_inurba_marseille","lat":43.30594,"lon":5.3935,"is_reserved":false,"is_disabled":false,"rental_uris":{"android":"levelo://app?vid=0f367a38-4fd3-42e0-bfc4-f233e3fd8fbb","ios":"levelo://app?vid=0f367a38-4fd3-42e0-bfc4-f233e3fd8fbb"},"vehicle_type_id":"4","last_reported":1752869525,"current_range_meters":17200,"station_id":"ce4bh0p2rcd13ifvqd80","pricing_plan_id":"cebpf4jnsgd1na2vs0mg"},{"bike_id":"9e944c0d-2dd7-4c1a-b131-d5121e0f348e","system_id":"levelo_inurba_marseille","lat":43.310625,"lon":5.383445,"is_reserved":false,"is_disabled":false,"rental_uris":{"android":"levelo://app?vid=9e944c0d-2dd7-4c1a-b131-d5121e0f348e","ios":"levelo://app?vid=9e944c0d-2dd7-4c1a-b131-d5121e0f348e"},"vehicle_type_id":"4","last_reported":1752869525,"current_range_meters":17200,"station_id":"ce4bgv92rcd13ifvqcr0","pricing_plan_id":"cebpf4jnsgd1na2vs0mg"},{"bike_id":"ab71408f-6750-49d9-a72f-03267bb9b3d9","system_id":"levelo_inurba_marseille","lat":43.29262,"lon":5.40915,"is_reserved":false,"is_disabled":false,"rental_uris":{"android":"levelo://app?vid=ab71408f-6750-49d9-a72f-03267bb9b3d9","ios":"levelo://app?vid=ab71408f-6750-49d9-a72f-03267bb9b3d9"},"vehicle_type_id":"4","last_reported":1752869525,"current_range_meters":17200,"station_id":"ce4bh192rcd13ifvqdc0","pricing_plan_id":"cebpf4jnsgd1na2vs0mg"},{"bike_id":"50c322ef-4f50-4369-86f2-9a35408319ff","system_id":"levelo_inurba_marseille","lat":43.303079,"lon":5.402415,"is_reserved":false,"is_disabled":false,"rental_uris":{"android":"levelo://app?vid=50c322ef-4f50-4369-86f2-9a35408319ff","ios":"levelo://app?vid=50c322ef-4f50-4369-86f2-9a35408319ff"},"vehicle_type_id":"4","last_reported":1752869525,"current_range_meters":17200,"station_id":"ce4bh012rcd13ifvqd10","pricing_plan_id":"cebpf4jnsgd1na2vs0mg"},{"bike_id":"15dbf7dd-b1ee-425a-918d-b01eaf722998","system_id":"levelo_inurba_marseille","lat":43.31157,"lon":5.38693,"is_reserved":false,"is_disabled":false,"rental_uris":{"android":"levelo://app?vid=15dbf7dd-b1ee-425a-918d-b01eaf722998","ios":"levelo://app?vid=15dbf7dd-b1ee-425a-918d-b01eaf722998"},"vehicle_type_id":"4","last_reported":1752869525,"current_range_meters":17200,"station_id":"ce4bgv12rcd13ifvqcp0","pricing_plan_id":"cebpf4jnsgd1na2vs0mg"},{"bike_id":"55aeb894-f0bb-4b43-860c-f21b3b50a2a3","system_id":"levelo_inurba_marseille","lat":43.32291,"lon":5.38252,"is_reserved":false,"is_disabled":false,"rental_uris":{"android":"levelo://app?vid=55aeb894-f0bb-4b43-860c-f21b3b50a2a3","ios":"levelo://app?vid=55aeb894-f0bb-4b43-860c-f21b3b50a2a3"},"vehicle_type_id":"4","last_reported":1752869525,"current_range_meters":17200,"station_id":"ce4bhr12rcd13ifvqhqg","pricing_plan_id":"cebpf4jnsgd1na2vs0mg"},{"bike_id":"1503dbeb-f2aa-440b-95fc-353f66960f30","system_id":"levelo_inurba_marseille","lat":43.27935,"lon":5.41038,"is_reserved":false,"is_disabled":true,"rental_uris":{"android":"levelo://app?vid=1503dbeb-f2aa-440b-95fc-353f66960f30","ios":"levelo://app?vid=1503dbeb-f2aa-440b-95fc-353f66960f30"},"vehicle_type_id":"4","last_reported":1752869525,"current_range_meters":17200,"station_id":"ce4bhnp2rcd13ifvqh0g","pricing_plan_id":"cebpf4jnsgd1na2vs0mg"},{"bike_id":"e6eb42d0-56d3-450f-b9ca-08ac9fb3dfc3","system_id":"levelo_inurba_marseille","lat":43.2559,"lon":5.3822,"is_reserved":false,"is_disabled":false,"rental_uris":{"android":"levelo://app?vid=e6eb42d0-56d3-450f-b9ca-08ac9fb3dfc3","ios":"levelo://app?vid=e6eb42d0-56d3-450f-b9ca-08ac9fb3dfc3"},"vehicle_type_id":"4","last_reported":1752869525,"current_range_meters":17200,"station_id":"ce4bhih2rcd13ifvqfs0","pricing_plan_id":"cebpf4jnsgd1na2vs0mg"},{"bike_id":"681466f0-b3ed-4f33-8427-279f0d403529","system_id":"levelo_inurba_marseille","lat":43.25602,"lon":5.3819,"is_reserved":false,"is_disabled":false,"rental_uris":{"android":"levelo://app?vid=681466f0-b3ed-4f33-8427-279f0d403529","ios":"levelo://app?vid=681466f0-b3ed-4f33-8427-279f0d403529"},"vehicle_type_id":"4","last_reported":1752869525,"current_range_meters":17200,"station_id":"ce4bhih2rcd13ifvqfs0","pricing_plan_id":"cebpf4jnsgd1na2vs0mg"},{"bike_id":"cd5a9591-6e46-4776-8003-ff3824872e9f","system_id":"levelo_inurba_marseille","lat":43.2901,"lon":5.356173,"is_reserved":false,"is_disabled":true,"rental_uris":{"android":"levelo://app?vid=cd5a9591-6e46-4776-8003-ff3824872e9f","ios":"levelo://app?vid=cd5a9591-6e46-4776-8003-ff3824872e9f"},"vehicle_type_id":"4","last_reported":1752869525,"current_range_meters":17200,"station_id":"ce4bhb92rcd13ifvqen0","pricing_plan_id":"cebpf4jnsgd1na2vs0mg"},{"bike_id":"7360b2c1-827d-4a45-ba07-948ef7d2fc35","system_id":"levelo_inurba_marseille","lat":43.229295,"lon":5.353761,"is_reserved":false,"is_disabled":false,"rental_uris":{"android":"levelo://app?vid=7360b2c1-827d-4a45-ba07-948ef7d2fc35","ios":"levelo://app?vid=7360b2c1-827d-4a45-ba07-948ef7d2fc35"},"vehicle_type_id":"4","last_reported":1752869525,"current_range_meters":17200,"station_id":"","pricing_plan_id":"cebpf4jnsgd1na2vs0mg"},{"bike_id":"96579d04-b9e9-484c-9b9a-af500e5e8552","system_id":"levelo_inurba_marseille","lat":43.32692,"lon":5.36398,"is_reserved":false,"is_disabled":false,"rental_uris":{"android":"levelo://app?vid=96579d04-b9e9-484c-9b9a-af500e5e8552","ios":"levelo://app?vid=96579d04-b9e9-484c-9b9a-af500e5e8552"},"vehicle_type_id":"4","last_reported":1752869525,"current_range_meters":17200,"station_id":"","pricing_plan_id":"cebpf4jnsgd1na2vs0mg"},{"bike_id":"b7f96c45-a300-4f35-b4a9-3c09c88cf0cd","system_id":"levelo_inurba_marseille","lat":43.295353,"lon":5.390515,"is_reserved":false,"is_disabled":false,"rental_uris":{"android":"levelo://app?vid=b7f96c45-a300-4f35-b4a9-3c09c88cf0cd","ios":"levelo://app?vid=b7f96c45-a300-4f35-b4a9-3c09c88cf0cd"},"vehicle_type_id":"4","last_reported":1752869525,"current_range_meters":17200,"station_id":"ce4bh3p2rcd13ifvqdp0","pricing_plan_id":"cebpf4jnsgd1na2vs0mg"},{"bike_id":"c27ced46-316b-4542-b79e-caf776aed47e","system_id":"levelo_inurba_marseille","lat":43.31494,"lon":5.37302,"is_reserved":false,"is_disabled":false,"rental_uris":{"android":"levelo://app?vid=c27ced46-316b-4542-b79e-caf776aed47e","ios":"levelo://app?vid=c27ced46-316b-4542-b79e-caf776aed47e"},"vehicle_type_id":"4","last_reported":1752869525,"current_range_meters":17200,"station_id":"ce4bgt12rcd13ifvqcd0","pricing_plan_id":"cebpf4jnsgd1na2vs0mg"},{"bike_id":"4315c1ae-330f-4b26-8e9d-adb789b34de4","system_id":"levelo_inurba_marseille","lat":43.31165,"lon":5.38709,"is_reserved":false,"is_disabled":false,"rental_uris":{"android":"levelo://app?vid=4315c1ae-330f-4b26-8e9d-adb789b34de4","ios":"levelo://app?vid=4315c1ae-330f-4b26-8e9d-adb789b34de4"},"vehicle_type_id":"4","last_reported":1752869525,"current_range_meters":17600,"station_id":"ce4bgv12rcd13ifvqcp0","pricing_plan_id":"cebpf4jnsgd1na2vs0mg"},{"bike_id":"e0eaafa1-e478-44dc-b08f-8b8d05afb0b5","system_id":"levelo_inurba_marseille","lat":43.29267,"lon":5.40915,"is_reserved":false,"is_disabled":false,"rental_uris":{"android":"levelo://app?vid=e0eaafa1-e478-44dc-b08f-8b8d05afb0b5","ios":"levelo://app?vid=e0eaafa1-e478-44dc-b08f-8b8d05afb0b5"},"vehicle_type_id":"4","last_reported":1752869525,"current_range_meters":17600,"station_id":"ce4bh192rcd13ifvqdc0","pricing_plan_id":"cebpf4jnsgd1na2vs0mg"},{"bike_id":"cb7b541b-4aa0-476b-ac1b-c83b6acaa65d","system_id":"levelo_inurba_marseille","lat":43.2415,"lon":5.3642,"is_reserved":false,"is_disabled":false,"rental_uris":{"android":"levelo://app?vid=cb7b541b-4aa0-476b-ac1b-c83b6acaa65d","ios":"levelo://app?vid=cb7b541b-4aa0-476b-ac1b-c83b6acaa65d"},"vehicle_type_id":"4","last_reported":1752869525,"current_range_meters":17600,"station_id":"cpo36qri1sfpv3e86is0","pricing_plan_id":"cebpf4jnsgd1na2vs0mg"},{"bike_id":"7b455fd6-8c35-47c2-801d-e7a917ea4ef3","system_id":"levelo_inurba_marseille","lat":43.29818,"lon":5.36285,"is_reserved":false,"is_disabled":false,"rental_uris":{"android":"levelo://app?vid=7b455fd6-8c35-47c2-801d-e7a917ea4ef3","ios":"levelo://app?vid=7b455fd6-8c35-47c2-801d-e7a917ea4ef3"},"vehicle_type_id":"4","last_reported":1752869525,"current_range_meters":17600,"station_id":"ce4bgpp2rcd13ifvqc3g","pricing_plan_id":"cebpf4jnsgd1na2vs0mg"},{"bike_id":"2132c597-e825-4845-8e46-a75cb64c9c65","system_id":"levelo_inurba_marseille","lat":43.29689,"lon":5.37294,"is_reserved":false,"is_disabled":false,"rental_uris":{"android":"levelo://app?vid=2132c597-e825-4845-8e46-a75cb64c9c65","ios":"levelo://app?vid=2132c597-e825-4845-8e46-a75cb64c9c65"},"vehicle_type_id":"4","last_reported":1752869525,"current_range_meters":17600,"station_id":"ce4bgk12rcd13ifvqbj0","pricing_plan_id":"cebpf4jnsgd1na2vs0mg"},{"bike_id":"c766c395-9e25-4d6f-a262-9fac02b0f842","system_id":"levelo_inurba_marseille","lat":43.29532,"lon":5.38542,"is_reserved":false,"is_disabled":false,"rental_uris":{"android":"levelo://app?vid=c766c395-9e25-4d6f-a262-9fac02b0f842","ios":"levelo://app?vid=c766c395-9e25-4d6f-a262-9fac02b0f842"},"vehicle_type_id":"4","last_reported":1752869525,"current_range_meters":17200,"station_id":"ce4bgih2rcd13ifvqba0","pricing_plan_id":"cebpf4jnsgd1na2vs0mg"},{"bike_id":"693e5746-b042-4de0-aa64-af2f0176d370","system_id":"levelo_inurba_marseille","lat":43.26935,"lon":5.40301,"is_reserved":false,"is_disabled":false,"rental_uris":{"android":"levelo://app?vid=693e5746-b042-4de0-aa64-af2f0176d370","ios":"levelo://app?vid=693e5746-b042-4de0-aa64-af2f0176d370"},"vehicle_type_id":"4","last_reported":1752869525,"current_range_meters":17600,"station_id":"cjm6bp8fraef2m0cb0m0","pricing_plan_id":"cebpf4jnsgd1na2vs0mg"},{"bike_id":"55245ba5-401a-4c1b-b660-e5d45ec27a09","system_id":"levelo_inurba_marseille","lat":43.29572,"lon":5.37518,"is_reserved":false,"is_disabled":false,"rental_uris":{"android":"levelo://app?vid=55245ba5-401a-4c1b-b660-e5d45ec27a09","ios":"levelo://app?vid=55245ba5-401a-4c1b-b660-e5d45ec27a09"},"vehicle_type_id":"4","last_reported":1752869525,"current_range_meters":17600,"station_id":"ce4bgh92rcd13ifvqb50","pricing_plan_id":"cebpf4jnsgd1na2vs0mg"},{"bike_id":"9f772b38-3864-4bba-8e9f-486b4cae4e82","system_id":"levelo_inurba_marseille","lat":43.31162,"lon":5.38716,"is_reserved":false,"is_disabled":false,"rental_uris":{"android":"levelo://app?vid=9f772b38-3864-4bba-8e9f-486b4cae4e82","ios":"levelo://app?vid=9f772b38-3864-4bba-8e9f-486b4cae4e82"},"vehicle_type_id":"4","last_reported":1752869525,"current_range_meters":17600,"station_id":"ce4bgv12rcd13ifvqcp0","pricing_plan_id":"cebpf4jnsgd1na2vs0mg"},{"bike_id":"2af95fde-bbda-4371-b6f4-23ff033b88e9","system_id":"levelo_inurba_marseille","lat":43.306,"lon":5.37203,"is_reserved":false,"is_disabled":false,"rental_uris":{"android":"levelo://app?vid=2af95fde-bbda-4371-b6f4-23ff033b88e9","ios":"levelo://app?vid=2af95fde-bbda-4371-b6f4-23ff033b88e9"},"vehicle_type_id":"4","last_reported":1752869525,"current_range_meters":17600,"station_id":"ce4bgqh2rcd13ifvqc4g","pricing_plan_id":"cebpf4jnsgd1na2vs0mg"},{"bike_id":"9eee562f-c74b-4c1a-8fa0-1792764207de","system_id":"levelo_inurba_marseille","lat":43.25488,"lon":5.37639,"is_reserved":false,"is_disabled":true,"rental_uris":{"android":"levelo://app?vid=9eee562f-c74b-4c1a-8fa0-1792764207de","ios":"levelo://app?vid=9eee562f-c74b-4c1a-8fa0-1792764207de"},"vehicle_type_id":"4","last_reported":1752869525,"current_range_meters":18000,"station_id":"ce4bhh12rcd13ifvqff0","pricing_plan_id":"cebpf4jnsgd1na2vs0mg"},{"bike_id":"137677d1-4023-4569-b26f-01e6b5072a65","system_id":"levelo_inurba_marseille","lat":43.31146,"lon":5.38716,"is_reserved":false,"is_disabled":false,"rental_uris":{"android":"levelo://app?vid=137677d1-4023-4569-b26f-01e6b5072a65","ios":"levelo://app?vid=137677d1-4023-4569-b26f-01e6b5072a65"},"vehicle_type_id":"4","last_reported":1752869525,"current_range_meters":18000,"station_id":"ce4bgv12rcd13ifvqcp0","pricing_plan_id":"cebpf4jnsgd1na2vs0mg"},{"bike_id":"b9d4c0b5-3cbf-4a89-a51e-beb79e1325a1","system_id":"levelo_inurba_marseille","lat":43.2844,"lon":5.35922,"is_reserved":false,"is_disabled":false,"rental_uris":{"android":"levelo://app?vid=b9d4c0b5-3cbf-4a89-a51e-beb79e1325a1","ios":"levelo://app?vid=b9d4c0b5-3cbf-4a89-a51e-beb79e1325a1"},"vehicle_type_id":"4","last_reported":1752869525,"current_range_meters":18000,"station_id":"ce4bhah2rcd13ifvqei0","pricing_plan_id":"cebpf4jnsgd1na2vs0mg"},{"bike_id":"b2ba379b-8b77-4e7f-99e9-0cd2387ed8e0","system_id":"levelo_inurba_marseille","lat":43.27056,"lon":5.40255,"is_reserved":false,"is_disabled":false,"rental_uris":{"android":"levelo://app?vid=b2ba379b-8b77-4e7f-99e9-0cd2387ed8e0","ios":"levelo://app?vid=b2ba379b-8b77-4e7f-99e9-0cd2387ed8e0"},"vehicle_type_id":"4","last_reported":1752869525,"current_range_meters":18000,"station_id":"ce4bhk92rcd13ifvqgc0","pricing_plan_id":"cebpf4jnsgd1na2vs0mg"},{"bike_id":"d8d5e19d-12f6-4229-aafd-499fd8700738","system_id":"levelo_inurba_marseille","lat":43.29426,"lon":5.38599,"is_reserved":false,"is_disabled":false,"rental_uris":{"android":"levelo://app?vid=d8d5e19d-12f6-4229-aafd-499fd8700738","ios":"levelo://app?vid=d8d5e19d-12f6-4229-aafd-499fd8700738"},"vehicle_type_id":"4","last_reported":1752869525,"current_range_meters":18000,"station_id":"ce4bh2h2rcd13ifvqdh0","pricing_plan_id":"cebpf4jnsgd1na2vs0mg"},{"bike_id":"d1e9c72e-7489-4052-b944-813b64bc55b4","system_id":"levelo_inurba_marseille","lat":43.31603,"lon":5.38989,"is_reserved":false,"is_disabled":false,"rental_uris":{"android":"levelo://app?vid=d1e9c72e-7489-4052-b944-813b64bc55b4","ios":"levelo://app?vid=d1e9c72e-7489-4052-b944-813b64bc55b4"},"vehicle_type_id":"4","last_reported":1752869525,"current_range_meters":18000,"station_id":"","pricing_plan_id":"cebpf4jnsgd1na2vs0mg"},{"bike_id":"e2848f10-f5a5-47e2-b7cf-419a4ca592bd","system_id":"levelo_inurba_marseille","lat":43.30564,"lon":5.39356,"is_reserved":false,"is_disabled":false,"rental_uris":{"android":"levelo://app?vid=e2848f10-f5a5-47e2-b7cf-419a4ca592bd","ios":"levelo://app?vid=e2848f10-f5a5-47e2-b7cf-419a4ca592bd"},"vehicle_type_id":"4","last_reported":1752869525,"current_range_meters":18800,"station_id":"ce4bh0p2rcd13ifvqd80","pricing_plan_id":"cebpf4jnsgd1na2vs0mg"},{"bike_id":"47c7c515-091f-46b1-b0fb-5dcffc2a717e","system_id":"levelo_inurba_marseille","lat":43.29919,"lon":5.3747,"is_reserved":false,"is_disabled":false,"rental_uris":{"android":"levelo://app?vid=47c7c515-091f-46b1-b0fb-5dcffc2a717e","ios":"levelo://app?vid=47c7c515-091f-46b1-b0fb-5dcffc2a717e"},"vehicle_type_id":"4","last_reported":1752869525,"current_range_meters":18800,"station_id":"ce4bgjh2rcd13ifvqbg0","pricing_plan_id":"cebpf4jnsgd1na2vs0mg"},{"bike_id":"45dea0eb-918d-49f1-8341-001e35c226f0","system_id":"levelo_inurba_marseille","lat":43.211934,"lon":5.350667,"is_reserved":false,"is_disabled":false,"rental_uris":{"android":"levelo://app?vid=45dea0eb-918d-49f1-8341-001e35c226f0","ios":"levelo://app?vid=45dea0eb-918d-49f1-8341-001e35c226f0"},"vehicle_type_id":"4","last_reported":1752869525,"current_range_meters":19200,"station_id":"st_cvj6sg6p6f1abm77japg","pricing_plan_id":"cebpf4jnsgd1na2vs0mg"},{"bike_id":"2e606d73-f62a-4853-aaff-b16661109f2a","system_id":"levelo_inurba_marseille","lat":43.3149,"lon":5.37304,"is_reserved":false,"is_disabled":false,"rental_uris":{"android":"levelo://app?vid=2e606d73-f62a-4853-aaff-b16661109f2a","ios":"levelo://app?vid=2e606d73-f62a-4853-aaff-b16661109f2a"},"vehicle_type_id":"4","last_reported":1752869525,"current_range_meters":18800,"station_id":"ce4bgt12rcd13ifvqcd0","pricing_plan_id":"cebpf4jnsgd1na2vs0mg"},{"bike_id":"5a2615e6-4241-43f9-ac90-53115a380a57","system_id":"levelo_inurba_marseille","lat":43.29578,"lon":5.37514,"is_reserved":false,"is_disabled":false,"rental_uris":{"android":"levelo://app?vid=5a2615e6-4241-43f9-ac90-53115a380a57","ios":"levelo://app?vid=5a2615e6-4241-43f9-ac90-53115a380a57"},"vehicle_type_id":"4","last_reported":1752869525,"current_range_meters":18800,"station_id":"ce4bgh92rcd13ifvqb50","pricing_plan_id":"cebpf4jnsgd1na2vs0mg"},{"bike_id":"ae514fe1-85ea-4b12-b065-9e5a24663928","system_id":"levelo_inurba_marseille","lat":43.21182,"lon":5.35063,"is_reserved":false,"is_disabled":false,"rental_uris":{"android":"levelo://app?vid=ae514fe1-85ea-4b12-b065-9e5a24663928","ios":"levelo://app?vid=ae514fe1-85ea-4b12-b065-9e5a24663928"},"vehicle_type_id":"4","last_reported":1752869525,"current_range_meters":18800,"station_id":"st_cvj6sg6p6f1abm77japg","pricing_plan_id":"cebpf4jnsgd1na2vs0mg"},{"bike_id":"c86a8ca1-05ce-4b2a-9cad-110a55107fc5","system_id":"levelo_inurba_marseille","lat":43.29978,"lon":5.38483,"is_reserved":false,"is_disabled":false,"rental_uris":{"android":"levelo://app?vid=c86a8ca1-05ce-4b2a-9cad-110a55107fc5","ios":"levelo://app?vid=c86a8ca1-05ce-4b2a-9cad-110a55107fc5"},"vehicle_type_id":"4","last_reported":1752869525,"current_range_meters":18800,"station_id":"ce4bgj92rcd13ifvqbd0","pricing_plan_id":"cebpf4jnsgd1na2vs0mg"},{"bike_id":"a0e6de25-53a6-4e2c-ba56-d0c89144a59d","system_id":"levelo_inurba_marseille","lat":43.31124,"lon":5.37756,"is_reserved":false,"is_disabled":false,"rental_uris":{"android":"levelo://app?vid=a0e6de25-53a6-4e2c-ba56-d0c89144a59d","ios":"levelo://app?vid=a0e6de25-53a6-4e2c-ba56-d0c89144a59d"},"vehicle_type_id":"4","last_reported":1752869525,"current_range_meters":18800,"station_id":"ce4bgt92rcd13ifvqcg0","pricing_plan_id":"cebpf4jnsgd1na2vs0mg"},{"bike_id":"3878cadf-f134-47f2-8ee3-ed7b320e4074","system_id":"levelo_inurba_marseille","lat":43.305289,"lon":5.384272,"is_reserved":false,"is_disabled":false,"rental_uris":{"android":"levelo://app?vid=3878cadf-f134-47f2-8ee3-ed7b320e4074","ios":"levelo://app?vid=3878cadf-f134-47f2-8ee3-ed7b320e4074"},"vehicle_type_id":"4","last_reported":1752869525,"current_range_meters":18800,"station_id":"ce4bgg92rcd13ifvqb30","pricing_plan_id":"cebpf4jnsgd1na2vs0mg"},{"bike_id":"a95d15e7-1bee-480b-b478-1172ece5ec65","system_id":"levelo_inurba_marseille","lat":43.29568,"lon":5.37511,"is_reserved":false,"is_disabled":false,"rental_uris":{"android":"levelo://app?vid=a95d15e7-1bee-480b-b478-1172ece5ec65","ios":"levelo://app?vid=a95d15e7-1bee-480b-b478-1172ece5ec65"},"vehicle_type_id":"4","last_reported":1752869525,"current_range_meters":18800,"station_id":"ce4bgh92rcd13ifvqb50","pricing_plan_id":"cebpf4jnsgd1na2vs0mg"},{"bike_id":"c563397a-8e95-43de-9482-c447bf9c775e","system_id":"levelo_inurba_marseille","lat":43.29329,"lon":5.41156,"is_reserved":false,"is_disabled":false,"rental_uris":{"android":"levelo://app?vid=c563397a-8e95-43de-9482-c447bf9c775e","ios":"levelo://app?vid=c563397a-8e95-43de-9482-c447bf9c775e"},"vehicle_type_id":"4","last_reported":1752869525,"current_range_meters":18800,"station_id":"","pricing_plan_id":"cebpf4jnsgd1na2vs0mg"},{"bike_id":"f19e1191-a499-43e5-aa16-7ca6394ef18a","system_id":"levelo_inurba_marseille","lat":43.30311,"lon":5.3689,"is_reserved":false,"is_disabled":false,"rental_uris":{"android":"levelo://app?vid=f19e1191-a499-43e5-aa16-7ca6394ef18a","ios":"levelo://app?vid=f19e1191-a499-43e5-aa16-7ca6394ef18a"},"vehicle_type_id":"4","last_reported":1752869525,"current_range_meters":18800,"station_id":"ce4bgqh2rcd13ifvqc5g","pricing_plan_id":"cebpf4jnsgd1na2vs0mg"},{"bike_id":"06528764-6334-43fa-8d58-2f6f6d61c8d9","system_id":"levelo_inurba_marseille","lat":43.3146,"lon":5.37378,"is_reserved":false,"is_disabled":false,"rental_uris":{"android":"levelo://app?vid=06528764-6334-43fa-8d58-2f6f6d61c8d9","ios":"levelo://app?vid=06528764-6334-43fa-8d58-2f6f6d61c8d9"},"vehicle_type_id":"4","last_reported":1752869525,"current_range_meters":18800,"station_id":"","pricing_plan_id":"cebpf4jnsgd1na2vs0mg"},{"bike_id":"a84cbb9e-f216-4f1d-9e4f-66579fdf24a5","system_id":"levelo_inurba_marseille","lat":43.29915,"lon":5.37468,"is_reserved":false,"is_disabled":false,"rental_uris":{"android":"levelo://app?vid=a84cbb9e-f216-4f1d-9e4f-66579fdf24a5","ios":"levelo://app?vid=a84cbb9e-f216-4f1d-9e4f-66579fdf24a5"},"vehicle_type_id":"4","last_reported":1752869525,"current_range_meters":18000,"station_id":"ce4bgjh2rcd13ifvqbg0","pricing_plan_id":"cebpf4jnsgd1na2vs0mg"},{"bike_id":"3bf43587-8766-497e-8058-d261079489c0","system_id":"levelo_inurba_marseille","lat":43.29549,"lon":5.42293,"is_reserved":false,"is_disabled":false,"rental_uris":{"android":"levelo://app?vid=3bf43587-8766-497e-8058-d261079489c0","ios":"levelo://app?vid=3bf43587-8766-497e-8058-d261079489c0"},"vehicle_type_id":"4","last_reported":1752869525,"current_range_meters":18800,"station_id":"ce4bhph2rcd13ifvqhdg","pricing_plan_id":"cebpf4jnsgd1na2vs0mg"},{"bike_id":"33ab395a-ffc6-47bd-96a5-d8df1dd2d18e","system_id":"levelo_inurba_marseille","lat":43.2174,"lon":5.34608,"is_reserved":false,"is_disabled":false,"rental_uris":{"android":"levelo://app?vid=33ab395a-ffc6-47bd-96a5-d8df1dd2d18e","ios":"levelo://app?vid=33ab395a-ffc6-47bd-96a5-d8df1dd2d18e"},"vehicle_type_id":"4","last_reported":1752869525,"current_range_meters":19200,"station_id":"st_cvj6r9ubvosntc0bgbag","pricing_plan_id":"cebpf4jnsgd1na2vs0mg"},{"bike_id":"0fc3038a-5ba3-494d-bfc3-ada1a6e257df","system_id":"levelo_inurba_marseille","lat":43.289289,"lon":5.366465,"is_reserved":false,"is_disabled":false,"rental_uris":{"android":"levelo://app?vid=0fc3038a-5ba3-494d-bfc3-ada1a6e257df","ios":"levelo://app?vid=0fc3038a-5ba3-494d-bfc3-ada1a6e257df"},"vehicle_type_id":"4","last_reported":1752869525,"current_range_meters":19200,"station_id":"ce4bhap2rcd13ifvqek0","pricing_plan_id":"cebpf4jnsgd1na2vs0mg"},{"bike_id":"92e1d5b6-86da-42c2-95b9-b164a907ba3c","system_id":"levelo_inurba_marseille","lat":43.29511,"lon":5.37516,"is_reserved":false,"is_disabled":false,"rental_uris":{"android":"levelo://app?vid=92e1d5b6-86da-42c2-95b9-b164a907ba3c","ios":"levelo://app?vid=92e1d5b6-86da-42c2-95b9-b164a907ba3c"},"vehicle_type_id":"4","last_reported":1752869525,"current_range_meters":19200,"station_id":"ce4bgkp2rcd13ifvqbmg","pricing_plan_id":"cebpf4jnsgd1na2vs0mg"},