{"last_updated":1737814025,"ttl":60,"version":"2.2","data":{"bikes":[{"bike_id":"3c50acee-94a0-441d-ba56-bf29ed6abb5f","system_id":"levelo_inurba_marseille","lat":43.29298,"lon":5.36842,"is_reserved":false,"is_disabled":false,"rental_uris":{"android":"levelo://app?vid=3c50acee-94a0-441d-ba56-bf29ed6abb5f","ios":"levelo://app?vid=3c50acee-94a0-441d-ba56-bf29ed6abb5f"},"vehicle_type_id":"4","last_reported":1737814025,"current_range_meters":34000,"station_id":"ce4bhbp2rcd13ifvqesg","pricing_plan_id":"cebpf4jnsgd1na2vs0mg"},{"bike_id":"22fdda07-29f7-4097-aa7c-457566d3caba","system_id":"levelo_inurba_marseille","lat":43.2508,"lon":5.39536,"is_reserved":false,"is_disabled":false,"rental_uris":{"android":"levelo://app?vid=22fdda07-29f7-4097-aa7c-457566d3caba","ios":"levelo://app?vid=22fdda07-29f7-4097-aa7c-457566d3caba"},"vehicle_type_id":"4","last_reported":1737814025,"current_range_meters":29600,"station_id":"ce4bhm12rcd13ifvqgkg","pricing_plan_id":"cebpf4jnsgd1na2vs0mg"},{"bike_id":"6095aa3c-4a08-4370-b1ac-4dd652cb952c","system_id":"levelo_inurba_marseille","lat":43.29305,"lon":5.37166,"is_reserved":false,"is_disabled":false,"rental_uris":{"android":"levelo://app?vid=6095aa3c-4a08-4370-b1ac-4dd652cb952c","ios":"levelo://app?vid=6095aa3c-4a08-4370-b1ac-4dd652cb952c"},"vehicle_type_id":"4","last_reported":1737814025,"current_range_meters":38800,"station_id":"ce4bgh92rcd13ifvqb40","pricing_plan_id":"cebpf4jnsgd1na2vs0mg"},{"bike_id":"8c964ee4-38c3-4de8-9045-d32f4c643923","system_id":"levelo_inurba_marseille","lat":43.2992,"lon":5.37498,"is_reserved":false,"is_disabled":false,"rental_uris":{"android":"levelo://app?vid=8c964ee4-38c3-4de8-9045-d32f4c643923","ios":"levelo://app?vid=8c964ee4-38c3-4de8-9045-d32f4c643923"},"vehicle_type_id":"4","last_reported":1737814025,"current_range_meters":39200,"station_id":"ce4bgjh2rcd13ifvqbg0","pricing_plan_id":"cebpf4jnsgd1na2vs0mg"},{"bike_id":"f27962d7-2fd4-4794-b771-0341224112da","system_id":"levelo_inurba_marseille","lat":43.26562,"lon":5.39013,"is_reserved":false,"is_disabled":false,"rental_uris":{"android":"levelo://app?vid=f27962d7-2fd4-4794-b771-0341224112da","ios":"levelo://app?vid=f27962d7-2fd4-4794-b771-0341224112da"},"vehicle_type_id":"4","last_reported":1737814025,"current_range_meters":14400,"station_id":"ce4bhe12rcd13ifvqf30","pricing_plan_id":"cebpf4jnsgd1na2vs0mg"},{"bike_id":"58d9e3df-28a3-4560-b2cd-4d33fefbd544","system_id":"levelo_inurba_marseille","lat":43.283565,"lon":5.381332,"is_reserved":false,"is_disabled":true,"rental_uris":{"android":"levelo://app?vid=58d9e3df-28a3-4560-b2cd-4d33fefbd544","ios":"levelo://app?vid=58d9e3df-28a3-4560-b2cd-4d33fefbd544"},"vehicle_type_id":"4","last_reported":1737814025,"current_range_meters":22800,"station_id":"ce4bh412rcd13ifvqdr0","pricing_plan_id":"cebpf4jnsgd1na2vs0mg"},{"bike_id":"0793f05d-0029-4d54-a0fe-9c0436426db5","system_id":"levelo_inurba_marseille","lat":43.23209,"lon":5.35541,"is_reserved":false,"is_disabled":false,"rental_uris":{"android":"levelo://app?vid=0793f05d-0029-4d54-a0fe-9c0436426db5","ios":"levelo://app?vid=0793f05d-0029-4d54-a0fe-9c0436426db5"},"vehicle_type_id":"4","last_reported":1737814025,"current_range_meters":38800,"station_id":"ce4bhu92rcd13ifvqi70","pricing_plan_id":"cebpf4jnsgd1na2vs0mg"},{"bike_id":"4914872c-162c-4b5d-a9af-cff65f389580","system_id":"levelo_inurba_marseille","lat":43.29621,"lon":5.38093,"is_reserved":false,"is_disabled":true,"rental_uris":{"android":"levelo://app?vid=4914872c-162c-4b5d-a9af-cff65f389580","ios":"levelo://app?vid=4914872c-162c-4b5d-a9af-cff65f389580"},"vehicle_type_id":"4","last_reported":1737814025,"current_range_meters":0,"station_id":"ce4bgl12rcd13ifvqbo0","pricing_plan_id":"cebpf4jnsgd1na2vs0mg"},{"bike_id":"f19dc989-9b1f-48ea-abf9-5fac135f6a39","system_id":"levelo_inurba_marseille","lat":43.28282,"lon":5.35081,"is_reserved":false,"is_disabled":false,"rental_uris":{"android":"levelo://app?vid=f19dc989-9b1f-48ea-abf9-5fac135f6a39","ios":"levelo://app?vid=f19dc989-9b1f-48ea-abf9-5fac135f6a39"},"vehicle_type_id":"4","last_reported":1737814025,"current_range_meters":38800,"station_id":"ce4bhbp2rcd13ifvqerg","pricing_plan_id":"cebpf4jnsgd1na2vs0mg"},{"bike_id":"135479b2-cc31-4b96-a022-b59a04321742","system_id":"levelo_inurba_marseille","lat":43.30121,"lon":5.39877,"is_reserved":false,"is_disabled":false,"rental_uris":{"android":"levelo://app?vid=135479b2-cc31-4b96-a022-b59a04321742","ios":"levelo://app?vid=135479b2-cc31-4b96-a022-b59a04321742"},"vehicle_type_id":"4","last_reported":1737814025,"current_range_meters":9200,"station_id":"ce4bh0h2rcd13ifvqd40","pricing_plan_id":"cebpf4jnsgd1na2vs0mg"},{"bike_id":"64639989-6c77-432b-b8d3-f50be2058050","system_id":"levelo_inurba_marseille","lat":43.26199,"lon":5.37931,"is_reserved":false,"is_disabled":false,"rental_uris":{"android":"levelo://app?vid=64639989-6c77-432b-b8d3-f50be2058050","ios":"levelo://app?vid=64639989-6c77-432b-b8d3-f50be2058050"},"vehicle_type_id":"4","last_reported":1737814025,"current_range_meters":7200,"station_id":"ce4bhjp2rcd13ifvqg90","pricing_plan_id":"cebpf4jnsgd1na2vs0mg"},{"bike_id":"b75fb621-ddf4-43e4-8307-4e53f1879d3d","system_id":"levelo_inurba_marseille","lat":43.30547,"lon":5.36532,"is_reserved":false,"is_disabled":false,"rental_uris":{"android":"levelo://app?vid=b75fb621-ddf4-43e4-8307-4e53f1879d3d","ios":"levelo://app?vid=b75fb621-ddf4-43e4-8307-4e53f1879d3d"},"vehicle_type_id":"4","last_reported":1737814025,"current_range_meters":36000,"station_id":"ce4bgs12rcd13ifvqcag","pricing_plan_id":"cebpf4jnsgd1na2vs0mg"},{"bike_id":"b1279c7a-1446-4139-9aa3-d2ea00fcb203","system_id":"levelo_inurba_marseille","lat":43.32547,"lon":5.41451,"is_reserved":false,"is_disabled":false,"rental_uris":{"android":"levelo://app?vid=b1279c7a-1446-4139-9aa3-d2ea00fcb203","ios":"levelo://app?vid=b1279c7a-1446-4139-9aa3-d2ea00fcb203"},"vehicle_type_id":"4","last_reported":1737814025,"current_range_meters":36800,"station_id":"ce4bhq12rcd13ifvqhhg","pricing_plan_id":"cebpf4jnsgd1na2vs0mg"},{"bike_id":"51179201-7f27-4af1-8606-0f978e0252e6","system_id":"levelo_inurba_marseille","lat":43.25115,"lon":5.40323,"is_reserved":false,"is_disabled":true,"rental_uris":{"android":"levelo://app?vid=51179201-7f27-4af1-8606-0f978e0252e6","ios":"levelo://app?vid=51179201-7f27-4af1-8606-0f978e0252e6"},"vehicle_type_id":"4","last_reported":1737814025,"current_range_meters":1200,"station_id":"ce4bhlh2rcd13ifvqgig","pricing_plan_id":"cebpf4jnsgd1na2vs0mg"},{"bike_id":"d0982658-6427-4271-bcda-3085c340b79a","system_id":"levelo_inurba_marseille","lat":43.30083,"lon":5.39082,"is_reserved":false,"is_disabled":false,"rental_uris":{"android":"levelo://app?vid=d0982658-6427-4271-bcda-3085c340b79a","ios":"levelo://app?vid=d0982658-6427-4271-bcda-3085c340b79a"},"vehicle_type_id":"4","last_reported":1737814025,"current_range_meters":37600,"station_id":"ce4bh192rcd13ifvqdb0","pricing_plan_id":"cebpf4jnsgd1na2vs0mg"},{"bike_id":"24a66805-c17e-471a-bdd5-de10fae324cf","system_id":"levelo_inurba_marseille","lat":43.23199,"lon":5.35549,"is_reserved":false,"is_disabled":false,"rental_uris":{"android":"levelo://app?vid=24a66805-c17e-471a-bdd5-de10fae324cf","ios":"levelo://app?vid=24a66805-c17e-471a-bdd5-de10fae324cf"},"vehicle_type_id":"4","last_reported":1737814025,"current_range_meters":14800,"station_id":"ce4bhu92rcd13ifvqi70","pricing_plan_id":"cebpf4jnsgd1na2vs0mg"},{"bike_id":"4d729806-a2cb-4354-8b80-55cb75de761a","system_id":"levelo_inurba_marseille","lat":43.28271,"lon":5.35062,"is_reserved":false,"is_disabled":false,"rental_uris":{"android":"levelo://app?vid=4d729806-a2cb-4354-8b80-55cb75de761a","ios":"levelo://app?vid=4d729806-a2cb-4354-8b80-55cb75de761a"},"vehicle_type_id":"4","last_reported":1737814025,"current_range_meters":33600,"station_id":"ce4bhbp2rcd13ifvqerg","pricing_plan_id":"cebpf4jnsgd1na2vs0mg"},{"bike_id":"70d3a054-349e-435a-8da5-9a87466bb506","system_id":"levelo_inurba_marseille","lat":43.29976,"lon":5.38496,"is_reserved":false,"is_disabled":false,"rental_uris":{"android":"levelo://app?vid=70d3a054-349e-435a-8da5-9a87466bb506","ios":"levelo://app?vid=70d3a054-349e-435a-8da5-9a87466bb506"},"vehicle_type_id":"4","last_reported":1737814025,"current_range_meters":35200,"station_id":"ce4bgj92rcd13ifvqbd0","pricing_plan_id":"cebpf4jnsgd1na2vs0mg"},{"bike_id":"34fd7956-88f6-4bc0-8512-2636610900a4","system_id":"levelo_inurba_marseille","lat":43.23192,"lon":5.35549,"is_reserved":false,"is_disabled":true,"rental_uris":{"android":"levelo://app?vid=34fd7956-88f6-4bc0-8512-2636610900a4","ios":"levelo://app?vid=34fd7956-88f6-4bc0-8512-2636610900a4"},"vehicle_type_id":"4","last_reported":1737814025,"current_range_meters":0,"station_id":"ce4bhu92rcd13ifvqi70","pricing_plan_id":"cebpf4jnsgd1na2vs0mg"},{"bike_id":"9d5ccda8-3701-45d5-9f90-ad50ba3514f0","system_id":"levelo_inurba_marseille","lat":43.28423,"lon":5.34967,"is_reserved":false,"is_disabled":false,"rental_uris":{"android":"levelo://app?vid=9d5ccda8-3701-45d5-9f90-ad50ba3514f0","ios":"levelo://app?vid=9d5ccda8-3701-45d5-9f90-ad50ba3514f0"},"vehicle_type_id":"4","last_reported":1737814025,"current_range_meters":25200,"station_id":"ce4bhbh2rcd13ifvqepg","pricing_plan_id":"cebpf4jnsgd1na2vs0mg"},{"bike_id":"b8dabcf6-0a30-4ef3-864d-5a2b0008cb16","system_id":"levelo_inurba_marseille","lat":43.31702,"lon":5.43713,"is_reserved":false,"is_disabled":false,"rental_uris":{"android":"levelo://app?vid=b8dabcf6-0a30-4ef3-864d-5a2b0008cb16","ios":"levelo://app?vid=b8dabcf6-0a30-4ef3-864d-5a2b0008cb16"},"vehicle_type_id":"4","last_reported":1737814025,"current_range_meters":17600,"station_id":"ce4bhp92rcd13ifvqhcg","pricing_plan_id":"cebpf4jnsgd1na2vs0mg"},{"bike_id":"566cb5da-aeca-4016-a5da-1e3b3810d6e4","system_id":"levelo_inurba_marseille","lat":43.32661,"lon":5.40988,"is_reserved":false,"is_disabled":false,"rental_uris":{"android":"levelo://app?vid=566cb5da-aeca-4016-a5da-1e3b3810d6e4","ios":"levelo://app?vid=566cb5da-aeca-4016-a5da-1e3b3810d6e4"},"vehicle_type_id":"4","last_reported":1737814025,"current_range_meters":38400,"station_id":"ce4bhpp2rcd13ifvqhgg","pricing_plan_id":"cebpf4jnsgd1na2vs0mg"},{"bike_id":"74e364cc-2306-441e-81f3-ee04e55cb71d","system_id":"levelo_inurba_marseille","lat":43.32353,"lon":5.36739,"is_reserved":false,"is_disabled":false,"rental_uris":{"android":"levelo://app?vid=74e364cc-2306-441e-81f3-ee04e55cb71d","ios":"levelo://app?vid=74e364cc-2306-441e-81f3-ee04e55cb71d"},"vehicle_type_id":"4","last_reported":1737814025,"current_range_meters":3600,"station_id":"ce4bhsh2rcd13ifvqi2g","pricing_plan_id":"cebpf4jnsgd1na2vs0mg"},{"bike_id":"6c656a30-f69a-42b1-a09a-f34a34ccdccd","system_id":"levelo_inurba_marseille","lat":43.29541,"lon":5.38556,"is_reserved":false,"is_disabled":true,"rental_uris":{"android":"levelo://app?vid=6c656a30-f69a-42b1-a09a-f34a34ccdccd","ios":"levelo://app?vid=6c656a30-f69a-42b1-a09a-f34a34ccdccd"},"vehicle_type_id":"4","last_reported":1737814025,"current_range_meters":400,"station_id":"ce4bgih2rcd13ifvqba0","pricing_plan_id":"cebpf4jnsgd1na2vs0mg"},{"bike_id":"f8491b3f-f531-4502-bfd1-3c704646862e","system_id":"levelo_inurba_marseille","lat":43.254932,"lon":5.376449,"is_reserved":false,"is_disabled":false,"rental_uris":{"android":"levelo://app?vid=f8491b3f-f531-4502-bfd1-3c704646862e","ios":"levelo://app?vid=f8491b3f-f531-4502-bfd1-3c704646862e"},"vehicle_type_id":"4","last_reported":1737814025,"current_range_meters":36800,"station_id":"ce4bhh12rcd13ifvqff0","pricing_plan_id":"cebpf4jnsgd1na2vs0mg"},{"bike_id":"d6fd12db-b649-491b-ae85-e4bec940de64","system_id":"levelo_inurba_marseille","lat":43.30541,"lon":5.36552,"is_reserved":false,"is_disabled":false,"rental_uris":{"android":"levelo://app?vid=d6fd12db-b649-491b-ae85-e4bec940de64","ios":"levelo://app?vid=d6fd12db-b649-491b-ae85-e4bec940de64"},"vehicle_type_id":"4","last_reported":1737814025,"current_range_meters":38800,"station_id":"ce4bgs12rcd13ifvqcag","pricing_plan_id":"cebpf4jnsgd1na2vs0mg"},{"bike_id":"5744ca6e-f176-47ab-b08c-1bd603e17077","system_id":"levelo_inurba_marseille","lat":43.29305,"lon":5.37465,"is_reserved":false,"is_disabled":false,"rental_uris":{"android":"levelo://app?vid=5744ca6e-f176-47ab-b08c-1bd603e17077","ios":"levelo://app?vid=5744ca6e-f176-47ab-b08c-1bd603e17077"},"vehicle_type_id":"4","last_reported":1737814025,"current_range_meters":9600,"station_id":"ce4bgi12rcd13ifvqb70","pricing_plan_id":"cebpf4jnsgd1na2vs0mg"},{"bike_id":"9a429fa2-2c14-49f6-81e5-ba926adac559","system_id":"levelo_inurba_marseille","lat":43.28619,"lon":5.35111,"is_reserved":false,"is_disabled":false,"rental_uris":{"android":"levelo://app?vid=9a429fa2-2c14-49f6-81e5-ba926adac559","ios":"levelo://app?vid=9a429fa2-2c14-49f6-81e5-ba926adac559"},"vehicle_type_id":"4","last_reported":1737814025,"current_range_meters":38800,"station_id":"ce4bhch2rcd13ifvqeug","pricing_plan_id":"cebpf4jnsgd1na2vs0mg"},{"bike_id":"2dde1f1c-4dc9-4033-bf0d-6771e7af02b4","system_id":"levelo_inurba_marseille","lat":43.26223,"lon":5.37445,"is_reserved":false,"is_disabled":false,"rental_uris":{"android":"levelo://app?vid=2dde1f1c-4dc9-4033-bf0d-6771e7af02b4","ios":"levelo://app?vid=2dde1f1c-4dc9-4033-bf0d-6771e7af02b4"},"vehicle_type_id":"4","last_reported":1737814025,"current_range_meters":12800,"station_id":"","pricing_plan_id":"cebpf4jnsgd1na2vs0mg"},{"bike_id":"7ff41bb0-58bb-4e7a-856f-2a2aba66f15e","system_id":"levelo_inurba_marseille","lat":43.31709,"lon":5.437115,"is_reserved":false,"is_disabled":false,"rental_uris":{"android":"levelo://app?vid=7ff41bb0-58bb-4e7a-856f-2a2aba66f15e","ios":"levelo://app?vid=7ff41bb0-58bb-4e7a-856f-2a2aba66f15e"},"vehicle_type_id":"4","last_reported":1737814025,"current_range_meters":39200,"station_id":"ce4bhp92rcd13ifvqhcg","pricing_plan_id":"cebpf4jnsgd1na2vs0mg"},{"bike_id":"fe184b4b-9d25-408a-9883-cb03c07b1e90","system_id":"levelo_inurba_marseille","lat":43.231943,"lon":5.35564,"is_reserved":false,"is_disabled":false,"rental_uris":{"android":"levelo://app?vid=fe184b4b-9d25-408a-9883-cb03c07b1e90","ios":"levelo://app?vid=fe184b4b-9d25-408a-9883-cb03c07b1e90"},"vehicle_type_id":"4","last_reported":1737814025,"current_range_meters":30000,"station_id":"ce4bhu92rcd13ifvqi70","pricing_plan_id":"cebpf4jnsgd1na2vs0mg"},{"bike_id":"81c630f7-8886-4d5f-90c8-600038b42081","system_id":"levelo_inurba_marseille","lat":43.29976,"lon":5.38493,"is_reserved":false,"is_disabled":false,"rental_uris":{"android":"levelo://app?vid=81c630f7-8886-4d5f-90c8-600038b42081","ios":"levelo://app?vid=81c630f7-8886-4d5f-90c8-600038b42081"},"vehicle_type_id":"4","last_reported":1737814025,"current_range_meters":36400,"station_id":"ce4bgj92rcd13ifvqbd0","pricing_plan_id":"cebpf4jnsgd1na2vs0mg"},{"bike_id":"47344f6b-c478-4169-9f67-1f0e1752d440","system_id":"levelo_inurba_marseille","lat":43.25574,"lon":5.38253,"is_reserved":false,"is_disabled":false,"rental_uris":{"android":"levelo://app?vid=47344f6b-c478-4169-9f67-1f0e1752d440","ios":"levelo://app?vid=47344f6b-c478-4169-9f67-1f0e1752d440"},"vehicle_type_id":"4","last_reported":1737814025,"current_range_meters":38800,"station_id":"ce4bhih2rcd13ifvqfs0","pricing_plan_id":"cebpf4jnsgd1na2vs0mg"},{"bike_id":"df60d492-9262-4b12-b5d2-1885b00ef606","system_id":"levelo_inurba_marseille","lat":43.29915,"lon":5.38144,"is_reserved":false,"is_disabled":false,"rental_uris":{"android":"levelo://app?vid=df60d492-9262-4b12-b5d2-1885b00ef606","ios":"levelo://app?vid=df60d492-9262-4b12-b5d2-1885b00ef606"},"vehicle_type_id":"4","last_reported":1737814025,"current_range_meters":29600,"station_id":"ce4bgj12rcd13ifvqbc0","pricing_plan_id":"cebpf4jnsgd1na2vs0mg"},{"bike_id":"d97b23ac-1532-416d-97a4-ebdf3acd4687","system_id":"levelo_inurba_marseille","lat":43.28427,"lon":5.34985,"is_reserved":false,"is_disabled":false,"rental_uris":{"android":"levelo://app?vid=d97b23ac-1532-416d-97a4-ebdf3acd4687","ios":"levelo://app?vid=d97b23ac-1532-416d-97a4-ebdf3acd4687"},"vehicle_type_id":"4","last_reported":1737814025,"current_range_meters":24800,"station_id":"ce4bhbh2rcd13ifvqepg","pricing_plan_id":"cebpf4jnsgd1na2vs0mg"},{"bike_id":"15e02ea5-3704-4806-a103-cbd661a067f9","system_id":"levelo_inurba_marseille","lat":43.28277,"lon":5.35068,"is_reserved":false,"is_disabled":false,"rental_uris":{"android":"levelo://app?vid=15e02ea5-3704-4806-a103-cbd661a067f9","ios":"levelo://app?vid=15e02ea5-3704-4806-a103-cbd661a067f9"},"vehicle_type_id":"4","last_reported":1737814025,"current_range_meters":30400,"station_id":"ce4bhbp2rcd13ifvqerg","pricing_plan_id":"cebpf4jnsgd1na2vs0mg"},{"bike_id":"6ece3a01-c044-4062-8829-6779f50b5b3f","system_id":"levelo_inurba_marseille","lat":43.26214,"lon":5.37446,"is_reserved":false,"is_disabled":false,"rental_uris":{"android":"levelo://app?vid=6ece3a01-c044-4062-8829-6779f50b5b3f","ios":"levelo://app?vid=6ece3a01-c044-4062-8829-6779f50b5b3f"},"vehicle_type_id":"4","last_reported":1737814025,"current_range_meters":2800,"station_id":"ce4bhgp2rcd13ifvqfc0","pricing_plan_id":"cebpf4jnsgd1na2vs0mg"},{"bike_id":"3608a3cf-49c3-46d4-b709-f8e9629a9213","system_id":"levelo_inurba_marseille","lat":43.24661,"lon":5.38897,"is_reserved":false,"is_disabled":false,"rental_uris":{"android":"levelo://app?vid=3608a3cf-49c3-46d4-b709-f8e9629a9213","ios":"levelo://app?vid=3608a3cf-49c3-46d4-b709-f8e9629a9213"},"vehicle_type_id":"4","last_reported":1737814025,"current_range_meters":4000,"station_id":"ce4bhg12rcd13ifvqf60","pricing_plan_id":"cebpf4jnsgd1na2vs0mg"},{"bike_id":"eb130e47-ef10-4d20-9550-cf6e9de4d483","system_id":"levelo_inurba_marseille","lat":43.3055,"lon":5.36561,"is_reserved":false,"is_disabled":false,"rental_uris":{"android":"levelo://app?vid=eb130e47-ef10-4d20-9550-cf6e9de4d483","ios":"levelo://app?vid=eb130e47-ef10-4d20-9550-cf6e9de4d483"},"vehicle_type_id":"4","last_reported":1737814025,"current_range_meters":34800,"station_id":"ce4bgs12rcd13ifvqcag","pricing_plan_id":"cebpf4jnsgd1na2vs0mg"},{"bike_id":"14bf4a6f-fef1-4a06-b3aa-0e981ead5f8c","system_id":"levelo_inurba_marseille","lat":43.30281,"lon":5.37678,"is_reserved":false,"is_disabled":false,"rental_uris":{"android":"levelo://app?vid=14bf4a6f-fef1-4a06-b3aa-0e981ead5f8c","ios":"levelo://app?vid=14bf4a6f-fef1-4a06-b3aa-0e981ead5f8c"},"vehicle_type_id":"4","last_reported":1737814025,"current_range_meters":38000,"station_id":"ce4bguh2rcd13ifvqcj0","pricing_plan_id":"cebpf4jnsgd1na2vs0mg"},{"bike_id":"044f179f-698c-4800-b3a4-5d201036aa6b","system_id":"levelo_inurba_marseille","lat":43.28266,"lon":5.35059,"is_reserved":false,"is_disabled":false,"rental_uris":{"android":"levelo://app?vid=044f179f-698c-4800-b3a4-5d201036aa6b","ios":"levelo://app?vid=044f179f-698c-4800-b3a4-5d201036aa6b"},"vehicle_type_id":"4","last_reported":1737814025,"current_range_meters":30800,"station_id":"ce4bhbp2rcd13ifvqerg","pricing_plan_id":"cebpf4jnsgd1na2vs0mg"},{"bike_id":"0b6b8d12-8f56-41e4-94cc-c934e1e50e3e","system_id":"levelo_inurba_marseille","lat":43.27379,"lon":5.36252,"is_reserved":false,"is_disabled":false,"rental_uris":{"android":"levelo://app?vid=0b6b8d12-8f56-41e4-94cc-c934e1e50e3e","ios":"levelo://app?vid=0b6b8d12-8f56-41e4-94cc-c934e1e50e3e"},"vehicle_type_id":"4","last_reported":1737814025,"current_range_meters":28000,"station_id":"ce4bhbh2rcd13ifvqeo0","pricing_plan_id":"cebpf4jnsgd1na2vs0mg"},{"bike_id":"d0464471-7753-4e6c-9572-2f26fffe9e9c","system_id":"levelo_inurba_marseille","lat":43.27618,"lon":5.36117,"is_reserved":false,"is_disabled":false,"rental_uris":{"android":"levelo://app?vid=d0464471-7753-4e6c-9572-2f26fffe9e9c","ios":"levelo://app?vid=d0464471-7753-4e6c-9572-2f26fffe9e9c"},"vehicle_type_id":"4","last_reported":1737814025,"current_range_meters":39200,"station_id":"ce4bgj92rcd13ifvqbe0","pricing_plan_id":"cebpf4jnsgd1na2vs0mg"},{"bike_id":"630dbc98-d822-4e6c-aacc-1d314cf1eb54","system_id":"levelo_inurba_marseille","lat":43.28416,"lon":5.34982,"is_reserved":false,"is_disabled":false,"rental_uris":{"android":"levelo://app?vid=630dbc98-d822-4e6c-aacc-1d314cf1eb54","ios":"levelo://app?vid=630dbc98-d822-4e6c-aacc-1d314cf1eb54"},"vehicle_type_id":"4","last_reported":1737814025,"current_range_meters":29600,"station_id":"ce4bhbh2rcd13ifvqepg","pricing_plan_id":"cebpf4jnsgd1na2vs0mg"},{"bike_id":"bf3c03cd-7438-4933-8f22-68c815fbf96c","system_id":"levelo_inurba_marseille","lat":43.28617,"lon":5.3509,"is_reserved":false,"is_disabled":false,"rental_uris":{"android":"levelo://app?vid=bf3c03cd-7438-4933-8f22-68c815fbf96c","ios":"levelo://app?vid=bf3c03cd-7438-4933-8f22-68c815fbf96c"},"vehicle_type_id":"4","last_reported":1737814025,"current_range_meters":38800,"station_id":"ce4bhch2rcd13ifvqeug","pricing_plan_id":"cebpf4jnsgd1na2vs0mg"},{"bike_id":"34aa6db6-d08c-4f6b-ad5e-1bad446eaa72","system_id":"levelo_inurba_marseille","lat":43.23163,"lon":5.39985,"is_reserved":false,"is_disabled":false,"rental_uris":{"android":"levelo://app?vid=34aa6db6-d08c-4f6b-ad5e-1bad446eaa72","ios":"levelo://app?vid=34aa6db6-d08c-4f6b-ad5e-1bad446eaa72"},"vehicle_type_id":"4","last_reported":1737814025,"current_range_meters":38400,"station_id":"ce4bhn12rcd13ifvqgqg","pricing_plan_id":"cebpf4jnsgd1na2vs0mg"},{"bike_id":"10e9a2d6-9b8e-41e1-893b-567b66528caf","system_id":"levelo_inurba_marseille","lat":43.29721,"lon":5.37702,"is_reserved":false,"is_disabled":false,"rental_uris":{"android":"levelo://app?vid=10e9a2d6-9b8e-41e1-893b-567b66528caf","ios":"levelo://app?vid=10e9a2d6-9b8e-41e1-893b-567b66528caf"},"vehicle_type_id":"4","last_reported":1737814025,"current_range_meters":7200,"station_id":"ce4bgkh2rcd13ifvqbl0","pricing_plan_id":"cebpf4jnsgd1na2vs0mg"},{"bike_id":"746fe012-fab4-4861-9e1b-dd4db0cd0510","system_id":"levelo_inurba_marseille","lat":43.27907,"lon":5.38013,"is_reserved":false,"is_disabled":false,"rental_uris":{"android":"levelo://app?vid=746fe012-fab4-4861-9e1b-dd4db0cd0510","ios":"levelo://app?vid=746fe012-fab4-4861-9e1b-dd4db0cd0510"},"vehicle_type_id":"4","last_reported":1737814025,"current_range_meters":34800,"station_id":"ce4bhf92rcd13ifvqf50","pricing_plan_id":"cebpf4jnsgd1na2vs0mg"},{"bike_id":"3fd860ac-5b41-4c63-a266-4e06b520a220","system_id":"levelo_inurba_marseille","lat":43.27211,"lon":5.39176,"is_reserved":false,"is_disabled":true,"rental_uris":{"android":"levelo://app?vid=3fd860ac-5b41-4c63-a266-4e06b520a220","ios":"levelo://app?vid=3fd860ac-5b41-4c63-a266-4e06b520a220"},"vehicle_type_id":"4","last_reported":1737814025,"current_range_meters":1600,"station_id":"ce4bhhp2rcd13ifvqfm0","pricing_plan_id":"cebpf4jnsgd1na2vs0mg"},{"bike_id":"ae8d4444-4475-403e-94ba-f581c0b405d4","system_id":"levelo_inurba_marseille","lat":43.29006,"lon":5.35608,"is_reserved":false,"is_disabled":false,"rental_uris":{"android":"levelo://app?vid=ae8d4444-4475-403e-94ba-f581c0b405d4","ios":"levelo://app?vid=ae8d4444-4475-403e-94ba-f581c0b405d4"},"vehicle_type_id":"4","last_reported":1737814025,"current_range_meters":8000,"station_id":"ce4bhb92rcd13ifvqen0","pricing_plan_id":"cebpf4jnsgd1na2vs0mg"},{"bike_id":"9838cc78-2b53-49d3-ae13-82df62c4fd64","system_id":"levelo_inurba_marseille","lat":43.28428,"lon":5.40944,"is_reserved":false,"is_disabled":true,"rental_uris":{"android":"levelo://app?vid=9838cc78-2b53-49d3-ae13-82df62c4fd64","ios":"levelo://app?vid=9838cc78-2b53-49d3-ae13-82df62c4fd64"},"vehicle_type_id":"4","last_reported":1737814025,"current_range_meters":0,"station_id":"","pricing_plan_id":"cebpf4jnsgd1na2vs0mg"},{"bike_id":"cd2c3e6b-4e99-4030-8f38-99ce34b03608","system_id":"levelo_inurba_marseille","lat":43.26581,"lon":5.39016,"is_reserved":false,"is_disabled":false,"rental_uris":{"android":"levelo://app?vid=cd2c3e6b-4e99-4030-8f38-99ce34b03608","ios":"levelo://app?vid=cd2c3e6b-4e99-4030-8f38-99ce34b03608"},"vehicle_type_id":"4","last_reported":1737814025,"current_range_meters":2800,"station_id":"ce4bhe12rcd13ifvqf30","pricing_plan_id":"cebpf4jnsgd1na2vs0mg"},{"bike_id":"9eb25b12-5e2d-4582-9d7a-264c52c86aa4","system_id":"levelo_inurba_marseille","lat":43.33779,"lon":5.37437,"is_reserved":false,"is_disabled":false,"rental_uris":{"android":"levelo://app?vid=9eb25b12-5e2d-4582-9d7a-264c52c86aa4","ios":"levelo://app?vid=9eb25b12-5e2d-4582-9d7a-264c52c86aa4"},"vehicle_type_id":"4","last_reported":1737814025,"current_range_meters":20800,"station_id":"","pricing_plan_id":"cebpf4jnsgd1na2vs0mg"},{"bike_id":"ae14495d-03f6-4aa8-8991-0542179a3eb8","system_id":"levelo_inurba_marseille","lat":43.29286,"lon":5.36842,"is_reserved":false,"is_disabled":false,"rental_uris":{"android":"levelo://app?vid=ae14495d-03f6-4aa8-8991-0542179a3eb8","ios":"levelo://app?vid=ae14495d-03f6-4aa8-8991-0542179a3eb8"},"vehicle_type_id":"4","last_reported":1737814025,"current_range_meters":17600,"station_id":"ce4bhbp2rcd13ifvqesg","pricing_plan_id":"cebpf4jnsgd1na2vs0mg"},{"bike_id":"a604cd02-bf67-49ed-b44f-738b9732b22c","system_id":"levelo_inurba_marseille","lat":43.31347,"lon":5.39704,"is_reserved":false,"is_disabled":true,"rental_uris":{"android":"levelo://app?vid=a604cd02-bf67-49ed-b44f-738b9732b22c","ios":"levelo://app?vid=a604cd02-bf67-49ed-b44f-738b9732b22c"},"vehicle_type_id":"4","last_reported":1737814025,"current_range_meters":36800,"station_id":"","pricing_plan_id":"cebpf4jnsgd1na2vs0mg"},{"bike_id":"bf096a89-ee72-4f37-85bd-7b3cf9f0cb41","system_id":"levelo_inurba_marseille","lat":43.33723,"lon":5.39178,"is_reserved":false,"is_disabled":false,"rental_uris":{"android":"levelo://app?vid=bf096a89-ee72-4f37-85bd-7b3cf9f0cb41","ios":"levelo://app?vid=bf096a89-ee72-4f37-85bd-7b3cf9f0cb41"},"vehicle_type_id":"4","last_reported":1737814025,"current_range_meters":30800,"station_id":"","pricing_plan_id":"cebpf4jnsgd1na2vs0mg"},{"bike_id":"66d1f8cf-8260-44c6-89e8-aa09a832fe98","system_id":"levelo_inurba_marseille","lat":43.246713,"lon":5.381703,"is_reserved":false,"is_disabled":true,"rental_uris":{"android":"levelo://app?vid=66d1f8cf-8260-44c6-89e8-aa09a832fe98","ios":"levelo://app?vid=66d1f8cf-8260-44c6-89e8-aa09a832fe98"},"vehicle_type_id":"4","last_reported":1737814025,"current_range_meters":0,"station_id":"ce4bhih2rcd13ifvqfr0","pricing_plan_id":"cebpf4jnsgd1na2vs0mg"},{"bike_id":"65ca12ea-78b8-417a-804f-95973b00ea1a","system_id":"levelo_inurba_marseille","lat":43.30276,"lon":5.37683,"is_reserved":false,"is_disabled":false,"rental_uris":{"android":"levelo://app?vid=65ca12ea-78b8-417a-804f-95973b00ea1a","ios":"levelo://app?vid=65ca12ea-78b8-417a-804f-95973b00ea1a"},"vehicle_type_id":"4","last_reported":1737814025,"current_range_meters":39200,"station_id":"ce4bguh2rcd13ifvqcj0","pricing_plan_id":"cebpf4jnsgd1na2vs0mg"},{"bike_id":"f6e2a664-8ca3-4446-8dcf-4e69c7308a82","system_id":"levelo_inurba_marseille","lat":43.28629,"lon":5.35103,"is_reserved":false,"is_disabled":false,"rental_uris":{"android":"levelo://app?vid=f6e2a664-8ca3-4446-8dcf-4e69c7308a82","ios":"levelo://app?vid=f6e2a664-8ca3-4446-8dcf-4e69c7308a82"},"vehicle_type_id":"4","last_reported":1737814025,"current_range_meters":38800,"station_id":"ce4bhch2rcd13ifvqeug","pricing_plan_id":"cebpf4jnsgd1na2vs0mg"},{"bike_id":"75001c2f-fb62-43ed-b472-25571eb9bb5c","system_id":"levelo_inurba_marseille","lat":43.30545,"lon":5.36552,"is_reserved":false,"is_disabled":false,"rental_uris":{"android":"levelo://app?vid=75001c2f-fb62-43ed-b472-25571eb9bb5c","ios":"levelo://app?vid=75001c2f-fb62-43ed-b472-25571eb9bb5c"},"vehicle_type_id":"4","last_reported":1737814025,"current_range_meters":12000,"station_id":"ce4bgs12rcd13ifvqcag","pricing_plan_id":"cebpf4jnsgd1na2vs0mg"},{"bike_id":"49f758b4-9b8b-4263-9fb2-4bc33d0357a5","system_id":"levelo_inurba_marseille","lat":43.29643,"lon":5.3717,"is_reserved":false,"is_disabled":true,"rental_uris":{"android":"levelo://app?vid=49f758b4-9b8b-4263-9fb2-4bc33d0357a5","ios":"levelo://app?vid=49f758b4-9b8b-4263-9fb2-4bc33d0357a5"},"vehicle_type_id":"4","last_reported":1737814025,"current_range_meters":0,"station_id":"ce4bgnh2rcd13ifvqc0g","pricing_plan_id":"cebpf4jnsgd1na2vs0mg"},{"bike_id":"e82397ad-f05a-47b8-82e7-cc53537eb579","system_id":"levelo_inurba_marseille","lat":43.25018,"lon":5.38946,"is_reserved":false,"is_disabled":false,"rental_uris":{"android":"levelo://app?vid=e82397ad-f05a-47b8-82e7-cc53537eb579","ios":"levelo://app?vid=e82397ad-f05a-47b8-82e7-cc53537eb579"},"vehicle_type_id":"4","last_reported":1737814025,"current_range_meters":10000,"station_id":"ce4bhgp2rcd13ifvqfd0","pricing_plan_id":"cebpf4jnsgd1na2vs0mg"},{"bike_id":"867d41e1-ec2e-4484-a31e-d471983f0ab7","system_id":"levelo_inurba_marseille","lat":43.33725,"lon":5.39186,"is_reserved":false,"is_disabled":false,"rental_uris":{"android":"levelo://app?vid=867d41e1-ec2e-4484-a31e-d471983f0ab7","ios":"levelo://app?vid=867d41e1-ec2e-4484-a31e-d471983f0ab7"},"vehicle_type_id":"4","last_reported":1737814025,"current_range_meters":14000,"station_id":"ce4bhr92rcd13ifvqhsg","pricing_plan_id":"cebpf4jnsgd1na2vs0mg"},{"bike_id":"7bd5f868-66e3-45e1-be95-6aefbe1524e1","system_id":"levelo_inurba_marseille","lat":43.25012,"lon":5.3891,"is_reserved":false,"is_disabled":true,"rental_uris":{"android":"levelo://app?vid=7bd5f868-66e3-45e1-be95-6aefbe1524e1","ios":"levelo://app?vid=7bd5f868-66e3-45e1-be95-6aefbe1524e1"},"vehicle_type_id":"4","last_reported":1737814025,"current_range_meters":0,"station_id":"ce4bhgp2rcd13ifvqfd0","pricing_plan_id":"cebpf4jnsgd1na2vs0mg"},{"bike_id":"ad812a35-488a-4e69-bda3-37be43def9f3","system_id":"levelo_inurba_marseille","lat":43.26556,"lon":5.37284,"is_reserved":false,"is_disabled":false,"rental_uris":{"android":"levelo://app?vid=ad812a35-488a-4e69-bda3-37be43def9f3","ios":"levelo://app?vid=ad812a35-488a-4e69-bda3-37be43def9f3"},"vehicle_type_id":"4","last_reported":1737814025,"current_range_meters":21600,"station_id":"ce4bhg12rcd13ifvqf70","pricing_plan_id":"cebpf4jnsgd1na2vs0mg"},{"bike_id":"6271b39e-7626-4690-9633-a1d17c9d916e","system_id":"levelo_inurba_marseille","lat":43.25828,"lon":5.39439,"is_reserved":false,"is_disabled":false,"rental_uris":{"android":"levelo://app?vid=6271b39e-7626-4690-9633-a1d17c9d916e","ios":"levelo://app?vid=6271b39e-7626-4690-9633-a1d17c9d916e"},"vehicle_type_id":"4","last_reported":1737814025,"current_range_meters":24400,"station_id":"ce4bhip2rcd13ifvqft0","pricing_plan_id":"cebpf4jnsgd1na2vs0mg"},{"bike_id":"ad58b03f-6c57-4eea-958c-6132b8412b49","system_id":"levelo_inurba_marseille","lat":43.28429,"lon":5.34985,"is_reserved":false,"is_disabled":false,"rental_uris":{"android":"levelo://app?vid=ad58b03f-6c57-4eea-958c-6132b8412b49","ios":"levelo://app?vid=ad58b03f-6c57-4eea-958c-6132b8412b49"},"vehicle_type_id":"4","last_reported":1737814025,"current_range_meters":22800,"station_id":"ce4bhbh2rcd13ifvqepg","pricing_plan_id":"cebpf4jnsgd1na2vs0mg"},{"bike_id":"347dd29e-9a9e-4a37-8ddd-6e2050aaff03","system_id":"levelo_inurba_marseille","lat":43.33722,"lon":5.39226,"is_reserved":false,"is_disabled":false,"rental_uris":{"android":"levelo://app?vid=347dd29e-9a9e-4a37-8ddd-6e2050aaff03","ios":"levelo://app?vid=347dd29e-9a9e-4a37-8ddd-6e2050aaff03"},"vehicle_type_id":"4","last_reported":1737814025,"current_range_meters":35200,"station_id":"ce4bhr92rcd13ifvqhsg","pricing_plan_id":"cebpf4jnsgd1na2vs0mg"},{"bike_id":"c959572c-6974-4ed4-8889-654758c49222","system_id":"levelo_inurba_marseille","lat":43.265726,"lon":5.390133,"is_reserved":false,"is_disabled":true,"rental_uris":{"android":"levelo://app?vid=c959572c-6974-4ed4-8889-654758c49222","ios":"levelo://app?vid=c959572c-6974-4ed4-8889-654758c49222"},"vehicle_type_id":"4","last_reported":1737814025,"current_range_meters":800,"station_id":"ce4bhe12rcd13ifvqf30","pricing_plan_id":"cebpf4jnsgd1na2vs0mg"},{"bike_id":"088f9493-d4f4-4fa4-8701-181abed46e32","system_id":"levelo_inurba_marseille","lat":43.29289,"lon":5.36844,"is_reserved":false,"is_disabled":false,"rental_uris":{"android":"levelo://app?vid=088f9493-d4f4-4fa4-8701-181abed46e32","ios":"levelo://app?vid=088f9493-d4f4-4fa4-8701-181abed46e32"},"vehicle_type_id":"4","last_reported":1737814025,"current_range_meters":32000,"station_id":"ce4bhbp2rcd13ifvqesg","pricing_plan_id":"cebpf4jnsgd1na2vs0mg"},{"bike_id":"9d847ad0-ef54-4fc6-8d0a-9543630ebbba","system_id":"levelo_inurba_marseille","lat":43.27998,"lon":5.40009,"is_reserved":false,"is_disabled":false,"rental_uris":{"android":"levelo://app?vid=9d847ad0-ef54-4fc6-8d0a-9543630ebbba","ios":"levelo://app?vid=9d847ad0-ef54-4fc6-8d0a-9543630ebbba"},"vehicle_type_id":"4","last_reported":1737814025,"current_range_meters":36000,"station_id":"ce4bho92rcd13ifvqh4g","pricing_plan_id":"cebpf4jnsgd1na2vs0mg"},{"bike_id":"90b8a1b1-ad54-458d-9362-f5197bbdf048","system_id":"levelo_inurba_marseille","lat":43.22933,"lon":5.35382,"is_reserved":false,"is_disabled":false,"rental_uris":{"android":"levelo://app?vid=90b8a1b1-ad54-458d-9362-f5197bbdf048","ios":"levelo://app?vid=90b8a1b1-ad54-458d-9362-f5197bbdf048"},"vehicle_type_id":"4","last_reported":1737814025,"current_range_meters":38800,"station_id":"cpo3532slgdg3j2ikp40","pricing_plan_id":"cebpf4jnsgd1na2vs0mg"},{"bike_id":"53035af4-ce28-4b9e-9322-5b8d4befc56f","system_id":"levelo_inurba_marseille","lat":43.29572,"lon":5.42255,"is_reserved":false,"is_disabled":false,"rental_uris":{"android":"levelo://app?vid=53035af4-ce28-4b9e-9322-5b8d4befc56f","ios":"levelo://app?vid=53035af4-ce28-4b9e-9322-5b8d4befc56f"},"vehicle_type_id":"4","last_reported":1737814025,"current_range_meters":38800,"station_id":"ce4bhph2rcd13ifvqhdg","pricing_plan_id":"cebpf4jnsgd1na2vs0mg"},{"bike_id":"59a858f6-56fb-47d7-ac7a-cc7c4fa27434","system_id":"levelo_inurba_marseille","lat":43.29692,"lon":5.37294,"is_reserved":false,"is_disabled":false,"rental_uris":{"android":"levelo://app?vid=59a858f6-56fb-47d7-ac7a-cc7c4fa27434","ios":"levelo://app?vid=59a858f6-56fb-47d7-ac7a-cc7c4fa27434"},"vehicle_type_id":"4","last_reported":1737814025,"current_range_meters":38800,"station_id":"ce4bgk12rcd13ifvqbj0","pricing_plan_id":"cebpf4jnsgd1na2vs0mg"},{"bike_id":"7749089a-d916-410e-8277-c5070b23e763","system_id":"levelo_inurba_marseille","lat":43.29054,"lon":5.35902,"is_reserved":false,"is_disabled":false,"rental_uris":{"android":"levelo://app?vid=7749089a-d916-410e-8277-c5070b23e763","ios":"levelo://app?vid=7749089a-d916-410e-8277-c5070b23e763"},"vehicle_type_id":"4","last_reported":1737814025,"current_range_meters":5600,"station_id":"ce4bha92rcd13ifvqeg0","pricing_plan_id":"cebpf4jnsgd1na2vs0mg"},{"bike_id":"0bbb47b1-8f66-4b13-8cf4-73b8403bbc6e","system_id":"levelo_inurba_marseille","lat":43.29595,"lon":5.3773,"is_reserved":false,"is_disabled":false,"rental_uris":{"android":"levelo://app?vid=0bbb47b1-8f66-4b13-8cf4-73b8403bbc6e","ios":"levelo://app?vid=0bbb47b1-8f66-4b13-8cf4-73b8403bbc6e"},"vehicle_type_id":"4","last_reported":1737814025,"current_range_meters":37600,"station_id":"ce4bgi92rcd13ifvqb90","pricing_plan_id":"cebpf4jnsgd1na2vs0mg"},{"bike_id":"68265018-c8ee-4a40-b52a-a05fea3de950","system_id":"levelo_inurba_marseille","lat":43.255,"lon":5.37654,"is_reserved":false,"is_disabled":false,"rental_uris":{"android":"levelo://app?vid=68265018-c8ee-4a40-b52a-a05fea3de950","ios":"levelo://app?vid=68265018-c8ee-4a40-b52a-a05fea3de950"},"vehicle_type_id":"4","last_reported":1737814025,"current_range_meters":16800,"station_id":"ce4bhh12rcd13ifvqff0","pricing_plan_id":"cebpf4jnsgd1na2vs0mg"},{"bike_id":"b8942bec-956c-4dbc-a150-dd505ab0503f","system_id":"levelo_inurba_marseille","lat":43.30358,"lon":5.41876,"is_reserved":false,"is_disabled":false,"rental_uris":{"android":"levelo://app?vid=b8942bec-956c-4dbc-a150-dd505ab0503f","ios":"levelo://app?vid=b8942bec-956c-4dbc-a150-dd505ab0503f"},"vehicle_type_id":"4","last_reported":1737814025,"current_range_meters":37600,"station_id":"ce4bhop2rcd13ifvqh7g","pricing_plan_id":"cebpf4jnsgd1na2vs0mg"},{"bike_id":"dfc006d3-d445-49d4-98fe-6b9da20935ab","system_id":"levelo_inurba_marseille","lat":43.25013,"lon":5.38936,"is_reserved":false,"is_disabled":false,"rental_uris":{"android":"levelo://app?vid=dfc006d3-d445-49d4-98fe-6b9da20935ab","ios":"levelo://app?vid=dfc006d3-d445-49d4-98fe-6b9da20935ab"},"vehicle_type_id":"4","last_reported":1737814025,"current_range_meters":4400,"station_id":"ce4bhgp2rcd13ifvqfd0","pricing_plan_id":"cebpf4jnsgd1na2vs0mg"},{"bike_id":"a3603a32-ac31-4570-8272-a3bff43d1666","system_id":"levelo_inurba_marseille","lat":43.2991,"lon":5.38152,"is_reserved":false,"is_disabled":false,"rental_uris":{"android":"levelo://app?vid=a3603a32-ac31-4570-8272-a3bff43d1666","ios":"levelo://app?vid=a3603a32-ac31-4570-8272-a3bff43d1666"},"vehicle_type_id":"4","last_reported":1737814025,"current_range_meters":19200,"station_id":"ce4bgj12rcd13ifvqbc0","pricing_plan_id":"cebpf4jnsgd1na2vs0mg"},{"bike_id":"0397dd7b-c262-4fff-a477-e60d3551299c","system_id":"levelo_inurba_marseille","lat":43.29571,"lon":5.37518,"is_reserved":false,"is_disabled":false,"rental_uris":{"android":"levelo://app?vid=0397dd7b-c262-4fff-a477-e60d3551299c","ios":"levelo://app?vid=0397dd7b-c262-4fff-a477-e60d3551299c"},"vehicle_type_id":"4","last_reported":1737814025,"current_range_meters":2800,"station_id":"ce4bgh92rcd13ifvqb50","pricing_plan_id":"cebpf4jnsgd1na2vs0mg"},{"bike_id":"ebbb6dd1-ea2a-4b9e-a0fd-f2fc38df1042","system_id":"levelo_inurba_marseille","lat":43.24999,"lon":5.38927,"is_reserved":false,"is_disabled":true,"rental_uris":{"android":"levelo://app?vid=ebbb6dd1-ea2a-4b9e-a0fd-f2fc38df1042","ios":"levelo://app?vid=ebbb6dd1-ea2a-4b9e-a0fd-f2fc38df1042"},"vehicle_type_id":"4","last_reported":1737814025,"current_range_meters":400,"station_id":"ce4bhgp2rcd13ifvqfd0","pricing_plan_id":"cebpf4jnsgd1na2vs0mg"},{"bike_id":"12457c21-2ca5-47e0-ad9e-11835189b19d","system_id":"levelo_inurba_marseille","lat":43.26216,"lon":5.3744,"is_reserved":false,"is_disabled":false,"rental_uris":{"android":"levelo://app?vid=12457c21-2ca5-47e0-ad9e-11835189b19d","ios":"levelo://app?vid=12457c21-2ca5-47e0-ad9e-11835189b19d"},"vehicle_type_id":"4","last_reported":1737814025,"current_range_meters":4000,"station_id":"ce4bhgp2rcd13ifvqfc0","pricing_plan_id":"cebpf4jnsgd1na2vs0mg"},{"bike_id":"38aadad5-46d0-4454-9914-96a0c0ef2ab0","system_id":"levelo_inurba_marseille","lat":43.27374,"lon":5.36257,"is_reserved":false,"is_disabled":false,"rental_uris":{"android":"levelo://app?vid=38aadad5-46d0-4454-9914-96a0c0ef2ab0","ios":"levelo://app?vid=38aadad5-46d0-4454-9914-96a0c0ef2ab0"},"vehicle_type_id":"4","last_reported":1737814025,"current_range_meters":38800,"station_id":"ce4bhbh2rcd13ifvqeo0","pricing_plan_id":"cebpf4jnsgd1na2vs0mg"},{"bike_id":"01df12c3-ddb3-48ca-ae9a-59dfa4680f23","system_id":"levelo_inurba_marseille","lat":43.29312,"lon":5.37174,"is_reserved":false,"is_disabled":false,"rental_uris":{"android":"levelo://app?vid=01df12c3-ddb3-48ca-ae9a-59dfa4680f23","ios":"levelo://app?vid=01df12c3-ddb3-48ca-ae9a-59dfa4680f23"},"vehicle_type_id":"4","last_reported":1737814025,"current_range_meters":38800,"station_id":"ce4bgh92rcd13ifvqb40","pricing_plan_id":"cebpf4jnsgd1na2vs0mg"},{"bike_id":"d30b3783-8233-407d-9dc8-76ac03b68013","system_id":"levelo_inurba_marseille","lat":43.29781,"lon":5.38104,"is_reserved":false,"is_disabled":false,"rental_uris":{"android":"levelo://app?vid=d30b3783-8233-407d-9dc8-76ac03b68013","ios":"levelo://app?vid=d30b3783-8233-407d-9dc8-76ac03b68013"},"vehicle_type_id":"4","last_reported":1737814025,"current_range_meters":9200,"station_id":"ce4bgip2rcd13ifvqbb0","pricing_plan_id":"cebpf4jnsgd1na2vs0mg"},{"bike_id":"0af52f93-e2ad-4e70-93eb-a6c272fbfbe2","system_id":"levelo_inurba_marseille","lat":43.31231,"lon":5.36859,"is_reserved":false,"is_disabled":false,"rental_uris":{"android":"levelo://app?vid=0af52f93-e2ad-4e70-93eb-a6c272fbfbe2","ios":"levelo://app?vid=0af52f93-e2ad-4e70-93eb-a6c272fbfbe2"},"vehicle_type_id":"4","last_reported":1737814025,"current_range_meters":38400,"station_id":"ce4bgl92rcd13ifvqbq0","pricing_plan_id":"cebpf4jnsgd1na2vs0mg"},{"bike_id":"79721713-ca5a-4652-9ba3-8e936982dd9e","system_id":"levelo_inurba_marseille","lat":43.29618,"lon":5.3811,"is_reserved":false,"is_disabled":false,"rental_uris":{"android":"levelo://app?vid=79721713-ca5a-4652-9ba3-8e936982dd9e","ios":"levelo://app?vid=79721713-ca5a-4652-9ba3-8e936982dd9e"},"vehicle_type_id":"4","last_reported":1737814025,"current_range_meters":32400,"station_id":"ce4bgl12rcd13ifvqbo0","pricing_plan_id":"cebpf4jnsgd1na2vs0mg"},{"bike_id":"024cd548-3349-4b5a-9af8-2c3d415d44b0","system_id":"levelo_inurba_marseille","lat":43.28275,"lon":5.35045,"is_reserved":false,"is_disabled":false,"rental_uris":{"android":"levelo://app?vid=024cd548-3349-4b5a-9af8-2c3d415d44b0","ios":"levelo://app?vid=024cd548-3349-4b5a-9af8-2c3d415d44b0"},"vehicle_type_id":"4","last_reported":1737814025,"current_range_meters":10800,"station_id":"ce4bhbp2rcd13ifvqerg","pricing_plan_id":"cebpf4jnsgd1na2vs0mg"},{"bike_id":"5467fe36-bd4b-4187-8ed4-e763dac2de07","system_id":"levelo_inurba_marseille","lat":43.28722,"lon":5.36096,"is_reserved":false,"is_disabled":false,"rental_uris":{"android":"levelo://app?vid=5467fe36-bd4b-4187-8ed4-e763dac2de07","ios":"levelo://app?vid=5467fe36-bd4b-4187-8ed4-e763dac2de07"},"vehicle_type_id":"4","last_reported":1737814025,"current_range_meters":8000,"station_id":"cki0cbj6b192h4jlfktg","pricing_plan_id":"cebpf4jnsgd1na2vs0mg"},{"bike_id":"dda1acb6-7f4a-4967-a3b4-b4cd7f416d83","system_id":"levelo_inurba_marseille","lat":43.2694,"lon":5.40253,"is_reserved":false,"is_disabled":false,"rental_uris":{"android":"levelo://app?vid=dda1acb6-7f4a-4967-a3b4-b4cd7f416d83","ios":"levelo://app?vid=dda1acb6-7f4a-4967-a3b4-b4cd7f416d83"},"vehicle_type_id":"4","last_reported":1737814025,"current_range_meters":38800,"station_id":"cjm6bp8fraef2m0cb0m0","pricing_plan_id":"cebpf4jnsgd1na2vs0mg"},{"bike_id":"7bd29c19-3aa6-4553-9ebb-43c6a701ff0c","system_id":"levelo_inurba_marseille","lat":43.28414,"lon":5.34979,"is_reserved":false,"is_disabled":true,"rental_uris":{"android":"levelo://app?vid=7bd29c19-3aa6-4553-9ebb-43c6a701ff0c","ios":"levelo://app?vid=7bd29c19-3aa6-4553-9ebb-43c6a701ff0c"},"vehicle_type_id":"4","last_reported":1737814025,"current_range_meters":0,"station_id":"ce4bhbh2rcd13ifvqepg","pricing_plan_id":"cebpf4jnsgd1na2vs0mg"},{"bike_id":"8f418039-64b4-4f8b-9b93-bbb14214da89","system_id":"levelo_inurba_marseille","lat":43.31701,"lon":5.37764,"is_reserved":false,"is_disabled":false,"rental_uris":{"android":"levelo://app?vid=8f418039-64b4-4f8b-9b93-bbb14214da89","ios":"levelo://app?vid=8f418039-64b4-4f8b-9b93-bbb14214da89"},"vehicle_type_id":"4","last_reported":1737814025,"current_range_meters":16000,"station_id":"ce4bgth2rcd13ifvqch0","pricing_plan_id":"cebpf4jnsgd1na2vs0mg"},{"bike_id":"4ba17b62-67ad-47d4-ae06-50d84fbf1296","system_id":"levelo_inurba_marseille","lat":43.29894,"lon":5.43678,"is_reserved":false,"is_disabled":false,"rental_uris":{"android":"levelo://app?vid=4ba17b62-67ad-47d4-ae06-50d84fbf1296","ios":"levelo://app?vid=4ba17b62-67ad-47d4-ae06-50d84fbf1296"},"vehicle_type_id":"4","last_reported":1737814025,"current_range_meters":12400,"station_id":"ce4bhpp2rcd13ifvqhfg","pricing_plan_id":"cebpf4jnsgd1na2vs0mg"},{"bike_id":"7dc3cae4-747d-4993-b368-549807c6825a","system_id":"levelo_inurba_marseille","lat":43.27372,"lon":5.36256,"is_reserved":false,"is_disabled":false,"rental_uris":{"android":"levelo://app?vid=7dc3cae4-747d-4993-b368-549807c6825a","ios":"levelo://app?vid=7dc3cae4-747d-4993-b368-549807c6825a"},"vehicle_type_id":"4","last_reported":1737814025,"current_range_meters":12800,"station_id":"ce4bhbh2rcd13ifvqeo0","pricing_plan_id":"cebpf4jnsgd1na2vs0mg"},{"bike_id":"0e5a3f0b-2e27-48f8-9f1b-d6f7c703cae0","system_id":"levelo_inurba_marseille","lat":43.30532,"lon":5.36538,"is_reserved":false,"is_disabled":false,"rental_uris":{"android":"levelo://app?vid=0e5a3f0b-2e27-48f8-9f1b-d6f7c703cae0","ios":"levelo://app?vid=0e5a3f0b-2e27-48f8-9f1b-d6f7c703cae0"},"vehicle_type_id":"4","last_reported":1737814025,"current_range_meters":12000,"station_id":"ce4bgs12rcd13ifvqcag","pricing_plan_id":"cebpf4jnsgd1na2vs0mg"},{"bike_id":"1c35c755-8b1c-439e-8798-f1a001a3969d","system_id":"levelo_inurba_marseille","lat":43.28111,"lon":5.37853,"is_reserved":false,"is_disabled":true,"rental_uris":{"android":"levelo://app?vid=1c35c755-8b1c-439e-8798-f1a001a3969d","ios":"levelo://app?vid=1c35c755-8b1c-439e-8798-f1a001a3969d"},"vehicle_type_id":"4","last_reported":1737814025,"current_range_meters":0,"station_id":"ce4bha12rcd13ifvqee0","pricing_plan_id":"cebpf4jnsgd1na2vs0mg"},{"bike_id":"e6571404-78f5-4286-ad2b-411e7fb5fc7c","system_id":"levelo_inurba_marseille","lat":43.29623,"lon":5.37718,"is_reserved":false,"is_disabled":false,"rental_uris":{"android":"levelo://app?vid=e6571404-78f5-4286-ad2b-411e7fb5fc7c","ios":"levelo://app?vid=e6571404-78f5-4286-ad2b-411e7fb5fc7c"},"vehicle_type_id":"4","last_reported":1737814025,"current_range_meters":38400,"station_id":"ce4bgi92rcd13ifvqb90","pricing_plan_id":"cebpf4jnsgd1na2vs0mg"},{"bike_id":"1ed786f2-b680-4b14-ac90-f8140e2c4e24","system_id":"levelo_inurba_marseille","lat":43.3056,"lon":5.36596,"is_reserved":false,"is_disabled":false,"rental_uris":{"android":"levelo://app?vid=1ed786f2-b680-4b14-ac90-f8140e2c4e24","ios":"levelo://app?vid=1ed786f2-b680-4b14-ac90-f8140e2c4e24"},"vehicle_type_id":"4","last_reported":1737814025,"current_range_meters":16400,"station_id":"ce4bgs12rcd13ifvqcag","pricing_plan_id":"cebpf4jnsgd1na2vs0mg"},{"bike_id":"bce09769-02dc-489a-bcd7-84421f3b354f","system_id":"levelo_inurba_marseille","lat":43.323615,"lon":5.388901,"is_reserved":false,"is_disabled":false,"rental_uris":{"android":"levelo://app?vid=bce09769-02dc-489a-bcd7-84421f3b354f","ios":"levelo://app?vid=bce09769-02dc-489a-bcd7-84421f3b354f"},"vehicle_type_id":"4","last_reported":1737814025,"current_range_meters":18800,"station_id":"ce4bhqp2rcd13ifvqhog","pricing_plan_id":"cebpf4jnsgd1na2vs0mg"},{"bike_id":"3a50cba4-791e-4240-a3e9-a38905811f0f","system_id":"levelo_inurba_marseille","lat":43.27042,"lon":5.40188,"is_reserved":false,"is_disabled":false,"rental_uris":{"android":"levelo://app?vid=3a50cba4-791e-4240-a3e9-a38905811f0f","ios":"levelo://app?vid=3a50cba4-791e-4240-a3e9-a38905811f0f"},"vehicle_type_id":"4","last_reported":1737814025,"current_range_meters":8800,"station_id":"","pricing_plan_id":"cebpf4jnsgd1na2vs0mg"},{"bike_id":"b96c22ba-a4c6-4ca8-b881-a2a2972e9bc2","system_id":"levelo_inurba_marseille","lat":43.26028,"lon":5.37563,"is_reserved":false,"is_disabled":true,"rental_uris":{"android":"levelo://app?vid=b96c22ba-a4c6-4ca8-b881-a2a2972e9bc2","ios":"levelo://app?vid=b96c22ba-a4c6-4ca8-b881-a2a2972e9bc2"},"vehicle_type_id":"4","last_reported":1737814025,"current_range_meters":36800,"station_id":"ce4bhgh2rcd13ifvqfa0","pricing_plan_id":"cebpf4jnsgd1na2vs0mg"},{"bike_id":"4dc910da-a028-4ab4-9e34-fef15287ee6d","system_id":"levelo_inurba_marseille","lat":43.22931,"lon":5.35373,"is_reserved":false,"is_disabled":false,"rental_uris":{"android":"levelo://app?vid=4dc910da-a028-4ab4-9e34-fef15287ee6d","ios":"levelo://app?vid=4dc910da-a028-4ab4-9e34-fef15287ee6d"},"vehicle_type_id":"4","last_reported":1737814025,"current_range_meters":25200,"station_id":"cpo3532slgdg3j2ikp40","pricing_plan_id":"cebpf4jnsgd1na2vs0mg"},{"bike_id":"61df6208-7c8d-4faf-b087-b4cb2a715156","system_id":"levelo_inurba_marseille","lat":43.319961,"lon":5.381568,"is_reserved":false,"is_disabled":false,"rental_uris":{"android":"levelo://app?vid=61df6208-7c8d-4faf-b087-b4cb2a715156","ios":"levelo://app?vid=61df6208-7c8d-4faf-b087-b4cb2a715156"},"vehicle_type_id":"4","last_reported":1737814025,"current_range_meters":38800,"station_id":"ce4bhr12rcd13ifvqhpg","pricing_plan_id":"cebpf4jnsgd1na2vs0mg"},{"bike_id":"f1bf780d-c709-4a93-9478-a4caf61c5c21","system_id":"levelo_inurba_marseille","lat":43.2808,"lon":5.39664,"is_reserved":false,"is_disabled":false,"rental_uris":{"android":"levelo://app?vid=f1bf780d-c709-4a93-9478-a4caf61c5c21","ios":"levelo://app?vid=f1bf780d-c709-4a93-9478-a4caf61c5c21"},"vehicle_type_id":"4","last_reported":1737814025,"current_range_meters":24800,"station_id":"ce4bho12rcd13ifvqh2g","pricing_plan_id":"cebpf4jnsgd1na2vs0mg"},{"bike_id":"1346ff93-9ddb-4093-aa5d-b6cb09dfef3c","system_id":"levelo_inurba_marseille","lat":43.28488,"lon":5.3679,"is_reserved":false,"is_disabled":true,"rental_uris":{"android":"levelo://app?vid=1346ff93-9ddb-4093-aa5d-b6cb09dfef3c","ios":"levelo://app?vid=1346ff93-9ddb-4093-aa5d-b6cb09dfef3c"},"vehicle_type_id":"4","last_reported":1737814025,"current_range_meters":0,"station_id":"","pricing_plan_id":"cebpf4jnsgd1na2vs0mg"},{"bike_id":"f313fd72-289d-4984-bb64-35a0d2ca8849","system_id":"levelo_inurba_marseille","lat":43.26205,"lon":5.37927,"is_reserved":false,"is_disabled":false,"rental_uris":{"android":"levelo://app?vid=f313fd72-289d-4984-bb64-35a0d2ca8849","ios":"levelo://app?vid=f313fd72-289d-4984-bb64-35a0d2ca8849"},"vehicle_type_id":"4","last_reported":1737814025,"current_range_meters":37600,"station_id":"ce4bhjp2rcd13ifvqg90","pricing_plan_id":"cebpf4jnsgd1na2vs0mg"},{"bike_id":"1e77e574-f5f3-4895-8e75-d0715b84f698","system_id":"levelo_inurba_marseille","lat":43.28626,"lon":5.35106,"is_reserved":false,"is_disabled":false,"rental_uris":{"android":"levelo://app?vid=1e77e574-f5f3-4895-8e75-d0715b84f698","ios":"levelo://app?vid=1e77e574-f5f3-4895-8e75-d0715b84f698"},"vehicle_type_id":"4","last_reported":1737814025,"current_range_meters":28000,"station_id":"ce4bhch2rcd13ifvqeug","pricing_plan_id":"cebpf4jnsgd1na2vs0mg"},{"bike_id":"60d6a3f7-2872-447c-88f6-3872073b60a5","system_id":"levelo_inurba_marseille","lat":43.26569,"lon":5.39001,"is_reserved":false,"is_disabled":false,"rental_uris":{"android":"levelo://app?vid=60d6a3f7-2872-447c-88f6-3872073b60a5","ios":"levelo://app?vid=60d6a3f7-2872-447c-88f6-3872073b60a5"},"vehicle_type_id":"4","last_reported":1737814025,"current_range_meters":26800,"station_id":"ce4bhe12rcd13ifvqf30","pricing_plan_id":"cebpf4jnsgd1na2vs0mg"},{"bike_id":"d0b97dd4-6015-4f42-b5f6-8f3b6c506949","system_id":"levelo_inurba_marseille","lat":43.29561,"lon":5.4227,"is_reserved":false,"is_disabled":false,"rental_uris":{"android":"levelo://app?vid=d0b97dd4-6015-4f42-b5f6-8f3b6c506949","ios":"levelo://app?vid=d0b97dd4-6015-4f42-b5f6-8f3b6c506949"},"vehicle_type_id":"4","last_reported":1737814025,"current_range_meters":33600,"station_id":"ce4bhph2rcd13ifvqhdg","pricing_plan_id":"cebpf4jnsgd1na2vs0mg"},{"bike_id":"d5665470-c1b3-45e5-80ac-4df7d60c2564","system_id":"levelo_inurba_marseille","lat":43.32122,"lon":5.368,"is_reserved":false,"is_disabled":false,"rental_uris":{"android":"levelo://app?vid=d5665470-c1b3-45e5-80ac-4df7d60c2564","ios":"levelo://app?vid=d5665470-c1b3-45e5-80ac-4df7d60c2564"},"vehicle_type_id":"4","last_reported":1737814025,"current_range_meters":32800,"station_id":"ce4bhrh2rcd13ifvqhug","pricing_plan_id":"cebpf4jnsgd1na2vs0mg"},{"bike_id":"7af0e28c-28ad-4586-9fde-1f2cfaa3cf2a","system_id":"levelo_inurba_marseille","lat":43.34153,"lon":5.40904,"is_reserved":false,"is_disabled":false,"rental_uris":{"android":"levelo://app?vid=7af0e28c-28ad-4586-9fde-1f2cfaa3cf2a","ios":"levelo://app?vid=7af0e28c-28ad-4586-9fde-1f2cfaa3cf2a"},"vehicle_type_id":"4","last_reported":1737814025,"current_range_meters":36400,"station_id":"ce4bhqh2rcd13ifvqhlg","pricing_plan_id":"cebpf4jnsgd1na2vs0mg"},{"bike_id":"8c433926-7e90-468f-ab2f-330e6f42b6ca","system_id":"levelo_inurba_marseille","lat":43.26789,"lon":5.39413,"is_reserved":false,"is_disabled":false,"rental_uris":{"android":"levelo://app?vid=8c433926-7e90-468f-ab2f-330e6f42b6ca","ios":"levelo://app?vid=8c433926-7e90-468f-ab2f-330e6f42b6ca"},"vehicle_type_id":"4","last_reported":1737814025,"current_range_meters":22000,"station_id":"ce4bhh12rcd13ifvqfg0","pricing_plan_id":"cebpf4jnsgd1na2vs0mg"},{"bike_id":"9179c15e-b056-4d3d-9a66-7a2e26f94ac6","system_id":"levelo_inurba_marseille","lat":43.28404,"lon":5.37518,"is_reserved":false,"is_disabled":false,"rental_uris":{"android":"levelo://app?vid=9179c15e-b056-4d3d-9a66-7a2e26f94ac6","ios":"levelo://app?vid=9179c15e-b056-4d3d-9a66-7a2e26f94ac6"},"vehicle_type_id":"4","last_reported":1737814025,"current_range_meters":36400,"station_id":"ce4bh412rcd13ifvqds0","pricing_plan_id":"cebpf4jnsgd1na2vs0mg"},{"bike_id":"500bd9fd-f2aa-4af5-af81-759117c96c0b","system_id":"levelo_inurba_marseille","lat":43.24172,"lon":5.36408,"is_reserved":false,"is_disabled":false,"rental_uris":{"android":"levelo://app?vid=500bd9fd-f2aa-4af5-af81-759117c96c0b","ios":"levelo://app?vid=500bd9fd-f2aa-4af5-af81-759117c96c0b"},"vehicle_type_id":"4","last_reported":1737814025,"current_range_meters":9200,"station_id":"cpo36qri1sfpv3e86is0","pricing_plan_id":"cebpf4jnsgd1na2vs0mg"},{"bike_id":"3052f05b-1e3e-46b9-a27b-1a3bcf1d5d84","system_id":"levelo_inurba_marseille","lat":43.285,"lon":5.38566,"is_reserved":false,"is_disabled":true,"rental_uris":{"android":"levelo://app?vid=3052f05b-1e3e-46b9-a27b-1a3bcf1d5d84","ios":"levelo://app?vid=3052f05b-1e3e-46b9-a27b-1a3bcf1d5d84"},"vehicle_type_id":"4","last_reported":1737814025,"current_range_meters":800,"station_id":"ce4bh8p2rcd13ifvqeb0","pricing_plan_id":"cebpf4jnsgd1na2vs0mg"},{"bike_id":"297b1880-b06e-45ae-a410-2e574e4682dd","system_id":"levelo_inurba_marseille","lat":43.29308,"lon":5.37152,"is_reserved":false,"is_disabled":false,"rental_uris":{"android":"levelo://app?vid=297b1880-b06e-45ae-a410-2e574e4682dd","ios":"levelo://app?vid=297b1880-b06e-45ae-a410-2e574e4682dd"},"vehicle_type_id":"4","last_reported":1737814025,"current_range_meters":37600,"station_id":"ce4bgh92rcd13ifvqb40","pricing_plan_id":"cebpf4jnsgd1na2vs0mg"},{"bike_id":"479cb780-8c58-44a6-99d3-0353db3a07bb","system_id":"levelo_inurba_marseille","lat":43.30797,"lon":5.43507,"is_reserved":false,"is_disabled":false,"rental_uris":{"android":"levelo://app?vid=479cb780-8c58-44a6-99d3-0353db3a07bb","ios":"levelo://app?vid=479cb780-8c58-44a6-99d3-0353db3a07bb"},"vehicle_type_id":"4","last_reported":1737814025,"current_range_meters":38000,"station_id":"ce4bhph2rcd13ifvqheg","pricing_plan_id":"cebpf4jnsgd1na2vs0mg"},{"bike_id":"6d17c276-0a0b-4d66-8572-ced57eea72cc","system_id":"levelo_inurba_marseille","lat":43.33588,"lon":5.40975,"is_reserved":false,"is_disabled":false,"rental_uris":{"android":"levelo://app?vid=6d17c276-0a0b-4d66-8572-ced57eea72cc","ios":"levelo://app?vid=6d17c276-0a0b-4d66-8572-ced57eea72cc"},"vehicle_type_id":"4","last_reported":1737814025,"current_range_meters":13600,"station_id":"ce4bhqh2rcd13ifvqhmg","pricing_plan_id":"cebpf4jnsgd1na2vs0mg"},{"bike_id":"9f5ef00e-1f5d-4a4c-b17f-ec0fd2052c5a","system_id":"levelo_inurba_marseille","lat":43.31764,"lon":5.38997,"is_reserved":false,"is_disabled":true,"rental_uris":{"android":"levelo://app?vid=9f5ef00e-1f5d-4a4c-b17f-ec0fd2052c5a","ios":"levelo://app?vid=9f5ef00e-1f5d-4a4c-b17f-ec0fd2052c5a"},"vehicle_type_id":"4","last_reported":1737814025,"current_range_meters":0,"station_id":"ce4bhqp2rcd13ifvqhng","pricing_plan_id":"cebpf4jnsgd1na2vs0mg"},{"bike_id":"58e811bb-64a6-42d5-b58d-7710b02b375a","system_id":"levelo_inurba_marseille","lat":43.25498,"lon":5.37641,"is_reserved":false,"is_disabled":false,"rental_uris":{"android":"levelo://app?vid=58e811bb-64a6-42d5-b58d-7710b02b375a","ios":"levelo://app?vid=58e811bb-64a6-42d5-b58d-7710b02b375a"},"vehicle_type_id":"4","last_reported":1737814025,"current_range_meters":39200,"station_id":"ce4bhh12rcd13ifvqff0","pricing_plan_id":"cebpf4jnsgd1na2vs0mg"},{"bike_id":"48e8ea53-6671-4afb-9c8d-1c5842cd6e14","system_id":"levelo_inurba_marseille","lat":43.30559,"lon":5.36537,"is_reserved":false,"is_disabled":false,"rental_uris":{"android":"levelo://app?vid=48e8ea53-6671-4afb-9c8d-1c5842cd6e14","ios":"levelo://app?vid=48e8ea53-6671-4afb-9c8d-1c5842cd6e14"},"vehicle_type_id":"4","last_reported":1737814025,"current_range_meters":38800,"station_id":"ce4bgs12rcd13ifvqcag","pricing_plan_id":"cebpf4jnsgd1na2vs0mg"},{"bike_id":"031c0754-77d4-4751-9a1c-ee020ab0f714","system_id":"levelo_inurba_marseille","lat":43.31478,"lon":5.37304,"is_reserved":false,"is_disabled":false,"rental_uris":{"android":"levelo://app?vid=031c0754-77d4-4751-9a1c-ee020ab0f714","ios":"levelo://app?vid=031c0754-77d4-4751-9a1c-ee020ab0f714"},"vehicle_type_id":"4","last_reported":1737814025,"current_range_meters":36000,"station_id":"ce4bgt12rcd13ifvqcd0","pricing_plan_id":"cebpf4jnsgd1na2vs0mg"},{"bike_id":"361cd0b7-edfc-4eec-a6fd-ba4bdf540479","system_id":"levelo_inurba_marseille","lat":43.325,"lon":5.3658,"is_reserved":false,"is_disabled":false,"rental_uris":{"android":"levelo://app?vid=361cd0b7-edfc-4eec-a6fd-ba4bdf540479","ios":"levelo://app?vid=361cd0b7-edfc-4eec-a6fd-ba4bdf540479"},"vehicle_type_id":"4","last_reported":1737814025,"current_range_meters":35600,"station_id":"ce4bhs12rcd13ifvqhvg","pricing_plan_id":"cebpf4jnsgd1na2vs0mg"},{"bike_id":"d0ae0312-004c-40cd-8f6e-61941782f579","system_id":"levelo_inurba_marseille","lat":43.30814,"lon":5.38153,"is_reserved":false,"is_disabled":true,"rental_uris":{"android":"levelo://app?vid=d0ae0312-004c-40cd-8f6e-61941782f579","ios":"levelo://app?vid=d0ae0312-004c-40cd-8f6e-61941782f579"},"vehicle_type_id":"4","last_reported":1737814025,"current_range_meters":30800,"station_id":"ce4bgt12rcd13ifvqce0","pricing_plan_id":"cebpf4jnsgd1na2vs0mg"},{"bike_id":"cd09eaf2-8620-4c54-b81c-d1f0ed8b1c70","system_id":"levelo_inurba_marseille","lat":43.30538,"lon":5.36536,"is_reserved":false,"is_disabled":false,"rental_uris":{"android":"levelo://app?vid=cd09eaf2-8620-4c54-b81c-d1f0ed8b1c70","ios":"levelo://app?vid=cd09eaf2-8620-4c54-b81c-d1f0ed8b1c70"},"vehicle_type_id":"4","last_reported":1737814025,"current_range_meters":38800,"station_id":"ce4bgs12rcd13ifvqcag","pricing_plan_id":"cebpf4jnsgd1na2vs0mg"},{"bike_id":"29af223e-652f-45b9-ac49-c1179617d491","system_id":"levelo_inurba_marseille","lat":43.24398,"lon":5.37038,"is_reserved":false,"is_disabled":false,"rental_uris":{"android":"levelo://app?vid=29af223e-652f-45b9-ac49-c1179617d491","ios":"levelo://app?vid=29af223e-652f-45b9-ac49-c1179617d491"},"vehicle_type_id":"4","last_reported":1737814025,"current_range_meters":38800,"station_id":"ce4bhhh2rcd13ifvqfk0","pricing_plan_id":"cebpf4jnsgd1na2vs0mg"},{"bike_id":"787fabc3-eb91-469a-81b6-44a6fdcc4a9b","system_id":"levelo_inurba_marseille","lat":43.23065,"lon":5.35496,"is_reserved":false,"is_disabled":true,"rental_uris":{"android":"levelo://app?vid=787fabc3-eb91-469a-81b6-44a6fdcc4a9b","ios":"levelo://app?vid=787fabc3-eb91-469a-81b6-44a6fdcc4a9b"},"vehicle_type_id":"4","last_reported":1737814025,"current_range_meters":1200,"station_id":"cpo3342slgdg3j2ifvpg","pricing_plan_id":"cebpf4jnsgd1na2vs0mg"},{"bike_id":"bd002190-7253-4748-ac67-ef72549b7175","system_id":"levelo_inurba_marseille","lat":43.32499,"lon":5.36567,"is_reserved":false,"is_disabled":false,"rental_uris":{"android":"levelo://app?vid=bd002190-7253-4748-ac67-ef72549b7175","ios":"levelo://app?vid=bd002190-7253-4748-ac67-ef72549b7175"},"vehicle_type_id":"4","last_reported":1737814025,"current_range_meters":18000,"station_id":"ce4bhs12rcd13ifvqhvg","pricing_plan_id":"cebpf4jnsgd1na2vs0mg"},{"bike_id":"1e328aaf-06e5-4767-a395-a9b21576497f","system_id":"levelo_inurba_marseille","lat":43.29789,"lon":5.37117,"is_reserved":false,"is_disabled":false,"rental_uris":{"android":"levelo://app?vid=1e328aaf-06e5-4767-a395-a9b21576497f","ios":"levelo://app?vid=1e328aaf-06e5-4767-a395-a9b21576497f"},"vehicle_type_id":"4","last_reported":1737814025,"current_range_meters":22000,"station_id":"ce4bgop2rcd13ifvqc1g","pricing_plan_id":"cebpf4jnsgd1na2vs0mg"},{"bike_id":"a6da11aa-cb09-4191-a454-c3a90a627542","system_id":"levelo_inurba_marseille","lat":43.25867,"lon":5.39906,"is_reserved":false,"is_disabled":false,"rental_uris":{"android":"levelo://app?vid=a6da11aa-cb09-4191-a454-c3a90a627542","ios":"levelo://app?vid=a6da11aa-cb09-4191-a454-c3a90a627542"},"vehicle_type_id":"4","last_reported":1737814025,"current_range_meters":6400,"station_id":"ce4bhl92rcd13ifvqghg","pricing_plan_id":"cebpf4jnsgd1na2vs0mg"},{"bike_id":"ea624404-124a-4128-9041-089ad79942c5","system_id":"levelo_inurba_marseille","lat":43.29568,"lon":5.42306,"is_reserved":false,"is_disabled":false,"rental_uris":{"android":"levelo://app?vid=ea624404-124a-4128-9041-089ad79942c5","ios":"levelo://app?vid=ea624404-124a-4128-9041-089ad79942c5"},"vehicle_type_id":"4","last_reported":1737814025,"current_range_meters":32000,"station_id":"ce4bhph2rcd13ifvqhdg","pricing_plan_id":"cebpf4jnsgd1na2vs0mg"},{"bike_id":"7f1596e0-f6d9-4072-b5fd-4558f8ae0b9d","system_id":"levelo_inurba_marseille","lat":43.25723,"lon":5.41095,"is_reserved":false,"is_disabled":false,"rental_uris":{"android":"levelo://app?vid=7f1596e0-f6d9-4072-b5fd-4558f8ae0b9d","ios":"levelo://app?vid=7f1596e0-f6d9-4072-b5fd-4558f8ae0b9d"},"vehicle_type_id":"4","last_reported":1737814025,"current_range_meters":38800,"station_id":"ce4bhkp2rcd13ifvqgd0","pricing_plan_id":"cebpf4jnsgd1na2vs0mg"},{"bike_id":"662826ac-353a-4d90-b4d6-b01a8f2632b2","system_id":"levelo_inurba_marseille","lat":43.22948,"lon":5.35386,"is_reserved":false,"is_disabled":false,"rental_uris":{"android":"levelo://app?vid=662826ac-353a-4d90-b4d6-b01a8f2632b2","ios":"levelo://app?vid=662826ac-353a-4d90-b4d6-b01a8f2632b2"},"vehicle_type_id":"4","last_reported":1737814025,"current_range_meters":28400,"station_id":"cpo3532slgdg3j2ikp40","pricing_plan_id":"cebpf4jnsgd1na2vs0mg"},{"bike_id":"5447ba5b-0de7-4afa-8b00-feb453072df6","system_id":"levelo_inurba_marseille","lat":43.2718,"lon":5.40997,"is_reserved":false,"is_disabled":false,"rental_uris":{"android":"levelo://app?vid=5447ba5b-0de7-4afa-8b00-feb453072df6","ios":"levelo://app?vid=5447ba5b-0de7-4afa-8b00-feb453072df6"},"vehicle_type_id":"4","last_reported":1737814025,"current_range_meters":32400,"station_id":"ce4bhl12rcd13ifvqgf0","pricing_plan_id":"cebpf4jnsgd1na2vs0mg"},{"bike_id":"4f7ae767-1a2d-4ee8-bada-c2362022fc0e","system_id":"levelo_inurba_marseille","lat":43.29241,"lon":5.3608,"is_reserved":false,"is_disabled":false,"rental_uris":{"android":"levelo://app?vid=4f7ae767-1a2d-4ee8-bada-c2362022fc0e","ios":"levelo://app?vid=4f7ae767-1a2d-4ee8-bada-c2362022fc0e"},"vehicle_type_id":"4","last_reported":1737814025,"current_range_meters":24800,"station_id":"ce4bhbh2rcd13ifvqeqg","pricing_plan_id":"cebpf4jnsgd1na2vs0mg"},{"bike_id":"03c9ea00-dc72-414c-b006-4436167fc80d","system_id":"levelo_inurba_marseille","lat":43.29802,"lon":5.40419,"is_reserved":false,"is_disabled":false,"rental_uris":{"android":"levelo://app?vid=03c9ea00-dc72-414c-b006-4436167fc80d","ios":"levelo://app?vid=03c9ea00-dc72-414c-b006-4436167fc80d"},"vehicle_type_id":"4","last_reported":1737814025,"current_range_meters":38800,"station_id":"ce4bh112rcd13ifvqd90","pricing_plan_id":"cebpf4jnsgd1na2vs0mg"},{"bike_id":"f65eaf77-d70d-4764-8cc0-27dfef055d73","system_id":"levelo_inurba_marseille","lat":43.31483,"lon":5.37314,"is_reserved":false,"is_disabled":false,"rental_uris":{"android":"levelo://app?vid=f65eaf77-d70d-4764-8cc0-27dfef055d73","ios":"levelo://app?vid=f65eaf77-d70d-4764-8cc0-27dfef055d73"},"vehicle_type_id":"4","last_reported":1737814025,"current_range_meters":14000,"station_id":"ce4bgt12rcd13ifvqcd0","pricing_plan_id":"cebpf4jnsgd1na2vs0mg"},{"bike_id":"00d570d3-3e44-418e-8fb5-d8cab8cadbe0","system_id":"levelo_inurba_marseille","lat":43.2997,"lon":5.37178,"is_reserved":false,"is_disabled":false,"rental_uris":{"android":"levelo://app?vid=00d570d3-3e44-418e-8fb5-d8cab8cadbe0","ios":"levelo://app?vid=00d570d3-3e44-418e-8fb5-d8cab8cadbe0"},"vehicle_type_id":"4","last_reported":1737814025,"current_range_meters":39200,"station_id":"ce4bgr92rcd13ifvqc7g","pricing_plan_id":"cebpf4jnsgd1na2vs0mg"},{"bike_id":"65b8614e-3341-455c-8c98-42b5d99800dd","system_id":"levelo_inurba_marseille","lat":43.29289,"lon":5.37447,"is_reserved":false,"is_disabled":false,"rental_uris":{"android":"levelo://app?vid=65b8614e-3341-455c-8c98-42b5d99800dd","ios":"levelo://app?vid=65b8614e-3341-455c-8c98-42b5d99800dd"},"vehicle_type_id":"4","last_reported":1737814025,"current_range_meters":35600,"station_id":"ce4bgi12rcd13ifvqb70","pricing_plan_id":"cebpf4jnsgd1na2vs0mg"},{"bike_id":"e52ebd37-6c74-4a4b-8bb0-5843da127381","system_id":"levelo_inurba_marseille","lat":43.28269,"lon":5.35058,"is_reserved":false,"is_disabled":false,"rental_uris":{"android":"levelo://app?vid=e52ebd37-6c74-4a4b-8bb0-5843da127381","ios":"levelo://app?vid=e52ebd37-6c74-4a4b-8bb0-5843da127381"},"vehicle_type_id":"4","last_reported":1737814025,"current_range_meters":24000,"station_id":"ce4bhbp2rcd13ifvqerg","pricing_plan_id":"cebpf4jnsgd1na2vs0mg"},{"bike_id":"9c35a641-d8de-4ad6-aa48-5402a47894a7","system_id":"levelo_inurba_marseille","lat":43.32662,"lon":5.40988,"is_reserved":false,"is_disabled":false,"rental_uris":{"android":"levelo://app?vid=9c35a641-d8de-4ad6-aa48-5402a47894a7","ios":"levelo://app?vid=9c35a641-d8de-4ad6-aa48-5402a47894a7"},"vehicle_type_id":"4","last_reported":1737814025,"current_range_meters":36400,"station_id":"ce4bhpp2rcd13ifvqhgg","pricing_plan_id":"cebpf4jnsgd1na2vs0mg"},{"bike_id":"258e6798-08f1-4042-a334-2465a7133c40","system_id":"levelo_inurba_marseille","lat":43.25501,"lon":5.37655,"is_reserved":false,"is_disabled":false,"rental_uris":{"android":"levelo://app?vid=258e6798-08f1-4042-a334-2465a7133c40","ios":"levelo://app?vid=258e6798-08f1-4042-a334-2465a7133c40"},"vehicle_type_id":"4","last_reported":1737814025,"current_range_meters":3600,"station_id":"ce4bhh12rcd13ifvqff0","pricing_plan_id":"cebpf4jnsgd1na2vs0mg"},{"bike_id":"0db958fd-9d8d-47d4-8dd9-c0ab6d763bb4","system_id":"levelo_inurba_marseille","lat":43.30818,"lon":5.43526,"is_reserved":false,"is_disabled":false,"rental_uris":{"android":"levelo://app?vid=0db958fd-9d8d-47d4-8dd9-c0ab6d763bb4","ios":"levelo://app?vid=0db958fd-9d8d-47d4-8dd9-c0ab6d763bb4"},"vehicle_type_id":"4","last_reported":1737814025,"current_range_meters":24800,"station_id":"ce4bhph2rcd13ifvqheg","pricing_plan_id":"cebpf4jnsgd1na2vs0mg"},{"bike_id":"6a9e34c1-9f2c-44ed-af34-4f040d9ae6f3","system_id":"levelo_inurba_marseille","lat":43.29556,"lon":5.4229,"is_reserved":false,"is_disabled":false,"rental_uris":{"android":"levelo://app?vid=6a9e34c1-9f2c-44ed-af34-4f040d9ae6f3","ios":"levelo://app?vid=6a9e34c1-9f2c-44ed-af34-4f040d9ae6f3"},"vehicle_type_id":"4","last_reported":1737814025,"current_range_meters":24000,"station_id":"ce4bhph2rcd13ifvqhdg","pricing_plan_id":"cebpf4jnsgd1na2vs0mg"},{"bike_id":"f9c62656-c213-4d37-bccf-53ca245dbdbd","system_id":"levelo_inurba_marseille","lat":43.3304,"lon":5.39046,"is_reserved":false,"is_disabled":false,"rental_uris":{"android":"levelo://app?vid=f9c62656-c213-4d37-bccf-53ca245dbdbd","ios":"levelo://app?vid=f9c62656-c213-4d37-bccf-53ca245dbdbd"},"vehicle_type_id":"4","last_reported":1737814025,"current_range_meters":13600,"station_id":"ce4bhr92rcd13ifvqhrg","pricing_plan_id":"cebpf4jnsgd1na2vs0mg"},{"bike_id":"26d3de6a-b7db-4cd7-885c-9cb71bb28aa5","system_id":"levelo_inurba_marseille","lat":43.27374,"lon":5.36256,"is_reserved":false,"is_disabled":false,"rental_uris":{"android":"levelo://app?vid=26d3de6a-b7db-4cd7-885c-9cb71bb28aa5","ios":"levelo://app?vid=26d3de6a-b7db-4cd7-885c-9cb71bb28aa5"},"vehicle_type_id":"4","last_reported":1737814025,"current_range_meters":38800,"station_id":"ce4bhbh2rcd13ifvqeo0","pricing_plan_id":"cebpf4jnsgd1na2vs0mg"},{"bike_id":"0c21f865-7b69-4aae-b926-535c6e7e0c30","system_id":"levelo_inurba_marseille","lat":43.25126,"lon":5.40332,"is_reserved":false,"is_disabled":true,"rental_uris":{"android":"levelo://app?vid=0c21f865-7b69-4aae-b926-535c6e7e0c30","ios":"levelo://app?vid=0c21f865-7b69-4aae-b926-535c6e7e0c30"},"vehicle_type_id":"4","last_reported":1737814025,"current_range_meters":0,"station_id":"ce4bhlh2rcd13ifvqgig","pricing_plan_id":"cebpf4jnsgd1na2vs0mg"},{"bike_id":"7c78a755-c7f5-4f07-a96b-621451d47948","system_id":"levelo_inurba_marseille","lat":43.299031,"lon":5.436676,"is_reserved":false,"is_disabled":false,"rental_uris":{"android":"levelo://app?vid=7c78a755-c7f5-4f07-a96b-621451d47948","ios":"levelo://app?vid=7c78a755-c7f5-4f07-a96b-621451d47948"},"vehicle_type_id":"4","last_reported":1737814025,"current_range_meters":36400,"station_id":"ce4bhpp2rcd13ifvqhfg","pricing_plan_id":"cebpf4jnsgd1na2vs0mg"},{"bike_id":"941388b2-0af8-4b8c-8a63-bf905460402c","system_id":"levelo_inurba_marseille","lat":43.23063,"lon":5.35481,"is_reserved":false,"is_disabled":false,"rental_uris":{"android":"levelo://app?vid=941388b2-0af8-4b8c-8a63-bf905460402c","ios":"levelo://app?vid=941388b2-0af8-4b8c-8a63-bf905460402c"},"vehicle_type_id":"4","last_reported":1737814025,"current_range_meters":24800,"station_id":"cpo3342slgdg3j2ifvpg","pricing_plan_id":"cebpf4jnsgd1na2vs0mg"},{"bike_id":"c69d1b2a-5537-4cf0-8c1d-991576479533","system_id":"levelo_inurba_marseille","lat":43.29164,"lon":5.37159,"is_reserved":false,"is_disabled":true,"rental_uris":{"android":"levelo://app?vid=c69d1b2a-5537-4cf0-8c1d-991576479533","ios":"levelo://app?vid=c69d1b2a-5537-4cf0-8c1d-991576479533"},"vehicle_type_id":"4","last_reported":1737814025,"current_range_meters":0,"station_id":"ce4bha92rcd13ifvqeh0","pricing_plan_id":"cebpf4jnsgd1na2vs0mg"},{"bike_id":"02cdedd4-1125-4271-bf4b-c8301fcf7225","system_id":"levelo_inurba_marseille","lat":43.28442,"lon":5.39207,"is_reserved":false,"is_disabled":false,"rental_uris":{"android":"levelo://app?vid=02cdedd4-1125-4271-bf4b-c8301fcf7225","ios":"levelo://app?vid=02cdedd4-1125-4271-bf4b-c8301fcf7225"},"vehicle_type_id":"4","last_reported":1737814025,"current_range_meters":27600,"station_id":"ce4bhoh2rcd13ifvqh5g","pricing_plan_id":"cebpf4jnsgd1na2vs0mg"},{"bike_id":"7b1e016f-c7a2-457d-b49c-9279d3d77813","system_id":"levelo_inurba_marseille","lat":43.24399,"lon":5.37053,"is_reserved":false,"is_disabled":false,"rental_uris":{"android":"levelo://app?vid=7b1e016f-c7a2-457d-b49c-9279d3d77813","ios":"levelo://app?vid=7b1e016f-c7a2-457d-b49c-9279d3d77813"},"vehicle_type_id":"4","last_reported":1737814025,"current_range_meters":20800,"station_id":"ce4bhhh2rcd13ifvqfk0","pricing_plan_id":"cebpf4jnsgd1na2vs0mg"},{"bike_id":"23d510e9-a16c-43a2-932f-0bd20e7b4f5f","system_id":"levelo_inurba_marseille","lat":43.26583,"lon":5.37305,"is_reserved":false,"is_disabled":false,"rental_uris":{"android":"levelo://app?vid=23d510e9-a16c-43a2-932f-0bd20e7b4f5f","ios":"levelo://app?vid=23d510e9-a16c-43a2-932f-0bd20e7b4f5f"},"vehicle_type_id":"4","last_reported":1737814025,"current_range_meters":12400,"station_id":"ce4bhg12rcd13ifvqf70","pricing_plan_id":"cebpf4jnsgd1na2vs0mg"},{"bike_id":"bc8dd1ab-0834-4e22-9071-538bdd60ddd6","system_id":"levelo_inurba_marseille","lat":43.23967,"lon":5.36634,"is_reserved":false,"is_disabled":false,"rental_uris":{"android":"levelo://app?vid=bc8dd1ab-0834-4e22-9071-538bdd60ddd6","ios":"levelo://app?vid=bc8dd1ab-0834-4e22-9071-538bdd60ddd6"},"vehicle_type_id":"4","last_reported":1737814025,"current_range_meters":14800,"station_id":"ce4bhi12rcd13ifvqfp0","pricing_plan_id":"cebpf4jnsgd1na2vs0mg"},{"bike_id":"501a3b34-3e89-4a03-abd2-508a990a52f3","system_id":"levelo_inurba_marseille","lat":43.29913,"lon":5.38164,"is_reserved":false,"is_disabled":false,"rental_uris":{"android":"levelo://app?vid=501a3b34-3e89-4a03-abd2-508a990a52f3","ios":"levelo://app?vid=501a3b34-3e89-4a03-abd2-508a990a52f3"},"vehicle_type_id":"4","last_reported":1737814025,"current_range_meters":33200,"station_id":"ce4bgj12rcd13ifvqbc0","pricing_plan_id":"cebpf4jnsgd1na2vs0mg"},{"bike_id":"7efe2e23-4eb5-42e6-bdfe-af45bc849b33","system_id":"levelo_inurba_marseille","lat":43.25126,"lon":5.40347,"is_reserved":false,"is_disabled":false,"rental_uris":{"android":"levelo://app?vid=7efe2e23-4eb5-42e6-bdfe-af45bc849b33","ios":"levelo://app?vid=7efe2e23-4eb5-42e6-bdfe-af45bc849b33"},"vehicle_type_id":"4","last_reported":1737814025,"current_range_meters":8000,"station_id":"ce4bhlh2rcd13ifvqgig","pricing_plan_id":"cebpf4jnsgd1na2vs0mg"},{"bike_id":"8fd0082a-8558-471d-bd5c-8f2bb03de120","system_id":"levelo_inurba_marseille","lat":43.28724,"lon":5.40004,"is_reserved":false,"is_disabled":true,"rental_uris":{"android":"levelo://app?vid=8fd0082a-8558-471d-bd5c-8f2bb03de120","ios":"levelo://app?vid=8fd0082a-8558-471d-bd5c-8f2bb03de120"},"vehicle_type_id":"4","last_reported":1737814025,"current_range_meters":30400,"station_id":"ce4bho92rcd13ifvqh3g","pricing_plan_id":"cebpf4jnsgd1na2vs0mg"},{"bike_id":"c0fe0a03-e606-4e11-9be1-35fca85b10e4","system_id":"levelo_inurba_marseille","lat":43.29305,"lon":5.37458,"is_reserved":false,"is_disabled":false,"rental_uris":{"android":"levelo://app?vid=c0fe0a03-e606-4e11-9be1-35fca85b10e4","ios":"levelo://app?vid=c0fe0a03-e606-4e11-9be1-35fca85b10e4"},"vehicle_type_id":"4","last_reported":1737814025,"current_range_meters":17600,"station_id":"ce4bgi12rcd13ifvqb70","pricing_plan_id":"cebpf4jnsgd1na2vs0mg"},{"bike_id":"9a9a9aff-c38d-492e-96c7-cea2f3322515","system_id":"levelo_inurba_marseille","lat":43.29177,"lon":5.3717,"is_reserved":false,"is_disabled":false,"rental_uris":{"android":"levelo://app?vid=9a9a9aff-c38d-492e-96c7-cea2f3322515","ios":"levelo://app?vid=9a9a9aff-c38d-492e-96c7-cea2f3322515"},"vehicle_type_id":"4","last_reported":1737814025,"current_range_meters":34000,"station_id":"ce4bha92rcd13ifvqeh0","pricing_plan_id":"cebpf4jnsgd1na2vs0mg"},{"bike_id":"981ae15d-8ce2-4b67-a580-05b436d7acf8","system_id":"levelo_inurba_marseille","lat":43.29598,"lon":5.37719,"is_reserved":false,"is_disabled":false,"rental_uris":{"android":"levelo://app?vid=981ae15d-8ce2-4b67-a580-05b436d7acf8","ios":"levelo://app?vid=981ae15d-8ce2-4b67-a580-05b436d7acf8"},"vehicle_type_id":"4","last_reported":1737814025,"current_range_meters":39200,"station_id":"ce4bgi92rcd13ifvqb90","pricing_plan_id":"cebpf4jnsgd1na2vs0mg"},{"bike_id":"b996c87f-d903-42b5-80db-0cef1eda72fd","system_id":"levelo_inurba_marseille","lat":43.23078,"lon":5.35472,"is_reserved":false,"is_disabled":false,"rental_uris":{"android":"levelo://app?vid=b996c87f-d903-42b5-80db-0cef1eda72fd","ios":"levelo://app?vid=b996c87f-d903-42b5-80db-0cef1eda72fd"},"vehicle_type_id":"4","last_reported":1737814025,"current_range_meters":8800,"station_id":"cpo3342slgdg3j2ifvpg","pricing_plan_id":"cebpf4jnsgd1na2vs0mg"},{"bike_id":"f6b9dfa3-8a24-4a50-a3d1-40c4ad4d5a60","system_id":"levelo_inurba_marseille","lat":43.303517,"lon":5.377127,"is_reserved":false,"is_disabled":false,"rental_uris":{"android":"levelo://app?vid=f6b9dfa3-8a24-4a50-a3d1-40c4ad4d5a60","ios":"levelo://app?vid=f6b9dfa3-8a24-4a50-a3d1-40c4ad4d5a60"},"vehicle_type_id":"4","last_reported":1737814025,"current_range_meters":39200,"station_id":"ce4bguh2rcd13ifvqcj0","pricing_plan_id":"cebpf4jnsgd1na2vs0mg"},{"bike_id":"814d4d12-7a24-40b6-a563-694406fd635d","system_id":"levelo_inurba_marseille","lat":43.29618,"lon":5.37163,"is_reserved":false,"is_disabled":false,"rental_uris":{"android":"levelo://app?vid=814d4d12-7a24-40b6-a563-694406fd635d","ios":"levelo://app?vid=814d4d12-7a24-40b6-a563-694406fd635d"},"vehicle_type_id":"4","last_reported":1737814025,"current_range_meters":20800,"station_id":"ce4bgnh2rcd13ifvqc0g","pricing_plan_id":"cebpf4jnsgd1na2vs0mg"},{"bike_id":"9f0c46f0-4fb9-4e17-b4b9-e5ede73a87dc","system_id":"levelo_inurba_marseille","lat":43.32382,"lon":5.39002,"is_reserved":false,"is_disabled":false,"rental_uris":{"android":"levelo://app?vid=9f0c46f0-4fb9-4e17-b4b9-e5ede73a87dc","ios":"levelo://app?vid=9f0c46f0-4fb9-4e17-b4b9-e5ede73a87dc"},"vehicle_type_id":"4","last_reported":1737814025,"current_range_meters":28800,"station_id":"ce4bhqp2rcd13ifvqhog","pricing_plan_id":"cebpf4jnsgd1na2vs0mg"},{"bike_id":"1b8ab376-cfd7-48b3-9ad4-fc3dd25c0ae2","system_id":"levelo_inurba_marseille","lat":43.30158,"lon":5.38079,"is_reserved":false,"is_disabled":false,"rental_uris":{"android":"levelo://app?vid=1b8ab376-cfd7-48b3-9ad4-fc3dd25c0ae2","ios":"levelo://app?vid=1b8ab376-cfd7-48b3-9ad4-fc3dd25c0ae2"},"vehicle_type_id":"4","last_reported":1737814025,"current_range_meters":33200,"station_id":"ce4bgjp2rcd13ifvqbh0","pricing_plan_id":"cebpf4jnsgd1na2vs0mg"},{"bike_id":"75b23e52-fc89-4685-850d-54e8fdf6f71d","system_id":"levelo_inurba_marseille","lat":43.30307,"lon":5.39234,"is_reserved":false,"is_disabled":false,"rental_uris":{"android":"levelo://app?vid=75b23e52-fc89-4685-850d-54e8fdf6f71d","ios":"levelo://app?vid=75b23e52-fc89-4685-850d-54e8fdf6f71d"},"vehicle_type_id":"4","last_reported":1737814025,"current_range_meters":32000,"station_id":"ce4bgkh2rcd13ifvqbk0","pricing_plan_id":"cebpf4jnsgd1na2vs0mg"},{"bike_id":"677db1de-0603-49cd-8f9c-196ef97ff635","system_id":"levelo_inurba_marseille","lat":43.251215,"lon":5.403178,"is_reserved":false,"is_disabled":false,"rental_uris":{"android":"levelo://app?vid=677db1de-0603-49cd-8f9c-196ef97ff635","ios":"levelo://app?vid=677db1de-0603-49cd-8f9c-196ef97ff635"},"vehicle_type_id":"4","last_reported":1737814025,"current_range_meters":20800,"station_id":"ce4bhlh2rcd13ifvqgig","pricing_plan_id":"cebpf4jnsgd1na2vs0mg"},{"bike_id":"368bbac3-44ab-4419-8f2b-36b70c7811bf","system_id":"levelo_inurba_marseille","lat":43.29918,"lon":5.38145,"is_reserved":false,"is_disabled":false,"rental_uris":{"android":"levelo://app?vid=368bbac3-44ab-4419-8f2b-36b70c7811bf","ios":"levelo://app?vid=368bbac3-44ab-4419-8f2b-36b70c7811bf"},"vehicle_type_id":"4","last_reported":1737814025,"current_range_meters":6800,"station_id":"ce4bgj12rcd13ifvqbc0","pricing_plan_id":"cebpf4jnsgd1na2vs0mg"},{"bike_id":"07fcad3a-0aa5-4b5c-952d-e153a205f186","system_id":"levelo_inurba_marseille","lat":43.24165,"lon":5.36395,"is_reserved":false,"is_disabled":true,"rental_uris":{"android":"levelo://app?vid=07fcad3a-0aa5-4b5c-952d-e153a205f186","ios":"levelo://app?vid=07fcad3a-0aa5-4b5c-952d-e153a205f186"},"vehicle_type_id":"4","last_reported":1737814025,"current_range_meters":400,"station_id":"cpo36qri1sfpv3e86is0","pricing_plan_id":"cebpf4jnsgd1na2vs0mg"},{"bike_id":"2cc6c1d9-eb27-4ac3-87d7-8f9ee4b7dd52","system_id":"levelo_inurba_marseille","lat":43.30097,"lon":5.390807,"is_reserved":false,"is_disabled":false,"rental_uris":{"android":"levelo://app?vid=2cc6c1d9-eb27-4ac3-87d7-8f9ee4b7dd52","ios":"levelo://app?vid=2cc6c1d9-eb27-4ac3-87d7-8f9ee4b7dd52"},"vehicle_type_id":"4","last_reported":1737814025,"current_range_meters":38000,"station_id":"ce4bh192rcd13ifvqdb0","pricing_plan_id":"cebpf4jnsgd1na2vs0mg"},{"bike_id":"0851b06b-a037-4e68-9057-2908986d991d","system_id":"levelo_inurba_marseille","lat":43.30359,"lon":5.41903,"is_reserved":false,"is_disabled":false,"rental_uris":{"android":"levelo://app?vid=0851b06b-a037-4e68-9057-2908986d991d","ios":"levelo://app?vid=0851b06b-a037-4e68-9057-2908986d991d"},"vehicle_type_id":"4","last_reported":1737814025,"current_range_meters":28800,"station_id":"ce4bhop2rcd13ifvqh7g","pricing_plan_id":"cebpf4jnsgd1na2vs0mg"},{"bike_id":"16cba4e1-cb10-44ef-b1a1-eca95385335f","system_id":"levelo_inurba_marseille","lat":43.28425,"lon":5.34976,"is_reserved":false,"is_disabled":true,"rental_uris":{"android":"levelo://app?vid=16cba4e1-cb10-44ef-b1a1-eca95385335f","ios":"levelo://app?vid=16cba4e1-cb10-44ef-b1a1-eca95385335f"},"vehicle_type_id":"4","last_reported":1737814025,"current_range_meters":16800,"station_id":"ce4bhbh2rcd13ifvqepg","pricing_plan_id":"cebpf4jnsgd1na2vs0mg"},{"bike_id":"7a10888c-582c-499c-a3fa-0ab95acc6885","system_id":"levelo_inurba_marseille","lat":43.27065,"lon":5.40265,"is_reserved":false,"is_disabled":false,"rental_uris":{"android":"levelo://app?vid=7a10888c-582c-499c-a3fa-0ab95acc6885","ios":"levelo://app?vid=7a10888c-582c-499c-a3fa-0ab95acc6885"},"vehicle_type_id":"4","last_reported":1737814025,"current_range_meters":36800,"station_id":"ce4bhk92rcd13ifvqgc0","pricing_plan_id":"cebpf4jnsgd1na2vs0mg"},{"bike_id":"64d6b925-4226-4918-a3c7-859faba924b9","system_id":"levelo_inurba_marseille","lat":43.29943,"lon":5.36549,"is_reserved":false,"is_disabled":true,"rental_uris":{"android":"levelo://app?vid=64d6b925-4226-4918-a3c7-859faba924b9","ios":"levelo://app?vid=64d6b925-4226-4918-a3c7-859faba924b9"},"vehicle_type_id":"4","last_reported":1737814025,"current_range_meters":1600,"station_id":"ce4bgm92rcd13ifvqbr0","pricing_plan_id":"cebpf4jnsgd1na2vs0mg"},{"bike_id":"bb7496df-daf2-4393-b56b-ee3b4e878b75","system_id":"levelo_inurba_marseille","lat":43.28082,"lon":5.39661,"is_reserved":false,"is_disabled":false,"rental_uris":{"android":"levelo://app?vid=bb7496df-daf2-4393-b56b-ee3b4e878b75","ios":"levelo://app?vid=bb7496df-daf2-4393-b56b-ee3b4e878b75"},"vehicle_type_id":"4","last_reported":1737814025,"current_range_meters":35200,"station_id":"ce4bho12rcd13ifvqh2g","pricing_plan_id":"cebpf4jnsgd1na2vs0mg"},{"bike_id":"bd71b0ef-1909-491b-9b34-ec914ebd43eb","system_id":"levelo_inurba_marseille","lat":43.31715,"lon":5.3775,"is_reserved":false,"is_disabled":false,"rental_uris":{"android":"levelo://app?vid=bd71b0ef-1909-491b-9b34-ec914ebd43eb","ios":"levelo://app?vid=bd71b0ef-1909-491b-9b34-ec914ebd43eb"},"vehicle_type_id":"4","last_reported":1737814025,"current_range_meters":23200,"station_id":"ce4bgth2rcd13ifvqch0","pricing_plan_id":"cebpf4jnsgd1na2vs0mg"},{"bike_id":"e28cd362-bf6b-4a47-b19d-eace2e851faa","system_id":"levelo_inurba_marseille","lat":43.23047,"lon":5.35452,"is_reserved":false,"is_disabled":false,"rental_uris":{"android":"levelo://app?vid=e28cd362-bf6b-4a47-b19d-eace2e851faa","ios":"levelo://app?vid=e28cd362-bf6b-4a47-b19d-eace2e851faa"},"vehicle_type_id":"4","last_reported":1737814025,"current_range_meters":26800,"station_id":"cpo3342slgdg3j2ifvpg","pricing_plan_id":"cebpf4jnsgd1na2vs0mg"},{"bike_id":"c18b10af-b2f5-4b56-972a-91fb04736951","system_id":"levelo_inurba_marseille","lat":43.30541,"lon":5.36545,"is_reserved":false,"is_disabled":false,"rental_uris":{"android":"levelo://app?vid=c18b10af-b2f5-4b56-972a-91fb04736951","ios":"levelo://app?vid=c18b10af-b2f5-4b56-972a-91fb04736951"},"vehicle_type_id":"4","last_reported":1737814025,"current_range_meters":20800,"station_id":"ce4bgs12rcd13ifvqcag","pricing_plan_id":"cebpf4jnsgd1na2vs0mg"},{"bike_id":"870bdd39-5cc0-46cf-b2c5-54ca7759cb6c","system_id":"levelo_inurba_marseille","lat":43.28267,"lon":5.35066,"is_reserved":false,"is_disabled":false,"rental_uris":{"android":"levelo://app?vid=870bdd39-5cc0-46cf-b2c5-54ca7759cb6c","ios":"levelo://app?vid=870bdd39-5cc0-46cf-b2c5-54ca7759cb6c"},"vehicle_type_id":"4","last_reported":1737814025,"current_range_meters":30800,"station_id":"ce4bhbp2rcd13ifvqerg","pricing_plan_id":"cebpf4jnsgd1na2vs0mg"},{"bike_id":"d8ab8eed-cbdc-4906-82f4-3e8ad54b5405","system_id":"levelo_inurba_marseille","lat":43.31122,"lon":5.37772,"is_reserved":false,"is_disabled":false,"rental_uris":{"android":"levelo://app?vid=d8ab8eed-cbdc-4906-82f4-3e8ad54b5405","ios":"levelo://app?vid=d8ab8eed-cbdc-4906-82f4-3e8ad54b5405"},"vehicle_type_id":"4","last_reported":1737814025,"current_range_meters":11200,"station_id":"ce4bgt92rcd13ifvqcg0","pricing_plan_id":"cebpf4jnsgd1na2vs0mg"},{"bike_id":"6fa686da-94e0-4346-a0b0-caf60cccce5b","system_id":"levelo_inurba_marseille","lat":43.29965,"lon":5.38496,"is_reserved":false,"is_disabled":false,"rental_uris":{"android":"levelo://app?vid=6fa686da-94e0-4346-a0b0-caf60cccce5b","ios":"levelo://app?vid=6fa686da-94e0-4346-a0b0-caf60cccce5b"},"vehicle_type_id":"4","last_reported":1737814025,"current_range_meters":38400,"station_id":"ce4bgj92rcd13ifvqbd0","pricing_plan_id":"cebpf4jnsgd1na2vs0mg"},{"bike_id":"f4a67fd7-7ba0-462e-b321-724410a83bc3","system_id":"levelo_inurba_marseille","lat":43.28618,"lon":5.35085,"is_reserved":false,"is_disabled":true,"rental_uris":{"android":"levelo://app?vid=f4a67fd7-7ba0-462e-b321-724410a83bc3","ios":"levelo://app?vid=f4a67fd7-7ba0-462e-b321-724410a83bc3"},"vehicle_type_id":"4","last_reported":1737814025,"current_range_meters":17200,"station_id":"ce4bhch2rcd13ifvqeug","pricing_plan_id":"cebpf4jnsgd1na2vs0mg"},{"bike_id":"1ef1003d-aecf-4f9e-85a7-6c3e8f13f1c0","system_id":"levelo_inurba_marseille","lat":43.22948,"lon":5.35382,"is_reserved":false,"is_disabled":false,"rental_uris":{"android":"levelo://app?vid=1ef1003d-aecf-4f9e-85a7-6c3e8f13f1c0","ios":"levelo://app?vid=1ef1003d-aecf-4f9e-85a7-6c3e8f13f1c0"},"vehicle_type_id":"4","last_reported":1737814025,"current_range_meters":29600,"station_id":"cpo3532slgdg3j2ikp40","pricing_plan_id":"cebpf4jnsgd1na2vs0mg"},{"bike_id":"a429b57d-452d-4623-b8d1-c6c8eb545a68","system_id":"levelo_inurba_marseille","lat":43.28274,"lon":5.35062,"is_reserved":false,"is_disabled":false,"rental_uris":{"android":"levelo://app?vid=a429b57d-452d-4623-b8d1-c6c8eb545a68","ios":"levelo://app?vid=a429b57d-452d-4623-b8d1-c6c8eb545a68"},"vehicle_type_id":"4","last_reported":1737814025,"current_range_meters":30800,"station_id":"ce4bhbp2rcd13ifvqerg","pricing_plan_id":"cebpf4jnsgd1na2vs0mg"},{"bike_id":"f0ea2b6a-80e2-4a1c-8829-2617faab7925","system_id":"levelo_inurba_marseille","lat":43.34152,"lon":5.40905,"is_reserved":false,"is_disabled":false,"rental_uris":{"android":"levelo://app?vid=f0ea2b6a-80e2-4a1c-8829-2617faab7925","ios":"levelo://app?vid=f0ea2b6a-80e2-4a1c-8829-2617faab7925"},"vehicle_type_id":"4","last_reported":1737814025,"current_range_meters":38800,"station_id":"ce4bhqh2rcd13ifvqhlg","pricing_plan_id":"cebpf4jnsgd1na2vs0mg"},{"bike_id":"5c995afd-2cd1-49c1-8bf9-110c6b679d80","system_id":"levelo_inurba_marseille","lat":43.2408,"lon":5.377473,"is_reserved":false,"is_disabled":false,"rental_uris":{"android":"levelo://app?vid=5c995afd-2cd1-49c1-8bf9-110c6b679d80","ios":"levelo://app?vid=5c995afd-2cd1-49c1-8bf9-110c6b679d80"},"vehicle_type_id":"4","last_reported":1737814025,"current_range_meters":8000,"station_id":"ce4bhnp2rcd13ifvqgvg","pricing_plan_id":"cebpf4jnsgd1na2vs0mg"},{"bike_id":"7e1aeb56-267b-487a-ba9b-c77584d0973f","system_id":"levelo_inurba_marseille","lat":43.27207,"lon":5.3918,"is_reserved":false,"is_disabled":false,"rental_uris":{"android":"levelo://app?vid=7e1aeb56-267b-487a-ba9b-c77584d0973f","ios":"levelo://app?vid=7e1aeb56-267b-487a-ba9b-c77584d0973f"},"vehicle_type_id":"4","last_reported":1737814025,"current_range_meters":6000,"station_id":"ce4bhhp2rcd13ifvqfm0","pricing_plan_id":"cebpf4jnsgd1na2vs0mg"},{"bike_id":"4719546c-9453-4daa-99f4-d7a2430bd1f5","system_id":"levelo_inurba_marseille","lat":43.24082,"lon":5.37755,"is_reserved":false,"is_disabled":false,"rental_uris":{"android":"levelo://app?vid=4719546c-9453-4daa-99f4-d7a2430bd1f5","ios":"levelo://app?vid=4719546c-9453-4daa-99f4-d7a2430bd1f5"},"vehicle_type_id":"4","last_reported":1737814025,"current_range_meters":33200,"station_id":"ce4bhnp2rcd13ifvqgvg","pricing_plan_id":"cebpf4jnsgd1na2vs0mg"},{"bike_id":"b64d880e-4583-44f0-8c16-3495e23cf3e5","system_id":"levelo_inurba_marseille","lat":43.29892,"lon":5.43659,"is_reserved":false,"is_disabled":false,"rental_uris":{"android":"levelo://app?vid=b64d880e-4583-44f0-8c16-3495e23cf3e5","ios":"levelo://app?vid=b64d880e-4583-44f0-8c16-3495e23cf3e5"},"vehicle_type_id":"4","last_reported":1737814025,"current_range_meters":24000,"station_id":"ce4bhpp2rcd13ifvqhfg","pricing_plan_id":"cebpf4jnsgd1na2vs0mg"},{"bike_id":"b873533f-943b-4033-a86d-9d99128fa59a","system_id":"levelo_inurba_marseille","lat":43.32485,"lon":5.3657,"is_reserved":false,"is_disabled":false,"rental_uris":{"android":"levelo://app?vid=b873533f-943b-4033-a86d-9d99128fa59a","ios":"levelo://app?vid=b873533f-943b-4033-a86d-9d99128fa59a"},"vehicle_type_id":"4","last_reported":1737814025,"current_range_meters":38800,"station_id":"ce4bhs12rcd13ifvqhvg","pricing_plan_id":"cebpf4jnsgd1na2vs0mg"},{"bike_id":"e33af010-abb5-4e39-a12d-4bc7ec9d16cc","system_id":"levelo_inurba_marseille","lat":43.29965,"lon":5.37172,"is_reserved":false,"is_disabled":false,"rental_uris":{"android":"levelo://app?vid=e33af010-abb5-4e39-a12d-4bc7ec9d16cc","ios":"levelo://app?vid=e33af010-abb5-4e39-a12d-4bc7ec9d16cc"},"vehicle_type_id":"4","last_reported":1737814025,"current_range_meters":36400,"station_id":"ce4bgr92rcd13ifvqc7g","pricing_plan_id":"cebpf4jnsgd1na2vs0mg"},{"bike_id":"c6eb5c4c-ffb8-4227-b060-4e2a28985b77","system_id":"levelo_inurba_marseille","lat":43.23187,"lon":5.3999,"is_reserved":false,"is_disabled":false,"rental_uris":{"android":"levelo://app?vid=c6eb5c4c-ffb8-4227-b060-4e2a28985b77","ios":"levelo://app?vid=c6eb5c4c-ffb8-4227-b060-4e2a28985b77"},"vehicle_type_id":"4","last_reported":1737814025,"current_range_meters":4000,"station_id":"ce4bhn12rcd13ifvqgqg","pricing_plan_id":"cebpf4jnsgd1na2vs0mg"},{"bike_id":"94456f3d-5d42-4ffd-b863-1e094f7fbd0d","system_id":"levelo_inurba_marseille","lat":43.23063,"lon":5.35495,"is_reserved":false,"is_disabled":false,"rental_uris":{"android":"levelo://app?vid=94456f3d-5d42-4ffd-b863-1e094f7fbd0d","ios":"levelo://app?vid=94456f3d-5d42-4ffd-b863-1e094f7fbd0d"},"vehicle_type_id":"4","last_reported":1737814025,"current_range_meters":11600,"station_id":"cpo3342slgdg3j2ifvpg","pricing_plan_id":"cebpf4jnsgd1na2vs0mg"},{"bike_id":"f80d01d0-a712-409a-8ab3-b8a044fec525","system_id":"levelo_inurba_marseille","lat":43.258588,"lon":5.399037,"is_reserved":false,"is_disabled":true,"rental_uris":{"android":"levelo://app?vid=f80d01d0-a712-409a-8ab3-b8a044fec525","ios":"levelo://app?vid=f80d01d0-a712-409a-8ab3-b8a044fec525"},"vehicle_type_id":"4","last_reported":1737814025,"current_range_meters":38400,"station_id":"ce4bhl92rcd13ifvqghg","pricing_plan_id":"cebpf4jnsgd1na2vs0mg"},{"bike_id":"375c54aa-d8c3-44cb-9610-967b44886ba6","system_id":"levelo_inurba_marseille","lat":43.33615,"lon":5.4102,"is_reserved":false,"is_disabled":false,"rental_uris":{"android":"levelo://app?vid=375c54aa-d8c3-44cb-9610-967b44886ba6","ios":"levelo://app?vid=375c54aa-d8c3-44cb-9610-967b44886ba6"},"vehicle_type_id":"4","last_reported":1737814025,"current_range_meters":39200,"station_id":"ce4bhqh2rcd13ifvqhmg","pricing_plan_id":"cebpf4jnsgd1na2vs0mg"},{"bike_id":"4bc3e579-0e08-450a-a1ab-c7ed85ba514d","system_id":"levelo_inurba_marseille","lat":43.29622,"lon":5.37157,"is_reserved":false,"is_disabled":false,"rental_uris":{"android":"levelo://app?vid=4bc3e579-0e08-450a-a1ab-c7ed85ba514d","ios":"levelo://app?vid=4bc3e579-0e08-450a-a1ab-c7ed85ba514d"},"vehicle_type_id":"4","last_reported":1737814025,"current_range_meters":20800,"station_id":"ce4bgnh2rcd13ifvqc0g","pricing_plan_id":"cebpf4jnsgd1na2vs0mg"},{"bike_id":"528e194a-9021-4ae9-b739-ced1561773c8","system_id":"levelo_inurba_marseille","lat":43.30094,"lon":5.39074,"is_reserved":false,"is_disabled":false,"rental_uris":{"android":"levelo://app?vid=528e194a-9021-4ae9-b739-ced1561773c8","ios":"levelo://app?vid=528e194a-9021-4ae9-b739-ced1561773c8"},"vehicle_type_id":"4","last_reported":1737814025,"current_range_meters":36000,"station_id":"ce4bh192rcd13ifvqdb0","pricing_plan_id":"cebpf4jnsgd1na2vs0mg"},{"bike_id":"9c5149dd-b82c-447e-8b27-8c2fc0cb58a6","system_id":"levelo_inurba_marseille","lat":43.29853,"lon":5.36297,"is_reserved":false,"is_disabled":false,"rental_uris":{"android":"levelo://app?vid=9c5149dd-b82c-447e-8b27-8c2fc0cb58a6","ios":"levelo://app?vid=9c5149dd-b82c-447e-8b27-8c2fc0cb58a6"},"vehicle_type_id":"4","last_reported":1737814025,"current_range_meters":25200,"station_id":"ce4bgpp2rcd13ifvqc3g","pricing_plan_id":"cebpf4jnsgd1na2vs0mg"},{"bike_id":"c50cf93a-6b59-47ad-b33e-2c9c3fe13678","system_id":"levelo_inurba_marseille","lat":43.304773,"lon":5.36971,"is_reserved":false,"is_disabled":false,"rental_uris":{"android":"levelo://app?vid=c50cf93a-6b59-47ad-b33e-2c9c3fe13678","ios":"levelo://app?vid=c50cf93a-6b59-47ad-b33e-2c9c3fe13678"},"vehicle_type_id":"4","last_reported":1737814025,"current_range_meters":4400,"station_id":"","pricing_plan_id":"cebpf4jnsgd1na2vs0mg"},{"bike_id":"0da05c91-b4db-4424-93fa-80e05b294f90","system_id":"levelo_inurba_marseille","lat":43.3303,"lon":5.39052,"is_reserved":false,"is_disabled":false,"rental_uris":{"android":"levelo://app?vid=0da05c91-b4db-4424-93fa-80e05b294f90","ios":"levelo://app?vid=0da05c91-b4db-4424-93fa-80e05b294f90"},"vehicle_type_id":"4","last_reported":1737814025,"current_range_meters":38000,"station_id":"ce4bhr92rcd13ifvqhrg","pricing_plan_id":"cebpf4jnsgd1na2vs0mg"},{"bike_id":"c60dcd33-fc4e-4a8f-a65b-3191b49bc04f","system_id":"levelo_inurba_marseille","lat":43.29059,"lon":5.37162,"is_reserved":false,"is_disabled":false,"rental_uris":{"android":"levelo://app?vid=c60dcd33-fc4e-4a8f-a65b-3191b49bc04f","ios":"levelo://app?vid=c60dcd33-fc4e-4a8f-a65b-3191b49bc04f"},"vehicle_type_id":"4","last_reported":1737814025,"current_range_meters":18000,"station_id":"ce4bh5p2rcd13ifvqe4g","pricing_plan_id":"cebpf4jnsgd1na2vs0mg"},{"bike_id":"a0144781-05b8-4d83-bbc9-fc2e4ea9d075","system_id":"levelo_inurba_marseille","lat":43.30431,"lon":5.41293,"is_reserved":false,"is_disabled":false,"rental_uris":{"android":"levelo://app?vid=a0144781-05b8-4d83-bbc9-fc2e4ea9d075","ios":"levelo://app?vid=a0144781-05b8-4d83-bbc9-fc2e4ea9d075"},"vehicle_type_id":"4","last_reported":1737814025,"current_range_meters":33600,"station_id":"ce4bhop2rcd13ifvqh8g","pricing_plan_id":"cebpf4jnsgd1na2vs0mg"},{"bike_id":"b2ae0aae-184e-4e3e-92c0-24749052682a","system_id":"levelo_inurba_marseille","lat":43.297877,"lon":5.393413,"is_reserved":false,"is_disabled":false,"rental_uris":{"android":"levelo://app?vid=b2ae0aae-184e-4e3e-92c0-24749052682a","ios":"levelo://app?vid=b2ae0aae-184e-4e3e-92c0-24749052682a"},"vehicle_type_id":"4","last_reported":1737814025,"current_range_meters":15200,"station_id":"chh1huq6cuj3fo74tm60","pricing_plan_id":"cebpf4jnsgd1na2vs0mg"},{"bike_id":"62e0a3b2-859d-403e-a362-17f0caee2c40","system_id":"levelo_inurba_marseille","lat":43.31881,"lon":5.40737,"is_reserved":false,"is_disabled":false,"rental_uris":{"android":"levelo://app?vid=62e0a3b2-859d-403e-a362-17f0caee2c40","ios":"levelo://app?vid=62e0a3b2-859d-403e-a362-17f0caee2c40"},"vehicle_type_id":"4","last_reported":1737814025,"current_range_meters":24800,"station_id":"ce4bhq12rcd13ifvqhig","pricing_plan_id":"cebpf4jnsgd1na2vs0mg"},{"bike_id":"f9d1568c-97ef-44c7-b3b2-fce509d6d87a","system_id":"levelo_inurba_marseille","lat":43.28442,"lon":5.3753,"is_reserved":false,"is_disabled":true,"rental_uris":{"android":"levelo://app?vid=f9d1568c-97ef-44c7-b3b2-fce509d6d87a","ios":"levelo://app?vid=f9d1568c-97ef-44c7-b3b2-fce509d6d87a"},"vehicle_type_id":"4","last_reported":1737814025,"current_range_meters":10800,"station_id":"","pricing_plan_id":"cebpf4jnsgd1na2vs0mg"},{"bike_id":"1b353bcb-c2cb-4c7a-b981-2e7b3da71033","system_id":"levelo_inurba_marseille","lat":43.28444,"lon":5.39201,"is_reserved":false,"is_disabled":false,"rental_uris":{"android":"levelo://app?vid=1b353bcb-c2cb-4c7a-b981-2e7b3da71033","ios":"levelo://app?vid=1b353bcb-c2cb-4c7a-b981-2e7b3da71033"},"vehicle_type_id":"4","last_reported":1737814025,"current_range_meters":7200,"station_id":"ce4bhoh2rcd13ifvqh5g","pricing_plan_id":"cebpf4jnsgd1na2vs0mg"},{"bike_id":"3e935dfb-4de6-4b44-9c01-862038a1fd93","system_id":"levelo_inurba_marseille","lat":43.30137,"lon":5.39849,"is_reserved":false,"is_disabled":false,"rental_uris":{"android":"levelo://app?vid=3e935dfb-4de6-4b44-9c01-862038a1fd93","ios":"levelo://app?vid=3e935dfb-4de6-4b44-9c01-862038a1fd93"},"vehicle_type_id":"4","last_reported":1737814025,"current_range_meters":21600,"station_id":"ce4bh0h2rcd13ifvqd40","pricing_plan_id":"cebpf4jnsgd1na2vs0mg"},{"bike_id":"081f9a1c-93b6-4d13-94cd-7890906fd0cd","system_id":"levelo_inurba_marseille","lat":43.28648,"lon":5.35071,"is_reserved":false,"is_disabled":false,"rental_uris":{"android":"levelo://app?vid=081f9a1c-93b6-4d13-94cd-7890906fd0cd","ios":"levelo://app?vid=081f9a1c-93b6-4d13-94cd-7890906fd0cd"},"vehicle_type_id":"4","last_reported":1737814025,"current_range_meters":36400,"station_id":"ce4bhch2rcd13ifvqeug","pricing_plan_id":"cebpf4jnsgd1na2vs0mg"},{"bike_id":"e7a890f1-6b1a-4620-9800-c9a13214b6d9","system_id":"levelo_inurba_marseille","lat":43.26199,"lon":5.37919,"is_reserved":false,"is_disabled":false,"rental_uris":{"android":"levelo://app?vid=e7a890f1-6b1a-4620-9800-c9a13214b6d9","ios":"levelo://app?vid=e7a890f1-6b1a-4620-9800-c9a13214b6d9"},"vehicle_type_id":"4","last_reported":1737814025,"current_range_meters":38800,"station_id":"ce4bhjp2rcd13ifvqg90","pricing_plan_id":"cebpf4jnsgd1na2vs0mg"},{"bike_id":"576b8657-d5e2-4d23-9b1e-461b2180cd28","system_id":"levelo_inurba_marseille","lat":43.22944,"lon":5.35387,"is_reserved":false,"is_disabled":false,"rental_uris":{"android":"levelo://app?vid=576b8657-d5e2-4d23-9b1e-461b2180cd28","ios":"levelo://app?vid=576b8657-d5e2-4d23-9b1e-461b2180cd28"},"vehicle_type_id":"4","last_reported":1737814025,"current_range_meters":39200,"station_id":"cpo3532slgdg3j2ikp40","pricing_plan_id":"cebpf4jnsgd1na2vs0mg"},{"bike_id":"9f9d4442-89fe-47bc-91e0-b5e6dd1efdea","system_id":"levelo_inurba_marseille","lat":43.298253,"lon":5.363008,"is_reserved":false,"is_disabled":false,"rental_uris":{"android":"levelo://app?vid=9f9d4442-89fe-47bc-91e0-b5e6dd1efdea","ios":"levelo://app?vid=9f9d4442-89fe-47bc-91e0-b5e6dd1efdea"},"vehicle_type_id":"4","last_reported":1737814025,"current_range_meters":38800,"station_id":"ce4bgpp2rcd13ifvqc3g","pricing_plan_id":"cebpf4jnsgd1na2vs0mg"},{"bike_id":"8f7ee1ac-1426-4a45-8f01-d94ec0b03d89","system_id":"levelo_inurba_marseille","lat":43.29602,"lon":5.38094,"is_reserved":false,"is_disabled":false,"rental_uris":{"android":"levelo://app?vid=8f7ee1ac-1426-4a45-8f01-d94ec0b03d89","ios":"levelo://app?vid=8f7ee1ac-1426-4a45-8f01-d94ec0b03d89"},"vehicle_type_id":"4","last_reported":1737814025,"current_range_meters":12400,"station_id":"ce4bgl12rcd13ifvqbo0","pricing_plan_id":"cebpf4jnsgd1na2vs0mg"},{"bike_id":"d371583f-332b-496e-a226-80ca6817a355","system_id":"levelo_inurba_marseille","lat":43.26567,"lon":5.39016,"is_reserved":false,"is_disabled":false,"rental_uris":{"android":"levelo://app?vid=d371583f-332b-496e-a226-80ca6817a355","ios":"levelo://app?vid=d371583f-332b-496e-a226-80ca6817a355"},"vehicle_type_id":"4","last_reported":1737814025,"current_range_meters":16400,"station_id":"ce4bhe12rcd13ifvqf30","pricing_plan_id":"cebpf4jnsgd1na2vs0mg"},{"bike_id":"d7cbc232-0904-4080-8dd3-3315ddb342d7","system_id":"levelo_inurba_marseille","lat":43.29584,"lon":5.37505,"is_reserved":false,"is_disabled":false,"rental_uris":{"android":"levelo://app?vid=d7cbc232-0904-4080-8dd3-3315ddb342d7","ios":"levelo://app?vid=d7cbc232-0904-4080-8dd3-3315ddb342d7"},"vehicle_type_id":"4","last_reported":1737814025,"current_range_meters":20400,"station_id":"ce4bgh92rcd13ifvqb50","pricing_plan_id":"cebpf4jnsgd1na2vs0mg"},{"bike_id":"b3185952-1e94-40ab-aca7-3898db7d50f0","system_id":"levelo_inurba_marseille","lat":43.29737,"lon":5.37699,"is_reserved":false,"is_disabled":false,"rental_uris":{"android":"levelo://app?vid=b3185952-1e94-40ab-aca7-3898db7d50f0","ios":"levelo://app?vid=b3185952-1e94-40ab-aca7-3898db7d50f0"},"vehicle_type_id":"4","last_reported":1737814025,"current_range_meters":38800,"station_id":"ce4bgkh2rcd13ifvqbl0","pricing_plan_id":"cebpf4jnsgd1na2vs0mg"},{"bike_id":"ed7eeb25-7ce2-435a-ab4e-69f985aca025","system_id":"levelo_inurba_marseille","lat":43.24399,"lon":5.37038,"is_reserved":false,"is_disabled":false,"rental_uris":{"android":"levelo://app?vid=ed7eeb25-7ce2-435a-ab4e-69f985aca025","ios":"levelo://app?vid=ed7eeb25-7ce2-435a-ab4e-69f985aca025"},"vehicle_type_id":"4","last_reported":1737814025,"current_range_meters":35600,"station_id":"ce4bhhh2rcd13ifvqfk0","pricing_plan_id":"cebpf4jnsgd1na2vs0mg"},{"bike_id":"2bbe416b-799b-414e-83eb-ec70bb369585","system_id":"levelo_inurba_marseille","lat":43.28433,"lon":5.34988,"is_reserved":false,"is_disabled":false,"rental_uris":{"android":"levelo://app?vid=2bbe416b-799b-414e-83eb-ec70bb369585","ios":"levelo://app?vid=2bbe416b-799b-414e-83eb-ec70bb369585"},"vehicle_type_id":"4","last_reported":1737814025,"current_range_meters":25200,"station_id":"ce4bhbh2rcd13ifvqepg","pricing_plan_id":"cebpf4jnsgd1na2vs0mg"},{"bike_id":"2ac3f72e-3386-40da-a678-e3394c289fe1","system_id":"levelo_inurba_marseille","lat":43.27921,"lon":5.39577,"is_reserved":false,"is_disabled":false,"rental_uris":{"android":"levelo://app?vid=2ac3f72e-3386-40da-a678-e3394c289fe1","ios":"levelo://app?vid=2ac3f72e-3386-40da-a678-e3394c289fe1"},"vehicle_type_id":"4","last_reported":1737814025,"current_range_meters":20400,"station_id":"ce4bhf92rcd13ifvqf40","pricing_plan_id":"cebpf4jnsgd1na2vs0mg"},