{"last_updated":1726920890,"ttl":30,"version":"2.2","data":{"bikes":[{"bike_id":"09e6cd88-ad5a-4727-b92b-1b62b62b7ec1","system_id":"levelo_inurba_marseille","lat":43.28006,"lon":5.40009,"is_reserved":false,"is_disabled":false,"rental_uris":{"android":"levelo://app?vid=09e6cd88-ad5a-4727-b92b-1b62b62b7ec1","ios":"levelo://app?vid=09e6cd88-ad5a-4727-b92b-1b62b62b7ec1"},"vehicle_type_id":"4","last_reported":1726920890,"current_range_meters":38800,"station_id":"ce4bho92rcd13ifvqh4g","pricing_plan_id":"cebpf4jnsgd1na2vs0mg"},{"bike_id":"9b521226-1222-420c-85eb-7da1ff3a9204","system_id":"levelo_inurba_marseille","lat":43.22934,"lon":5.35377,"is_reserved":false,"is_disabled":false,"rental_uris":{"android":"levelo://app?vid=9b521226-1222-420c-85eb-7da1ff3a9204","ios":"levelo://app?vid=9b521226-1222-420c-85eb-7da1ff3a9204"},"vehicle_type_id":"4","last_reported":1726920890,"current_range_meters":28000,"station_id":"cpo3532slgdg3j2ikp40","pricing_plan_id":"cebpf4jnsgd1na2vs0mg"},{"bike_id":"edeacd13-2389-4c6c-a794-571e373dced3","system_id":"levelo_inurba_marseille","lat":43.27707,"lon":5.41843,"is_reserved":false,"is_disabled":false,"rental_uris":{"android":"levelo://app?vid=edeacd13-2389-4c6c-a794-571e373dced3","ios":"levelo://app?vid=edeacd13-2389-4c6c-a794-571e373dced3"},"vehicle_type_id":"4","last_reported":1726920890,"current_range_meters":20400,"station_id":"","pricing_plan_id":"cebpf4jnsgd1na2vs0mg"},{"bike_id":"744ba39c-0d59-44de-b571-71580a3309a8","system_id":"levelo_inurba_marseille","lat":43.29582,"lon":5.36747,"is_reserved":false,"is_disabled":false,"rental_uris":{"android":"levelo://app?vid=744ba39c-0d59-44de-b571-71580a3309a8","ios":"levelo://app?vid=744ba39c-0d59-44de-b571-71580a3309a8"},"vehicle_type_id":"4","last_reported":1726920890,"current_range_meters":38800,"station_id":"ce4bgph2rcd13ifvqc2g","pricing_plan_id":"cebpf4jnsgd1na2vs0mg"},{"bike_id":"0ec2d995-3084-47c5-a849-a8f968a7425d","system_id":"levelo_inurba_marseille","lat":43.30147,"lon":5.37419,"is_reserved":false,"is_disabled":false,"rental_uris":{"android":"levelo://app?vid=0ec2d995-3084-47c5-a849-a8f968a7425d","ios":"levelo://app?vid=0ec2d995-3084-47c5-a849-a8f968a7425d"},"vehicle_type_id":"4","last_reported":1726920890,"current_range_meters":38400,"station_id":"ce4bgs92rcd13ifvqcc0","pricing_plan_id":"cebpf4jnsgd1na2vs0mg"},{"bike_id":"fe9cad07-5ccb-476b-b569-d9572f2f9f5b","system_id":"levelo_inurba_marseille","lat":43.29535,"lon":5.3855,"is_reserved":false,"is_disabled":false,"rental_uris":{"android":"levelo://app?vid=fe9cad07-5ccb-476b-b569-d9572f2f9f5b","ios":"levelo://app?vid=fe9cad07-5ccb-476b-b569-d9572f2f9f5b"},"vehicle_type_id":"4","last_reported":1726920890,"current_range_meters":28800,"station_id":"ce4bgih2rcd13ifvqba0","pricing_plan_id":"cebpf4jnsgd1na2vs0mg"},{"bike_id":"e7cd47e5-6f97-4fa9-90d0-f566eb560bd1","system_id":"levelo_inurba_marseille","lat":43.231506,"lon":5.437201,"is_reserved":false,"is_disabled":false,"rental_uris":{"android":"levelo://app?vid=e7cd47e5-6f97-4fa9-90d0-f566eb560bd1","ios":"levelo://app?vid=e7cd47e5-6f97-4fa9-90d0-f566eb560bd1"},"vehicle_type_id":"4","last_reported":1726920890,"current_range_meters":18000,"station_id":"ce4bhmp2rcd13ifvqgog","pricing_plan_id":"cebpf4jnsgd1na2vs0mg"},{"bike_id":"e28c7885-355a-448a-9d6f-6c312db628ba","system_id":"levelo_inurba_marseille","lat":43.26206,"lon":5.37442,"is_reserved":false,"is_disabled":false,"rental_uris":{"android":"levelo://app?vid=e28c7885-355a-448a-9d6f-6c312db628ba","ios":"levelo://app?vid=e28c7885-355a-448a-9d6f-6c312db628ba"},"vehicle_type_id":"4","last_reported":1726920890,"current_range_meters":11200,"station_id":"ce4bhgp2rcd13ifvqfc0","pricing_plan_id":"cebpf4jnsgd1na2vs0mg"},{"bike_id":"9d95eaee-1b8f-4432-9468-f53a3ad762ec","system_id":"levelo_inurba_marseille","lat":43.3127,"lon":5.40165,"is_reserved":false,"is_disabled":false,"rental_uris":{"android":"levelo://app?vid=9d95eaee-1b8f-4432-9468-f53a3ad762ec","ios":"levelo://app?vid=9d95eaee-1b8f-4432-9468-f53a3ad762ec"},"vehicle_type_id":"4","last_reported":1726920890,"current_range_meters":8800,"station_id":"ce4bh092rcd13ifvqd30","pricing_plan_id":"cebpf4jnsgd1na2vs0mg"},{"bike_id":"c75d54ce-b336-4f54-aa4f-e607d9e00d73","system_id":"levelo_inurba_marseille","lat":43.31364,"lon":5.38491,"is_reserved":false,"is_disabled":false,"rental_uris":{"android":"levelo://app?vid=c75d54ce-b336-4f54-aa4f-e607d9e00d73","ios":"levelo://app?vid=c75d54ce-b336-4f54-aa4f-e607d9e00d73"},"vehicle_type_id":"4","last_reported":1726920890,"current_range_meters":29600,"station_id":"ce4bgt92rcd13ifvqcf0","pricing_plan_id":"cebpf4jnsgd1na2vs0mg"},{"bike_id":"170e64e0-f336-4f13-8081-91398bab2868","system_id":"levelo_inurba_marseille","lat":43.33606,"lon":5.41034,"is_reserved":false,"is_disabled":false,"rental_uris":{"android":"levelo://app?vid=170e64e0-f336-4f13-8081-91398bab2868","ios":"levelo://app?vid=170e64e0-f336-4f13-8081-91398bab2868"},"vehicle_type_id":"4","last_reported":1726920890,"current_range_meters":28800,"station_id":"ce4bhqh2rcd13ifvqhmg","pricing_plan_id":"cebpf4jnsgd1na2vs0mg"},{"bike_id":"43bd354a-6d3c-4ca8-94c1-e70ebbdbab0d","system_id":"levelo_inurba_marseille","lat":43.25935,"lon":5.4091,"is_reserved":false,"is_disabled":false,"rental_uris":{"android":"levelo://app?vid=43bd354a-6d3c-4ca8-94c1-e70ebbdbab0d","ios":"levelo://app?vid=43bd354a-6d3c-4ca8-94c1-e70ebbdbab0d"},"vehicle_type_id":"4","last_reported":1726920890,"current_range_meters":37600,"station_id":"ce4bhm92rcd13ifvqglg","pricing_plan_id":"cebpf4jnsgd1na2vs0mg"},{"bike_id":"952727d5-10c0-49c8-a6ee-a4efa34b8c23","system_id":"levelo_inurba_marseille","lat":43.23962,"lon":5.36639,"is_reserved":false,"is_disabled":false,"rental_uris":{"android":"levelo://app?vid=952727d5-10c0-49c8-a6ee-a4efa34b8c23","ios":"levelo://app?vid=952727d5-10c0-49c8-a6ee-a4efa34b8c23"},"vehicle_type_id":"4","last_reported":1726920890,"current_range_meters":38800,"station_id":"ce4bhi12rcd13ifvqfp0","pricing_plan_id":"cebpf4jnsgd1na2vs0mg"},{"bike_id":"11b07735-41fe-46db-9b01-e7149e08e197","system_id":"levelo_inurba_marseille","lat":43.283234,"lon":5.350242,"is_reserved":false,"is_disabled":false,"rental_uris":{"android":"levelo://app?vid=11b07735-41fe-46db-9b01-e7149e08e197","ios":"levelo://app?vid=11b07735-41fe-46db-9b01-e7149e08e197"},"vehicle_type_id":"4","last_reported":1726920890,"current_range_meters":22000,"station_id":"","pricing_plan_id":"cebpf4jnsgd1na2vs0mg"},{"bike_id":"d0246857-5758-4e54-a28c-526d64203291","system_id":"levelo_inurba_marseille","lat":43.28618,"lon":5.35108,"is_reserved":false,"is_disabled":false,"rental_uris":{"android":"levelo://app?vid=d0246857-5758-4e54-a28c-526d64203291","ios":"levelo://app?vid=d0246857-5758-4e54-a28c-526d64203291"},"vehicle_type_id":"4","last_reported":1726920890,"current_range_meters":12800,"station_id":"ce4bhch2rcd13ifvqeug","pricing_plan_id":"cebpf4jnsgd1na2vs0mg"},{"bike_id":"a5f98ca6-9bdc-420c-9181-260ed255b4f1","system_id":"levelo_inurba_marseille","lat":43.28618,"lon":5.35107,"is_reserved":false,"is_disabled":false,"rental_uris":{"android":"levelo://app?vid=a5f98ca6-9bdc-420c-9181-260ed255b4f1","ios":"levelo://app?vid=a5f98ca6-9bdc-420c-9181-260ed255b4f1"},"vehicle_type_id":"4","last_reported":1726920890,"current_range_meters":20000,"station_id":"ce4bhch2rcd13ifvqeug","pricing_plan_id":"cebpf4jnsgd1na2vs0mg"},{"bike_id":"e22352b5-e9a0-4afb-bba7-1fffc50d9e43","system_id":"levelo_inurba_marseille","lat":43.23067,"lon":5.35487,"is_reserved":false,"is_disabled":false,"rental_uris":{"android":"levelo://app?vid=e22352b5-e9a0-4afb-bba7-1fffc50d9e43","ios":"levelo://app?vid=e22352b5-e9a0-4afb-bba7-1fffc50d9e43"},"vehicle_type_id":"4","last_reported":1726920890,"current_range_meters":8000,"station_id":"cpo3342slgdg3j2ifvpg","pricing_plan_id":"cebpf4jnsgd1na2vs0mg"},{"bike_id":"0cc663cf-dbf1-4f21-925f-303e22c6b3ca","system_id":"levelo_inurba_marseille","lat":43.25085,"lon":5.39529,"is_reserved":false,"is_disabled":false,"rental_uris":{"android":"levelo://app?vid=0cc663cf-dbf1-4f21-925f-303e22c6b3ca","ios":"levelo://app?vid=0cc663cf-dbf1-4f21-925f-303e22c6b3ca"},"vehicle_type_id":"4","last_reported":1726920890,"current_range_meters":27200,"station_id":"ce4bhm12rcd13ifvqgkg","pricing_plan_id":"cebpf4jnsgd1na2vs0mg"},{"bike_id":"3cea86a1-9a58-478d-b244-957f4139aef0","system_id":"levelo_inurba_marseille","lat":43.33602,"lon":5.41028,"is_reserved":false,"is_disabled":false,"rental_uris":{"android":"levelo://app?vid=3cea86a1-9a58-478d-b244-957f4139aef0","ios":"levelo://app?vid=3cea86a1-9a58-478d-b244-957f4139aef0"},"vehicle_type_id":"4","last_reported":1726920890,"current_range_meters":39200,"station_id":"ce4bhqh2rcd13ifvqhmg","pricing_plan_id":"cebpf4jnsgd1na2vs0mg"},{"bike_id":"b30db46c-a7f7-4c1e-b3e2-a8cb6d374c17","system_id":"levelo_inurba_marseille","lat":43.23182,"lon":5.39989,"is_reserved":false,"is_disabled":false,"rental_uris":{"android":"levelo://app?vid=b30db46c-a7f7-4c1e-b3e2-a8cb6d374c17","ios":"levelo://app?vid=b30db46c-a7f7-4c1e-b3e2-a8cb6d374c17"},"vehicle_type_id":"4","last_reported":1726920890,"current_range_meters":36400,"station_id":"ce4bhn12rcd13ifvqgqg","pricing_plan_id":"cebpf4jnsgd1na2vs0mg"},{"bike_id":"c2bf3e93-b0ae-44b5-aeb2-ade808428d2a","system_id":"levelo_inurba_marseille","lat":43.26941,"lon":5.4025,"is_reserved":false,"is_disabled":false,"rental_uris":{"android":"levelo://app?vid=c2bf3e93-b0ae-44b5-aeb2-ade808428d2a","ios":"levelo://app?vid=c2bf3e93-b0ae-44b5-aeb2-ade808428d2a"},"vehicle_type_id":"4","last_reported":1726920890,"current_range_meters":8800,"station_id":"cjm6bp8fraef2m0cb0m0","pricing_plan_id":"cebpf4jnsgd1na2vs0mg"},{"bike_id":"7305e097-fa56-4e8c-b7c3-772deb6569c0","system_id":"levelo_inurba_marseille","lat":43.25578,"lon":5.38228,"is_reserved":false,"is_disabled":false,"rental_uris":{"android":"levelo://app?vid=7305e097-fa56-4e8c-b7c3-772deb6569c0","ios":"levelo://app?vid=7305e097-fa56-4e8c-b7c3-772deb6569c0"},"vehicle_type_id":"4","last_reported":1726920890,"current_range_meters":30000,"station_id":"ce4bhih2rcd13ifvqfs0","pricing_plan_id":"cebpf4jnsgd1na2vs0mg"},{"bike_id":"fa520986-39e7-4e30-bd0c-782c813be45b","system_id":"levelo_inurba_marseille","lat":43.30464,"lon":5.37891,"is_reserved":false,"is_disabled":false,"rental_uris":{"android":"levelo://app?vid=fa520986-39e7-4e30-bd0c-782c813be45b","ios":"levelo://app?vid=fa520986-39e7-4e30-bd0c-782c813be45b"},"vehicle_type_id":"4","last_reported":1726920890,"current_range_meters":36800,"station_id":"ce4bgup2rcd13ifvqcn0","pricing_plan_id":"cebpf4jnsgd1na2vs0mg"},{"bike_id":"c502cd53-9347-4a2f-bb47-dd27540dad14","system_id":"levelo_inurba_marseille","lat":43.2481,"lon":5.37455,"is_reserved":false,"is_disabled":false,"rental_uris":{"android":"levelo://app?vid=c502cd53-9347-4a2f-bb47-dd27540dad14","ios":"levelo://app?vid=c502cd53-9347-4a2f-bb47-dd27540dad14"},"vehicle_type_id":"4","last_reported":1726920890,"current_range_meters":38800,"station_id":"ce4bhgh2rcd13ifvqfb0","pricing_plan_id":"cebpf4jnsgd1na2vs0mg"},{"bike_id":"df5e345c-aef2-4b41-8daa-8091bfc5bdd8","system_id":"levelo_inurba_marseille","lat":43.259094,"lon":5.394211,"is_reserved":false,"is_disabled":false,"rental_uris":{"android":"levelo://app?vid=df5e345c-aef2-4b41-8daa-8091bfc5bdd8","ios":"levelo://app?vid=df5e345c-aef2-4b41-8daa-8091bfc5bdd8"},"vehicle_type_id":"4","last_reported":1726920890,"current_range_meters":8800,"station_id":"","pricing_plan_id":"cebpf4jnsgd1na2vs0mg"},{"bike_id":"df63e28f-cd57-48d1-89d0-dbc144c9c1f9","system_id":"levelo_inurba_marseille","lat":43.23182,"lon":5.39994,"is_reserved":false,"is_disabled":false,"rental_uris":{"android":"levelo://app?vid=df63e28f-cd57-48d1-89d0-dbc144c9c1f9","ios":"levelo://app?vid=df63e28f-cd57-48d1-89d0-dbc144c9c1f9"},"vehicle_type_id":"4","last_reported":1726920890,"current_range_meters":17600,"station_id":"ce4bhn12rcd13ifvqgqg","pricing_plan_id":"cebpf4jnsgd1na2vs0mg"},{"bike_id":"9d8b2dbe-2739-431b-a29a-192009139199","system_id":"levelo_inurba_marseille","lat":43.29849,"lon":5.36278,"is_reserved":false,"is_disabled":false,"rental_uris":{"android":"levelo://app?vid=9d8b2dbe-2739-431b-a29a-192009139199","ios":"levelo://app?vid=9d8b2dbe-2739-431b-a29a-192009139199"},"vehicle_type_id":"4","last_reported":1726920890,"current_range_meters":18000,"station_id":"ce4bgpp2rcd13ifvqc3g","pricing_plan_id":"cebpf4jnsgd1na2vs0mg"},{"bike_id":"a4d4f5e6-a6e7-4588-ae73-51ff4f2487fb","system_id":"levelo_inurba_marseille","lat":43.29911,"lon":5.37472,"is_reserved":false,"is_disabled":false,"rental_uris":{"android":"levelo://app?vid=a4d4f5e6-a6e7-4588-ae73-51ff4f2487fb","ios":"levelo://app?vid=a4d4f5e6-a6e7-4588-ae73-51ff4f2487fb"},"vehicle_type_id":"4","last_reported":1726920890,"current_range_meters":38800,"station_id":"ce4bgjh2rcd13ifvqbg0","pricing_plan_id":"cebpf4jnsgd1na2vs0mg"},{"bike_id":"27f41fdd-9b65-495a-83cb-6765305799e4","system_id":"levelo_inurba_marseille","lat":43.28278,"lon":5.35066,"is_reserved":false,"is_disabled":false,"rental_uris":{"android":"levelo://app?vid=27f41fdd-9b65-495a-83cb-6765305799e4","ios":"levelo://app?vid=27f41fdd-9b65-495a-83cb-6765305799e4"},"vehicle_type_id":"4","last_reported":1726920890,"current_range_meters":22400,"station_id":"ce4bhbp2rcd13ifvqerg","pricing_plan_id":"cebpf4jnsgd1na2vs0mg"},{"bike_id":"889e28e2-6f1c-4ea5-b22c-b546f4c54f82","system_id":"levelo_inurba_marseille","lat":43.28605,"lon":5.35112,"is_reserved":false,"is_disabled":false,"rental_uris":{"android":"levelo://app?vid=889e28e2-6f1c-4ea5-b22c-b546f4c54f82","ios":"levelo://app?vid=889e28e2-6f1c-4ea5-b22c-b546f4c54f82"},"vehicle_type_id":"4","last_reported":1726920890,"current_range_meters":25600,"station_id":"ce4bhch2rcd13ifvqeug","pricing_plan_id":"cebpf4jnsgd1na2vs0mg"},{"bike_id":"43883d61-0423-4ca6-8718-0e52558ea228","system_id":"levelo_inurba_marseille","lat":43.258305,"lon":5.394406,"is_reserved":false,"is_disabled":false,"rental_uris":{"android":"levelo://app?vid=43883d61-0423-4ca6-8718-0e52558ea228","ios":"levelo://app?vid=43883d61-0423-4ca6-8718-0e52558ea228"},"vehicle_type_id":"4","last_reported":1726920890,"current_range_meters":25200,"station_id":"ce4bhip2rcd13ifvqft0","pricing_plan_id":"cebpf4jnsgd1na2vs0mg"},{"bike_id":"14cba0ea-4932-4120-ba2f-1e13201aa231","system_id":"levelo_inurba_marseille","lat":43.33779,"lon":5.37438,"is_reserved":false,"is_disabled":false,"rental_uris":{"android":"levelo://app?vid=14cba0ea-4932-4120-ba2f-1e13201aa231","ios":"levelo://app?vid=14cba0ea-4932-4120-ba2f-1e13201aa231"},"vehicle_type_id":"4","last_reported":1726920890,"current_range_meters":36000,"station_id":"","pricing_plan_id":"cebpf4jnsgd1na2vs0mg"},{"bike_id":"978d14f3-f583-4bbe-8db9-ce887ad5d209","system_id":"levelo_inurba_marseille","lat":43.2439,"lon":5.37062,"is_reserved":false,"is_disabled":false,"rental_uris":{"android":"levelo://app?vid=978d14f3-f583-4bbe-8db9-ce887ad5d209","ios":"levelo://app?vid=978d14f3-f583-4bbe-8db9-ce887ad5d209"},"vehicle_type_id":"4","last_reported":1726920890,"current_range_meters":18000,"station_id":"ce4bhhh2rcd13ifvqfk0","pricing_plan_id":"cebpf4jnsgd1na2vs0mg"},{"bike_id":"632b4d5c-2cfb-46bf-a0f5-fc63d213e57c","system_id":"levelo_inurba_marseille","lat":43.28272,"lon":5.35067,"is_reserved":false,"is_disabled":false,"rental_uris":{"android":"levelo://app?vid=632b4d5c-2cfb-46bf-a0f5-fc63d213e57c","ios":"levelo://app?vid=632b4d5c-2cfb-46bf-a0f5-fc63d213e57c"},"vehicle_type_id":"4","last_reported":1726920890,"current_range_meters":3600,"station_id":"ce4bhbp2rcd13ifvqerg","pricing_plan_id":"cebpf4jnsgd1na2vs0mg"},{"bike_id":"2a7db943-6265-4479-9604-043d344eb7a6","system_id":"levelo_inurba_marseille","lat":43.30286,"lon":5.38395,"is_reserved":false,"is_disabled":false,"rental_uris":{"android":"levelo://app?vid=2a7db943-6265-4479-9604-043d344eb7a6","ios":"levelo://app?vid=2a7db943-6265-4479-9604-043d344eb7a6"},"vehicle_type_id":"4","last_reported":1726920890,"current_range_meters":23200,"station_id":"","pricing_plan_id":"cebpf4jnsgd1na2vs0mg"},{"bike_id":"97297c54-005d-4d6b-bcd2-b3a0c270b562","system_id":"levelo_inurba_marseille","lat":43.30477,"lon":5.3789,"is_reserved":false,"is_disabled":false,"rental_uris":{"android":"levelo://app?vid=97297c54-005d-4d6b-bcd2-b3a0c270b562","ios":"levelo://app?vid=97297c54-005d-4d6b-bcd2-b3a0c270b562"},"vehicle_type_id":"4","last_reported":1726920890,"current_range_meters":37600,"station_id":"ce4bgup2rcd13ifvqcn0","pricing_plan_id":"cebpf4jnsgd1na2vs0mg"},{"bike_id":"feef65fd-70ed-4c2a-ab1c-62060f564852","system_id":"levelo_inurba_marseille","lat":43.26688,"lon":5.3827,"is_reserved":false,"is_disabled":false,"rental_uris":{"android":"levelo://app?vid=feef65fd-70ed-4c2a-ab1c-62060f564852","ios":"levelo://app?vid=feef65fd-70ed-4c2a-ab1c-62060f564852"},"vehicle_type_id":"4","last_reported":1726920890,"current_range_meters":25600,"station_id":"ce4bhg92rcd13ifvqf90","pricing_plan_id":"cebpf4jnsgd1na2vs0mg"},{"bike_id":"d17f38c2-6674-4efe-ac4c-ca136594c3eb","system_id":"levelo_inurba_marseille","lat":43.245422,"lon":5.395304,"is_reserved":false,"is_disabled":false,"rental_uris":{"android":"levelo://app?vid=d17f38c2-6674-4efe-ac4c-ca136594c3eb","ios":"levelo://app?vid=d17f38c2-6674-4efe-ac4c-ca136594c3eb"},"vehicle_type_id":"4","last_reported":1726920890,"current_range_meters":36800,"station_id":"ce4bhlp2rcd13ifvqgjg","pricing_plan_id":"cebpf4jnsgd1na2vs0mg"},{"bike_id":"0068d7ca-61e1-4539-a236-7f35b0e11bfc","system_id":"levelo_inurba_marseille","lat":43.26216,"lon":5.3744,"is_reserved":false,"is_disabled":false,"rental_uris":{"android":"levelo://app?vid=0068d7ca-61e1-4539-a236-7f35b0e11bfc","ios":"levelo://app?vid=0068d7ca-61e1-4539-a236-7f35b0e11bfc"},"vehicle_type_id":"4","last_reported":1726920890,"current_range_meters":16000,"station_id":"ce4bhgp2rcd13ifvqfc0","pricing_plan_id":"cebpf4jnsgd1na2vs0mg"},{"bike_id":"edfb1ff5-b81b-4225-8da9-100a9115b1e3","system_id":"levelo_inurba_marseille","lat":43.29735,"lon":5.36561,"is_reserved":false,"is_disabled":false,"rental_uris":{"android":"levelo://app?vid=edfb1ff5-b81b-4225-8da9-100a9115b1e3","ios":"levelo://app?vid=edfb1ff5-b81b-4225-8da9-100a9115b1e3"},"vehicle_type_id":"4","last_reported":1726920890,"current_range_meters":8400,"station_id":"","pricing_plan_id":"cebpf4jnsgd1na2vs0mg"},{"bike_id":"8d60c768-1f9b-4fc7-af6b-b1ff85b1d52f","system_id":"levelo_inurba_marseille","lat":43.3096,"lon":5.3904,"is_reserved":false,"is_disabled":false,"rental_uris":{"android":"levelo://app?vid=8d60c768-1f9b-4fc7-af6b-b1ff85b1d52f","ios":"levelo://app?vid=8d60c768-1f9b-4fc7-af6b-b1ff85b1d52f"},"vehicle_type_id":"4","last_reported":1726920890,"current_range_meters":19600,"station_id":"ce4bgup2rcd13ifvqco0","pricing_plan_id":"cebpf4jnsgd1na2vs0mg"},{"bike_id":"525e8b36-a64b-4ebf-9e86-d09c978befc0","system_id":"levelo_inurba_marseille","lat":43.298819,"lon":5.376441,"is_reserved":false,"is_disabled":false,"rental_uris":{"android":"levelo://app?vid=525e8b36-a64b-4ebf-9e86-d09c978befc0","ios":"levelo://app?vid=525e8b36-a64b-4ebf-9e86-d09c978befc0"},"vehicle_type_id":"4","last_reported":1726920890,"current_range_meters":38400,"station_id":"ce4bgjh2rcd13ifvqbg0","pricing_plan_id":"cebpf4jnsgd1na2vs0mg"},{"bike_id":"14b90706-cdec-4f9d-bf04-db91d2d88247","system_id":"levelo_inurba_marseille","lat":43.28416,"lon":5.34983,"is_reserved":false,"is_disabled":false,"rental_uris":{"android":"levelo://app?vid=14b90706-cdec-4f9d-bf04-db91d2d88247","ios":"levelo://app?vid=14b90706-cdec-4f9d-bf04-db91d2d88247"},"vehicle_type_id":"4","last_reported":1726920890,"current_range_meters":25200,"station_id":"ce4bhbh2rcd13ifvqepg","pricing_plan_id":"cebpf4jnsgd1na2vs0mg"},{"bike_id":"6fd459bd-3d16-4ced-905d-0f36baa186fa","system_id":"levelo_inurba_marseille","lat":43.30541,"lon":5.36541,"is_reserved":false,"is_disabled":false,"rental_uris":{"android":"levelo://app?vid=6fd459bd-3d16-4ced-905d-0f36baa186fa","ios":"levelo://app?vid=6fd459bd-3d16-4ced-905d-0f36baa186fa"},"vehicle_type_id":"4","last_reported":1726920890,"current_range_meters":15200,"station_id":"ce4bgs12rcd13ifvqcag","pricing_plan_id":"cebpf4jnsgd1na2vs0mg"},{"bike_id":"ba9ed35d-2f93-40e8-8c09-cdc9c8539831","system_id":"levelo_inurba_marseille","lat":43.332163,"lon":5.412785,"is_reserved":false,"is_disabled":false,"rental_uris":{"android":"levelo://app?vid=ba9ed35d-2f93-40e8-8c09-cdc9c8539831","ios":"levelo://app?vid=ba9ed35d-2f93-40e8-8c09-cdc9c8539831"},"vehicle_type_id":"4","last_reported":1726920890,"current_range_meters":37600,"station_id":"ce4bhq12rcd13ifvqhig","pricing_plan_id":"cebpf4jnsgd1na2vs0mg"},{"bike_id":"5eb9dac7-32e3-456b-b155-2457bd953ccf","system_id":"levelo_inurba_marseille","lat":43.231995,"lon":5.400078,"is_reserved":false,"is_disabled":false,"rental_uris":{"android":"levelo://app?vid=5eb9dac7-32e3-456b-b155-2457bd953ccf","ios":"levelo://app?vid=5eb9dac7-32e3-456b-b155-2457bd953ccf"},"vehicle_type_id":"4","last_reported":1726920890,"current_range_meters":37600,"station_id":"ce4bhbh2rcd13ifvqepg","pricing_plan_id":"cebpf4jnsgd1na2vs0mg"},{"bike_id":"b4d8cc2f-08fa-447c-98aa-3fb508700768","system_id":"levelo_inurba_marseille","lat":43.28967,"lon":5.35778,"is_reserved":false,"is_disabled":false,"rental_uris":{"android":"levelo://app?vid=b4d8cc2f-08fa-447c-98aa-3fb508700768","ios":"levelo://app?vid=b4d8cc2f-08fa-447c-98aa-3fb508700768"},"vehicle_type_id":"4","last_reported":1726920890,"current_range_meters":3600,"station_id":"","pricing_plan_id":"cebpf4jnsgd1na2vs0mg"},{"bike_id":"f18e2404-c42a-4d8b-8fb7-17ecfd607faa","system_id":"levelo_inurba_marseille","lat":43.28272,"lon":5.35057,"is_reserved":false,"is_disabled":false,"rental_uris":{"android":"levelo://app?vid=f18e2404-c42a-4d8b-8fb7-17ecfd607faa","ios":"levelo://app?vid=f18e2404-c42a-4d8b-8fb7-17ecfd607faa"},"vehicle_type_id":"4","last_reported":1726920890,"current_range_meters":30800,"station_id":"ce4bhbp2rcd13ifvqerg","pricing_plan_id":"cebpf4jnsgd1na2vs0mg"},{"bike_id":"bd6456aa-7882-4ecb-b6d6-c1e08b9e8174","system_id":"levelo_inurba_marseille","lat":43.25577,"lon":5.38235,"is_reserved":false,"is_disabled":false,"rental_uris":{"android":"levelo://app?vid=bd6456aa-7882-4ecb-b6d6-c1e08b9e8174","ios":"levelo://app?vid=bd6456aa-7882-4ecb-b6d6-c1e08b9e8174"},"vehicle_type_id":"4","last_reported":1726920890,"current_range_meters":26000,"station_id":"ce4bhih2rcd13ifvqfs0","pricing_plan_id":"cebpf4jnsgd1na2vs0mg"},{"bike_id":"8fd70697-883c-4670-8851-8ec60548abbc","system_id":"levelo_inurba_marseille","lat":43.2293,"lon":5.35376,"is_reserved":false,"is_disabled":false,"rental_uris":{"android":"levelo://app?vid=8fd70697-883c-4670-8851-8ec60548abbc","ios":"levelo://app?vid=8fd70697-883c-4670-8851-8ec60548abbc"},"vehicle_type_id":"4","last_reported":1726920890,"current_range_meters":16000,"station_id":"cpo3532slgdg3j2ikp40","pricing_plan_id":"cebpf4jnsgd1na2vs0mg"},{"bike_id":"ae736cb6-c25f-4200-a574-819f5c7f8fb4","system_id":"levelo_inurba_marseille","lat":43.24163,"lon":5.36395,"is_reserved":false,"is_disabled":false,"rental_uris":{"android":"levelo://app?vid=ae736cb6-c25f-4200-a574-819f5c7f8fb4","ios":"levelo://app?vid=ae736cb6-c25f-4200-a574-819f5c7f8fb4"},"vehicle_type_id":"4","last_reported":1726920890,"current_range_meters":28000,"station_id":"cpo36qri1sfpv3e86is0","pricing_plan_id":"cebpf4jnsgd1na2vs0mg"},{"bike_id":"bf03865e-9944-4f40-bf02-6028a7d0a9c4","system_id":"levelo_inurba_marseille","lat":43.28273,"lon":5.35066,"is_reserved":false,"is_disabled":false,"rental_uris":{"android":"levelo://app?vid=bf03865e-9944-4f40-bf02-6028a7d0a9c4","ios":"levelo://app?vid=bf03865e-9944-4f40-bf02-6028a7d0a9c4"},"vehicle_type_id":"4","last_reported":1726920890,"current_range_meters":27600,"station_id":"ce4bhbp2rcd13ifvqerg","pricing_plan_id":"cebpf4jnsgd1na2vs0mg"},{"bike_id":"f7ad2e7a-a575-4361-994a-0ff95a85d018","system_id":"levelo_inurba_marseille","lat":43.3065,"lon":5.37192,"is_reserved":false,"is_disabled":false,"rental_uris":{"android":"levelo://app?vid=f7ad2e7a-a575-4361-994a-0ff95a85d018","ios":"levelo://app?vid=f7ad2e7a-a575-4361-994a-0ff95a85d018"},"vehicle_type_id":"4","last_reported":1726920890,"current_range_meters":38800,"station_id":"","pricing_plan_id":"cebpf4jnsgd1na2vs0mg"},{"bike_id":"ca09086f-5c87-42d3-9455-d34250191c05","system_id":"levelo_inurba_marseille","lat":43.2705,"lon":5.40263,"is_reserved":false,"is_disabled":false,"rental_uris":{"android":"levelo://app?vid=ca09086f-5c87-42d3-9455-d34250191c05","ios":"levelo://app?vid=ca09086f-5c87-42d3-9455-d34250191c05"},"vehicle_type_id":"4","last_reported":1726920890,"current_range_meters":27200,"station_id":"ce4bhk92rcd13ifvqgc0","pricing_plan_id":"cebpf4jnsgd1na2vs0mg"},{"bike_id":"6dc17a46-6ca1-47e7-b803-a4e84141711b","system_id":"levelo_inurba_marseille","lat":43.28269,"lon":5.35075,"is_reserved":false,"is_disabled":false,"rental_uris":{"android":"levelo://app?vid=6dc17a46-6ca1-47e7-b803-a4e84141711b","ios":"levelo://app?vid=6dc17a46-6ca1-47e7-b803-a4e84141711b"},"vehicle_type_id":"4","last_reported":1726920890,"current_range_meters":7200,"station_id":"ce4bhbp2rcd13ifvqerg","pricing_plan_id":"cebpf4jnsgd1na2vs0mg"},{"bike_id":"c839c5b6-c700-4148-9427-6f6c3691baa7","system_id":"levelo_inurba_marseille","lat":43.23966,"lon":5.36636,"is_reserved":false,"is_disabled":false,"rental_uris":{"android":"levelo://app?vid=c839c5b6-c700-4148-9427-6f6c3691baa7","ios":"levelo://app?vid=c839c5b6-c700-4148-9427-6f6c3691baa7"},"vehicle_type_id":"4","last_reported":1726920890,"current_range_meters":25600,"station_id":"ce4bhi12rcd13ifvqfp0","pricing_plan_id":"cebpf4jnsgd1na2vs0mg"},{"bike_id":"1697d919-d928-4f76-b0e4-7800c7f5269a","system_id":"levelo_inurba_marseille","lat":43.26209,"lon":5.37447,"is_reserved":false,"is_disabled":false,"rental_uris":{"android":"levelo://app?vid=1697d919-d928-4f76-b0e4-7800c7f5269a","ios":"levelo://app?vid=1697d919-d928-4f76-b0e4-7800c7f5269a"},"vehicle_type_id":"4","last_reported":1726920890,"current_range_meters":38800,"station_id":"ce4bhgp2rcd13ifvqfc0","pricing_plan_id":"cebpf4jnsgd1na2vs0mg"},{"bike_id":"5840a821-7b4a-4179-8856-92a74917e83c","system_id":"levelo_inurba_marseille","lat":43.25005,"lon":5.38922,"is_reserved":false,"is_disabled":false,"rental_uris":{"android":"levelo://app?vid=5840a821-7b4a-4179-8856-92a74917e83c","ios":"levelo://app?vid=5840a821-7b4a-4179-8856-92a74917e83c"},"vehicle_type_id":"4","last_reported":1726920890,"current_range_meters":38800,"station_id":"ce4bhgp2rcd13ifvqfd0","pricing_plan_id":"cebpf4jnsgd1na2vs0mg"},{"bike_id":"6e6e80eb-1678-459f-b077-18e2f03c38ca","system_id":"levelo_inurba_marseille","lat":43.31493,"lon":5.37308,"is_reserved":false,"is_disabled":false,"rental_uris":{"android":"levelo://app?vid=6e6e80eb-1678-459f-b077-18e2f03c38ca","ios":"levelo://app?vid=6e6e80eb-1678-459f-b077-18e2f03c38ca"},"vehicle_type_id":"4","last_reported":1726920890,"current_range_meters":36800,"station_id":"ce4bgt12rcd13ifvqcd0","pricing_plan_id":"cebpf4jnsgd1na2vs0mg"},{"bike_id":"5419b1bf-d37c-4076-a34c-52ede101758e","system_id":"levelo_inurba_marseille","lat":43.337444,"lon":5.374475,"is_reserved":false,"is_disabled":false,"rental_uris":{"android":"levelo://app?vid=5419b1bf-d37c-4076-a34c-52ede101758e","ios":"levelo://app?vid=5419b1bf-d37c-4076-a34c-52ede101758e"},"vehicle_type_id":"4","last_reported":1726920890,"current_range_meters":32800,"station_id":"","pricing_plan_id":"cebpf4jnsgd1na2vs0mg"},{"bike_id":"da9dd67c-abc2-4859-b89e-c27139de6bb9","system_id":"levelo_inurba_marseille","lat":43.27376,"lon":5.36256,"is_reserved":false,"is_disabled":false,"rental_uris":{"android":"levelo://app?vid=da9dd67c-abc2-4859-b89e-c27139de6bb9","ios":"levelo://app?vid=da9dd67c-abc2-4859-b89e-c27139de6bb9"},"vehicle_type_id":"4","last_reported":1726920890,"current_range_meters":24000,"station_id":"ce4bhbh2rcd13ifvqeo0","pricing_plan_id":"cebpf4jnsgd1na2vs0mg"},{"bike_id":"45a241bf-89b1-43b2-a63d-1de097e3e8a5","system_id":"levelo_inurba_marseille","lat":43.31496,"lon":5.37311,"is_reserved":false,"is_disabled":false,"rental_uris":{"android":"levelo://app?vid=45a241bf-89b1-43b2-a63d-1de097e3e8a5","ios":"levelo://app?vid=45a241bf-89b1-43b2-a63d-1de097e3e8a5"},"vehicle_type_id":"4","last_reported":1726920890,"current_range_meters":30400,"station_id":"ce4bgt12rcd13ifvqcd0","pricing_plan_id":"cebpf4jnsgd1na2vs0mg"},{"bike_id":"4eef0d21-d850-40fa-a5d8-1d28e2cbd99e","system_id":"levelo_inurba_marseille","lat":43.23965,"lon":5.36635,"is_reserved":false,"is_disabled":false,"rental_uris":{"android":"levelo://app?vid=4eef0d21-d850-40fa-a5d8-1d28e2cbd99e","ios":"levelo://app?vid=4eef0d21-d850-40fa-a5d8-1d28e2cbd99e"},"vehicle_type_id":"4","last_reported":1726920890,"current_range_meters":32400,"station_id":"ce4bhi12rcd13ifvqfp0","pricing_plan_id":"cebpf4jnsgd1na2vs0mg"},{"bike_id":"f55d82a5-a2f1-4a59-a6a0-790c179f4953","system_id":"levelo_inurba_marseille","lat":43.29903,"lon":5.43667,"is_reserved":false,"is_disabled":false,"rental_uris":{"android":"levelo://app?vid=f55d82a5-a2f1-4a59-a6a0-790c179f4953","ios":"levelo://app?vid=f55d82a5-a2f1-4a59-a6a0-790c179f4953"},"vehicle_type_id":"4","last_reported":1726920890,"current_range_meters":38800,"station_id":"ce4bhpp2rcd13ifvqhfg","pricing_plan_id":"cebpf4jnsgd1na2vs0mg"},{"bike_id":"a020a923-89fb-4175-829b-bdb01d885f9c","system_id":"levelo_inurba_marseille","lat":43.23063,"lon":5.35491,"is_reserved":false,"is_disabled":false,"rental_uris":{"android":"levelo://app?vid=a020a923-89fb-4175-829b-bdb01d885f9c","ios":"levelo://app?vid=a020a923-89fb-4175-829b-bdb01d885f9c"},"vehicle_type_id":"4","last_reported":1726920890,"current_range_meters":30000,"station_id":"cpo3342slgdg3j2ifvpg","pricing_plan_id":"cebpf4jnsgd1na2vs0mg"},{"bike_id":"64c7f58d-f426-4903-86ff-0b9eff7eac4a","system_id":"levelo_inurba_marseille","lat":43.2937,"lon":5.37855,"is_reserved":false,"is_disabled":false,"rental_uris":{"android":"levelo://app?vid=64c7f58d-f426-4903-86ff-0b9eff7eac4a","ios":"levelo://app?vid=64c7f58d-f426-4903-86ff-0b9eff7eac4a"},"vehicle_type_id":"4","last_reported":1726920890,"current_range_meters":36000,"station_id":"ce4bgjh2rcd13ifvqbf0","pricing_plan_id":"cebpf4jnsgd1na2vs0mg"},{"bike_id":"c45588ba-d620-4246-b609-48fbbaec0786","system_id":"levelo_inurba_marseille","lat":43.27373,"lon":5.36259,"is_reserved":false,"is_disabled":false,"rental_uris":{"android":"levelo://app?vid=c45588ba-d620-4246-b609-48fbbaec0786","ios":"levelo://app?vid=c45588ba-d620-4246-b609-48fbbaec0786"},"vehicle_type_id":"4","last_reported":1726920890,"current_range_meters":19600,"station_id":"ce4bhbh2rcd13ifvqeo0","pricing_plan_id":"cebpf4jnsgd1na2vs0mg"},{"bike_id":"f07c738f-64b7-4b12-9acd-387f3c4d2596","system_id":"levelo_inurba_marseille","lat":43.2721,"lon":5.39178,"is_reserved":false,"is_disabled":false,"rental_uris":{"android":"levelo://app?vid=f07c738f-64b7-4b12-9acd-387f3c4d2596","ios":"levelo://app?vid=f07c738f-64b7-4b12-9acd-387f3c4d2596"},"vehicle_type_id":"4","last_reported":1726920890,"current_range_meters":39200,"station_id":"ce4bhhp2rcd13ifvqfm0","pricing_plan_id":"cebpf4jnsgd1na2vs0mg"},{"bike_id":"6e2fd8fb-799c-468d-a60b-38d2bf81aa37","system_id":"levelo_inurba_marseille","lat":43.23954,"lon":5.36627,"is_reserved":false,"is_disabled":false,"rental_uris":{"android":"levelo://app?vid=6e2fd8fb-799c-468d-a60b-38d2bf81aa37","ios":"levelo://app?vid=6e2fd8fb-799c-468d-a60b-38d2bf81aa37"},"vehicle_type_id":"4","last_reported":1726920890,"current_range_meters":38800,"station_id":"ce4bhi12rcd13ifvqfp0","pricing_plan_id":"cebpf4jnsgd1na2vs0mg"},{"bike_id":"441c3b05-83f8-4f91-8241-64f0ae4b466a","system_id":"levelo_inurba_marseille","lat":43.29791,"lon":5.39337,"is_reserved":false,"is_disabled":false,"rental_uris":{"android":"levelo://app?vid=441c3b05-83f8-4f91-8241-64f0ae4b466a","ios":"levelo://app?vid=441c3b05-83f8-4f91-8241-64f0ae4b466a"},"vehicle_type_id":"4","last_reported":1726920890,"current_range_meters":19200,"station_id":"chh1huq6cuj3fo74tm60","pricing_plan_id":"cebpf4jnsgd1na2vs0mg"},{"bike_id":"4b0af6ee-b3d5-4880-8111-7153e2e1e1e8","system_id":"levelo_inurba_marseille","lat":43.24166,"lon":5.36391,"is_reserved":false,"is_disabled":false,"rental_uris":{"android":"levelo://app?vid=4b0af6ee-b3d5-4880-8111-7153e2e1e1e8","ios":"levelo://app?vid=4b0af6ee-b3d5-4880-8111-7153e2e1e1e8"},"vehicle_type_id":"4","last_reported":1726920890,"current_range_meters":12800,"station_id":"cpo36qri1sfpv3e86is0","pricing_plan_id":"cebpf4jnsgd1na2vs0mg"},{"bike_id":"7ccc499f-63f1-4a72-b7c8-4b3b2437d268","system_id":"levelo_inurba_marseille","lat":43.25014,"lon":5.38915,"is_reserved":false,"is_disabled":false,"rental_uris":{"android":"levelo://app?vid=7ccc499f-63f1-4a72-b7c8-4b3b2437d268","ios":"levelo://app?vid=7ccc499f-63f1-4a72-b7c8-4b3b2437d268"},"vehicle_type_id":"4","last_reported":1726920890,"current_range_meters":28000,"station_id":"ce4bhgp2rcd13ifvqfd0","pricing_plan_id":"cebpf4jnsgd1na2vs0mg"},{"bike_id":"8c9ed1ef-4d57-4f95-b940-115fdb41af94","system_id":"levelo_inurba_marseille","lat":43.28274,"lon":5.35062,"is_reserved":false,"is_disabled":false,"rental_uris":{"android":"levelo://app?vid=8c9ed1ef-4d57-4f95-b940-115fdb41af94","ios":"levelo://app?vid=8c9ed1ef-4d57-4f95-b940-115fdb41af94"},"vehicle_type_id":"4","last_reported":1726920890,"current_range_meters":37600,"station_id":"ce4bhbp2rcd13ifvqerg","pricing_plan_id":"cebpf4jnsgd1na2vs0mg"},{"bike_id":"e2bd525d-549a-4783-baf3-c29d6b2d67d0","system_id":"levelo_inurba_marseille","lat":43.28001,"lon":5.40019,"is_reserved":false,"is_disabled":false,"rental_uris":{"android":"levelo://app?vid=e2bd525d-549a-4783-baf3-c29d6b2d67d0","ios":"levelo://app?vid=e2bd525d-549a-4783-baf3-c29d6b2d67d0"},"vehicle_type_id":"4","last_reported":1726920890,"current_range_meters":32000,"station_id":"ce4bho92rcd13ifvqh4g","pricing_plan_id":"cebpf4jnsgd1na2vs0mg"},{"bike_id":"0fcb5f41-ece4-4c65-af33-fa57f622784b","system_id":"levelo_inurba_marseille","lat":43.27973,"lon":5.38729,"is_reserved":false,"is_disabled":false,"rental_uris":{"android":"levelo://app?vid=0fcb5f41-ece4-4c65-af33-fa57f622784b","ios":"levelo://app?vid=0fcb5f41-ece4-4c65-af33-fa57f622784b"},"vehicle_type_id":"4","last_reported":1726920890,"current_range_meters":17600,"station_id":"ce4bhg12rcd13ifvqf80","pricing_plan_id":"cebpf4jnsgd1na2vs0mg"},{"bike_id":"2b9037e6-c457-49bd-96ba-d4428882aa58","system_id":"levelo_inurba_marseille","lat":43.26492,"lon":5.39554,"is_reserved":false,"is_disabled":false,"rental_uris":{"android":"levelo://app?vid=2b9037e6-c457-49bd-96ba-d4428882aa58","ios":"levelo://app?vid=2b9037e6-c457-49bd-96ba-d4428882aa58"},"vehicle_type_id":"4","last_reported":1726920890,"current_range_meters":38000,"station_id":"ce4bhi12rcd13ifvqfq0","pricing_plan_id":"cebpf4jnsgd1na2vs0mg"},{"bike_id":"47382161-6549-4529-a84d-42d3bdfc17bc","system_id":"levelo_inurba_marseille","lat":43.24172,"lon":5.36401,"is_reserved":false,"is_disabled":false,"rental_uris":{"android":"levelo://app?vid=47382161-6549-4529-a84d-42d3bdfc17bc","ios":"levelo://app?vid=47382161-6549-4529-a84d-42d3bdfc17bc"},"vehicle_type_id":"4","last_reported":1726920890,"current_range_meters":22800,"station_id":"cpo36qri1sfpv3e86is0","pricing_plan_id":"cebpf4jnsgd1na2vs0mg"},{"bike_id":"7162337d-11d3-4c8f-9642-72227c300401","system_id":"levelo_inurba_marseille","lat":43.30551,"lon":5.36536,"is_reserved":false,"is_disabled":false,"rental_uris":{"android":"levelo://app?vid=7162337d-11d3-4c8f-9642-72227c300401","ios":"levelo://app?vid=7162337d-11d3-4c8f-9642-72227c300401"},"vehicle_type_id":"4","last_reported":1726920890,"current_range_meters":38800,"station_id":"ce4bgs12rcd13ifvqcag","pricing_plan_id":"cebpf4jnsgd1na2vs0mg"},{"bike_id":"149779fc-bc45-458a-857f-33707eedaf6a","system_id":"levelo_inurba_marseille","lat":43.23186,"lon":5.35557,"is_reserved":false,"is_disabled":false,"rental_uris":{"android":"levelo://app?vid=149779fc-bc45-458a-857f-33707eedaf6a","ios":"levelo://app?vid=149779fc-bc45-458a-857f-33707eedaf6a"},"vehicle_type_id":"4","last_reported":1726920890,"current_range_meters":21600,"station_id":"ce4bhu92rcd13ifvqi70","pricing_plan_id":"cebpf4jnsgd1na2vs0mg"},{"bike_id":"072078a8-6e49-4199-ba26-057a9229e24f","system_id":"levelo_inurba_marseille","lat":43.23181,"lon":5.3999,"is_reserved":false,"is_disabled":false,"rental_uris":{"android":"levelo://app?vid=072078a8-6e49-4199-ba26-057a9229e24f","ios":"levelo://app?vid=072078a8-6e49-4199-ba26-057a9229e24f"},"vehicle_type_id":"4","last_reported":1726920890,"current_range_meters":9600,"station_id":"ce4bhn12rcd13ifvqgqg","pricing_plan_id":"cebpf4jnsgd1na2vs0mg"},{"bike_id":"f6556247-3a15-4cbc-8f95-8d46f3d6f531","system_id":"levelo_inurba_marseille","lat":43.2867,"lon":5.38667,"is_reserved":false,"is_disabled":false,"rental_uris":{"android":"levelo://app?vid=f6556247-3a15-4cbc-8f95-8d46f3d6f531","ios":"levelo://app?vid=f6556247-3a15-4cbc-8f95-8d46f3d6f531"},"vehicle_type_id":"4","last_reported":1726920890,"current_range_meters":23200,"station_id":"ce4bh492rcd13ifvqdug","pricing_plan_id":"cebpf4jnsgd1na2vs0mg"},{"bike_id":"1ed4e0c7-d3f8-4751-a217-b53cf45cffb8","system_id":"levelo_inurba_marseille","lat":43.28278,"lon":5.35066,"is_reserved":false,"is_disabled":false,"rental_uris":{"android":"levelo://app?vid=1ed4e0c7-d3f8-4751-a217-b53cf45cffb8","ios":"levelo://app?vid=1ed4e0c7-d3f8-4751-a217-b53cf45cffb8"},"vehicle_type_id":"4","last_reported":1726920890,"current_range_meters":3600,"station_id":"ce4bhbp2rcd13ifvqerg","pricing_plan_id":"cebpf4jnsgd1na2vs0mg"},{"bike_id":"09767a37-4908-47b1-835d-47baf87b394f","system_id":"levelo_inurba_marseille","lat":43.29538,"lon":5.374924,"is_reserved":false,"is_disabled":false,"rental_uris":{"android":"levelo://app?vid=09767a37-4908-47b1-835d-47baf87b394f","ios":"levelo://app?vid=09767a37-4908-47b1-835d-47baf87b394f"},"vehicle_type_id":"4","last_reported":1726920890,"current_range_meters":8400,"station_id":"ce4bgkp2rcd13ifvqbmg","pricing_plan_id":"cebpf4jnsgd1na2vs0mg"},{"bike_id":"1c6520f6-af4e-4406-9ed1-9273d4d0939d","system_id":"levelo_inurba_marseille","lat":43.299133,"lon":5.37467,"is_reserved":false,"is_disabled":false,"rental_uris":{"android":"levelo://app?vid=1c6520f6-af4e-4406-9ed1-9273d4d0939d","ios":"levelo://app?vid=1c6520f6-af4e-4406-9ed1-9273d4d0939d"},"vehicle_type_id":"4","last_reported":1726920890,"current_range_meters":27600,"station_id":"ce4bgjh2rcd13ifvqbg0","pricing_plan_id":"cebpf4jnsgd1na2vs0mg"},{"bike_id":"f9d6ebef-08e6-4ee3-af18-856bff18afeb","system_id":"levelo_inurba_marseille","lat":43.30535,"lon":5.36705,"is_reserved":false,"is_disabled":false,"rental_uris":{"android":"levelo://app?vid=f9d6ebef-08e6-4ee3-af18-856bff18afeb","ios":"levelo://app?vid=f9d6ebef-08e6-4ee3-af18-856bff18afeb"},"vehicle_type_id":"4","last_reported":1726920890,"current_range_meters":30800,"station_id":"ce4bgrp2rcd13ifvqc9g","pricing_plan_id":"cebpf4jnsgd1na2vs0mg"},{"bike_id":"b1e4a6db-d9e6-447d-9b6f-1fd8b052c38f","system_id":"levelo_inurba_marseille","lat":43.25497,"lon":5.37648,"is_reserved":false,"is_disabled":false,"rental_uris":{"android":"levelo://app?vid=b1e4a6db-d9e6-447d-9b6f-1fd8b052c38f","ios":"levelo://app?vid=b1e4a6db-d9e6-447d-9b6f-1fd8b052c38f"},"vehicle_type_id":"4","last_reported":1726920890,"current_range_meters":30000,"station_id":"ce4bhh12rcd13ifvqff0","pricing_plan_id":"cebpf4jnsgd1na2vs0mg"},{"bike_id":"604c9531-be4f-4974-bfe2-bd7828d7386f","system_id":"levelo_inurba_marseille","lat":43.29897,"lon":5.43673,"is_reserved":false,"is_disabled":false,"rental_uris":{"android":"levelo://app?vid=604c9531-be4f-4974-bfe2-bd7828d7386f","ios":"levelo://app?vid=604c9531-be4f-4974-bfe2-bd7828d7386f"},"vehicle_type_id":"4","last_reported":1726920890,"current_range_meters":24000,"station_id":"ce4bhpp2rcd13ifvqhfg","pricing_plan_id":"cebpf4jnsgd1na2vs0mg"},{"bike_id":"217ef1e6-255c-4998-83d2-821ac1a80098","system_id":"levelo_inurba_marseille","lat":43.27206,"lon":5.39182,"is_reserved":false,"is_disabled":false,"rental_uris":{"android":"levelo://app?vid=217ef1e6-255c-4998-83d2-821ac1a80098","ios":"levelo://app?vid=217ef1e6-255c-4998-83d2-821ac1a80098"},"vehicle_type_id":"4","last_reported":1726920890,"current_range_meters":4400,"station_id":"ce4bhhp2rcd13ifvqfm0","pricing_plan_id":"cebpf4jnsgd1na2vs0mg"},{"bike_id":"360370d9-8715-46bd-b037-b999034a42d5","system_id":"levelo_inurba_marseille","lat":43.28271,"lon":5.35069,"is_reserved":false,"is_disabled":false,"rental_uris":{"android":"levelo://app?vid=360370d9-8715-46bd-b037-b999034a42d5","ios":"levelo://app?vid=360370d9-8715-46bd-b037-b999034a42d5"},"vehicle_type_id":"4","last_reported":1726920890,"current_range_meters":8800,"station_id":"ce4bhbp2rcd13ifvqerg","pricing_plan_id":"cebpf4jnsgd1na2vs0mg"},{"bike_id":"097deaef-4152-43ab-935d-a465822bae96","system_id":"levelo_inurba_marseille","lat":43.296722,"lon":5.37857,"is_reserved":false,"is_disabled":false,"rental_uris":{"android":"levelo://app?vid=097deaef-4152-43ab-935d-a465822bae96","ios":"levelo://app?vid=097deaef-4152-43ab-935d-a465822bae96"},"vehicle_type_id":"4","last_reported":1726920890,"current_range_meters":4400,"station_id":"ce4bgup2rcd13ifvqco0","pricing_plan_id":"cebpf4jnsgd1na2vs0mg"},{"bike_id":"e3c7bd1a-9ccc-4b4e-8e4a-2ca600ee7f59","system_id":"levelo_inurba_marseille","lat":43.25496,"lon":5.37646,"is_reserved":false,"is_disabled":false,"rental_uris":{"android":"levelo://app?vid=e3c7bd1a-9ccc-4b4e-8e4a-2ca600ee7f59","ios":"levelo://app?vid=e3c7bd1a-9ccc-4b4e-8e4a-2ca600ee7f59"},"vehicle_type_id":"4","last_reported":1726920890,"current_range_meters":7200,"station_id":"ce4bhh12rcd13ifvqff0","pricing_plan_id":"cebpf4jnsgd1na2vs0mg"},{"bike_id":"563db412-af06-4f6a-9e6a-18fb93f33b51","system_id":"levelo_inurba_marseille","lat":43.289886,"lon":5.356378,"is_reserved":false,"is_disabled":false,"rental_uris":{"android":"levelo://app?vid=563db412-af06-4f6a-9e6a-18fb93f33b51","ios":"levelo://app?vid=563db412-af06-4f6a-9e6a-18fb93f33b51"},"vehicle_type_id":"4","last_reported":1726920890,"current_range_meters":27600,"station_id":"ce4bhb92rcd13ifvqen0","pricing_plan_id":"cebpf4jnsgd1na2vs0mg"},{"bike_id":"13a310a6-08ea-421e-9a52-5ddc30bf5699","system_id":"levelo_inurba_marseille","lat":43.30142,"lon":5.37419,"is_reserved":false,"is_disabled":false,"rental_uris":{"android":"levelo://app?vid=13a310a6-08ea-421e-9a52-5ddc30bf5699","ios":"levelo://app?vid=13a310a6-08ea-421e-9a52-5ddc30bf5699"},"vehicle_type_id":"4","last_reported":1726920890,"current_range_meters":17600,"station_id":"ce4bgs92rcd13ifvqcc0","pricing_plan_id":"cebpf4jnsgd1na2vs0mg"},{"bike_id":"8730af23-b6fe-4156-81c6-782aec9ba328","system_id":"levelo_inurba_marseille","lat":43.29977,"lon":5.36946,"is_reserved":false,"is_disabled":false,"rental_uris":{"android":"levelo://app?vid=8730af23-b6fe-4156-81c6-782aec9ba328","ios":"levelo://app?vid=8730af23-b6fe-4156-81c6-782aec9ba328"},"vehicle_type_id":"4","last_reported":1726920890,"current_range_meters":2000,"station_id":"","pricing_plan_id":"cebpf4jnsgd1na2vs0mg"},{"bike_id":"e9f714fa-1d05-42df-9ecd-4171744ee136","system_id":"levelo_inurba_marseille","lat":43.28425,"lon":5.34994,"is_reserved":false,"is_disabled":false,"rental_uris":{"android":"levelo://app?vid=e9f714fa-1d05-42df-9ecd-4171744ee136","ios":"levelo://app?vid=e9f714fa-1d05-42df-9ecd-4171744ee136"},"vehicle_type_id":"4","last_reported":1726920890,"current_range_meters":32000,"station_id":"ce4bhbh2rcd13ifvqepg","pricing_plan_id":"cebpf4jnsgd1na2vs0mg"},{"bike_id":"4910b8f7-a32f-4d5e-8182-b2a05dcbda81","system_id":"levelo_inurba_marseille","lat":43.26809,"lon":5.40273,"is_reserved":false,"is_disabled":false,"rental_uris":{"android":"levelo://app?vid=4910b8f7-a32f-4d5e-8182-b2a05dcbda81","ios":"levelo://app?vid=4910b8f7-a32f-4d5e-8182-b2a05dcbda81"},"vehicle_type_id":"4","last_reported":1726920890,"current_range_meters":19600,"station_id":"ce501612rcd8frsf0b60","pricing_plan_id":"cebpf4jnsgd1na2vs0mg"},{"bike_id":"d3be6522-a28a-4622-b9ac-5d07c4436f03","system_id":"levelo_inurba_marseille","lat":43.26778,"lon":5.39424,"is_reserved":false,"is_disabled":false,"rental_uris":{"android":"levelo://app?vid=d3be6522-a28a-4622-b9ac-5d07c4436f03","ios":"levelo://app?vid=d3be6522-a28a-4622-b9ac-5d07c4436f03"},"vehicle_type_id":"4","last_reported":1726920890,"current_range_meters":38000,"station_id":"ce4bhh12rcd13ifvqfg0","pricing_plan_id":"cebpf4jnsgd1na2vs0mg"},{"bike_id":"542e2c69-6cd2-413d-9cfd-2c5f9a60a140","system_id":"levelo_inurba_marseille","lat":43.24076,"lon":5.37756,"is_reserved":false,"is_disabled":false,"rental_uris":{"android":"levelo://app?vid=542e2c69-6cd2-413d-9cfd-2c5f9a60a140","ios":"levelo://app?vid=542e2c69-6cd2-413d-9cfd-2c5f9a60a140"},"vehicle_type_id":"4","last_reported":1726920890,"current_range_meters":9600,"station_id":"ce4bhnp2rcd13ifvqgvg","pricing_plan_id":"cebpf4jnsgd1na2vs0mg"},{"bike_id":"b7ff0e8b-4fe5-463a-936d-31cfb5c62a13","system_id":"levelo_inurba_marseille","lat":43.29961,"lon":5.41327,"is_reserved":false,"is_disabled":false,"rental_uris":{"android":"levelo://app?vid=b7ff0e8b-4fe5-463a-936d-31cfb5c62a13","ios":"levelo://app?vid=b7ff0e8b-4fe5-463a-936d-31cfb5c62a13"},"vehicle_type_id":"4","last_reported":1726920890,"current_range_meters":38800,"station_id":"ce4bhp12rcd13ifvqh9g","pricing_plan_id":"cebpf4jnsgd1na2vs0mg"},{"bike_id":"ed6a2d27-decb-4217-98ed-2534b8c0e601","system_id":"levelo_inurba_marseille","lat":43.23186,"lon":5.39989,"is_reserved":false,"is_disabled":false,"rental_uris":{"android":"levelo://app?vid=ed6a2d27-decb-4217-98ed-2534b8c0e601","ios":"levelo://app?vid=ed6a2d27-decb-4217-98ed-2534b8c0e601"},"vehicle_type_id":"4","last_reported":1726920890,"current_range_meters":38800,"station_id":"ce4bhn12rcd13ifvqgqg","pricing_plan_id":"cebpf4jnsgd1na2vs0mg"},{"bike_id":"40094a73-01ca-4522-9043-fcb185317e6d","system_id":"levelo_inurba_marseille","lat":43.318795,"lon":5.407324,"is_reserved":false,"is_disabled":false,"rental_uris":{"android":"levelo://app?vid=40094a73-01ca-4522-9043-fcb185317e6d","ios":"levelo://app?vid=40094a73-01ca-4522-9043-fcb185317e6d"},"vehicle_type_id":"4","last_reported":1726920890,"current_range_meters":34800,"station_id":"ce4bhq12rcd13ifvqhig","pricing_plan_id":"cebpf4jnsgd1na2vs0mg"},{"bike_id":"fe61791c-21d9-4b25-a0b8-c74c8e3b9350","system_id":"levelo_inurba_marseille","lat":43.22933,"lon":5.35377,"is_reserved":false,"is_disabled":false,"rental_uris":{"android":"levelo://app?vid=fe61791c-21d9-4b25-a0b8-c74c8e3b9350","ios":"levelo://app?vid=fe61791c-21d9-4b25-a0b8-c74c8e3b9350"},"vehicle_type_id":"4","last_reported":1726920890,"current_range_meters":29600,"station_id":"cpo3532slgdg3j2ikp40","pricing_plan_id":"cebpf4jnsgd1na2vs0mg"},{"bike_id":"9b7498f2-30bb-4953-948d-2ae4eb57522a","system_id":"levelo_inurba_marseille","lat":43.28409,"lon":5.37522,"is_reserved":false,"is_disabled":false,"rental_uris":{"android":"levelo://app?vid=9b7498f2-30bb-4953-948d-2ae4eb57522a","ios":"levelo://app?vid=9b7498f2-30bb-4953-948d-2ae4eb57522a"},"vehicle_type_id":"4","last_reported":1726920890,"current_range_meters":25600,"station_id":"ce4bh412rcd13ifvqds0","pricing_plan_id":"cebpf4jnsgd1na2vs0mg"},{"bike_id":"0f095951-83e2-4482-bea5-76ef753c85e4","system_id":"levelo_inurba_marseille","lat":43.29856,"lon":5.36284,"is_reserved":false,"is_disabled":false,"rental_uris":{"android":"levelo://app?vid=0f095951-83e2-4482-bea5-76ef753c85e4","ios":"levelo://app?vid=0f095951-83e2-4482-bea5-76ef753c85e4"},"vehicle_type_id":"4","last_reported":1726920890,"current_range_meters":24000,"station_id":"ce4bgpp2rcd13ifvqc3g","pricing_plan_id":"cebpf4jnsgd1na2vs0mg"},{"bike_id":"7db34aab-bb83-4943-a5a0-93955f52a4ec","system_id":"levelo_inurba_marseille","lat":43.33724,"lon":5.39177,"is_reserved":false,"is_disabled":false,"rental_uris":{"android":"levelo://app?vid=7db34aab-bb83-4943-a5a0-93955f52a4ec","ios":"levelo://app?vid=7db34aab-bb83-4943-a5a0-93955f52a4ec"},"vehicle_type_id":"4","last_reported":1726920890,"current_range_meters":38400,"station_id":"ce4bhr92rcd13ifvqhsg","pricing_plan_id":"cebpf4jnsgd1na2vs0mg"},{"bike_id":"b2c48c94-375b-4129-b08e-ea4b056ae176","system_id":"levelo_inurba_marseille","lat":43.29013,"lon":5.35622,"is_reserved":false,"is_disabled":false,"rental_uris":{"android":"levelo://app?vid=b2c48c94-375b-4129-b08e-ea4b056ae176","ios":"levelo://app?vid=b2c48c94-375b-4129-b08e-ea4b056ae176"},"vehicle_type_id":"4","last_reported":1726920890,"current_range_meters":17200,"station_id":"ce4bhb92rcd13ifvqen0","pricing_plan_id":"cebpf4jnsgd1na2vs0mg"},{"bike_id":"8ac342cf-87a9-43ee-9925-a692646802b8","system_id":"levelo_inurba_marseille","lat":43.27379,"lon":5.36253,"is_reserved":false,"is_disabled":false,"rental_uris":{"android":"levelo://app?vid=8ac342cf-87a9-43ee-9925-a692646802b8","ios":"levelo://app?vid=8ac342cf-87a9-43ee-9925-a692646802b8"},"vehicle_type_id":"4","last_reported":1726920890,"current_range_meters":20800,"station_id":"ce4bhbh2rcd13ifvqeo0","pricing_plan_id":"cebpf4jnsgd1na2vs0mg"},{"bike_id":"fb241eac-00a8-4de4-9ac2-8a5d33a630b6","system_id":"levelo_inurba_marseille","lat":43.23958,"lon":5.36637,"is_reserved":false,"is_disabled":false,"rental_uris":{"android":"levelo://app?vid=fb241eac-00a8-4de4-9ac2-8a5d33a630b6","ios":"levelo://app?vid=fb241eac-00a8-4de4-9ac2-8a5d33a630b6"},"vehicle_type_id":"4","last_reported":1726920890,"current_range_meters":27200,"station_id":"ce4bhi12rcd13ifvqfp0","pricing_plan_id":"cebpf4jnsgd1na2vs0mg"},{"bike_id":"5bad79e1-053d-46cf-81ff-827aa05c48a7","system_id":"levelo_inurba_marseille","lat":43.29923,"lon":5.37473,"is_reserved":false,"is_disabled":false,"rental_uris":{"android":"levelo://app?vid=5bad79e1-053d-46cf-81ff-827aa05c48a7","ios":"levelo://app?vid=5bad79e1-053d-46cf-81ff-827aa05c48a7"},"vehicle_type_id":"4","last_reported":1726920890,"current_range_meters":10000,"station_id":"ce4bgjh2rcd13ifvqbg0","pricing_plan_id":"cebpf4jnsgd1na2vs0mg"},{"bike_id":"7b7cf89d-5325-4d4a-8061-5cf0c5bab16f","system_id":"levelo_inurba_marseille","lat":43.26194,"lon":5.3745,"is_reserved":false,"is_disabled":false,"rental_uris":{"android":"levelo://app?vid=7b7cf89d-5325-4d4a-8061-5cf0c5bab16f","ios":"levelo://app?vid=7b7cf89d-5325-4d4a-8061-5cf0c5bab16f"},"vehicle_type_id":"4","last_reported":1726920890,"current_range_meters":30800,"station_id":"","pricing_plan_id":"cebpf4jnsgd1na2vs0mg"},{"bike_id":"c89f2ec8-f079-4090-a948-a93079f4b8b0","system_id":"levelo_inurba_marseille","lat":43.26057,"lon":5.39398,"is_reserved":false,"is_disabled":false,"rental_uris":{"android":"levelo://app?vid=c89f2ec8-f079-4090-a948-a93079f4b8b0","ios":"levelo://app?vid=c89f2ec8-f079-4090-a948-a93079f4b8b0"},"vehicle_type_id":"4","last_reported":1726920890,"current_range_meters":28400,"station_id":"ce4bhh92rcd13ifvqfj0","pricing_plan_id":"cebpf4jnsgd1na2vs0mg"},{"bike_id":"fe02eabb-a2b4-4ea9-918d-8498504a82a3","system_id":"levelo_inurba_marseille","lat":43.26193,"lon":5.37445,"is_reserved":false,"is_disabled":false,"rental_uris":{"android":"levelo://app?vid=fe02eabb-a2b4-4ea9-918d-8498504a82a3","ios":"levelo://app?vid=fe02eabb-a2b4-4ea9-918d-8498504a82a3"},"vehicle_type_id":"4","last_reported":1726920890,"current_range_meters":14000,"station_id":"ce4bhgp2rcd13ifvqfc0","pricing_plan_id":"cebpf4jnsgd1na2vs0mg"},{"bike_id":"afaab830-46a4-4c2c-9890-6708827d00b5","system_id":"levelo_inurba_marseille","lat":43.28425,"lon":5.34992,"is_reserved":false,"is_disabled":false,"rental_uris":{"android":"levelo://app?vid=afaab830-46a4-4c2c-9890-6708827d00b5","ios":"levelo://app?vid=afaab830-46a4-4c2c-9890-6708827d00b5"},"vehicle_type_id":"4","last_reported":1726920890,"current_range_meters":24800,"station_id":"ce4bhbh2rcd13ifvqepg","pricing_plan_id":"cebpf4jnsgd1na2vs0mg"},{"bike_id":"bdefe4e8-a662-4af9-a25f-453f4349f930","system_id":"levelo_inurba_marseille","lat":43.24663,"lon":5.38165,"is_reserved":false,"is_disabled":false,"rental_uris":{"android":"levelo://app?vid=bdefe4e8-a662-4af9-a25f-453f4349f930","ios":"levelo://app?vid=bdefe4e8-a662-4af9-a25f-453f4349f930"},"vehicle_type_id":"4","last_reported":1726920890,"current_range_meters":7200,"station_id":"ce4bhih2rcd13ifvqfr0","pricing_plan_id":"cebpf4jnsgd1na2vs0mg"},{"bike_id":"146ac5f2-7c1e-46d5-9347-54e9005d3585","system_id":"levelo_inurba_marseille","lat":43.26947,"lon":5.40248,"is_reserved":false,"is_disabled":false,"rental_uris":{"android":"levelo://app?vid=146ac5f2-7c1e-46d5-9347-54e9005d3585","ios":"levelo://app?vid=146ac5f2-7c1e-46d5-9347-54e9005d3585"},"vehicle_type_id":"4","last_reported":1726920890,"current_range_meters":39200,"station_id":"cjm6bp8fraef2m0cb0m0","pricing_plan_id":"cebpf4jnsgd1na2vs0mg"},{"bike_id":"7b9dd459-340b-4978-bfb0-6c163a5263e8","system_id":"levelo_inurba_marseille","lat":43.23192,"lon":5.35549,"is_reserved":false,"is_disabled":false,"rental_uris":{"android":"levelo://app?vid=7b9dd459-340b-4978-bfb0-6c163a5263e8","ios":"levelo://app?vid=7b9dd459-340b-4978-bfb0-6c163a5263e8"},"vehicle_type_id":"4","last_reported":1726920890,"current_range_meters":39200,"station_id":"ce4bhu92rcd13ifvqi70","pricing_plan_id":"cebpf4jnsgd1na2vs0mg"},{"bike_id":"3e1c3abc-bcc0-4829-8ea5-ec588bffc8b1","system_id":"levelo_inurba_marseille","lat":43.25505,"lon":5.37644,"is_reserved":false,"is_disabled":false,"rental_uris":{"android":"levelo://app?vid=3e1c3abc-bcc0-4829-8ea5-ec588bffc8b1","ios":"levelo://app?vid=3e1c3abc-bcc0-4829-8ea5-ec588bffc8b1"},"vehicle_type_id":"4","last_reported":1726920890,"current_range_meters":33200,"station_id":"ce4bhh12rcd13ifvqff0","pricing_plan_id":"cebpf4jnsgd1na2vs0mg"},{"bike_id":"cbee5b47-3529-4297-bf7e-7abd88e69aa3","system_id":"levelo_inurba_marseille","lat":43.24392,"lon":5.37062,"is_reserved":false,"is_disabled":false,"rental_uris":{"android":"levelo://app?vid=cbee5b47-3529-4297-bf7e-7abd88e69aa3","ios":"levelo://app?vid=cbee5b47-3529-4297-bf7e-7abd88e69aa3"},"vehicle_type_id":"4","last_reported":1726920890,"current_range_meters":35200,"station_id":"ce4bhhh2rcd13ifvqfk0","pricing_plan_id":"cebpf4jnsgd1na2vs0mg"},{"bike_id":"71aa8592-ddf7-4343-aed4-c00d3433340f","system_id":"levelo_inurba_marseille","lat":43.337444,"lon":5.374475,"is_reserved":false,"is_disabled":false,"rental_uris":{"android":"levelo://app?vid=71aa8592-ddf7-4343-aed4-c00d3433340f","ios":"levelo://app?vid=71aa8592-ddf7-4343-aed4-c00d3433340f"},"vehicle_type_id":"4","last_reported":1726920890,"current_range_meters":36000,"station_id":"","pricing_plan_id":"cebpf4jnsgd1na2vs0mg"},{"bike_id":"3740c6df-06cd-419b-9ae6-b8d9e5eff548","system_id":"levelo_inurba_marseille","lat":43.2753,"lon":5.40935,"is_reserved":false,"is_disabled":false,"rental_uris":{"android":"levelo://app?vid=3740c6df-06cd-419b-9ae6-b8d9e5eff548","ios":"levelo://app?vid=3740c6df-06cd-419b-9ae6-b8d9e5eff548"},"vehicle_type_id":"4","last_reported":1726920890,"current_range_meters":17600,"station_id":"","pricing_plan_id":"cebpf4jnsgd1na2vs0mg"},{"bike_id":"7686ee9e-01ae-4b81-be9d-504fd9a9c3be","system_id":"levelo_inurba_marseille","lat":43.261985,"lon":5.374495,"is_reserved":false,"is_disabled":false,"rental_uris":{"android":"levelo://app?vid=7686ee9e-01ae-4b81-be9d-504fd9a9c3be","ios":"levelo://app?vid=7686ee9e-01ae-4b81-be9d-504fd9a9c3be"},"vehicle_type_id":"4","last_reported":1726920890,"current_range_meters":38800,"station_id":"ce4bhgp2rcd13ifvqfc0","pricing_plan_id":"cebpf4jnsgd1na2vs0mg"},{"bike_id":"3f7a5697-3099-4330-9636-f12aec4761dd","system_id":"levelo_inurba_marseille","lat":43.2894,"lon":5.3664,"is_reserved":false,"is_disabled":false,"rental_uris":{"android":"levelo://app?vid=3f7a5697-3099-4330-9636-f12aec4761dd","ios":"levelo://app?vid=3f7a5697-3099-4330-9636-f12aec4761dd"},"vehicle_type_id":"4","last_reported":1726920890,"current_range_meters":27200,"station_id":"ce4bhap2rcd13ifvqek0","pricing_plan_id":"cebpf4jnsgd1na2vs0mg"},{"bike_id":"d6daa1a6-6b02-42dd-b1c1-7f3f5a383e0f","system_id":"levelo_inurba_marseille","lat":43.23195,"lon":5.35544,"is_reserved":false,"is_disabled":false,"rental_uris":{"android":"levelo://app?vid=d6daa1a6-6b02-42dd-b1c1-7f3f5a383e0f","ios":"levelo://app?vid=d6daa1a6-6b02-42dd-b1c1-7f3f5a383e0f"},"vehicle_type_id":"4","last_reported":1726920890,"current_range_meters":4800,"station_id":"ce4bhu92rcd13ifvqi70","pricing_plan_id":"cebpf4jnsgd1na2vs0mg"},{"bike_id":"88e87b5a-9c94-4bc0-915f-141b1196949b","system_id":"levelo_inurba_marseille","lat":43.26684,"lon":5.38269,"is_reserved":false,"is_disabled":false,"rental_uris":{"android":"levelo://app?vid=88e87b5a-9c94-4bc0-915f-141b1196949b","ios":"levelo://app?vid=88e87b5a-9c94-4bc0-915f-141b1196949b"},"vehicle_type_id":"4","last_reported":1726920890,"current_range_meters":8000,"station_id":"ce4bhg92rcd13ifvqf90","pricing_plan_id":"cebpf4jnsgd1na2vs0mg"},{"bike_id":"1d14dfe2-2aea-47ff-8c73-a82657d49f3c","system_id":"levelo_inurba_marseille","lat":43.292851,"lon":5.383726,"is_reserved":false,"is_disabled":false,"rental_uris":{"android":"levelo://app?vid=1d14dfe2-2aea-47ff-8c73-a82657d49f3c","ios":"levelo://app?vid=1d14dfe2-2aea-47ff-8c73-a82657d49f3c"},"vehicle_type_id":"4","last_reported":1726920890,"current_range_meters":30000,"station_id":"ce4bh692rcd13ifvqea0","pricing_plan_id":"cebpf4jnsgd1na2vs0mg"},{"bike_id":"566004ed-fd59-430f-89f2-1aa59950dc17","system_id":"levelo_inurba_marseille","lat":43.24396,"lon":5.37059,"is_reserved":false,"is_disabled":false,"rental_uris":{"android":"levelo://app?vid=566004ed-fd59-430f-89f2-1aa59950dc17","ios":"levelo://app?vid=566004ed-fd59-430f-89f2-1aa59950dc17"},"vehicle_type_id":"4","last_reported":1726920890,"current_range_meters":30800,"station_id":"ce4bhhh2rcd13ifvqfk0","pricing_plan_id":"cebpf4jnsgd1na2vs0mg"},{"bike_id":"47b1ce6a-a8b9-4106-88b5-1152f7c27529","system_id":"levelo_inurba_marseille","lat":43.2862,"lon":5.35106,"is_reserved":false,"is_disabled":false,"rental_uris":{"android":"levelo://app?vid=47b1ce6a-a8b9-4106-88b5-1152f7c27529","ios":"levelo://app?vid=47b1ce6a-a8b9-4106-88b5-1152f7c27529"},"vehicle_type_id":"4","last_reported":1726920890,"current_range_meters":32800,"station_id":"ce4bhch2rcd13ifvqeug","pricing_plan_id":"cebpf4jnsgd1na2vs0mg"},{"bike_id":"36bc6669-316a-4bf1-816a-6b742d8f09ab","system_id":"levelo_inurba_marseille","lat":43.26069,"lon":5.39395,"is_reserved":false,"is_disabled":false,"rental_uris":{"android":"levelo://app?vid=36bc6669-316a-4bf1-816a-6b742d8f09ab","ios":"levelo://app?vid=36bc6669-316a-4bf1-816a-6b742d8f09ab"},"vehicle_type_id":"4","last_reported":1726920890,"current_range_meters":22400,"station_id":"ce4bhh92rcd13ifvqfj0","pricing_plan_id":"cebpf4jnsgd1na2vs0mg"},{"bike_id":"bb77777d-90bb-42a8-bb53-86e3a00001ad","system_id":"levelo_inurba_marseille","lat":43.23152,"lon":5.43707,"is_reserved":false,"is_disabled":false,"rental_uris":{"android":"levelo://app?vid=bb77777d-90bb-42a8-bb53-86e3a00001ad","ios":"levelo://app?vid=bb77777d-90bb-42a8-bb53-86e3a00001ad"},"vehicle_type_id":"4","last_reported":1726920890,"current_range_meters":38800,"station_id":"ce4bhmp2rcd13ifvqgog","pricing_plan_id":"cebpf4jnsgd1na2vs0mg"},{"bike_id":"681b23de-ffdd-45aa-9a3a-af77373afa48","system_id":"levelo_inurba_marseille","lat":43.28419,"lon":5.34994,"is_reserved":false,"is_disabled":false,"rental_uris":{"android":"levelo://app?vid=681b23de-ffdd-45aa-9a3a-af77373afa48","ios":"levelo://app?vid=681b23de-ffdd-45aa-9a3a-af77373afa48"},"vehicle_type_id":"4","last_reported":1726920890,"current_range_meters":10800,"station_id":"ce4bhbh2rcd13ifvqepg","pricing_plan_id":"cebpf4jnsgd1na2vs0mg"},{"bike_id":"68186b5c-3c70-4b57-b5e6-e2b23d0c8727","system_id":"levelo_inurba_marseille","lat":43.30461,"lon":5.3791,"is_reserved":false,"is_disabled":false,"rental_uris":{"android":"levelo://app?vid=68186b5c-3c70-4b57-b5e6-e2b23d0c8727","ios":"levelo://app?vid=68186b5c-3c70-4b57-b5e6-e2b23d0c8727"},"vehicle_type_id":"4","last_reported":1726920890,"current_range_meters":30000,"station_id":"ce4bgup2rcd13ifvqcn0","pricing_plan_id":"cebpf4jnsgd1na2vs0mg"},{"bike_id":"d65cbc32-3a83-4b2e-90d3-f60b7e66b84a","system_id":"levelo_inurba_marseille","lat":43.29552,"lon":5.42281,"is_reserved":false,"is_disabled":false,"rental_uris":{"android":"levelo://app?vid=d65cbc32-3a83-4b2e-90d3-f60b7e66b84a","ios":"levelo://app?vid=d65cbc32-3a83-4b2e-90d3-f60b7e66b84a"},"vehicle_type_id":"4","last_reported":1726920890,"current_range_meters":37600,"station_id":"ce4bhph2rcd13ifvqhdg","pricing_plan_id":"cebpf4jnsgd1na2vs0mg"},{"bike_id":"1a3a5a95-1825-474c-87f4-e64a9fd42d7a","system_id":"levelo_inurba_marseille","lat":43.290466,"lon":5.383283,"is_reserved":false,"is_disabled":false,"rental_uris":{"android":"levelo://app?vid=1a3a5a95-1825-474c-87f4-e64a9fd42d7a","ios":"levelo://app?vid=1a3a5a95-1825-474c-87f4-e64a9fd42d7a"},"vehicle_type_id":"4","last_reported":1726920890,"current_range_meters":5600,"station_id":"ce4bh612rcd13ifvqe6g","pricing_plan_id":"cebpf4jnsgd1na2vs0mg"},{"bike_id":"ad623618-5771-4254-816f-843856aafd1b","system_id":"levelo_inurba_marseille","lat":43.2827,"lon":5.35073,"is_reserved":false,"is_disabled":false,"rental_uris":{"android":"levelo://app?vid=ad623618-5771-4254-816f-843856aafd1b","ios":"levelo://app?vid=ad623618-5771-4254-816f-843856aafd1b"},"vehicle_type_id":"4","last_reported":1726920890,"current_range_meters":22800,"station_id":"ce4bhbp2rcd13ifvqerg","pricing_plan_id":"cebpf4jnsgd1na2vs0mg"},{"bike_id":"a93282b4-71e3-4ba8-bb8d-15cdcd518d48","system_id":"levelo_inurba_marseille","lat":43.25817,"lon":5.3943,"is_reserved":false,"is_disabled":false,"rental_uris":{"android":"levelo://app?vid=a93282b4-71e3-4ba8-bb8d-15cdcd518d48","ios":"levelo://app?vid=a93282b4-71e3-4ba8-bb8d-15cdcd518d48"},"vehicle_type_id":"4","last_reported":1726920890,"current_range_meters":30800,"station_id":"ce4bhip2rcd13ifvqft0","pricing_plan_id":"cebpf4jnsgd1na2vs0mg"},{"bike_id":"d95cc55e-fac9-4bd6-b3e3-1009bd37c6fa","system_id":"levelo_inurba_marseille","lat":43.30075,"lon":5.38701,"is_reserved":false,"is_disabled":false,"rental_uris":{"android":"levelo://app?vid=d95cc55e-fac9-4bd6-b3e3-1009bd37c6fa","ios":"levelo://app?vid=d95cc55e-fac9-4bd6-b3e3-1009bd37c6fa"},"vehicle_type_id":"4","last_reported":1726920890,"current_range_meters":19200,"station_id":"ce4bh0p2rcd13ifvqd80","pricing_plan_id":"cebpf4jnsgd1na2vs0mg"},{"bike_id":"424dadb1-a2a2-4955-be28-fe93dcf5b99c","system_id":"levelo_inurba_marseille","lat":43.26212,"lon":5.37441,"is_reserved":false,"is_disabled":false,"rental_uris":{"android":"levelo://app?vid=424dadb1-a2a2-4955-be28-fe93dcf5b99c","ios":"levelo://app?vid=424dadb1-a2a2-4955-be28-fe93dcf5b99c"},"vehicle_type_id":"4","last_reported":1726920890,"current_range_meters":22800,"station_id":"ce4bhgp2rcd13ifvqfc0","pricing_plan_id":"cebpf4jnsgd1na2vs0mg"},{"bike_id":"c898ebb6-3aa8-476c-9578-891d22072641","system_id":"levelo_inurba_marseille","lat":43.25499,"lon":5.37648,"is_reserved":false,"is_disabled":false,"rental_uris":{"android":"levelo://app?vid=c898ebb6-3aa8-476c-9578-891d22072641","ios":"levelo://app?vid=c898ebb6-3aa8-476c-9578-891d22072641"},"vehicle_type_id":"4","last_reported":1726920890,"current_range_meters":36000,"station_id":"ce4bhh12rcd13ifvqff0","pricing_plan_id":"cebpf4jnsgd1na2vs0mg"},{"bike_id":"8a4ca202-5654-497f-96c3-a0002c5e92b6","system_id":"levelo_inurba_marseille","lat":43.23971,"lon":5.36635,"is_reserved":false,"is_disabled":false,"rental_uris":{"android":"levelo://app?vid=8a4ca202-5654-497f-96c3-a0002c5e92b6","ios":"levelo://app?vid=8a4ca202-5654-497f-96c3-a0002c5e92b6"},"vehicle_type_id":"4","last_reported":1726920890,"current_range_meters":36000,"station_id":"ce4bhi12rcd13ifvqfp0","pricing_plan_id":"cebpf4jnsgd1na2vs0mg"},{"bike_id":"254c25b0-cacb-447c-93ce-3ae1b012784b","system_id":"levelo_inurba_marseille","lat":43.28945,"lon":5.39623,"is_reserved":false,"is_disabled":false,"rental_uris":{"android":"levelo://app?vid=254c25b0-cacb-447c-93ce-3ae1b012784b","ios":"levelo://app?vid=254c25b0-cacb-447c-93ce-3ae1b012784b"},"vehicle_type_id":"4","last_reported":1726920890,"current_range_meters":22800,"station_id":"ce4bh3h2rcd13ifvqdn0","pricing_plan_id":"cebpf4jnsgd1na2vs0mg"},{"bike_id":"53cb05be-16d1-4b1f-988a-3bcee89b0e58","system_id":"levelo_inurba_marseille","lat":43.28973,"lon":5.3784,"is_reserved":false,"is_disabled":false,"rental_uris":{"android":"levelo://app?vid=53cb05be-16d1-4b1f-988a-3bcee89b0e58","ios":"levelo://app?vid=53cb05be-16d1-4b1f-988a-3bcee89b0e58"},"vehicle_type_id":"4","last_reported":1726920890,"current_range_meters":38400,"station_id":"ce4bh9p2rcd13ifvqed0","pricing_plan_id":"cebpf4jnsgd1na2vs0mg"},{"bike_id":"4f6cd953-65f5-4d4f-a052-70118d864e1d","system_id":"levelo_inurba_marseille","lat":43.29897,"lon":5.43671,"is_reserved":false,"is_disabled":false,"rental_uris":{"android":"levelo://app?vid=4f6cd953-65f5-4d4f-a052-70118d864e1d","ios":"levelo://app?vid=4f6cd953-65f5-4d4f-a052-70118d864e1d"},"vehicle_type_id":"4","last_reported":1726920890,"current_range_meters":8800,"station_id":"ce4bhpp2rcd13ifvqhfg","pricing_plan_id":"cebpf4jnsgd1na2vs0mg"},{"bike_id":"559fbaf9-3144-4b9a-af53-ba8c83483c4e","system_id":"levelo_inurba_marseille","lat":43.29,"lon":5.35613,"is_reserved":false,"is_disabled":false,"rental_uris":{"android":"levelo://app?vid=559fbaf9-3144-4b9a-af53-ba8c83483c4e","ios":"levelo://app?vid=559fbaf9-3144-4b9a-af53-ba8c83483c4e"},"vehicle_type_id":"4","last_reported":1726920890,"current_range_meters":25600,"station_id":"ce4bhb92rcd13ifvqen0","pricing_plan_id":"cebpf4jnsgd1na2vs0mg"},{"bike_id":"c3f892e2-b0a3-4520-870d-f16ec0a163dc","system_id":"levelo_inurba_marseille","lat":43.28348,"lon":5.38108,"is_reserved":false,"is_disabled":false,"rental_uris":{"android":"levelo://app?vid=c3f892e2-b0a3-4520-870d-f16ec0a163dc","ios":"levelo://app?vid=c3f892e2-b0a3-4520-870d-f16ec0a163dc"},"vehicle_type_id":"4","last_reported":1726920890,"current_range_meters":25600,"station_id":"ce4bh412rcd13ifvqdr0","pricing_plan_id":"cebpf4jnsgd1na2vs0mg"},{"bike_id":"da697497-bb67-4136-9b22-15da8e26869d","system_id":"levelo_inurba_marseille","lat":43.27681,"lon":5.38865,"is_reserved":false,"is_disabled":false,"rental_uris":{"android":"levelo://app?vid=da697497-bb67-4136-9b22-15da8e26869d","ios":"levelo://app?vid=da697497-bb67-4136-9b22-15da8e26869d"},"vehicle_type_id":"4","last_reported":1726920890,"current_range_meters":8800,"station_id":"ce4bhi12rcd13ifvqfo0","pricing_plan_id":"cebpf4jnsgd1na2vs0mg"},{"bike_id":"a64882ac-cead-4b9f-8fb8-e387a25e5bbe","system_id":"levelo_inurba_marseille","lat":43.286598,"lon":5.363452,"is_reserved":false,"is_disabled":false,"rental_uris":{"android":"levelo://app?vid=a64882ac-cead-4b9f-8fb8-e387a25e5bbe","ios":"levelo://app?vid=a64882ac-cead-4b9f-8fb8-e387a25e5bbe"},"vehicle_type_id":"4","last_reported":1726920890,"current_range_meters":8000,"station_id":"ce4bgk12rcd13ifvqbi0","pricing_plan_id":"cebpf4jnsgd1na2vs0mg"},{"bike_id":"c919cd9a-c9fb-4572-ac0c-97f80a66c128","system_id":"levelo_inurba_marseille","lat":43.22928,"lon":5.35376,"is_reserved":false,"is_disabled":false,"rental_uris":{"android":"levelo://app?vid=c919cd9a-c9fb-4572-ac0c-97f80a66c128","ios":"levelo://app?vid=c919cd9a-c9fb-4572-ac0c-97f80a66c128"},"vehicle_type_id":"4","last_reported":1726920890,"current_range_meters":6400,"station_id":"cpo3532slgdg3j2ikp40","pricing_plan_id":"cebpf4jnsgd1na2vs0mg"},{"bike_id":"2984139c-ec57-495c-a880-5c3c2cc2e48f","system_id":"levelo_inurba_marseille","lat":43.30785,"lon":5.37656,"is_reserved":false,"is_disabled":false,"rental_uris":{"android":"levelo://app?vid=2984139c-ec57-495c-a880-5c3c2cc2e48f","ios":"levelo://app?vid=2984139c-ec57-495c-a880-5c3c2cc2e48f"},"vehicle_type_id":"4","last_reported":1726920890,"current_range_meters":20800,"station_id":"ce4bgv92rcd13ifvqcq0","pricing_plan_id":"cebpf4jnsgd1na2vs0mg"},{"bike_id":"aa32be62-27f5-4718-888a-feb83d4d3bce","system_id":"levelo_inurba_marseille","lat":43.24389,"lon":5.37066,"is_reserved":false,"is_disabled":false,"rental_uris":{"android":"levelo://app?vid=aa32be62-27f5-4718-888a-feb83d4d3bce","ios":"levelo://app?vid=aa32be62-27f5-4718-888a-feb83d4d3bce"},"vehicle_type_id":"4","last_reported":1726920890,"current_range_meters":19600,"station_id":"ce4bhhh2rcd13ifvqfk0","pricing_plan_id":"cebpf4jnsgd1na2vs0mg"},{"bike_id":"284f3c47-c269-4f04-a9b8-bd27a8c13c07","system_id":"levelo_inurba_marseille","lat":43.26493,"lon":5.39544,"is_reserved":false,"is_disabled":false,"rental_uris":{"android":"levelo://app?vid=284f3c47-c269-4f04-a9b8-bd27a8c13c07","ios":"levelo://app?vid=284f3c47-c269-4f04-a9b8-bd27a8c13c07"},"vehicle_type_id":"4","last_reported":1726920890,"current_range_meters":38800,"station_id":"ce4bhi12rcd13ifvqfq0","pricing_plan_id":"cebpf4jnsgd1na2vs0mg"},{"bike_id":"0ac4be92-d700-4bff-aa7a-8bfcd7e6c34c","system_id":"levelo_inurba_marseille","lat":43.2606,"lon":5.39397,"is_reserved":false,"is_disabled":false,"rental_uris":{"android":"levelo://app?vid=0ac4be92-d700-4bff-aa7a-8bfcd7e6c34c","ios":"levelo://app?vid=0ac4be92-d700-4bff-aa7a-8bfcd7e6c34c"},"vehicle_type_id":"4","last_reported":1726920890,"current_range_meters":12000,"station_id":"ce4bhh92rcd13ifvqfj0","pricing_plan_id":"cebpf4jnsgd1na2vs0mg"},{"bike_id":"38aaa993-e8d1-4b04-80cb-bbd288f56ad5","system_id":"levelo_inurba_marseille","lat":43.262,"lon":5.37928,"is_reserved":false,"is_disabled":false,"rental_uris":{"android":"levelo://app?vid=38aaa993-e8d1-4b04-80cb-bbd288f56ad5","ios":"levelo://app?vid=38aaa993-e8d1-4b04-80cb-bbd288f56ad5"},"vehicle_type_id":"4","last_reported":1726920890,"current_range_meters":28000,"station_id":"ce4bhjp2rcd13ifvqg90","pricing_plan_id":"cebpf4jnsgd1na2vs0mg"},{"bike_id":"99eeafe6-366f-429a-b8f8-8a504a89203b","system_id":"levelo_inurba_marseille","lat":43.28505,"lon":5.356,"is_reserved":false,"is_disabled":false,"rental_uris":{"android":"levelo://app?vid=99eeafe6-366f-429a-b8f8-8a504a89203b","ios":"levelo://app?vid=99eeafe6-366f-429a-b8f8-8a504a89203b"},"vehicle_type_id":"4","last_reported":1726920890,"current_range_meters":32800,"station_id":"","pricing_plan_id":"cebpf4jnsgd1na2vs0mg"},{"bike_id":"d33947f1-f932-44f2-b587-5b9d877a68ad","system_id":"levelo_inurba_marseille","lat":43.28426,"lon":5.34995,"is_reserved":false,"is_disabled":false,"rental_uris":{"android":"levelo://app?vid=d33947f1-f932-44f2-b587-5b9d877a68ad","ios":"levelo://app?vid=d33947f1-f932-44f2-b587-5b9d877a68ad"},"vehicle_type_id":"4","last_reported":1726920890,"current_range_meters":9600,"station_id":"ce4bhbh2rcd13ifvqepg","pricing_plan_id":"cebpf4jnsgd1na2vs0mg"},{"bike_id":"29058ff5-4d24-4c57-9c80-3c616b905bac","system_id":"levelo_inurba_marseille","lat":43.29556,"lon":5.42285,"is_reserved":false,"is_disabled":false,"rental_uris":{"android":"levelo://app?vid=29058ff5-4d24-4c57-9c80-3c616b905bac","ios":"levelo://app?vid=29058ff5-4d24-4c57-9c80-3c616b905bac"},"vehicle_type_id":"4","last_reported":1726920890,"current_range_meters":38000,"station_id":"ce4bhph2rcd13ifvqhdg","pricing_plan_id":"cebpf4jnsgd1na2vs0mg"},{"bike_id":"ebbfb9e4-e3da-4b77-abdf-c23580edaeba","system_id":"levelo_inurba_marseille","lat":43.26194,"lon":5.37448,"is_reserved":false,"is_disabled":false,"rental_uris":{"android":"levelo://app?vid=ebbfb9e4-e3da-4b77-abdf-c23580edaeba","ios":"levelo://app?vid=ebbfb9e4-e3da-4b77-abdf-c23580edaeba"},"vehicle_type_id":"4","last_reported":1726920890,"current_range_meters":26800,"station_id":"ce4bhgp2rcd13ifvqfc0","pricing_plan_id":"cebpf4jnsgd1na2vs0mg"},{"bike_id":"0d2533dd-1fc8-41f3-82cc-d5cf387f99f0","system_id":"levelo_inurba_marseille","lat":43.292603,"lon":5.384407,"is_reserved":false,"is_disabled":false,"rental_uris":{"android":"levelo://app?vid=0d2533dd-1fc8-41f3-82cc-d5cf387f99f0","ios":"levelo://app?vid=0d2533dd-1fc8-41f3-82cc-d5cf387f99f0"},"vehicle_type_id":"4","last_reported":1726920890,"current_range_meters":6000,"station_id":"ce4bh692rcd13ifvqea0","pricing_plan_id":"cebpf4jnsgd1na2vs0mg"},{"bike_id":"04c205d6-c984-4abd-8805-83bc452ce816","system_id":"levelo_inurba_marseille","lat":43.30955,"lon":5.39041,"is_reserved":false,"is_disabled":false,"rental_uris":{"android":"levelo://app?vid=04c205d6-c984-4abd-8805-83bc452ce816","ios":"levelo://app?vid=04c205d6-c984-4abd-8805-83bc452ce816"},"vehicle_type_id":"4","last_reported":1726920890,"current_range_meters":13600,"station_id":"ce4bgup2rcd13ifvqco0","pricing_plan_id":"cebpf4jnsgd1na2vs0mg"},{"bike_id":"fdf9d7eb-ae9f-4957-b499-c3247cb085a4","system_id":"levelo_inurba_marseille","lat":43.29541,"lon":5.392998,"is_reserved":false,"is_disabled":false,"rental_uris":{"android":"levelo://app?vid=fdf9d7eb-ae9f-4957-b499-c3247cb085a4","ios":"levelo://app?vid=fdf9d7eb-ae9f-4957-b499-c3247cb085a4"},"vehicle_type_id":"4","last_reported":1726920890,"current_range_meters":33200,"station_id":"ce4bgkh2rcd13ifvqbk0","pricing_plan_id":"cebpf4jnsgd1na2vs0mg"},{"bike_id":"bce83964-771d-421d-a795-c2b376c5b9dc","system_id":"levelo_inurba_marseille","lat":43.23197,"lon":5.35549,"is_reserved":false,"is_disabled":false,"rental_uris":{"android":"levelo://app?vid=bce83964-771d-421d-a795-c2b376c5b9dc","ios":"levelo://app?vid=bce83964-771d-421d-a795-c2b376c5b9dc"},"vehicle_type_id":"4","last_reported":1726920890,"current_range_meters":18000,"station_id":"ce4bhu92rcd13ifvqi70","pricing_plan_id":"cebpf4jnsgd1na2vs0mg"},{"bike_id":"0a05a060-e506-4bc0-8861-8154cba23692","system_id":"levelo_inurba_marseille","lat":43.302157,"lon":5.394722,"is_reserved":false,"is_disabled":false,"rental_uris":{"android":"levelo://app?vid=0a05a060-e506-4bc0-8861-8154cba23692","ios":"levelo://app?vid=0a05a060-e506-4bc0-8861-8154cba23692"},"vehicle_type_id":"4","last_reported":1726920890,"current_range_meters":36800,"station_id":"ce4bh0p2rcd13ifvqd70","pricing_plan_id":"cebpf4jnsgd1na2vs0mg"},{"bike_id":"f22c4413-a948-4396-9c39-d47f741aaf78","system_id":"levelo_inurba_marseille","lat":43.24813,"lon":5.37459,"is_reserved":false,"is_disabled":false,"rental_uris":{"android":"levelo://app?vid=f22c4413-a948-4396-9c39-d47f741aaf78","ios":"levelo://app?vid=f22c4413-a948-4396-9c39-d47f741aaf78"},"vehicle_type_id":"4","last_reported":1726920890,"current_range_meters":0,"station_id":"ce4bhgh2rcd13ifvqfb0","pricing_plan_id":"cebpf4jnsgd1na2vs0mg"},{"bike_id":"c6193385-61c9-4f7e-91d9-2050d2fdbe74","system_id":"levelo_inurba_marseille","lat":43.29844,"lon":5.36269,"is_reserved":false,"is_disabled":false,"rental_uris":{"android":"levelo://app?vid=c6193385-61c9-4f7e-91d9-2050d2fdbe74","ios":"levelo://app?vid=c6193385-61c9-4f7e-91d9-2050d2fdbe74"},"vehicle_type_id":"4","last_reported":1726920890,"current_range_meters":19200,"station_id":"ce4bgpp2rcd13ifvqc3g","pricing_plan_id":"cebpf4jnsgd1na2vs0mg"},{"bike_id":"270ce5ca-112c-4997-8f18-7cb8ceefd2e9","system_id":"levelo_inurba_marseille","lat":43.27312,"lon":5.39075,"is_reserved":false,"is_disabled":false,"rental_uris":{"android":"levelo://app?vid=270ce5ca-112c-4997-8f18-7cb8ceefd2e9","ios":"levelo://app?vid=270ce5ca-112c-4997-8f18-7cb8ceefd2e9"},"vehicle_type_id":"4","last_reported":1726920890,"current_range_meters":10800,"station_id":"ce4bhgp2rcd13ifvqfe0","pricing_plan_id":"cebpf4jnsgd1na2vs0mg"},{"bike_id":"f90a267b-7bda-4dfc-a104-d10e13a82276","system_id":"levelo_inurba_marseille","lat":43.24078,"lon":5.37759,"is_reserved":false,"is_disabled":false,"rental_uris":{"android":"levelo://app?vid=f90a267b-7bda-4dfc-a104-d10e13a82276","ios":"levelo://app?vid=f90a267b-7bda-4dfc-a104-d10e13a82276"},"vehicle_type_id":"4","last_reported":1726920890,"current_range_meters":38400,"station_id":"ce4bhnp2rcd13ifvqgvg","pricing_plan_id":"cebpf4jnsgd1na2vs0mg"},{"bike_id":"9ad1871c-6ed3-4243-9f14-125727136405","system_id":"levelo_inurba_marseille","lat":43.28269,"lon":5.3507,"is_reserved":false,"is_disabled":false,"rental_uris":{"android":"levelo://app?vid=9ad1871c-6ed3-4243-9f14-125727136405","ios":"levelo://app?vid=9ad1871c-6ed3-4243-9f14-125727136405"},"vehicle_type_id":"4","last_reported":1726920890,"current_range_meters":28800,"station_id":"ce4bhbp2rcd13ifvqerg","pricing_plan_id":"cebpf4jnsgd1na2vs0mg"},{"bike_id":"c41a5342-784c-45ad-a56b-fb769ca6951e","system_id":"levelo_inurba_marseille","lat":43.24389,"lon":5.37068,"is_reserved":false,"is_disabled":false,"rental_uris":{"android":"levelo://app?vid=c41a5342-784c-45ad-a56b-fb769ca6951e","ios":"levelo://app?vid=c41a5342-784c-45ad-a56b-fb769ca6951e"},"vehicle_type_id":"4","last_reported":1726920890,"current_range_meters":38800,"station_id":"ce4bhhh2rcd13ifvqfk0","pricing_plan_id":"cebpf4jnsgd1na2vs0mg"},{"bike_id":"abf4fccb-4a12-45df-9476-0c32343036ad","system_id":"levelo_inurba_marseille","lat":43.26683,"lon":5.38274,"is_reserved":false,"is_disabled":false,"rental_uris":{"android":"levelo://app?vid=abf4fccb-4a12-45df-9476-0c32343036ad","ios":"levelo://app?vid=abf4fccb-4a12-45df-9476-0c32343036ad"},"vehicle_type_id":"4","last_reported":1726920890,"current_range_meters":38000,"station_id":"ce4bhg92rcd13ifvqf90","pricing_plan_id":"cebpf4jnsgd1na2vs0mg"},{"bike_id":"da4508dc-41c0-4202-9324-2a4c11586e5c","system_id":"levelo_inurba_marseille","lat":43.23194,"lon":5.35556,"is_reserved":false,"is_disabled":false,"rental_uris":{"android":"levelo://app?vid=da4508dc-41c0-4202-9324-2a4c11586e5c","ios":"levelo://app?vid=da4508dc-41c0-4202-9324-2a4c11586e5c"},"vehicle_type_id":"4","last_reported":1726920890,"current_range_meters":30800,"station_id":"ce4bhu92rcd13ifvqi70","pricing_plan_id":"cebpf4jnsgd1na2vs0mg"},{"bike_id":"c7dc569d-9849-4278-ab13-5097d477b4ef","system_id":"levelo_inurba_marseille","lat":43.3361,"lon":5.41031,"is_reserved":false,"is_disabled":false,"rental_uris":{"android":"levelo://app?vid=c7dc569d-9849-4278-ab13-5097d477b4ef","ios":"levelo://app?vid=c7dc569d-9849-4278-ab13-5097d477b4ef"},"vehicle_type_id":"4","last_reported":1726920890,"current_range_meters":38000,"station_id":"ce4bhqh2rcd13ifvqhmg","pricing_plan_id":"cebpf4jnsgd1na2vs0mg"},{"bike_id":"1c958ff0-15dd-4094-8378-bf532737944f","system_id":"levelo_inurba_marseille","lat":43.27998,"lon":5.4002,"is_reserved":false,"is_disabled":false,"rental_uris":{"android":"levelo://app?vid=1c958ff0-15dd-4094-8378-bf532737944f","ios":"levelo://app?vid=1c958ff0-15dd-4094-8378-bf532737944f"},"vehicle_type_id":"4","last_reported":1726920890,"current_range_meters":17600,"station_id":"ce4bho92rcd13ifvqh4g","pricing_plan_id":"cebpf4jnsgd1na2vs0mg"},{"bike_id":"cf6d3218-4bbb-47dc-801f-0722a68dd549","system_id":"levelo_inurba_marseille","lat":43.27814,"lon":5.40713,"is_reserved":false,"is_disabled":false,"rental_uris":{"android":"levelo://app?vid=cf6d3218-4bbb-47dc-801f-0722a68dd549","ios":"levelo://app?vid=cf6d3218-4bbb-47dc-801f-0722a68dd549"},"vehicle_type_id":"4","last_reported":1726920890,"current_range_meters":16400,"station_id":"ce4bhnh2rcd13ifvqgtg","pricing_plan_id":"cebpf4jnsgd1na2vs0mg"},{"bike_id":"e0cacffd-31ba-4c35-9339-c390b36a1805","system_id":"levelo_inurba_marseille","lat":43.2678,"lon":5.3942,"is_reserved":false,"is_disabled":false,"rental_uris":{"android":"levelo://app?vid=e0cacffd-31ba-4c35-9339-c390b36a1805","ios":"levelo://app?vid=e0cacffd-31ba-4c35-9339-c390b36a1805"},"vehicle_type_id":"4","last_reported":1726920890,"current_range_meters":3200,"station_id":"ce4bhh12rcd13ifvqfg0","pricing_plan_id":"cebpf4jnsgd1na2vs0mg"},{"bike_id":"1fe57ce2-b8c1-40b8-bf92-7f46f3a373e1","system_id":"levelo_inurba_marseille","lat":43.32487,"lon":5.36568,"is_reserved":false,"is_disabled":false,"rental_uris":{"android":"levelo://app?vid=1fe57ce2-b8c1-40b8-bf92-7f46f3a373e1","ios":"levelo://app?vid=1fe57ce2-b8c1-40b8-bf92-7f46f3a373e1"},"vehicle_type_id":"4","last_reported":1726920890,"current_range_meters":9600,"station_id":"ce4bhs12rcd13ifvqhvg","pricing_plan_id":"cebpf4jnsgd1na2vs0mg"},{"bike_id":"3a9ba5a4-63a8-4377-b5aa-8ece999ffb3a","system_id":"levelo_inurba_marseille","lat":43.26943,"lon":5.38918,"is_reserved":false,"is_disabled":false,"rental_uris":{"android":"levelo://app?vid=3a9ba5a4-63a8-4377-b5aa-8ece999ffb3a","ios":"levelo://app?vid=3a9ba5a4-63a8-4377-b5aa-8ece999ffb3a"},"vehicle_type_id":"4","last_reported":1726920890,"current_range_meters":38000,"station_id":"ce4bhhh2rcd13ifvqfl0","pricing_plan_id":"cebpf4jnsgd1na2vs0mg"},{"bike_id":"fb2b63d9-4a26-4602-9a57-d2caab531ee7","system_id":"levelo_inurba_marseille","lat":43.33729,"lon":5.39184,"is_reserved":false,"is_disabled":false,"rental_uris":{"android":"levelo://app?vid=fb2b63d9-4a26-4602-9a57-d2caab531ee7","ios":"levelo://app?vid=fb2b63d9-4a26-4602-9a57-d2caab531ee7"},"vehicle_type_id":"4","last_reported":1726920890,"current_range_meters":38400,"station_id":"ce4bhr92rcd13ifvqhsg","pricing_plan_id":"cebpf4jnsgd1na2vs0mg"},{"bike_id":"9ca25e2e-b6b7-4f94-a4b7-7cdec5fbd52f","system_id":"levelo_inurba_marseille","lat":43.2827,"lon":5.3507,"is_reserved":false,"is_disabled":false,"rental_uris":{"android":"levelo://app?vid=9ca25e2e-b6b7-4f94-a4b7-7cdec5fbd52f","ios":"levelo://app?vid=9ca25e2e-b6b7-4f94-a4b7-7cdec5fbd52f"},"vehicle_type_id":"4","last_reported":1726920890,"current_range_meters":16000,"station_id":"ce4bhbp2rcd13ifvqerg","pricing_plan_id":"cebpf4jnsgd1na2vs0mg"},{"bike_id":"6d4dc335-1633-4550-8da1-e7323252b7b3","system_id":"levelo_inurba_marseille","lat":43.26782,"lon":5.39417,"is_reserved":false,"is_disabled":false,"rental_uris":{"android":"levelo://app?vid=6d4dc335-1633-4550-8da1-e7323252b7b3","ios":"levelo://app?vid=6d4dc335-1633-4550-8da1-e7323252b7b3"},"vehicle_type_id":"4","last_reported":1726920890,"current_range_meters":17600,"station_id":"ce4bhh12rcd13ifvqfg0","pricing_plan_id":"cebpf4jnsgd1na2vs0mg"},{"bike_id":"b869f1ae-f37d-464a-8d18-0fd8cd3f314c","system_id":"levelo_inurba_marseille","lat":43.2916,"lon":5.40636,"is_reserved":false,"is_disabled":false,"rental_uris":{"android":"levelo://app?vid=b869f1ae-f37d-464a-8d18-0fd8cd3f314c","ios":"levelo://app?vid=b869f1ae-f37d-464a-8d18-0fd8cd3f314c"},"vehicle_type_id":"4","last_reported":1726920890,"current_range_meters":4000,"station_id":"","pricing_plan_id":"cebpf4jnsgd1na2vs0mg"},{"bike_id":"15b4597b-8985-476f-a884-522aa94ab4fb","system_id":"levelo_inurba_marseille","lat":43.33602,"lon":5.41019,"is_reserved":false,"is_disabled":false,"rental_uris":{"android":"levelo://app?vid=15b4597b-8985-476f-a884-522aa94ab4fb","ios":"levelo://app?vid=15b4597b-8985-476f-a884-522aa94ab4fb"},"vehicle_type_id":"4","last_reported":1726920890,"current_range_meters":25600,"station_id":"ce4bhqh2rcd13ifvqhmg","pricing_plan_id":"cebpf4jnsgd1na2vs0mg"},{"bike_id":"7c1bb7bd-82ab-4f98-a5b3-7fe446bde41f","system_id":"levelo_inurba_marseille","lat":43.22928,"lon":5.35397,"is_reserved":false,"is_disabled":false,"rental_uris":{"android":"levelo://app?vid=7c1bb7bd-82ab-4f98-a5b3-7fe446bde41f","ios":"levelo://app?vid=7c1bb7bd-82ab-4f98-a5b3-7fe446bde41f"},"vehicle_type_id":"4","last_reported":1726920890,"current_range_meters":8400,"station_id":"cpo3532slgdg3j2ikp40","pricing_plan_id":"cebpf4jnsgd1na2vs0mg"},{"bike_id":"fa690805-233a-4a70-a9f3-33f1b67cdb1f","system_id":"levelo_inurba_marseille","lat":43.3229,"lon":5.38249,"is_reserved":false,"is_disabled":false,"rental_uris":{"android":"levelo://app?vid=fa690805-233a-4a70-a9f3-33f1b67cdb1f","ios":"levelo://app?vid=fa690805-233a-4a70-a9f3-33f1b67cdb1f"},"vehicle_type_id":"4","last_reported":1726920890,"current_range_meters":12000,"station_id":"ce4bhr12rcd13ifvqhqg","pricing_plan_id":"cebpf4jnsgd1na2vs0mg"},{"bike_id":"e6e94b3c-3884-4ce1-aa97-ac67511e53d2","system_id":"levelo_inurba_marseille","lat":43.2827,"lon":5.35071,"is_reserved":false,"is_disabled":false,"rental_uris":{"android":"levelo://app?vid=e6e94b3c-3884-4ce1-aa97-ac67511e53d2","ios":"levelo://app?vid=e6e94b3c-3884-4ce1-aa97-ac67511e53d2"},"vehicle_type_id":"4","last_reported":1726920890,"current_range_meters":38800,"station_id":"ce4bhbp2rcd13ifvqerg","pricing_plan_id":"cebpf4jnsgd1na2vs0mg"},{"bike_id":"58928c39-f40f-4d14-8df5-fd3d58f85d25","system_id":"levelo_inurba_marseille","lat":43.28151,"lon":5.4264,"is_reserved":false,"is_disabled":false,"rental_uris":{"android":"levelo://app?vid=58928c39-f40f-4d14-8df5-fd3d58f85d25","ios":"levelo://app?vid=58928c39-f40f-4d14-8df5-fd3d58f85d25"},"vehicle_type_id":"4","last_reported":1726920890,"current_range_meters":34000,"station_id":"ce4bhnh2rcd13ifvqgug","pricing_plan_id":"cebpf4jnsgd1na2vs0mg"},{"bike_id":"7e3571e7-d499-4677-ad33-f5d3d01a2a81","system_id":"levelo_inurba_marseille","lat":43.25006,"lon":5.3893,"is_reserved":false,"is_disabled":false,"rental_uris":{"android":"levelo://app?vid=7e3571e7-d499-4677-ad33-f5d3d01a2a81","ios":"levelo://app?vid=7e3571e7-d499-4677-ad33-f5d3d01a2a81"},"vehicle_type_id":"4","last_reported":1726920890,"current_range_meters":38800,"station_id":"ce4bhgp2rcd13ifvqfd0","pricing_plan_id":"cebpf4jnsgd1na2vs0mg"},{"bike_id":"e18f45d5-e895-417c-ad78-5873e8056934","system_id":"levelo_inurba_marseille","lat":43.30543,"lon":5.36707,"is_reserved":false,"is_disabled":false,"rental_uris":{"android":"levelo://app?vid=e18f45d5-e895-417c-ad78-5873e8056934","ios":"levelo://app?vid=e18f45d5-e895-417c-ad78-5873e8056934"},"vehicle_type_id":"4","last_reported":1726920890,"current_range_meters":38400,"station_id":"ce4bgrp2rcd13ifvqc9g","pricing_plan_id":"cebpf4jnsgd1na2vs0mg"},{"bike_id":"7a69a206-59d7-4338-b1fb-7a4c9f69082f","system_id":"levelo_inurba_marseille","lat":43.23961,"lon":5.36636,"is_reserved":false,"is_disabled":false,"rental_uris":{"android":"levelo://app?vid=7a69a206-59d7-4338-b1fb-7a4c9f69082f","ios":"levelo://app?vid=7a69a206-59d7-4338-b1fb-7a4c9f69082f"},"vehicle_type_id":"4","last_reported":1726920890,"current_range_meters":12800,"station_id":"ce4bhi12rcd13ifvqfp0","pricing_plan_id":"cebpf4jnsgd1na2vs0mg"},{"bike_id":"5538791c-46ef-4dd6-bb61-9569d67885c3","system_id":"levelo_inurba_marseille","lat":43.28419,"lon":5.34989,"is_reserved":false,"is_disabled":false,"rental_uris":{"android":"levelo://app?vid=5538791c-46ef-4dd6-bb61-9569d67885c3","ios":"levelo://app?vid=5538791c-46ef-4dd6-bb61-9569d67885c3"},"vehicle_type_id":"4","last_reported":1726920890,"current_range_meters":19200,"station_id":"ce4bhbh2rcd13ifvqepg","pricing_plan_id":"cebpf4jnsgd1na2vs0mg"},{"bike_id":"2d672088-c9c0-49ee-a2fd-59c194fe9342","system_id":"levelo_inurba_marseille","lat":43.32368,"lon":5.38886,"is_reserved":false,"is_disabled":false,"rental_uris":{"android":"levelo://app?vid=2d672088-c9c0-49ee-a2fd-59c194fe9342","ios":"levelo://app?vid=2d672088-c9c0-49ee-a2fd-59c194fe9342"},"vehicle_type_id":"4","last_reported":1726920890,"current_range_meters":38400,"station_id":"ce4bhqp2rcd13ifvqhog","pricing_plan_id":"cebpf4jnsgd1na2vs0mg"},{"bike_id":"b2763354-ec6c-4733-8de6-6c4493759ae9","system_id":"levelo_inurba_marseille","lat":43.29073,"lon":5.40156,"is_reserved":false,"is_disabled":false,"rental_uris":{"android":"levelo://app?vid=b2763354-ec6c-4733-8de6-6c4493759ae9","ios":"levelo://app?vid=b2763354-ec6c-4733-8de6-6c4493759ae9"},"vehicle_type_id":"4","last_reported":1726920890,"current_range_meters":14800,"station_id":"","pricing_plan_id":"cebpf4jnsgd1na2vs0mg"},{"bike_id":"68f1ea92-8503-4fa6-b0c4-f17e09f4ab12","system_id":"levelo_inurba_marseille","lat":43.2991,"lon":5.37478,"is_reserved":false,"is_disabled":false,"rental_uris":{"android":"levelo://app?vid=68f1ea92-8503-4fa6-b0c4-f17e09f4ab12","ios":"levelo://app?vid=68f1ea92-8503-4fa6-b0c4-f17e09f4ab12"},"vehicle_type_id":"4","last_reported":1726920890,"current_range_meters":13600,"station_id":"ce4bgjh2rcd13ifvqbg0","pricing_plan_id":"cebpf4jnsgd1na2vs0mg"},{"bike_id":"b1d4fcb1-2e26-48cc-9bc2-61d3b6b4d95e","system_id":"levelo_inurba_marseille","lat":43.32346,"lon":5.40621,"is_reserved":false,"is_disabled":false,"rental_uris":{"android":"levelo://app?vid=b1d4fcb1-2e26-48cc-9bc2-61d3b6b4d95e","ios":"levelo://app?vid=b1d4fcb1-2e26-48cc-9bc2-61d3b6b4d95e"},"vehicle_type_id":"4","last_reported":1726920890,"current_range_meters":30800,"station_id":"ce4bhq92rcd13ifvqhjg","pricing_plan_id":"cebpf4jnsgd1na2vs0mg"},{"bike_id":"8c7449c0-c1c1-4bb7-9abd-4a3f5f9cdc0b","system_id":"levelo_inurba_marseille","lat":43.29045,"lon":5.37564,"is_reserved":false,"is_disabled":false,"rental_uris":{"android":"levelo://app?vid=8c7449c0-c1c1-4bb7-9abd-4a3f5f9cdc0b","ios":"levelo://app?vid=8c7449c0-c1c1-4bb7-9abd-4a3f5f9cdc0b"},"vehicle_type_id":"4","last_reported":1726920890,"current_range_meters":25600,"station_id":"ce4bh692rcd13ifvqe90","pricing_plan_id":"cebpf4jnsgd1na2vs0mg"},{"bike_id":"68138f84-0b3c-4ab2-a43a-bf940dc06daa","system_id":"levelo_inurba_marseille","lat":43.24394,"lon":5.37059,"is_reserved":false,"is_disabled":false,"rental_uris":{"android":"levelo://app?vid=68138f84-0b3c-4ab2-a43a-bf940dc06daa","ios":"levelo://app?vid=68138f84-0b3c-4ab2-a43a-bf940dc06daa"},"vehicle_type_id":"4","last_reported":1726920890,"current_range_meters":27600,"station_id":"ce4bhhh2rcd13ifvqfk0","pricing_plan_id":"cebpf4jnsgd1na2vs0mg"},{"bike_id":"194aa61c-7444-4b2f-af30-8175471de31b","system_id":"levelo_inurba_marseille","lat":43.26073,"lon":5.39387,"is_reserved":false,"is_disabled":false,"rental_uris":{"android":"levelo://app?vid=194aa61c-7444-4b2f-af30-8175471de31b","ios":"levelo://app?vid=194aa61c-7444-4b2f-af30-8175471de31b"},"vehicle_type_id":"4","last_reported":1726920890,"current_range_meters":24800,"station_id":"ce4bhh92rcd13ifvqfj0","pricing_plan_id":"cebpf4jnsgd1na2vs0mg"},{"bike_id":"e3b1cfca-d534-4fd8-b916-7dc088117262","system_id":"levelo_inurba_marseille","lat":43.22932,"lon":5.3538,"is_reserved":false,"is_disabled":false,"rental_uris":{"android":"levelo://app?vid=e3b1cfca-d534-4fd8-b916-7dc088117262","ios":"levelo://app?vid=e3b1cfca-d534-4fd8-b916-7dc088117262"},"vehicle_type_id":"4","last_reported":1726920890,"current_range_meters":33200,"station_id":"cpo3532slgdg3j2ikp40","pricing_plan_id":"cebpf4jnsgd1na2vs0mg"},{"bike_id":"07a15bfb-4b58-45b9-8aa0-74b2f61115cd","system_id":"levelo_inurba_marseille","lat":43.3107,"lon":5.38353,"is_reserved":false,"is_disabled":false,"rental_uris":{"android":"levelo://app?vid=07a15bfb-4b58-45b9-8aa0-74b2f61115cd","ios":"levelo://app?vid=07a15bfb-4b58-45b9-8aa0-74b2f61115cd"},"vehicle_type_id":"4","last_reported":1726920890,"current_range_meters":38400,"station_id":"ce4bgv92rcd13ifvqcr0","pricing_plan_id":"cebpf4jnsgd1na2vs0mg"},{"bike_id":"64e640da-ebd0-429a-a9e6-b897800ba367","system_id":"levelo_inurba_marseille","lat":43.32293,"lon":5.38265,"is_reserved":false,"is_disabled":false,"rental_uris":{"android":"levelo://app?vid=64e640da-ebd0-429a-a9e6-b897800ba367","ios":"levelo://app?vid=64e640da-ebd0-429a-a9e6-b897800ba367"},"vehicle_type_id":"4","last_reported":1726920890,"current_range_meters":36800,"station_id":"ce4bhr12rcd13ifvqhqg","pricing_plan_id":"cebpf4jnsgd1na2vs0mg"},{"bike_id":"c2c9a555-6ec8-4b92-b33e-073571605c93","system_id":"levelo_inurba_marseille","lat":43.23194,"lon":5.35547,"is_reserved":false,"is_disabled":false,"rental_uris":{"android":"levelo://app?vid=c2c9a555-6ec8-4b92-b33e-073571605c93","ios":"levelo://app?vid=c2c9a555-6ec8-4b92-b33e-073571605c93"},"vehicle_type_id":"4","last_reported":1726920890,"current_range_meters":21600,"station_id":"ce4bhu92rcd13ifvqi70","pricing_plan_id":"cebpf4jnsgd1na2vs0mg"},{"bike_id":"0899d61e-16df-43bc-a65b-d722d8ebd111","system_id":"levelo_inurba_marseille","lat":43.2721,"lon":5.39176,"is_reserved":false,"is_disabled":false,"rental_uris":{"android":"levelo://app?vid=0899d61e-16df-43bc-a65b-d722d8ebd111","ios":"levelo://app?vid=0899d61e-16df-43bc-a65b-d722d8ebd111"},"vehicle_type_id":"4","last_reported":1726920890,"current_range_meters":9200,"station_id":"ce4bhhp2rcd13ifvqfm0","pricing_plan_id":"cebpf4jnsgd1na2vs0mg"},{"bike_id":"ebc1ce8f-5e15-443d-abc6-63ac8e096722","system_id":"levelo_inurba_marseille","lat":43.23182,"lon":5.39986,"is_reserved":false,"is_disabled":false,"rental_uris":{"android":"levelo://app?vid=ebc1ce8f-5e15-443d-abc6-63ac8e096722","ios":"levelo://app?vid=ebc1ce8f-5e15-443d-abc6-63ac8e096722"},"vehicle_type_id":"4","last_reported":1726920890,"current_range_meters":6400,"station_id":"ce4bhn12rcd13ifvqgqg","pricing_plan_id":"cebpf4jnsgd1na2vs0mg"},{"bike_id":"abe5ee8f-6fdd-4614-b20b-a1f3372884fe","system_id":"levelo_inurba_marseille","lat":43.27202,"lon":5.39185,"is_reserved":false,"is_disabled":false,"rental_uris":{"android":"levelo://app?vid=abe5ee8f-6fdd-4614-b20b-a1f3372884fe","ios":"levelo://app?vid=abe5ee8f-6fdd-4614-b20b-a1f3372884fe"},"vehicle_type_id":"4","last_reported":1726920890,"current_range_meters":12400,"station_id":"ce4bhhp2rcd13ifvqfm0","pricing_plan_id":"cebpf4jnsgd1na2vs0mg"},{"bike_id":"aaa5c187-dedb-40a2-a249-8f2117fe26cf","system_id":"levelo_inurba_marseille","lat":43.23204,"lon":5.35556,"is_reserved":false,"is_disabled":false,"rental_uris":{"android":"levelo://app?vid=aaa5c187-dedb-40a2-a249-8f2117fe26cf","ios":"levelo://app?vid=aaa5c187-dedb-40a2-a249-8f2117fe26cf"},"vehicle_type_id":"4","last_reported":1726920890,"current_range_meters":38400,"station_id":"ce4bhu92rcd13ifvqi70","pricing_plan_id":"cebpf4jnsgd1na2vs0mg"},{"bike_id":"76070e8c-d84f-4552-b0f9-b21d169dfd03","system_id":"levelo_inurba_marseille","lat":43.29912,"lon":5.38147,"is_reserved":false,"is_disabled":false,"rental_uris":{"android":"levelo://app?vid=76070e8c-d84f-4552-b0f9-b21d169dfd03","ios":"levelo://app?vid=76070e8c-d84f-4552-b0f9-b21d169dfd03"},"vehicle_type_id":"4","last_reported":1726920890,"current_range_meters":22800,"station_id":"ce4bgj12rcd13ifvqbc0","pricing_plan_id":"cebpf4jnsgd1na2vs0mg"},{"bike_id":"35ddc03b-ab48-4d18-a9f6-b8dfb6371ccc","system_id":"levelo_inurba_marseille","lat":43.30317,"lon":5.36901,"is_reserved":false,"is_disabled":false,"rental_uris":{"android":"levelo://app?vid=35ddc03b-ab48-4d18-a9f6-b8dfb6371ccc","ios":"levelo://app?vid=35ddc03b-ab48-4d18-a9f6-b8dfb6371ccc"},"vehicle_type_id":"4","last_reported":1726920890,"current_range_meters":14000,"station_id":"ce4bgqh2rcd13ifvqc5g","pricing_plan_id":"cebpf4jnsgd1na2vs0mg"},{"bike_id":"c1850730-6614-43b2-824f-a2f84054d53a","system_id":"levelo_inurba_marseille","lat":43.29903,"lon":5.43671,"is_reserved":false,"is_disabled":false,"rental_uris":{"android":"levelo://app?vid=c1850730-6614-43b2-824f-a2f84054d53a","ios":"levelo://app?vid=c1850730-6614-43b2-824f-a2f84054d53a"},"vehicle_type_id":"4","last_reported":1726920890,"current_range_meters":28400,"station_id":"ce4bhpp2rcd13ifvqhfg","pricing_plan_id":"cebpf4jnsgd1na2vs0mg"},{"bike_id":"7cf2f5d2-6b11-43ae-a4a8-59b59c31580f","system_id":"levelo_inurba_marseille","lat":43.26785,"lon":5.39413,"is_reserved":false,"is_disabled":false,"rental_uris":{"android":"levelo://app?vid=7cf2f5d2-6b11-43ae-a4a8-59b59c31580f","ios":"levelo://app?vid=7cf2f5d2-6b11-43ae-a4a8-59b59c31580f"},"vehicle_type_id":"4","last_reported":1726920890,"current_range_meters":38800,"station_id":"ce4bhh12rcd13ifvqfg0","pricing_plan_id":"cebpf4jnsgd1na2vs0mg"},{"bike_id":"698f683a-292d-4019-b96c-2c3047867806","system_id":"levelo_inurba_marseille","lat":43.30887,"lon":5.3719,"is_reserved":false,"is_disabled":false,"rental_uris":{"android":"levelo://app?vid=698f683a-292d-4019-b96c-2c3047867806","ios":"levelo://app?vid=698f683a-292d-4019-b96c-2c3047867806"},"vehicle_type_id":"4","last_reported":1726920890,"current_range_meters":38800,"station_id":"ce4bguh2rcd13ifvqckg","pricing_plan_id":"cebpf4jnsgd1na2vs0mg"},{"bike_id":"708b33ef-b558-4a18-b8c3-bbba9582078a","system_id":"levelo_inurba_marseille","lat":43.26186,"lon":5.37451,"is_reserved":false,"is_disabled":false,"rental_uris":{"android":"levelo://app?vid=708b33ef-b558-4a18-b8c3-bbba9582078a","ios":"levelo://app?vid=708b33ef-b558-4a18-b8c3-bbba9582078a"},"vehicle_type_id":"4","last_reported":1726920890,"current_range_meters":2800,"station_id":"ce4bhgp2rcd13ifvqfc0","pricing_plan_id":"cebpf4jnsgd1na2vs0mg"},{"bike_id":"0c577133-5810-46d3-a7df-2b049b5a261c","system_id":"levelo_inurba_marseille","lat":43.28275,"lon":5.35072,"is_reserved":false,"is_disabled":false,"rental_uris":{"android":"levelo://app?vid=0c577133-5810-46d3-a7df-2b049b5a261c","ios":"levelo://app?vid=0c577133-5810-46d3-a7df-2b049b5a261c"},"vehicle_type_id":"4","last_reported":1726920890,"current_range_meters":36000,"station_id":"ce4bhbp2rcd13ifvqerg","pricing_plan_id":"cebpf4jnsgd1na2vs0mg"},{"bike_id":"6a89ac2e-b63b-4587-bd21-5f1152ef2a9e","system_id":"levelo_inurba_marseille","lat":43.30465,"lon":5.37897,"is_reserved":false,"is_disabled":false,"rental_uris":{"android":"levelo://app?vid=6a89ac2e-b63b-4587-bd21-5f1152ef2a9e","ios":"levelo://app?vid=6a89ac2e-b63b-4587-bd21-5f1152ef2a9e"},"vehicle_type_id":"4","last_reported":1726920890,"current_range_meters":38000,"station_id":"ce4bgup2rcd13ifvqcn0","pricing_plan_id":"cebpf4jnsgd1na2vs0mg"},{"bike_id":"c4eef3a2-572c-47f7-bf65-6997e295039c","system_id":"levelo_inurba_marseille","lat":43.30144,"lon":5.37425,"is_reserved":false,"is_disabled":false,"rental_uris":{"android":"levelo://app?vid=c4eef3a2-572c-47f7-bf65-6997e295039c","ios":"levelo://app?vid=c4eef3a2-572c-47f7-bf65-6997e295039c"},"vehicle_type_id":"4","last_reported":1726920890,"current_range_meters":22400,"station_id":"ce4bgs92rcd13ifvqcc0","pricing_plan_id":"cebpf4jnsgd1na2vs0mg"},{"bike_id":"2cd37cba-39f5-4a5d-bc5f-c2dd6589090b","system_id":"levelo_inurba_marseille","lat":43.33605,"lon":5.41027,"is_reserved":false,"is_disabled":false,"rental_uris":{"android":"levelo://app?vid=2cd37cba-39f5-4a5d-bc5f-c2dd6589090b","ios":"levelo://app?vid=2cd37cba-39f5-4a5d-bc5f-c2dd6589090b"},"vehicle_type_id":"4","last_reported":1726920890,"current_range_meters":39200,"station_id":"ce4bhqh2rcd13ifvqhmg","pricing_plan_id":"cebpf4jnsgd1na2vs0mg"},{"bike_id":"e3b6130a-5a70-467c-88cf-55cfca995b84","system_id":"levelo_inurba_marseille","lat":43.29037,"lon":5.37567,"is_reserved":false,"is_disabled":false,"rental_uris":{"android":"levelo://app?vid=e3b6130a-5a70-467c-88cf-55cfca995b84","ios":"levelo://app?vid=e3b6130a-5a70-467c-88cf-55cfca995b84"},"vehicle_type_id":"4","last_reported":1726920890,"current_range_meters":38800,"station_id":"ce4bh692rcd13ifvqe90","pricing_plan_id":"cebpf4jnsgd1na2vs0mg"},{"bike_id":"8ed75655-dc51-496c-9999-4d435d317ad2","system_id":"levelo_inurba_marseille","lat":43.28456,"lon":5.35894,"is_reserved":false,"is_disabled":false,"rental_uris":{"android":"levelo://app?vid=8ed75655-dc51-496c-9999-4d435d317ad2","ios":"levelo://app?vid=8ed75655-dc51-496c-9999-4d435d317ad2"},"vehicle_type_id":"4","last_reported":1726920890,"current_range_meters":24800,"station_id":"ce4bhah2rcd13ifvqei0","pricing_plan_id":"cebpf4jnsgd1na2vs0mg"},{"bike_id":"14758d91-7bc9-4673-b4fa-7fe970a1b65e","system_id":"levelo_inurba_marseille","lat":43.25819,"lon":5.39436,"is_reserved":false,"is_disabled":false,"rental_uris":{"android":"levelo://app?vid=14758d91-7bc9-4673-b4fa-7fe970a1b65e","ios":"levelo://app?vid=14758d91-7bc9-4673-b4fa-7fe970a1b65e"},"vehicle_type_id":"4","last_reported":1726920890,"current_range_meters":24800,"station_id":"ce4bhip2rcd13ifvqft0","pricing_plan_id":"cebpf4jnsgd1na2vs0mg"},{"bike_id":"aad3ddfc-f0a1-4eb8-bf36-4da6e0bce3a7","system_id":"levelo_inurba_marseille","lat":43.23192,"lon":5.35553,"is_reserved":false,"is_disabled":false,"rental_uris":{"android":"levelo://app?vid=aad3ddfc-f0a1-4eb8-bf36-4da6e0bce3a7","ios":"levelo://app?vid=aad3ddfc-f0a1-4eb8-bf36-4da6e0bce3a7"},"vehicle_type_id":"4","last_reported":1726920890,"current_range_meters":28400,"station_id":"ce4bhu92rcd13ifvqi70","pricing_plan_id":"cebpf4jnsgd1na2vs0mg"},{"bike_id":"3c948f9e-1d1b-484d-a070-fecdea6548fa","system_id":"levelo_inurba_marseille","lat":43.26785,"lon":5.39412,"is_reserved":false,"is_disabled":false,"rental_uris":{"android":"levelo://app?vid=3c948f9e-1d1b-484d-a070-fecdea6548fa","ios":"levelo://app?vid=3c948f9e-1d1b-484d-a070-fecdea6548fa"},"vehicle_type_id":"4","last_reported":1726920890,"current_range_meters":24800,"station_id":"ce4bhh12rcd13ifvqfg0","pricing_plan_id":"cebpf4jnsgd1na2vs0mg"},{"bike_id":"c3723805-dd81-4128-a346-d2c3bc7c2bea","system_id":"levelo_inurba_marseille","lat":43.31713,"lon":5.43704,"is_reserved":false,"is_disabled":false,"rental_uris":{"android":"levelo://app?vid=c3723805-dd81-4128-a346-d2c3bc7c2bea","ios":"levelo://app?vid=c3723805-dd81-4128-a346-d2c3bc7c2bea"},"vehicle_type_id":"4","last_reported":1726920890,"current_range_meters":38000,"station_id":"ce4bhp92rcd13ifvqhcg","pricing_plan_id":"cebpf4jnsgd1na2vs0mg"},