{"last_updated":1731435138,"ttl":60,"version":"2.2","data":{"bikes":[{"bike_id":"69658b81-354b-4b6c-8505-8b4e253be428","system_id":"levelo_inurba_marseille","lat":43.24648,"lon":5.38891,"is_reserved":false,"is_disabled":false,"rental_uris":{"android":"levelo://app?vid=69658b81-354b-4b6c-8505-8b4e253be428","ios":"levelo://app?vid=69658b81-354b-4b6c-8505-8b4e253be428"},"vehicle_type_id":"4","last_reported":1731435139,"current_range_meters":28000,"station_id":"ce4bhg12rcd13ifvqf60","pricing_plan_id":"cebpf4jnsgd1na2vs0mg"},{"bike_id":"4ecf88c0-77a6-4268-b158-1994aec5c096","system_id":"levelo_inurba_marseille","lat":43.31072,"lon":5.40092,"is_reserved":false,"is_disabled":false,"rental_uris":{"android":"levelo://app?vid=4ecf88c0-77a6-4268-b158-1994aec5c096","ios":"levelo://app?vid=4ecf88c0-77a6-4268-b158-1994aec5c096"},"vehicle_type_id":"4","last_reported":1731435139,"current_range_meters":4000,"station_id":"","pricing_plan_id":"cebpf4jnsgd1na2vs0mg"},{"bike_id":"9321cc4c-b7b8-4621-99af-a090505f2af8","system_id":"levelo_inurba_marseille","lat":43.28423,"lon":5.37514,"is_reserved":false,"is_disabled":false,"rental_uris":{"android":"levelo://app?vid=9321cc4c-b7b8-4621-99af-a090505f2af8","ios":"levelo://app?vid=9321cc4c-b7b8-4621-99af-a090505f2af8"},"vehicle_type_id":"4","last_reported":1731435139,"current_range_meters":3600,"station_id":"ce4bh412rcd13ifvqds0","pricing_plan_id":"cebpf4jnsgd1na2vs0mg"},{"bike_id":"bfdddf44-cda5-46a5-a55a-fe4e2018b395","system_id":"levelo_inurba_marseille","lat":43.28928,"lon":5.36637,"is_reserved":false,"is_disabled":false,"rental_uris":{"android":"levelo://app?vid=bfdddf44-cda5-46a5-a55a-fe4e2018b395","ios":"levelo://app?vid=bfdddf44-cda5-46a5-a55a-fe4e2018b395"},"vehicle_type_id":"4","last_reported":1731435139,"current_range_meters":38800,"station_id":"ce4bhap2rcd13ifvqek0","pricing_plan_id":"cebpf4jnsgd1na2vs0mg"},{"bike_id":"32b9fb5c-72c7-40fa-b43d-660b6b2d8d9d","system_id":"levelo_inurba_marseille","lat":43.32343,"lon":5.40623,"is_reserved":false,"is_disabled":false,"rental_uris":{"android":"levelo://app?vid=32b9fb5c-72c7-40fa-b43d-660b6b2d8d9d","ios":"levelo://app?vid=32b9fb5c-72c7-40fa-b43d-660b6b2d8d9d"},"vehicle_type_id":"4","last_reported":1731435139,"current_range_meters":12400,"station_id":"ce4bhq92rcd13ifvqhjg","pricing_plan_id":"cebpf4jnsgd1na2vs0mg"},{"bike_id":"60bd75e2-84a4-449a-b68f-89900fc0e7fd","system_id":"levelo_inurba_marseille","lat":43.296234,"lon":5.371183,"is_reserved":false,"is_disabled":false,"rental_uris":{"android":"levelo://app?vid=60bd75e2-84a4-449a-b68f-89900fc0e7fd","ios":"levelo://app?vid=60bd75e2-84a4-449a-b68f-89900fc0e7fd"},"vehicle_type_id":"4","last_reported":1731435139,"current_range_meters":26000,"station_id":"ce4bgph2rcd13ifvqc2g","pricing_plan_id":"cebpf4jnsgd1na2vs0mg"},{"bike_id":"5e63fa09-c414-4671-b900-810e67f65ff9","system_id":"levelo_inurba_marseille","lat":43.26779,"lon":5.39423,"is_reserved":false,"is_disabled":false,"rental_uris":{"android":"levelo://app?vid=5e63fa09-c414-4671-b900-810e67f65ff9","ios":"levelo://app?vid=5e63fa09-c414-4671-b900-810e67f65ff9"},"vehicle_type_id":"4","last_reported":1731435139,"current_range_meters":36800,"station_id":"ce4bhh12rcd13ifvqfg0","pricing_plan_id":"cebpf4jnsgd1na2vs0mg"},{"bike_id":"c4e00506-2f54-4afb-b23c-6fdb96d02c0e","system_id":"levelo_inurba_marseille","lat":43.23191,"lon":5.35559,"is_reserved":false,"is_disabled":false,"rental_uris":{"android":"levelo://app?vid=c4e00506-2f54-4afb-b23c-6fdb96d02c0e","ios":"levelo://app?vid=c4e00506-2f54-4afb-b23c-6fdb96d02c0e"},"vehicle_type_id":"4","last_reported":1731435139,"current_range_meters":24000,"station_id":"ce4bhu92rcd13ifvqi70","pricing_plan_id":"cebpf4jnsgd1na2vs0mg"},{"bike_id":"bf944722-5b91-4a67-ac0d-ecf4b27362ee","system_id":"levelo_inurba_marseille","lat":43.31232,"lon":5.36841,"is_reserved":false,"is_disabled":false,"rental_uris":{"android":"levelo://app?vid=bf944722-5b91-4a67-ac0d-ecf4b27362ee","ios":"levelo://app?vid=bf944722-5b91-4a67-ac0d-ecf4b27362ee"},"vehicle_type_id":"4","last_reported":1731435139,"current_range_meters":30800,"station_id":"ce4bgl92rcd13ifvqbq0","pricing_plan_id":"cebpf4jnsgd1na2vs0mg"},{"bike_id":"2be01fed-a00a-4ba6-8802-b7eee89768cc","system_id":"levelo_inurba_marseille","lat":43.31071,"lon":5.38363,"is_reserved":false,"is_disabled":false,"rental_uris":{"android":"levelo://app?vid=2be01fed-a00a-4ba6-8802-b7eee89768cc","ios":"levelo://app?vid=2be01fed-a00a-4ba6-8802-b7eee89768cc"},"vehicle_type_id":"4","last_reported":1731435139,"current_range_meters":11600,"station_id":"ce4bgv92rcd13ifvqcr0","pricing_plan_id":"cebpf4jnsgd1na2vs0mg"},{"bike_id":"6eb5534c-ad14-426b-92ce-bbe983a67828","system_id":"levelo_inurba_marseille","lat":43.28724,"lon":5.36079,"is_reserved":false,"is_disabled":false,"rental_uris":{"android":"levelo://app?vid=6eb5534c-ad14-426b-92ce-bbe983a67828","ios":"levelo://app?vid=6eb5534c-ad14-426b-92ce-bbe983a67828"},"vehicle_type_id":"4","last_reported":1731435139,"current_range_meters":33200,"station_id":"cki0cbj6b192h4jlfktg","pricing_plan_id":"cebpf4jnsgd1na2vs0mg"},{"bike_id":"18600b65-d922-4b26-8018-34b1e4d05724","system_id":"levelo_inurba_marseille","lat":43.27813,"lon":5.40715,"is_reserved":false,"is_disabled":false,"rental_uris":{"android":"levelo://app?vid=18600b65-d922-4b26-8018-34b1e4d05724","ios":"levelo://app?vid=18600b65-d922-4b26-8018-34b1e4d05724"},"vehicle_type_id":"4","last_reported":1731435139,"current_range_meters":38800,"station_id":"ce4bhnh2rcd13ifvqgtg","pricing_plan_id":"cebpf4jnsgd1na2vs0mg"},{"bike_id":"82e74334-eb24-4f73-b497-63070f773caf","system_id":"levelo_inurba_marseille","lat":43.28664,"lon":5.36357,"is_reserved":false,"is_disabled":false,"rental_uris":{"android":"levelo://app?vid=82e74334-eb24-4f73-b497-63070f773caf","ios":"levelo://app?vid=82e74334-eb24-4f73-b497-63070f773caf"},"vehicle_type_id":"4","last_reported":1731435139,"current_range_meters":34800,"station_id":"ce4bhah2rcd13ifvqej0","pricing_plan_id":"cebpf4jnsgd1na2vs0mg"},{"bike_id":"18df7c71-103d-4f7e-ac84-690ea0604d22","system_id":"levelo_inurba_marseille","lat":43.23187,"lon":5.35555,"is_reserved":false,"is_disabled":false,"rental_uris":{"android":"levelo://app?vid=18df7c71-103d-4f7e-ac84-690ea0604d22","ios":"levelo://app?vid=18df7c71-103d-4f7e-ac84-690ea0604d22"},"vehicle_type_id":"4","last_reported":1731435139,"current_range_meters":21600,"station_id":"","pricing_plan_id":"cebpf4jnsgd1na2vs0mg"},{"bike_id":"6b228d07-4301-4a5b-9474-4b744d853bd2","system_id":"levelo_inurba_marseille","lat":43.32484,"lon":5.36576,"is_reserved":false,"is_disabled":false,"rental_uris":{"android":"levelo://app?vid=6b228d07-4301-4a5b-9474-4b744d853bd2","ios":"levelo://app?vid=6b228d07-4301-4a5b-9474-4b744d853bd2"},"vehicle_type_id":"4","last_reported":1731435139,"current_range_meters":24400,"station_id":"ce4bhs12rcd13ifvqhvg","pricing_plan_id":"cebpf4jnsgd1na2vs0mg"},{"bike_id":"08b576bb-db72-4765-beb3-6747da039575","system_id":"levelo_inurba_marseille","lat":43.28154,"lon":5.42645,"is_reserved":false,"is_disabled":false,"rental_uris":{"android":"levelo://app?vid=08b576bb-db72-4765-beb3-6747da039575","ios":"levelo://app?vid=08b576bb-db72-4765-beb3-6747da039575"},"vehicle_type_id":"4","last_reported":1731435139,"current_range_meters":10000,"station_id":"ce4bhnh2rcd13ifvqgug","pricing_plan_id":"cebpf4jnsgd1na2vs0mg"},{"bike_id":"5c5fd184-29e8-4a92-9721-8af2dabfdd85","system_id":"levelo_inurba_marseille","lat":43.301417,"lon":5.387757,"is_reserved":false,"is_disabled":false,"rental_uris":{"android":"levelo://app?vid=5c5fd184-29e8-4a92-9721-8af2dabfdd85","ios":"levelo://app?vid=5c5fd184-29e8-4a92-9721-8af2dabfdd85"},"vehicle_type_id":"4","last_reported":1731435139,"current_range_meters":9600,"station_id":"ce4bghh2rcd13ifvqb60","pricing_plan_id":"cebpf4jnsgd1na2vs0mg"},{"bike_id":"92501b6a-7129-4fd6-b1c6-a0ff5a76a687","system_id":"levelo_inurba_marseille","lat":43.25088,"lon":5.39528,"is_reserved":false,"is_disabled":false,"rental_uris":{"android":"levelo://app?vid=92501b6a-7129-4fd6-b1c6-a0ff5a76a687","ios":"levelo://app?vid=92501b6a-7129-4fd6-b1c6-a0ff5a76a687"},"vehicle_type_id":"4","last_reported":1731435139,"current_range_meters":19600,"station_id":"ce4bhm12rcd13ifvqgkg","pricing_plan_id":"cebpf4jnsgd1na2vs0mg"},{"bike_id":"274309ed-0615-4e00-a50d-24019477a1f1","system_id":"levelo_inurba_marseille","lat":43.31697,"lon":5.4048,"is_reserved":false,"is_disabled":false,"rental_uris":{"android":"levelo://app?vid=274309ed-0615-4e00-a50d-24019477a1f1","ios":"levelo://app?vid=274309ed-0615-4e00-a50d-24019477a1f1"},"vehicle_type_id":"4","last_reported":1731435139,"current_range_meters":20800,"station_id":"ce4bh012rcd13ifvqd00","pricing_plan_id":"cebpf4jnsgd1na2vs0mg"},{"bike_id":"ec2bd622-564a-4344-81ef-f79e221200a1","system_id":"levelo_inurba_marseille","lat":43.25583,"lon":5.3823,"is_reserved":false,"is_disabled":false,"rental_uris":{"android":"levelo://app?vid=ec2bd622-564a-4344-81ef-f79e221200a1","ios":"levelo://app?vid=ec2bd622-564a-4344-81ef-f79e221200a1"},"vehicle_type_id":"4","last_reported":1731435139,"current_range_meters":27600,"station_id":"ce4bhih2rcd13ifvqfs0","pricing_plan_id":"cebpf4jnsgd1na2vs0mg"},{"bike_id":"e32c1aa5-ff1a-4282-a432-b2ba53e65f49","system_id":"levelo_inurba_marseille","lat":43.29712,"lon":5.36623,"is_reserved":false,"is_disabled":false,"rental_uris":{"android":"levelo://app?vid=e32c1aa5-ff1a-4282-a432-b2ba53e65f49","ios":"levelo://app?vid=e32c1aa5-ff1a-4282-a432-b2ba53e65f49"},"vehicle_type_id":"4","last_reported":1731435139,"current_range_meters":20400,"station_id":"ce4bgn12rcd13ifvqbt0","pricing_plan_id":"cebpf4jnsgd1na2vs0mg"},{"bike_id":"25b70a3a-40c7-4299-a2e9-c150bcc2f247","system_id":"levelo_inurba_marseille","lat":43.2846,"lon":5.35891,"is_reserved":false,"is_disabled":false,"rental_uris":{"android":"levelo://app?vid=25b70a3a-40c7-4299-a2e9-c150bcc2f247","ios":"levelo://app?vid=25b70a3a-40c7-4299-a2e9-c150bcc2f247"},"vehicle_type_id":"4","last_reported":1731435139,"current_range_meters":18800,"station_id":"ce4bhah2rcd13ifvqei0","pricing_plan_id":"cebpf4jnsgd1na2vs0mg"},{"bike_id":"5d004fbf-052b-4ba3-9117-254e6429ef51","system_id":"levelo_inurba_marseille","lat":43.26944,"lon":5.40252,"is_reserved":false,"is_disabled":false,"rental_uris":{"android":"levelo://app?vid=5d004fbf-052b-4ba3-9117-254e6429ef51","ios":"levelo://app?vid=5d004fbf-052b-4ba3-9117-254e6429ef51"},"vehicle_type_id":"4","last_reported":1731435139,"current_range_meters":3200,"station_id":"cjm6bp8fraef2m0cb0m0","pricing_plan_id":"cebpf4jnsgd1na2vs0mg"},{"bike_id":"131c48f7-325d-49f5-b51e-4c6b86326b57","system_id":"levelo_inurba_marseille","lat":43.30211,"lon":5.39468,"is_reserved":false,"is_disabled":false,"rental_uris":{"android":"levelo://app?vid=131c48f7-325d-49f5-b51e-4c6b86326b57","ios":"levelo://app?vid=131c48f7-325d-49f5-b51e-4c6b86326b57"},"vehicle_type_id":"4","last_reported":1731435139,"current_range_meters":36800,"station_id":"ce4bh0p2rcd13ifvqd70","pricing_plan_id":"cebpf4jnsgd1na2vs0mg"},{"bike_id":"6fd41daa-1e60-4589-be63-b78accf522ab","system_id":"levelo_inurba_marseille","lat":43.30784,"lon":5.37642,"is_reserved":false,"is_disabled":false,"rental_uris":{"android":"levelo://app?vid=6fd41daa-1e60-4589-be63-b78accf522ab","ios":"levelo://app?vid=6fd41daa-1e60-4589-be63-b78accf522ab"},"vehicle_type_id":"4","last_reported":1731435139,"current_range_meters":32000,"station_id":"ce4bgv92rcd13ifvqcq0","pricing_plan_id":"cebpf4jnsgd1na2vs0mg"},{"bike_id":"de1213ad-8538-49db-90f1-13c1562aa5c2","system_id":"levelo_inurba_marseille","lat":43.28602,"lon":5.3511,"is_reserved":false,"is_disabled":false,"rental_uris":{"android":"levelo://app?vid=de1213ad-8538-49db-90f1-13c1562aa5c2","ios":"levelo://app?vid=de1213ad-8538-49db-90f1-13c1562aa5c2"},"vehicle_type_id":"4","last_reported":1731435139,"current_range_meters":6400,"station_id":"ce4bhch2rcd13ifvqeug","pricing_plan_id":"cebpf4jnsgd1na2vs0mg"},{"bike_id":"5770bbd9-2c6e-4691-a76b-306c0fdae32c","system_id":"levelo_inurba_marseille","lat":43.28846,"lon":5.35855,"is_reserved":false,"is_disabled":false,"rental_uris":{"android":"levelo://app?vid=5770bbd9-2c6e-4691-a76b-306c0fdae32c","ios":"levelo://app?vid=5770bbd9-2c6e-4691-a76b-306c0fdae32c"},"vehicle_type_id":"4","last_reported":1731435139,"current_range_meters":32800,"station_id":"ce4bhb12rcd13ifvqem0","pricing_plan_id":"cebpf4jnsgd1na2vs0mg"},{"bike_id":"507284d9-4009-457e-bfa1-5ddbf58c6240","system_id":"levelo_inurba_marseille","lat":43.27175,"lon":5.40988,"is_reserved":false,"is_disabled":false,"rental_uris":{"android":"levelo://app?vid=507284d9-4009-457e-bfa1-5ddbf58c6240","ios":"levelo://app?vid=507284d9-4009-457e-bfa1-5ddbf58c6240"},"vehicle_type_id":"4","last_reported":1731435139,"current_range_meters":38800,"station_id":"ce4bhl12rcd13ifvqgf0","pricing_plan_id":"cebpf4jnsgd1na2vs0mg"},{"bike_id":"5bd34d03-ed20-48a6-a1db-32e57c18bdd9","system_id":"levelo_inurba_marseille","lat":43.31994,"lon":5.38167,"is_reserved":false,"is_disabled":false,"rental_uris":{"android":"levelo://app?vid=5bd34d03-ed20-48a6-a1db-32e57c18bdd9","ios":"levelo://app?vid=5bd34d03-ed20-48a6-a1db-32e57c18bdd9"},"vehicle_type_id":"4","last_reported":1731435139,"current_range_meters":32000,"station_id":"ce4bhr12rcd13ifvqhpg","pricing_plan_id":"cebpf4jnsgd1na2vs0mg"},{"bike_id":"de885a28-9c50-43b4-9077-bf71cf3e3d37","system_id":"levelo_inurba_marseille","lat":43.29029,"lon":5.39967,"is_reserved":false,"is_disabled":false,"rental_uris":{"android":"levelo://app?vid=de885a28-9c50-43b4-9077-bf71cf3e3d37","ios":"levelo://app?vid=de885a28-9c50-43b4-9077-bf71cf3e3d37"},"vehicle_type_id":"4","last_reported":1731435139,"current_range_meters":20000,"station_id":"ce4bh392rcd13ifvqdm0","pricing_plan_id":"cebpf4jnsgd1na2vs0mg"},{"bike_id":"44a85343-f177-4904-8616-4b62e063a17c","system_id":"levelo_inurba_marseille","lat":43.29002,"lon":5.35613,"is_reserved":false,"is_disabled":false,"rental_uris":{"android":"levelo://app?vid=44a85343-f177-4904-8616-4b62e063a17c","ios":"levelo://app?vid=44a85343-f177-4904-8616-4b62e063a17c"},"vehicle_type_id":"4","last_reported":1731435139,"current_range_meters":39200,"station_id":"ce4bhb92rcd13ifvqen0","pricing_plan_id":"cebpf4jnsgd1na2vs0mg"},{"bike_id":"0c16ce1e-70c2-4d1f-b546-d3a2156323ff","system_id":"levelo_inurba_marseille","lat":43.27814,"lon":5.40712,"is_reserved":false,"is_disabled":false,"rental_uris":{"android":"levelo://app?vid=0c16ce1e-70c2-4d1f-b546-d3a2156323ff","ios":"levelo://app?vid=0c16ce1e-70c2-4d1f-b546-d3a2156323ff"},"vehicle_type_id":"4","last_reported":1731435139,"current_range_meters":32400,"station_id":"ce4bhnh2rcd13ifvqgtg","pricing_plan_id":"cebpf4jnsgd1na2vs0mg"},{"bike_id":"545b5284-2b5f-4c76-b6de-050eba91d10e","system_id":"levelo_inurba_marseille","lat":43.24802,"lon":5.37457,"is_reserved":false,"is_disabled":false,"rental_uris":{"android":"levelo://app?vid=545b5284-2b5f-4c76-b6de-050eba91d10e","ios":"levelo://app?vid=545b5284-2b5f-4c76-b6de-050eba91d10e"},"vehicle_type_id":"4","last_reported":1731435139,"current_range_meters":6400,"station_id":"ce4bhgh2rcd13ifvqfb0","pricing_plan_id":"cebpf4jnsgd1na2vs0mg"},{"bike_id":"d5943862-203f-48ea-92c4-5ad0cb7262bb","system_id":"levelo_inurba_marseille","lat":43.31336,"lon":5.39692,"is_reserved":false,"is_disabled":false,"rental_uris":{"android":"levelo://app?vid=d5943862-203f-48ea-92c4-5ad0cb7262bb","ios":"levelo://app?vid=d5943862-203f-48ea-92c4-5ad0cb7262bb"},"vehicle_type_id":"4","last_reported":1731435139,"current_range_meters":29600,"station_id":"ce4bgvp2rcd13ifvqcu0","pricing_plan_id":"cebpf4jnsgd1na2vs0mg"},{"bike_id":"d265751d-fa37-4729-b8e3-a5848e7e9d07","system_id":"levelo_inurba_marseille","lat":43.24804,"lon":5.37455,"is_reserved":false,"is_disabled":false,"rental_uris":{"android":"levelo://app?vid=d265751d-fa37-4729-b8e3-a5848e7e9d07","ios":"levelo://app?vid=d265751d-fa37-4729-b8e3-a5848e7e9d07"},"vehicle_type_id":"4","last_reported":1731435139,"current_range_meters":39200,"station_id":"ce4bhgh2rcd13ifvqfb0","pricing_plan_id":"cebpf4jnsgd1na2vs0mg"},{"bike_id":"e4557244-baef-4fb7-ae0e-00398e2706db","system_id":"levelo_inurba_marseille","lat":43.28465,"lon":5.35886,"is_reserved":false,"is_disabled":false,"rental_uris":{"android":"levelo://app?vid=e4557244-baef-4fb7-ae0e-00398e2706db","ios":"levelo://app?vid=e4557244-baef-4fb7-ae0e-00398e2706db"},"vehicle_type_id":"4","last_reported":1731435139,"current_range_meters":28000,"station_id":"ce4bhah2rcd13ifvqei0","pricing_plan_id":"cebpf4jnsgd1na2vs0mg"},{"bike_id":"26a2d6a7-4fa8-4809-8a08-65a4babf4a73","system_id":"levelo_inurba_marseille","lat":43.29516,"lon":5.36292,"is_reserved":false,"is_disabled":false,"rental_uris":{"android":"levelo://app?vid=26a2d6a7-4fa8-4809-8a08-65a4babf4a73","ios":"levelo://app?vid=26a2d6a7-4fa8-4809-8a08-65a4babf4a73"},"vehicle_type_id":"4","last_reported":1731435139,"current_range_meters":27600,"station_id":"","pricing_plan_id":"cebpf4jnsgd1na2vs0mg"},{"bike_id":"3922a5eb-6156-4c8a-a09b-14fee498ab0f","system_id":"levelo_inurba_marseille","lat":43.27069,"lon":5.42279,"is_reserved":false,"is_disabled":false,"rental_uris":{"android":"levelo://app?vid=3922a5eb-6156-4c8a-a09b-14fee498ab0f","ios":"levelo://app?vid=3922a5eb-6156-4c8a-a09b-14fee498ab0f"},"vehicle_type_id":"4","last_reported":1731435139,"current_range_meters":28800,"station_id":"ce4bhk92rcd13ifvqgb0","pricing_plan_id":"cebpf4jnsgd1na2vs0mg"},{"bike_id":"61fecd63-b608-4453-b03a-5f467b8e7514","system_id":"levelo_inurba_marseille","lat":43.31329,"lon":5.39692,"is_reserved":false,"is_disabled":false,"rental_uris":{"android":"levelo://app?vid=61fecd63-b608-4453-b03a-5f467b8e7514","ios":"levelo://app?vid=61fecd63-b608-4453-b03a-5f467b8e7514"},"vehicle_type_id":"4","last_reported":1731435139,"current_range_meters":22400,"station_id":"ce4bgvp2rcd13ifvqcu0","pricing_plan_id":"cebpf4jnsgd1na2vs0mg"},{"bike_id":"9c6e8335-7b55-4c15-8665-29190ffcd09f","system_id":"levelo_inurba_marseille","lat":43.255165,"lon":5.3937,"is_reserved":false,"is_disabled":false,"rental_uris":{"android":"levelo://app?vid=9c6e8335-7b55-4c15-8665-29190ffcd09f","ios":"levelo://app?vid=9c6e8335-7b55-4c15-8665-29190ffcd09f"},"vehicle_type_id":"4","last_reported":1731435139,"current_range_meters":19200,"station_id":"","pricing_plan_id":"cebpf4jnsgd1na2vs0mg"},{"bike_id":"643acdb3-4fdc-4eb0-be6f-5155ce023638","system_id":"levelo_inurba_marseille","lat":43.22933,"lon":5.35384,"is_reserved":false,"is_disabled":false,"rental_uris":{"android":"levelo://app?vid=643acdb3-4fdc-4eb0-be6f-5155ce023638","ios":"levelo://app?vid=643acdb3-4fdc-4eb0-be6f-5155ce023638"},"vehicle_type_id":"4","last_reported":1731435139,"current_range_meters":25600,"station_id":"cpo3532slgdg3j2ikp40","pricing_plan_id":"cebpf4jnsgd1na2vs0mg"},{"bike_id":"35c7c83e-6125-44f5-956c-6edfa56e7aa1","system_id":"levelo_inurba_marseille","lat":43.32366,"lon":5.38885,"is_reserved":false,"is_disabled":false,"rental_uris":{"android":"levelo://app?vid=35c7c83e-6125-44f5-956c-6edfa56e7aa1","ios":"levelo://app?vid=35c7c83e-6125-44f5-956c-6edfa56e7aa1"},"vehicle_type_id":"4","last_reported":1731435139,"current_range_meters":30000,"station_id":"ce4bhqp2rcd13ifvqhog","pricing_plan_id":"cebpf4jnsgd1na2vs0mg"},{"bike_id":"4ea09c0a-69d0-4a4b-ac6d-f8d9d70b9f13","system_id":"levelo_inurba_marseille","lat":43.28458,"lon":5.35886,"is_reserved":false,"is_disabled":false,"rental_uris":{"android":"levelo://app?vid=4ea09c0a-69d0-4a4b-ac6d-f8d9d70b9f13","ios":"levelo://app?vid=4ea09c0a-69d0-4a4b-ac6d-f8d9d70b9f13"},"vehicle_type_id":"4","last_reported":1731435139,"current_range_meters":33200,"station_id":"ce4bhah2rcd13ifvqei0","pricing_plan_id":"cebpf4jnsgd1na2vs0mg"},{"bike_id":"359cab4a-cffd-484b-a1f9-5ed67df455fb","system_id":"levelo_inurba_marseille","lat":43.28102,"lon":5.37836,"is_reserved":false,"is_disabled":false,"rental_uris":{"android":"levelo://app?vid=359cab4a-cffd-484b-a1f9-5ed67df455fb","ios":"levelo://app?vid=359cab4a-cffd-484b-a1f9-5ed67df455fb"},"vehicle_type_id":"4","last_reported":1731435139,"current_range_meters":36800,"station_id":"ce4bha12rcd13ifvqee0","pricing_plan_id":"cebpf4jnsgd1na2vs0mg"},{"bike_id":"7e3c87e9-975a-4d34-826c-8d32f79aeb48","system_id":"levelo_inurba_marseille","lat":43.28926,"lon":5.38383,"is_reserved":false,"is_disabled":false,"rental_uris":{"android":"levelo://app?vid=7e3c87e9-975a-4d34-826c-8d32f79aeb48","ios":"levelo://app?vid=7e3c87e9-975a-4d34-826c-8d32f79aeb48"},"vehicle_type_id":"4","last_reported":1731435139,"current_range_meters":8800,"station_id":"ce4bh612rcd13ifvqe6g","pricing_plan_id":"cebpf4jnsgd1na2vs0mg"},{"bike_id":"2d1792f0-af76-4d9e-9073-6b58abd1668b","system_id":"levelo_inurba_marseille","lat":43.27899,"lon":5.38008,"is_reserved":false,"is_disabled":false,"rental_uris":{"android":"levelo://app?vid=2d1792f0-af76-4d9e-9073-6b58abd1668b","ios":"levelo://app?vid=2d1792f0-af76-4d9e-9073-6b58abd1668b"},"vehicle_type_id":"4","last_reported":1731435139,"current_range_meters":38800,"station_id":"ce4bhf92rcd13ifvqf50","pricing_plan_id":"cebpf4jnsgd1na2vs0mg"},{"bike_id":"c4079845-bbe1-4ced-866a-96ca72e66ab0","system_id":"levelo_inurba_marseille","lat":43.32365,"lon":5.38887,"is_reserved":false,"is_disabled":false,"rental_uris":{"android":"levelo://app?vid=c4079845-bbe1-4ced-866a-96ca72e66ab0","ios":"levelo://app?vid=c4079845-bbe1-4ced-866a-96ca72e66ab0"},"vehicle_type_id":"4","last_reported":1731435139,"current_range_meters":20000,"station_id":"ce4bhqp2rcd13ifvqhog","pricing_plan_id":"cebpf4jnsgd1na2vs0mg"},{"bike_id":"7d250492-b878-490b-8fb4-bee304bc7d48","system_id":"levelo_inurba_marseille","lat":43.29519,"lon":5.39046,"is_reserved":false,"is_disabled":false,"rental_uris":{"android":"levelo://app?vid=7d250492-b878-490b-8fb4-bee304bc7d48","ios":"levelo://app?vid=7d250492-b878-490b-8fb4-bee304bc7d48"},"vehicle_type_id":"4","last_reported":1731435139,"current_range_meters":33200,"station_id":"ce4bh3p2rcd13ifvqdp0","pricing_plan_id":"cebpf4jnsgd1na2vs0mg"},{"bike_id":"66cc935e-df55-4393-b088-10cb9ad840ab","system_id":"levelo_inurba_marseille","lat":43.26216,"lon":5.37439,"is_reserved":false,"is_disabled":false,"rental_uris":{"android":"levelo://app?vid=66cc935e-df55-4393-b088-10cb9ad840ab","ios":"levelo://app?vid=66cc935e-df55-4393-b088-10cb9ad840ab"},"vehicle_type_id":"4","last_reported":1731435139,"current_range_meters":27600,"station_id":"ce4bhgp2rcd13ifvqfc0","pricing_plan_id":"cebpf4jnsgd1na2vs0mg"},{"bike_id":"d11b6607-ec4b-40f5-be5b-cb5302ffcb12","system_id":"levelo_inurba_marseille","lat":43.26952,"lon":5.386293,"is_reserved":false,"is_disabled":false,"rental_uris":{"android":"levelo://app?vid=d11b6607-ec4b-40f5-be5b-cb5302ffcb12","ios":"levelo://app?vid=d11b6607-ec4b-40f5-be5b-cb5302ffcb12"},"vehicle_type_id":"4","last_reported":1731435139,"current_range_meters":36800,"station_id":"ce4bhh92rcd13ifvqfh0","pricing_plan_id":"cebpf4jnsgd1na2vs0mg"},{"bike_id":"22a4a6a8-79ed-4cde-bd02-4a8eae668b5f","system_id":"levelo_inurba_marseille","lat":43.29323,"lon":5.41152,"is_reserved":false,"is_disabled":false,"rental_uris":{"android":"levelo://app?vid=22a4a6a8-79ed-4cde-bd02-4a8eae668b5f","ios":"levelo://app?vid=22a4a6a8-79ed-4cde-bd02-4a8eae668b5f"},"vehicle_type_id":"4","last_reported":1731435139,"current_range_meters":26800,"station_id":"","pricing_plan_id":"cebpf4jnsgd1na2vs0mg"},{"bike_id":"310bf956-2d0c-40fb-9411-0b80e8e2b383","system_id":"levelo_inurba_marseille","lat":43.30324,"lon":5.40442,"is_reserved":false,"is_disabled":false,"rental_uris":{"android":"levelo://app?vid=310bf956-2d0c-40fb-9411-0b80e8e2b383","ios":"levelo://app?vid=310bf956-2d0c-40fb-9411-0b80e8e2b383"},"vehicle_type_id":"4","last_reported":1731435139,"current_range_meters":38800,"station_id":"ce4bh012rcd13ifvqd10","pricing_plan_id":"cebpf4jnsgd1na2vs0mg"},{"bike_id":"e8e02d9c-9f18-44fb-893f-40424ddd086b","system_id":"levelo_inurba_marseille","lat":43.28467,"lon":5.35887,"is_reserved":false,"is_disabled":false,"rental_uris":{"android":"levelo://app?vid=e8e02d9c-9f18-44fb-893f-40424ddd086b","ios":"levelo://app?vid=e8e02d9c-9f18-44fb-893f-40424ddd086b"},"vehicle_type_id":"4","last_reported":1731435139,"current_range_meters":39200,"station_id":"ce4bhah2rcd13ifvqei0","pricing_plan_id":"cebpf4jnsgd1na2vs0mg"},{"bike_id":"16275ef0-d967-4526-9515-beff65d3ac60","system_id":"levelo_inurba_marseille","lat":43.30595,"lon":5.39363,"is_reserved":false,"is_disabled":false,"rental_uris":{"android":"levelo://app?vid=16275ef0-d967-4526-9515-beff65d3ac60","ios":"levelo://app?vid=16275ef0-d967-4526-9515-beff65d3ac60"},"vehicle_type_id":"4","last_reported":1731435139,"current_range_meters":10000,"station_id":"ce4bh0p2rcd13ifvqd80","pricing_plan_id":"cebpf4jnsgd1na2vs0mg"},{"bike_id":"b0843d66-5916-4a06-86f1-73ac0aafef65","system_id":"levelo_inurba_marseille","lat":43.31753,"lon":5.39014,"is_reserved":false,"is_disabled":false,"rental_uris":{"android":"levelo://app?vid=b0843d66-5916-4a06-86f1-73ac0aafef65","ios":"levelo://app?vid=b0843d66-5916-4a06-86f1-73ac0aafef65"},"vehicle_type_id":"4","last_reported":1731435139,"current_range_meters":34800,"station_id":"ce4bhqp2rcd13ifvqhng","pricing_plan_id":"cebpf4jnsgd1na2vs0mg"},{"bike_id":"1740a8aa-c44f-4c36-a230-385a32395a5f","system_id":"levelo_inurba_marseille","lat":43.28728,"lon":5.36084,"is_reserved":false,"is_disabled":false,"rental_uris":{"android":"levelo://app?vid=1740a8aa-c44f-4c36-a230-385a32395a5f","ios":"levelo://app?vid=1740a8aa-c44f-4c36-a230-385a32395a5f"},"vehicle_type_id":"4","last_reported":1731435139,"current_range_meters":40000,"station_id":"cki0cbj6b192h4jlfktg","pricing_plan_id":"cebpf4jnsgd1na2vs0mg"},{"bike_id":"279e7387-2aa6-4fe0-952b-39bf3dc9e040","system_id":"levelo_inurba_marseille","lat":43.22932,"lon":5.35379,"is_reserved":false,"is_disabled":false,"rental_uris":{"android":"levelo://app?vid=279e7387-2aa6-4fe0-952b-39bf3dc9e040","ios":"levelo://app?vid=279e7387-2aa6-4fe0-952b-39bf3dc9e040"},"vehicle_type_id":"4","last_reported":1731435139,"current_range_meters":8800,"station_id":"cpo3532slgdg3j2ikp40","pricing_plan_id":"cebpf4jnsgd1na2vs0mg"},{"bike_id":"bffb9ad5-11f9-4ac1-bc93-daa95e4d74a2","system_id":"levelo_inurba_marseille","lat":43.23186,"lon":5.39982,"is_reserved":false,"is_disabled":false,"rental_uris":{"android":"levelo://app?vid=bffb9ad5-11f9-4ac1-bc93-daa95e4d74a2","ios":"levelo://app?vid=bffb9ad5-11f9-4ac1-bc93-daa95e4d74a2"},"vehicle_type_id":"4","last_reported":1731435139,"current_range_meters":38800,"station_id":"ce4bhn12rcd13ifvqgqg","pricing_plan_id":"cebpf4jnsgd1na2vs0mg"},{"bike_id":"ad3c56dd-1801-4517-816f-e4affc1518c5","system_id":"levelo_inurba_marseille","lat":43.29251,"lon":5.40909,"is_reserved":false,"is_disabled":false,"rental_uris":{"android":"levelo://app?vid=ad3c56dd-1801-4517-816f-e4affc1518c5","ios":"levelo://app?vid=ad3c56dd-1801-4517-816f-e4affc1518c5"},"vehicle_type_id":"4","last_reported":1731435139,"current_range_meters":38800,"station_id":"ce4bh192rcd13ifvqdc0","pricing_plan_id":"cebpf4jnsgd1na2vs0mg"},{"bike_id":"b5bdd471-95a0-41dc-a7a5-5d8d52977e24","system_id":"levelo_inurba_marseille","lat":43.28846,"lon":5.39318,"is_reserved":false,"is_disabled":false,"rental_uris":{"android":"levelo://app?vid=b5bdd471-95a0-41dc-a7a5-5d8d52977e24","ios":"levelo://app?vid=b5bdd471-95a0-41dc-a7a5-5d8d52977e24"},"vehicle_type_id":"4","last_reported":1731435139,"current_range_meters":2800,"station_id":"ce4bh2p2rcd13ifvqdi0","pricing_plan_id":"cebpf4jnsgd1na2vs0mg"},{"bike_id":"1939f4f8-9063-416f-aa50-101f0bce0a45","system_id":"levelo_inurba_marseille","lat":43.255,"lon":5.37652,"is_reserved":false,"is_disabled":false,"rental_uris":{"android":"levelo://app?vid=1939f4f8-9063-416f-aa50-101f0bce0a45","ios":"levelo://app?vid=1939f4f8-9063-416f-aa50-101f0bce0a45"},"vehicle_type_id":"4","last_reported":1731435139,"current_range_meters":33600,"station_id":"ce4bhh12rcd13ifvqff0","pricing_plan_id":"cebpf4jnsgd1na2vs0mg"},{"bike_id":"59cdc93d-2c53-464c-b192-af1ff4e5c851","system_id":"levelo_inurba_marseille","lat":43.29632,"lon":5.40593,"is_reserved":false,"is_disabled":false,"rental_uris":{"android":"levelo://app?vid=59cdc93d-2c53-464c-b192-af1ff4e5c851","ios":"levelo://app?vid=59cdc93d-2c53-464c-b192-af1ff4e5c851"},"vehicle_type_id":"4","last_reported":1731435139,"current_range_meters":28800,"station_id":"ce4bh0h2rcd13ifvqd60","pricing_plan_id":"cebpf4jnsgd1na2vs0mg"},{"bike_id":"0533d407-0885-441e-afcd-c99a726d8cbf","system_id":"levelo_inurba_marseille","lat":43.2885,"lon":5.35854,"is_reserved":false,"is_disabled":false,"rental_uris":{"android":"levelo://app?vid=0533d407-0885-441e-afcd-c99a726d8cbf","ios":"levelo://app?vid=0533d407-0885-441e-afcd-c99a726d8cbf"},"vehicle_type_id":"4","last_reported":1731435139,"current_range_meters":4000,"station_id":"ce4bhb12rcd13ifvqem0","pricing_plan_id":"cebpf4jnsgd1na2vs0mg"},{"bike_id":"d7263090-4e41-407d-9271-2db32801f77e","system_id":"levelo_inurba_marseille","lat":43.27842,"lon":5.39206,"is_reserved":false,"is_disabled":false,"rental_uris":{"android":"levelo://app?vid=d7263090-4e41-407d-9271-2db32801f77e","ios":"levelo://app?vid=d7263090-4e41-407d-9271-2db32801f77e"},"vehicle_type_id":"4","last_reported":1731435139,"current_range_meters":25200,"station_id":"ce4bhjp2rcd13ifvqga0","pricing_plan_id":"cebpf4jnsgd1na2vs0mg"},{"bike_id":"647d87d8-ed03-4344-9ce2-6aeae85a7109","system_id":"levelo_inurba_marseille","lat":43.2857,"lon":5.39493,"is_reserved":false,"is_disabled":false,"rental_uris":{"android":"levelo://app?vid=647d87d8-ed03-4344-9ce2-6aeae85a7109","ios":"levelo://app?vid=647d87d8-ed03-4344-9ce2-6aeae85a7109"},"vehicle_type_id":"4","last_reported":1731435139,"current_range_meters":4400,"station_id":"ce4bh292rcd13ifvqdg0","pricing_plan_id":"cebpf4jnsgd1na2vs0mg"},{"bike_id":"b006f22f-269a-46a7-b220-e64237870ed6","system_id":"levelo_inurba_marseille","lat":43.27172,"lon":5.40991,"is_reserved":false,"is_disabled":false,"rental_uris":{"android":"levelo://app?vid=b006f22f-269a-46a7-b220-e64237870ed6","ios":"levelo://app?vid=b006f22f-269a-46a7-b220-e64237870ed6"},"vehicle_type_id":"4","last_reported":1731435139,"current_range_meters":6400,"station_id":"ce4bhl12rcd13ifvqgf0","pricing_plan_id":"cebpf4jnsgd1na2vs0mg"},{"bike_id":"c72e5a0a-02ab-421c-8ca0-c4c5d279373d","system_id":"levelo_inurba_marseille","lat":43.24389,"lon":5.37056,"is_reserved":false,"is_disabled":false,"rental_uris":{"android":"levelo://app?vid=c72e5a0a-02ab-421c-8ca0-c4c5d279373d","ios":"levelo://app?vid=c72e5a0a-02ab-421c-8ca0-c4c5d279373d"},"vehicle_type_id":"4","last_reported":1731435139,"current_range_meters":3200,"station_id":"ce4bhhh2rcd13ifvqfk0","pricing_plan_id":"cebpf4jnsgd1na2vs0mg"},{"bike_id":"cb962e48-a147-40c6-845b-4121e8e7a4fb","system_id":"levelo_inurba_marseille","lat":43.28462,"lon":5.3588,"is_reserved":false,"is_disabled":false,"rental_uris":{"android":"levelo://app?vid=cb962e48-a147-40c6-845b-4121e8e7a4fb","ios":"levelo://app?vid=cb962e48-a147-40c6-845b-4121e8e7a4fb"},"vehicle_type_id":"4","last_reported":1731435139,"current_range_meters":38800,"station_id":"ce4bhah2rcd13ifvqei0","pricing_plan_id":"cebpf4jnsgd1na2vs0mg"},{"bike_id":"51e64c81-88de-497d-87b8-cb4bcf784f16","system_id":"levelo_inurba_marseille","lat":43.2681,"lon":5.40272,"is_reserved":false,"is_disabled":false,"rental_uris":{"android":"levelo://app?vid=51e64c81-88de-497d-87b8-cb4bcf784f16","ios":"levelo://app?vid=51e64c81-88de-497d-87b8-cb4bcf784f16"},"vehicle_type_id":"4","last_reported":1731435139,"current_range_meters":4400,"station_id":"ce501612rcd8frsf0b60","pricing_plan_id":"cebpf4jnsgd1na2vs0mg"},{"bike_id":"de9bc52d-aac3-4fb1-ba97-7e2cacd78102","system_id":"levelo_inurba_marseille","lat":43.30596,"lon":5.39365,"is_reserved":false,"is_disabled":false,"rental_uris":{"android":"levelo://app?vid=de9bc52d-aac3-4fb1-ba97-7e2cacd78102","ios":"levelo://app?vid=de9bc52d-aac3-4fb1-ba97-7e2cacd78102"},"vehicle_type_id":"4","last_reported":1731435139,"current_range_meters":29600,"station_id":"ce4bh0p2rcd13ifvqd80","pricing_plan_id":"cebpf4jnsgd1na2vs0mg"},{"bike_id":"22b6d7d4-f5e9-441e-baeb-bcfd84be88b4","system_id":"levelo_inurba_marseille","lat":43.28851,"lon":5.35853,"is_reserved":false,"is_disabled":false,"rental_uris":{"android":"levelo://app?vid=22b6d7d4-f5e9-441e-baeb-bcfd84be88b4","ios":"levelo://app?vid=22b6d7d4-f5e9-441e-baeb-bcfd84be88b4"},"vehicle_type_id":"4","last_reported":1731435139,"current_range_meters":36800,"station_id":"ce4bhb12rcd13ifvqem0","pricing_plan_id":"cebpf4jnsgd1na2vs0mg"},{"bike_id":"65715c3f-614c-464f-af5f-e10124002dd8","system_id":"levelo_inurba_marseille","lat":43.31528,"lon":5.38029,"is_reserved":false,"is_disabled":false,"rental_uris":{"android":"levelo://app?vid=65715c3f-614c-464f-af5f-e10124002dd8","ios":"levelo://app?vid=65715c3f-614c-464f-af5f-e10124002dd8"},"vehicle_type_id":"4","last_reported":1731435139,"current_range_meters":38800,"station_id":"ce4bhsp2rcd13ifvqi50","pricing_plan_id":"cebpf4jnsgd1na2vs0mg"},{"bike_id":"66666f45-6562-4a25-905a-788c606fb154","system_id":"levelo_inurba_marseille","lat":43.27919,"lon":5.39576,"is_reserved":false,"is_disabled":false,"rental_uris":{"android":"levelo://app?vid=66666f45-6562-4a25-905a-788c606fb154","ios":"levelo://app?vid=66666f45-6562-4a25-905a-788c606fb154"},"vehicle_type_id":"4","last_reported":1731435139,"current_range_meters":17600,"station_id":"ce4bhf92rcd13ifvqf40","pricing_plan_id":"cebpf4jnsgd1na2vs0mg"},{"bike_id":"02a3f1fa-1b00-4bb2-8845-d89d50875ff5","system_id":"levelo_inurba_marseille","lat":43.32361,"lon":5.38883,"is_reserved":false,"is_disabled":false,"rental_uris":{"android":"levelo://app?vid=02a3f1fa-1b00-4bb2-8845-d89d50875ff5","ios":"levelo://app?vid=02a3f1fa-1b00-4bb2-8845-d89d50875ff5"},"vehicle_type_id":"4","last_reported":1731435139,"current_range_meters":36000,"station_id":"ce4bhqp2rcd13ifvqhog","pricing_plan_id":"cebpf4jnsgd1na2vs0mg"},{"bike_id":"e1fd8272-907d-43a4-aa96-d45aa32240ea","system_id":"levelo_inurba_marseille","lat":43.28942,"lon":5.3962,"is_reserved":false,"is_disabled":false,"rental_uris":{"android":"levelo://app?vid=e1fd8272-907d-43a4-aa96-d45aa32240ea","ios":"levelo://app?vid=e1fd8272-907d-43a4-aa96-d45aa32240ea"},"vehicle_type_id":"4","last_reported":1731435139,"current_range_meters":27200,"station_id":"ce4bh3h2rcd13ifvqdn0","pricing_plan_id":"cebpf4jnsgd1na2vs0mg"},{"bike_id":"91396e2c-9f64-4b07-9603-7237ff652da5","system_id":"levelo_inurba_marseille","lat":43.28156,"lon":5.42642,"is_reserved":false,"is_disabled":false,"rental_uris":{"android":"levelo://app?vid=91396e2c-9f64-4b07-9603-7237ff652da5","ios":"levelo://app?vid=91396e2c-9f64-4b07-9603-7237ff652da5"},"vehicle_type_id":"4","last_reported":1731435139,"current_range_meters":36800,"station_id":"ce4bhnh2rcd13ifvqgug","pricing_plan_id":"cebpf4jnsgd1na2vs0mg"},{"bike_id":"3fc8e131-ee97-4bd0-9956-4d476a1f6edb","system_id":"levelo_inurba_marseille","lat":43.27915,"lon":5.39588,"is_reserved":false,"is_disabled":false,"rental_uris":{"android":"levelo://app?vid=3fc8e131-ee97-4bd0-9956-4d476a1f6edb","ios":"levelo://app?vid=3fc8e131-ee97-4bd0-9956-4d476a1f6edb"},"vehicle_type_id":"4","last_reported":1731435139,"current_range_meters":20400,"station_id":"ce4bhf92rcd13ifvqf40","pricing_plan_id":"cebpf4jnsgd1na2vs0mg"},{"bike_id":"23371319-3326-4e94-b694-68f01aa3521f","system_id":"levelo_inurba_marseille","lat":43.337444,"lon":5.374475,"is_reserved":false,"is_disabled":false,"rental_uris":{"android":"levelo://app?vid=23371319-3326-4e94-b694-68f01aa3521f","ios":"levelo://app?vid=23371319-3326-4e94-b694-68f01aa3521f"},"vehicle_type_id":"4","last_reported":1731435139,"current_range_meters":36400,"station_id":"","pricing_plan_id":"cebpf4jnsgd1na2vs0mg"},{"bike_id":"8c0ac852-9853-4533-b7c7-d4bef0acb43d","system_id":"levelo_inurba_marseille","lat":43.30324,"lon":5.40434,"is_reserved":false,"is_disabled":false,"rental_uris":{"android":"levelo://app?vid=8c0ac852-9853-4533-b7c7-d4bef0acb43d","ios":"levelo://app?vid=8c0ac852-9853-4533-b7c7-d4bef0acb43d"},"vehicle_type_id":"4","last_reported":1731435139,"current_range_meters":30800,"station_id":"ce4bh012rcd13ifvqd10","pricing_plan_id":"cebpf4jnsgd1na2vs0mg"},{"bike_id":"31b46a1f-4790-458d-a206-9b1bf8db6c9d","system_id":"levelo_inurba_marseille","lat":43.29528,"lon":5.39411,"is_reserved":false,"is_disabled":false,"rental_uris":{"android":"levelo://app?vid=31b46a1f-4790-458d-a206-9b1bf8db6c9d","ios":"levelo://app?vid=31b46a1f-4790-458d-a206-9b1bf8db6c9d"},"vehicle_type_id":"4","last_reported":1731435139,"current_range_meters":38000,"station_id":"ce4bh292rcd13ifvqdf0","pricing_plan_id":"cebpf4jnsgd1na2vs0mg"},{"bike_id":"a93d8b68-be2e-4d7d-bd53-815af0cfe36b","system_id":"levelo_inurba_marseille","lat":43.27171,"lon":5.4099,"is_reserved":false,"is_disabled":false,"rental_uris":{"android":"levelo://app?vid=a93d8b68-be2e-4d7d-bd53-815af0cfe36b","ios":"levelo://app?vid=a93d8b68-be2e-4d7d-bd53-815af0cfe36b"},"vehicle_type_id":"4","last_reported":1731435139,"current_range_meters":9200,"station_id":"ce4bhl12rcd13ifvqgf0","pricing_plan_id":"cebpf4jnsgd1na2vs0mg"},{"bike_id":"f6ec8717-1c2c-4c9c-90c5-29827b3ed065","system_id":"levelo_inurba_marseille","lat":43.288597,"lon":5.358575,"is_reserved":false,"is_disabled":false,"rental_uris":{"android":"levelo://app?vid=f6ec8717-1c2c-4c9c-90c5-29827b3ed065","ios":"levelo://app?vid=f6ec8717-1c2c-4c9c-90c5-29827b3ed065"},"vehicle_type_id":"4","last_reported":1731435139,"current_range_meters":38800,"station_id":"ce4bhb12rcd13ifvqem0","pricing_plan_id":"cebpf4jnsgd1na2vs0mg"},{"bike_id":"28854e83-1824-4a61-a535-5caf21bba725","system_id":"levelo_inurba_marseille","lat":43.29222,"lon":5.36068,"is_reserved":false,"is_disabled":false,"rental_uris":{"android":"levelo://app?vid=28854e83-1824-4a61-a535-5caf21bba725","ios":"levelo://app?vid=28854e83-1824-4a61-a535-5caf21bba725"},"vehicle_type_id":"4","last_reported":1731435139,"current_range_meters":36400,"station_id":"ce4bhbh2rcd13ifvqeqg","pricing_plan_id":"cebpf4jnsgd1na2vs0mg"},{"bike_id":"b18c0ac6-6783-4c79-8ef6-5242c797616d","system_id":"levelo_inurba_marseille","lat":43.26792,"lon":5.39417,"is_reserved":false,"is_disabled":false,"rental_uris":{"android":"levelo://app?vid=b18c0ac6-6783-4c79-8ef6-5242c797616d","ios":"levelo://app?vid=b18c0ac6-6783-4c79-8ef6-5242c797616d"},"vehicle_type_id":"4","last_reported":1731435139,"current_range_meters":17200,"station_id":"ce4bhh12rcd13ifvqfg0","pricing_plan_id":"cebpf4jnsgd1na2vs0mg"},{"bike_id":"e33ecdba-f834-4910-a627-a78b7c5ee349","system_id":"levelo_inurba_marseille","lat":43.292908,"lon":5.406452,"is_reserved":false,"is_disabled":false,"rental_uris":{"android":"levelo://app?vid=e33ecdba-f834-4910-a627-a78b7c5ee349","ios":"levelo://app?vid=e33ecdba-f834-4910-a627-a78b7c5ee349"},"vehicle_type_id":"4","last_reported":1731435139,"current_range_meters":4400,"station_id":"","pricing_plan_id":"cebpf4jnsgd1na2vs0mg"},{"bike_id":"a44bcfe8-777d-45fe-a1bd-e3af260423ba","system_id":"levelo_inurba_marseille","lat":43.30354,"lon":5.41882,"is_reserved":false,"is_disabled":false,"rental_uris":{"android":"levelo://app?vid=a44bcfe8-777d-45fe-a1bd-e3af260423ba","ios":"levelo://app?vid=a44bcfe8-777d-45fe-a1bd-e3af260423ba"},"vehicle_type_id":"4","last_reported":1731435139,"current_range_meters":28400,"station_id":"ce4bhop2rcd13ifvqh7g","pricing_plan_id":"cebpf4jnsgd1na2vs0mg"},{"bike_id":"fec10551-f379-49ba-9ca2-8a635f99a617","system_id":"levelo_inurba_marseille","lat":43.337444,"lon":5.374475,"is_reserved":false,"is_disabled":false,"rental_uris":{"android":"levelo://app?vid=fec10551-f379-49ba-9ca2-8a635f99a617","ios":"levelo://app?vid=fec10551-f379-49ba-9ca2-8a635f99a617"},"vehicle_type_id":"4","last_reported":1731435139,"current_range_meters":38400,"station_id":"","pricing_plan_id":"cebpf4jnsgd1na2vs0mg"},{"bike_id":"979b0182-b0c0-414a-ac99-0bb48afc867b","system_id":"levelo_inurba_marseille","lat":43.27408,"lon":5.38951,"is_reserved":false,"is_disabled":false,"rental_uris":{"android":"levelo://app?vid=979b0182-b0c0-414a-ac99-0bb48afc867b","ios":"levelo://app?vid=979b0182-b0c0-414a-ac99-0bb48afc867b"},"vehicle_type_id":"4","last_reported":1731435139,"current_range_meters":12800,"station_id":"","pricing_plan_id":"cebpf4jnsgd1na2vs0mg"},{"bike_id":"3e91a38f-0f7b-4c37-9c78-dab127399527","system_id":"levelo_inurba_marseille","lat":43.2953,"lon":5.38541,"is_reserved":false,"is_disabled":false,"rental_uris":{"android":"levelo://app?vid=3e91a38f-0f7b-4c37-9c78-dab127399527","ios":"levelo://app?vid=3e91a38f-0f7b-4c37-9c78-dab127399527"},"vehicle_type_id":"4","last_reported":1731435139,"current_range_meters":23200,"station_id":"ce4bgih2rcd13ifvqba0","pricing_plan_id":"cebpf4jnsgd1na2vs0mg"},{"bike_id":"632e04a4-4a46-4c9f-a265-8afc04c57d03","system_id":"levelo_inurba_marseille","lat":43.29202,"lon":5.3933,"is_reserved":false,"is_disabled":false,"rental_uris":{"android":"levelo://app?vid=632e04a4-4a46-4c9f-a265-8afc04c57d03","ios":"levelo://app?vid=632e04a4-4a46-4c9f-a265-8afc04c57d03"},"vehicle_type_id":"4","last_reported":1731435139,"current_range_meters":40000,"station_id":"ce4bh192rcd13ifvqdd0","pricing_plan_id":"cebpf4jnsgd1na2vs0mg"},{"bike_id":"0777a99b-1756-4eb7-a277-d3ad1515c4a1","system_id":"levelo_inurba_marseille","lat":43.246765,"lon":5.373952,"is_reserved":false,"is_disabled":false,"rental_uris":{"android":"levelo://app?vid=0777a99b-1756-4eb7-a277-d3ad1515c4a1","ios":"levelo://app?vid=0777a99b-1756-4eb7-a277-d3ad1515c4a1"},"vehicle_type_id":"4","last_reported":1731435139,"current_range_meters":20400,"station_id":"ce4bgr92rcd13ifvqc7g","pricing_plan_id":"cebpf4jnsgd1na2vs0mg"},{"bike_id":"9226043b-87e5-487a-82e8-3478e5410da2","system_id":"levelo_inurba_marseille","lat":43.2656,"lon":5.37287,"is_reserved":false,"is_disabled":false,"rental_uris":{"android":"levelo://app?vid=9226043b-87e5-487a-82e8-3478e5410da2","ios":"levelo://app?vid=9226043b-87e5-487a-82e8-3478e5410da2"},"vehicle_type_id":"4","last_reported":1731435139,"current_range_meters":16400,"station_id":"ce4bhg12rcd13ifvqf70","pricing_plan_id":"cebpf4jnsgd1na2vs0mg"},{"bike_id":"e51bb789-4d6b-4b57-8e8d-af81b047df29","system_id":"levelo_inurba_marseille","lat":43.29002,"lon":5.35604,"is_reserved":false,"is_disabled":false,"rental_uris":{"android":"levelo://app?vid=e51bb789-4d6b-4b57-8e8d-af81b047df29","ios":"levelo://app?vid=e51bb789-4d6b-4b57-8e8d-af81b047df29"},"vehicle_type_id":"4","last_reported":1731435139,"current_range_meters":28800,"station_id":"ce4bhb92rcd13ifvqen0","pricing_plan_id":"cebpf4jnsgd1na2vs0mg"},{"bike_id":"997e8ac0-1d46-4817-95d5-b61546cadfd8","system_id":"levelo_inurba_marseille","lat":43.22931,"lon":5.3538,"is_reserved":false,"is_disabled":false,"rental_uris":{"android":"levelo://app?vid=997e8ac0-1d46-4817-95d5-b61546cadfd8","ios":"levelo://app?vid=997e8ac0-1d46-4817-95d5-b61546cadfd8"},"vehicle_type_id":"4","last_reported":1731435139,"current_range_meters":38000,"station_id":"cpo3532slgdg3j2ikp40","pricing_plan_id":"cebpf4jnsgd1na2vs0mg"},{"bike_id":"e5ce9888-38d8-4738-978e-0b36dd379e7d","system_id":"levelo_inurba_marseille","lat":43.28034,"lon":5.36945,"is_reserved":false,"is_disabled":false,"rental_uris":{"android":"levelo://app?vid=e5ce9888-38d8-4738-978e-0b36dd379e7d","ios":"levelo://app?vid=e5ce9888-38d8-4738-978e-0b36dd379e7d"},"vehicle_type_id":"4","last_reported":1731435139,"current_range_meters":19600,"station_id":"ce4bha12rcd13ifvqef0","pricing_plan_id":"cebpf4jnsgd1na2vs0mg"},{"bike_id":"fc062240-cc46-444a-9cfb-e7fae21f9218","system_id":"levelo_inurba_marseille","lat":43.28924,"lon":5.38385,"is_reserved":false,"is_disabled":false,"rental_uris":{"android":"levelo://app?vid=fc062240-cc46-444a-9cfb-e7fae21f9218","ios":"levelo://app?vid=fc062240-cc46-444a-9cfb-e7fae21f9218"},"vehicle_type_id":"4","last_reported":1731435139,"current_range_meters":27600,"station_id":"ce4bh612rcd13ifvqe6g","pricing_plan_id":"cebpf4jnsgd1na2vs0mg"},{"bike_id":"5433140b-9678-4eff-b0c7-7512312c978d","system_id":"levelo_inurba_marseille","lat":43.27204,"lon":5.3919,"is_reserved":false,"is_disabled":false,"rental_uris":{"android":"levelo://app?vid=5433140b-9678-4eff-b0c7-7512312c978d","ios":"levelo://app?vid=5433140b-9678-4eff-b0c7-7512312c978d"},"vehicle_type_id":"4","last_reported":1731435139,"current_range_meters":38800,"station_id":"ce4bhhp2rcd13ifvqfm0","pricing_plan_id":"cebpf4jnsgd1na2vs0mg"},{"bike_id":"56cd5555-5691-44a6-b515-7c9485fe6b17","system_id":"levelo_inurba_marseille","lat":43.29555,"lon":5.42286,"is_reserved":false,"is_disabled":false,"rental_uris":{"android":"levelo://app?vid=56cd5555-5691-44a6-b515-7c9485fe6b17","ios":"levelo://app?vid=56cd5555-5691-44a6-b515-7c9485fe6b17"},"vehicle_type_id":"4","last_reported":1731435139,"current_range_meters":37600,"station_id":"ce4bhph2rcd13ifvqhdg","pricing_plan_id":"cebpf4jnsgd1na2vs0mg"},{"bike_id":"f3f9aa91-6080-4884-8870-e255afc4d1c6","system_id":"levelo_inurba_marseille","lat":43.27672,"lon":5.38865,"is_reserved":false,"is_disabled":false,"rental_uris":{"android":"levelo://app?vid=f3f9aa91-6080-4884-8870-e255afc4d1c6","ios":"levelo://app?vid=f3f9aa91-6080-4884-8870-e255afc4d1c6"},"vehicle_type_id":"4","last_reported":1731435139,"current_range_meters":32800,"station_id":"ce4bhi12rcd13ifvqfo0","pricing_plan_id":"cebpf4jnsgd1na2vs0mg"},{"bike_id":"0fd0e1cb-6a4e-4324-80db-f68d71f73f0c","system_id":"levelo_inurba_marseille","lat":43.29792,"lon":5.39341,"is_reserved":false,"is_disabled":false,"rental_uris":{"android":"levelo://app?vid=0fd0e1cb-6a4e-4324-80db-f68d71f73f0c","ios":"levelo://app?vid=0fd0e1cb-6a4e-4324-80db-f68d71f73f0c"},"vehicle_type_id":"4","last_reported":1731435139,"current_range_meters":28400,"station_id":"chh1huq6cuj3fo74tm60","pricing_plan_id":"cebpf4jnsgd1na2vs0mg"},{"bike_id":"e0cb31f3-b767-4668-959e-cc8f8b8ef94d","system_id":"levelo_inurba_marseille","lat":43.29871,"lon":5.3891,"is_reserved":false,"is_disabled":false,"rental_uris":{"android":"levelo://app?vid=e0cb31f3-b767-4668-959e-cc8f8b8ef94d","ios":"levelo://app?vid=e0cb31f3-b767-4668-959e-cc8f8b8ef94d"},"vehicle_type_id":"4","last_reported":1731435139,"current_range_meters":39200,"station_id":"ce4bh392rcd13ifvqdl0","pricing_plan_id":"cebpf4jnsgd1na2vs0mg"},{"bike_id":"3664c7b0-1ca4-4d2d-aed0-d80b9d95342d","system_id":"levelo_inurba_marseille","lat":43.300079,"lon":5.375903,"is_reserved":false,"is_disabled":false,"rental_uris":{"android":"levelo://app?vid=3664c7b0-1ca4-4d2d-aed0-d80b9d95342d","ios":"levelo://app?vid=3664c7b0-1ca4-4d2d-aed0-d80b9d95342d"},"vehicle_type_id":"4","last_reported":1731435139,"current_range_meters":15200,"station_id":"ce4bgjh2rcd13ifvqbf0","pricing_plan_id":"cebpf4jnsgd1na2vs0mg"},{"bike_id":"1d2fdf37-8550-4501-9665-b3a002de98ca","system_id":"levelo_inurba_marseille","lat":43.297875,"lon":5.39348,"is_reserved":false,"is_disabled":false,"rental_uris":{"android":"levelo://app?vid=1d2fdf37-8550-4501-9665-b3a002de98ca","ios":"levelo://app?vid=1d2fdf37-8550-4501-9665-b3a002de98ca"},"vehicle_type_id":"4","last_reported":1731435139,"current_range_meters":24000,"station_id":"chh1huq6cuj3fo74tm60","pricing_plan_id":"cebpf4jnsgd1na2vs0mg"},{"bike_id":"f7be93c3-e6a3-40ba-94d0-3df20ea7a045","system_id":"levelo_inurba_marseille","lat":43.23186,"lon":5.3998,"is_reserved":false,"is_disabled":false,"rental_uris":{"android":"levelo://app?vid=f7be93c3-e6a3-40ba-94d0-3df20ea7a045","ios":"levelo://app?vid=f7be93c3-e6a3-40ba-94d0-3df20ea7a045"},"vehicle_type_id":"4","last_reported":1731435139,"current_range_meters":18800,"station_id":"ce4bhn12rcd13ifvqgqg","pricing_plan_id":"cebpf4jnsgd1na2vs0mg"},{"bike_id":"71a649ef-ed3c-4201-bbe7-3f4c92d1bb6e","system_id":"levelo_inurba_marseille","lat":43.29517,"lon":5.39037,"is_reserved":false,"is_disabled":false,"rental_uris":{"android":"levelo://app?vid=71a649ef-ed3c-4201-bbe7-3f4c92d1bb6e","ios":"levelo://app?vid=71a649ef-ed3c-4201-bbe7-3f4c92d1bb6e"},"vehicle_type_id":"4","last_reported":1731435139,"current_range_meters":32400,"station_id":"ce4bh3p2rcd13ifvqdp0","pricing_plan_id":"cebpf4jnsgd1na2vs0mg"},{"bike_id":"a27ede56-33e5-4a8a-aa69-b86df46393c9","system_id":"levelo_inurba_marseille","lat":43.2988,"lon":5.39731,"is_reserved":false,"is_disabled":false,"rental_uris":{"android":"levelo://app?vid=a27ede56-33e5-4a8a-aa69-b86df46393c9","ios":"levelo://app?vid=a27ede56-33e5-4a8a-aa69-b86df46393c9"},"vehicle_type_id":"4","last_reported":1731435139,"current_range_meters":28000,"station_id":"ce4bh0h2rcd13ifvqd50","pricing_plan_id":"cebpf4jnsgd1na2vs0mg"},{"bike_id":"50ec9a72-2d48-4182-b452-21b17e2354cd","system_id":"levelo_inurba_marseille","lat":43.308,"lon":5.43524,"is_reserved":false,"is_disabled":false,"rental_uris":{"android":"levelo://app?vid=50ec9a72-2d48-4182-b452-21b17e2354cd","ios":"levelo://app?vid=50ec9a72-2d48-4182-b452-21b17e2354cd"},"vehicle_type_id":"4","last_reported":1731435139,"current_range_meters":6000,"station_id":"ce4bhph2rcd13ifvqheg","pricing_plan_id":"cebpf4jnsgd1na2vs0mg"},{"bike_id":"8801a9ab-2cdf-4db6-a265-83c3b290056e","system_id":"levelo_inurba_marseille","lat":43.30093,"lon":5.39086,"is_reserved":false,"is_disabled":false,"rental_uris":{"android":"levelo://app?vid=8801a9ab-2cdf-4db6-a265-83c3b290056e","ios":"levelo://app?vid=8801a9ab-2cdf-4db6-a265-83c3b290056e"},"vehicle_type_id":"4","last_reported":1731435139,"current_range_meters":39200,"station_id":"ce4bh192rcd13ifvqdb0","pricing_plan_id":"cebpf4jnsgd1na2vs0mg"},{"bike_id":"07ea6c10-0d22-4dfe-bbe1-03dfb1bcefb0","system_id":"levelo_inurba_marseille","lat":43.2963,"lon":5.40594,"is_reserved":false,"is_disabled":false,"rental_uris":{"android":"levelo://app?vid=07ea6c10-0d22-4dfe-bbe1-03dfb1bcefb0","ios":"levelo://app?vid=07ea6c10-0d22-4dfe-bbe1-03dfb1bcefb0"},"vehicle_type_id":"4","last_reported":1731435139,"current_range_meters":17600,"station_id":"ce4bh0h2rcd13ifvqd60","pricing_plan_id":"cebpf4jnsgd1na2vs0mg"},{"bike_id":"e5da16da-f651-44d1-91da-7e915191dddb","system_id":"levelo_inurba_marseille","lat":43.29033,"lon":5.3593,"is_reserved":false,"is_disabled":false,"rental_uris":{"android":"levelo://app?vid=e5da16da-f651-44d1-91da-7e915191dddb","ios":"levelo://app?vid=e5da16da-f651-44d1-91da-7e915191dddb"},"vehicle_type_id":"4","last_reported":1731435139,"current_range_meters":18000,"station_id":"ce4bha92rcd13ifvqeg0","pricing_plan_id":"cebpf4jnsgd1na2vs0mg"},{"bike_id":"e20e371e-0ac8-4f8a-8e0a-12e9bf345f5e","system_id":"levelo_inurba_marseille","lat":43.27069,"lon":5.42281,"is_reserved":false,"is_disabled":false,"rental_uris":{"android":"levelo://app?vid=e20e371e-0ac8-4f8a-8e0a-12e9bf345f5e","ios":"levelo://app?vid=e20e371e-0ac8-4f8a-8e0a-12e9bf345f5e"},"vehicle_type_id":"4","last_reported":1731435139,"current_range_meters":30400,"station_id":"ce4bhk92rcd13ifvqgb0","pricing_plan_id":"cebpf4jnsgd1na2vs0mg"},{"bike_id":"9230f939-409f-42b5-a7a7-bcf8003da7db","system_id":"levelo_inurba_marseille","lat":43.29512,"lon":5.3904,"is_reserved":false,"is_disabled":false,"rental_uris":{"android":"levelo://app?vid=9230f939-409f-42b5-a7a7-bcf8003da7db","ios":"levelo://app?vid=9230f939-409f-42b5-a7a7-bcf8003da7db"},"vehicle_type_id":"4","last_reported":1731435139,"current_range_meters":32800,"station_id":"ce4bh3p2rcd13ifvqdp0","pricing_plan_id":"cebpf4jnsgd1na2vs0mg"},{"bike_id":"73a1427c-6b03-4f3e-8ed5-0b2affc8dcb5","system_id":"levelo_inurba_marseille","lat":43.2979,"lon":5.3935,"is_reserved":false,"is_disabled":false,"rental_uris":{"android":"levelo://app?vid=73a1427c-6b03-4f3e-8ed5-0b2affc8dcb5","ios":"levelo://app?vid=73a1427c-6b03-4f3e-8ed5-0b2affc8dcb5"},"vehicle_type_id":"4","last_reported":1731435139,"current_range_meters":38800,"station_id":"chh1huq6cuj3fo74tm60","pricing_plan_id":"cebpf4jnsgd1na2vs0mg"},{"bike_id":"a7fa391a-5e9a-4306-ab89-3411e5df4996","system_id":"levelo_inurba_marseille","lat":43.33019,"lon":5.39027,"is_reserved":false,"is_disabled":false,"rental_uris":{"android":"levelo://app?vid=a7fa391a-5e9a-4306-ab89-3411e5df4996","ios":"levelo://app?vid=a7fa391a-5e9a-4306-ab89-3411e5df4996"},"vehicle_type_id":"4","last_reported":1731435139,"current_range_meters":37600,"station_id":"ce4bhr92rcd13ifvqhrg","pricing_plan_id":"cebpf4jnsgd1na2vs0mg"},{"bike_id":"5817e958-deb7-4799-af1a-ed194ead4717","system_id":"levelo_inurba_marseille","lat":43.29198,"lon":5.39323,"is_reserved":false,"is_disabled":false,"rental_uris":{"android":"levelo://app?vid=5817e958-deb7-4799-af1a-ed194ead4717","ios":"levelo://app?vid=5817e958-deb7-4799-af1a-ed194ead4717"},"vehicle_type_id":"4","last_reported":1731435139,"current_range_meters":38800,"station_id":"ce4bh192rcd13ifvqdd0","pricing_plan_id":"cebpf4jnsgd1na2vs0mg"},{"bike_id":"04f54561-538e-4ca1-9eb3-77edc97332a9","system_id":"levelo_inurba_marseille","lat":43.28102,"lon":5.37842,"is_reserved":false,"is_disabled":false,"rental_uris":{"android":"levelo://app?vid=04f54561-538e-4ca1-9eb3-77edc97332a9","ios":"levelo://app?vid=04f54561-538e-4ca1-9eb3-77edc97332a9"},"vehicle_type_id":"4","last_reported":1731435139,"current_range_meters":35600,"station_id":"ce4bha12rcd13ifvqee0","pricing_plan_id":"cebpf4jnsgd1na2vs0mg"},{"bike_id":"a9f205e7-51bc-4e2a-8230-fb66ee8002d2","system_id":"levelo_inurba_marseille","lat":43.29262,"lon":5.38448,"is_reserved":false,"is_disabled":false,"rental_uris":{"android":"levelo://app?vid=a9f205e7-51bc-4e2a-8230-fb66ee8002d2","ios":"levelo://app?vid=a9f205e7-51bc-4e2a-8230-fb66ee8002d2"},"vehicle_type_id":"4","last_reported":1731435139,"current_range_meters":26000,"station_id":"ce4bh692rcd13ifvqea0","pricing_plan_id":"cebpf4jnsgd1na2vs0mg"},{"bike_id":"85818844-8eb0-4925-bc5d-82279bf48263","system_id":"levelo_inurba_marseille","lat":43.24808,"lon":5.3746,"is_reserved":false,"is_disabled":false,"rental_uris":{"android":"levelo://app?vid=85818844-8eb0-4925-bc5d-82279bf48263","ios":"levelo://app?vid=85818844-8eb0-4925-bc5d-82279bf48263"},"vehicle_type_id":"4","last_reported":1731435139,"current_range_meters":36800,"station_id":"ce4bhgh2rcd13ifvqfb0","pricing_plan_id":"cebpf4jnsgd1na2vs0mg"},{"bike_id":"51de079a-4713-4220-aef5-8906afb2ba42","system_id":"levelo_inurba_marseille","lat":43.28106,"lon":5.3784,"is_reserved":false,"is_disabled":false,"rental_uris":{"android":"levelo://app?vid=51de079a-4713-4220-aef5-8906afb2ba42","ios":"levelo://app?vid=51de079a-4713-4220-aef5-8906afb2ba42"},"vehicle_type_id":"4","last_reported":1731435139,"current_range_meters":36800,"station_id":"ce4bha12rcd13ifvqee0","pricing_plan_id":"cebpf4jnsgd1na2vs0mg"},{"bike_id":"5ceedf92-c810-4645-912c-ecd1be810a94","system_id":"levelo_inurba_marseille","lat":43.30929,"lon":5.40143,"is_reserved":false,"is_disabled":false,"rental_uris":{"android":"levelo://app?vid=5ceedf92-c810-4645-912c-ecd1be810a94","ios":"levelo://app?vid=5ceedf92-c810-4645-912c-ecd1be810a94"},"vehicle_type_id":"4","last_reported":1731435139,"current_range_meters":39200,"station_id":"ce4bgvp2rcd13ifvqct0","pricing_plan_id":"cebpf4jnsgd1na2vs0mg"},{"bike_id":"d3d88389-bd60-4947-8db6-b3fd375e6183","system_id":"levelo_inurba_marseille","lat":43.23958,"lon":5.3663,"is_reserved":false,"is_disabled":false,"rental_uris":{"android":"levelo://app?vid=d3d88389-bd60-4947-8db6-b3fd375e6183","ios":"levelo://app?vid=d3d88389-bd60-4947-8db6-b3fd375e6183"},"vehicle_type_id":"4","last_reported":1731435139,"current_range_meters":36400,"station_id":"ce4bhi12rcd13ifvqfp0","pricing_plan_id":"cebpf4jnsgd1na2vs0mg"},{"bike_id":"6a262d8c-b862-4636-a252-02099ef84214","system_id":"levelo_inurba_marseille","lat":43.33022,"lon":5.39044,"is_reserved":false,"is_disabled":false,"rental_uris":{"android":"levelo://app?vid=6a262d8c-b862-4636-a252-02099ef84214","ios":"levelo://app?vid=6a262d8c-b862-4636-a252-02099ef84214"},"vehicle_type_id":"4","last_reported":1731435139,"current_range_meters":18800,"station_id":"ce4bhr92rcd13ifvqhrg","pricing_plan_id":"cebpf4jnsgd1na2vs0mg"},{"bike_id":"9211ce2e-2c30-4fcd-a146-356903c81989","system_id":"levelo_inurba_marseille","lat":43.25821,"lon":5.39428,"is_reserved":false,"is_disabled":false,"rental_uris":{"android":"levelo://app?vid=9211ce2e-2c30-4fcd-a146-356903c81989","ios":"levelo://app?vid=9211ce2e-2c30-4fcd-a146-356903c81989"},"vehicle_type_id":"4","last_reported":1731435139,"current_range_meters":18800,"station_id":"ce4bhip2rcd13ifvqft0","pricing_plan_id":"cebpf4jnsgd1na2vs0mg"},{"bike_id":"1fb9302d-c2a5-40ed-ac29-ef56d2c3c76f","system_id":"levelo_inurba_marseille","lat":43.25579,"lon":5.38232,"is_reserved":false,"is_disabled":false,"rental_uris":{"android":"levelo://app?vid=1fb9302d-c2a5-40ed-ac29-ef56d2c3c76f","ios":"levelo://app?vid=1fb9302d-c2a5-40ed-ac29-ef56d2c3c76f"},"vehicle_type_id":"4","last_reported":1731435139,"current_range_meters":20400,"station_id":"ce4bhih2rcd13ifvqfs0","pricing_plan_id":"cebpf4jnsgd1na2vs0mg"},{"bike_id":"6a7864c7-1043-407c-b1f5-95a83a37e67e","system_id":"levelo_inurba_marseille","lat":43.28404,"lon":5.37521,"is_reserved":false,"is_disabled":false,"rental_uris":{"android":"levelo://app?vid=6a7864c7-1043-407c-b1f5-95a83a37e67e","ios":"levelo://app?vid=6a7864c7-1043-407c-b1f5-95a83a37e67e"},"vehicle_type_id":"4","last_reported":1731435139,"current_range_meters":32000,"station_id":"ce4bh412rcd13ifvqds0","pricing_plan_id":"cebpf4jnsgd1na2vs0mg"},{"bike_id":"91526d85-6d2f-4b0d-b668-d1a556d90682","system_id":"levelo_inurba_marseille","lat":43.32,"lon":5.38158,"is_reserved":false,"is_disabled":false,"rental_uris":{"android":"levelo://app?vid=91526d85-6d2f-4b0d-b668-d1a556d90682","ios":"levelo://app?vid=91526d85-6d2f-4b0d-b668-d1a556d90682"},"vehicle_type_id":"4","last_reported":1731435139,"current_range_meters":40000,"station_id":"ce4bhr12rcd13ifvqhpg","pricing_plan_id":"cebpf4jnsgd1na2vs0mg"},{"bike_id":"b559c9c6-563c-434e-a716-8bca141c219c","system_id":"levelo_inurba_marseille","lat":43.30123,"lon":5.37185,"is_reserved":false,"is_disabled":false,"rental_uris":{"android":"levelo://app?vid=b559c9c6-563c-434e-a716-8bca141c219c","ios":"levelo://app?vid=b559c9c6-563c-434e-a716-8bca141c219c"},"vehicle_type_id":"4","last_reported":1731435139,"current_range_meters":11200,"station_id":"","pricing_plan_id":"cebpf4jnsgd1na2vs0mg"},{"bike_id":"4e415c39-ed09-4b16-aa57-fa0fd38c969e","system_id":"levelo_inurba_marseille","lat":43.30881,"lon":5.39664,"is_reserved":false,"is_disabled":false,"rental_uris":{"android":"levelo://app?vid=4e415c39-ed09-4b16-aa57-fa0fd38c969e","ios":"levelo://app?vid=4e415c39-ed09-4b16-aa57-fa0fd38c969e"},"vehicle_type_id":"4","last_reported":1731435139,"current_range_meters":22000,"station_id":"ce4bh012rcd13ifvqcv0","pricing_plan_id":"cebpf4jnsgd1na2vs0mg"},{"bike_id":"e1f2424d-96e3-41c7-9f8d-6dd18a27c6ce","system_id":"levelo_inurba_marseille","lat":43.27439,"lon":5.39406,"is_reserved":false,"is_disabled":false,"rental_uris":{"android":"levelo://app?vid=e1f2424d-96e3-41c7-9f8d-6dd18a27c6ce","ios":"levelo://app?vid=e1f2424d-96e3-41c7-9f8d-6dd18a27c6ce"},"vehicle_type_id":"4","last_reported":1731435139,"current_range_meters":38800,"station_id":"ce4bhdp2rcd13ifvqf20","pricing_plan_id":"cebpf4jnsgd1na2vs0mg"},{"bike_id":"1a1430f3-8834-4907-b754-6fa171dd6a5d","system_id":"levelo_inurba_marseille","lat":43.26789,"lon":5.39411,"is_reserved":false,"is_disabled":false,"rental_uris":{"android":"levelo://app?vid=1a1430f3-8834-4907-b754-6fa171dd6a5d","ios":"levelo://app?vid=1a1430f3-8834-4907-b754-6fa171dd6a5d"},"vehicle_type_id":"4","last_reported":1731435139,"current_range_meters":28000,"station_id":"ce4bhh12rcd13ifvqfg0","pricing_plan_id":"cebpf4jnsgd1na2vs0mg"},{"bike_id":"25c9f9d3-88d5-4954-a570-65b78de74e37","system_id":"levelo_inurba_marseille","lat":43.269104,"lon":5.393357,"is_reserved":false,"is_disabled":false,"rental_uris":{"android":"levelo://app?vid=25c9f9d3-88d5-4954-a570-65b78de74e37","ios":"levelo://app?vid=25c9f9d3-88d5-4954-a570-65b78de74e37"},"vehicle_type_id":"4","last_reported":1731435139,"current_range_meters":27200,"station_id":"ce4bhh12rcd13ifvqfg0","pricing_plan_id":"cebpf4jnsgd1na2vs0mg"},{"bike_id":"dbb3e58d-755c-40ad-83a1-dd557521800e","system_id":"levelo_inurba_marseille","lat":43.286618,"lon":5.363444,"is_reserved":false,"is_disabled":false,"rental_uris":{"android":"levelo://app?vid=dbb3e58d-755c-40ad-83a1-dd557521800e","ios":"levelo://app?vid=dbb3e58d-755c-40ad-83a1-dd557521800e"},"vehicle_type_id":"4","last_reported":1731435139,"current_range_meters":30000,"station_id":"ce4bhah2rcd13ifvqej0","pricing_plan_id":"cebpf4jnsgd1na2vs0mg"},{"bike_id":"690959e1-32d7-492f-a674-cbcd4a6a2909","system_id":"levelo_inurba_marseille","lat":43.2791,"lon":5.39583,"is_reserved":false,"is_disabled":false,"rental_uris":{"android":"levelo://app?vid=690959e1-32d7-492f-a674-cbcd4a6a2909","ios":"levelo://app?vid=690959e1-32d7-492f-a674-cbcd4a6a2909"},"vehicle_type_id":"4","last_reported":1731435139,"current_range_meters":35600,"station_id":"ce4bhf92rcd13ifvqf40","pricing_plan_id":"cebpf4jnsgd1na2vs0mg"},{"bike_id":"caf6929d-e0c2-4435-9d6c-a404cdf1b843","system_id":"levelo_inurba_marseille","lat":43.2846,"lon":5.35897,"is_reserved":false,"is_disabled":false,"rental_uris":{"android":"levelo://app?vid=caf6929d-e0c2-4435-9d6c-a404cdf1b843","ios":"levelo://app?vid=caf6929d-e0c2-4435-9d6c-a404cdf1b843"},"vehicle_type_id":"4","last_reported":1731435139,"current_range_meters":30000,"station_id":"ce4bhah2rcd13ifvqei0","pricing_plan_id":"cebpf4jnsgd1na2vs0mg"},{"bike_id":"2d11c320-a81b-424e-80ce-d8ac1193642b","system_id":"levelo_inurba_marseille","lat":43.27813,"lon":5.40708,"is_reserved":false,"is_disabled":false,"rental_uris":{"android":"levelo://app?vid=2d11c320-a81b-424e-80ce-d8ac1193642b","ios":"levelo://app?vid=2d11c320-a81b-424e-80ce-d8ac1193642b"},"vehicle_type_id":"4","last_reported":1731435139,"current_range_meters":38800,"station_id":"ce4bhnh2rcd13ifvqgtg","pricing_plan_id":"cebpf4jnsgd1na2vs0mg"},{"bike_id":"96b84df2-447b-42c1-9180-a983ad587907","system_id":"levelo_inurba_marseille","lat":43.25714,"lon":5.41114,"is_reserved":false,"is_disabled":false,"rental_uris":{"android":"levelo://app?vid=96b84df2-447b-42c1-9180-a983ad587907","ios":"levelo://app?vid=96b84df2-447b-42c1-9180-a983ad587907"},"vehicle_type_id":"4","last_reported":1731435139,"current_range_meters":32000,"station_id":"ce4bhkp2rcd13ifvqgd0","pricing_plan_id":"cebpf4jnsgd1na2vs0mg"},{"bike_id":"e62bb96a-ded7-4199-85d5-f7da5543f92d","system_id":"levelo_inurba_marseille","lat":43.30249,"lon":5.40067,"is_reserved":false,"is_disabled":false,"rental_uris":{"android":"levelo://app?vid=e62bb96a-ded7-4199-85d5-f7da5543f92d","ios":"levelo://app?vid=e62bb96a-ded7-4199-85d5-f7da5543f92d"},"vehicle_type_id":"4","last_reported":1731435139,"current_range_meters":38800,"station_id":"ce4bgvh2rcd13ifvqcs0","pricing_plan_id":"cebpf4jnsgd1na2vs0mg"},{"bike_id":"8ef70561-fcee-40a4-b033-2b7fb95e2bd9","system_id":"levelo_inurba_marseille","lat":43.27827,"lon":5.39213,"is_reserved":false,"is_disabled":false,"rental_uris":{"android":"levelo://app?vid=8ef70561-fcee-40a4-b033-2b7fb95e2bd9","ios":"levelo://app?vid=8ef70561-fcee-40a4-b033-2b7fb95e2bd9"},"vehicle_type_id":"4","last_reported":1731435139,"current_range_meters":32400,"station_id":"ce4bhjp2rcd13ifvqga0","pricing_plan_id":"cebpf4jnsgd1na2vs0mg"},{"bike_id":"985f1d92-1e60-4ad1-a407-f2ccd4ea04f9","system_id":"levelo_inurba_marseille","lat":43.23965,"lon":5.36632,"is_reserved":false,"is_disabled":false,"rental_uris":{"android":"levelo://app?vid=985f1d92-1e60-4ad1-a407-f2ccd4ea04f9","ios":"levelo://app?vid=985f1d92-1e60-4ad1-a407-f2ccd4ea04f9"},"vehicle_type_id":"4","last_reported":1731435139,"current_range_meters":32800,"station_id":"ce4bhi12rcd13ifvqfp0","pricing_plan_id":"cebpf4jnsgd1na2vs0mg"},{"bike_id":"3f7f3df8-50d9-475f-8a41-f4a7ada046d4","system_id":"levelo_inurba_marseille","lat":43.31968,"lon":5.36826,"is_reserved":false,"is_disabled":false,"rental_uris":{"android":"levelo://app?vid=3f7f3df8-50d9-475f-8a41-f4a7ada046d4","ios":"levelo://app?vid=3f7f3df8-50d9-475f-8a41-f4a7ada046d4"},"vehicle_type_id":"4","last_reported":1731435139,"current_range_meters":27600,"station_id":"","pricing_plan_id":"cebpf4jnsgd1na2vs0mg"},{"bike_id":"28071f5e-223d-4fd3-b16c-5ef3c0211c4e","system_id":"levelo_inurba_marseille","lat":43.31524,"lon":5.38034,"is_reserved":false,"is_disabled":false,"rental_uris":{"android":"levelo://app?vid=28071f5e-223d-4fd3-b16c-5ef3c0211c4e","ios":"levelo://app?vid=28071f5e-223d-4fd3-b16c-5ef3c0211c4e"},"vehicle_type_id":"4","last_reported":1731435139,"current_range_meters":27600,"station_id":"ce4bhsp2rcd13ifvqi50","pricing_plan_id":"cebpf4jnsgd1na2vs0mg"},{"bike_id":"66ac0921-4abb-47e3-9069-6182d0c579b3","system_id":"levelo_inurba_marseille","lat":43.29299,"lon":5.37456,"is_reserved":false,"is_disabled":false,"rental_uris":{"android":"levelo://app?vid=66ac0921-4abb-47e3-9069-6182d0c579b3","ios":"levelo://app?vid=66ac0921-4abb-47e3-9069-6182d0c579b3"},"vehicle_type_id":"4","last_reported":1731435139,"current_range_meters":32400,"station_id":"ce4bgi12rcd13ifvqb70","pricing_plan_id":"cebpf4jnsgd1na2vs0mg"},{"bike_id":"03e7c2d6-7943-4034-92e7-7194dfabc013","system_id":"levelo_inurba_marseille","lat":43.23068,"lon":5.35491,"is_reserved":false,"is_disabled":false,"rental_uris":{"android":"levelo://app?vid=03e7c2d6-7943-4034-92e7-7194dfabc013","ios":"levelo://app?vid=03e7c2d6-7943-4034-92e7-7194dfabc013"},"vehicle_type_id":"4","last_reported":1731435139,"current_range_meters":2800,"station_id":"cpo3342slgdg3j2ifvpg","pricing_plan_id":"cebpf4jnsgd1na2vs0mg"},{"bike_id":"90736f30-d0a3-4168-bb07-72e130507edf","system_id":"levelo_inurba_marseille","lat":43.281003,"lon":5.378367,"is_reserved":false,"is_disabled":false,"rental_uris":{"android":"levelo://app?vid=90736f30-d0a3-4168-bb07-72e130507edf","ios":"levelo://app?vid=90736f30-d0a3-4168-bb07-72e130507edf"},"vehicle_type_id":"4","last_reported":1731435139,"current_range_meters":30800,"station_id":"ce4bha12rcd13ifvqee0","pricing_plan_id":"cebpf4jnsgd1na2vs0mg"},{"bike_id":"6fda10ea-33ce-4e4f-8d15-135c0a2141b4","system_id":"levelo_inurba_marseille","lat":43.27999,"lon":5.40013,"is_reserved":false,"is_disabled":false,"rental_uris":{"android":"levelo://app?vid=6fda10ea-33ce-4e4f-8d15-135c0a2141b4","ios":"levelo://app?vid=6fda10ea-33ce-4e4f-8d15-135c0a2141b4"},"vehicle_type_id":"4","last_reported":1731435139,"current_range_meters":20000,"station_id":"ce4bho92rcd13ifvqh4g","pricing_plan_id":"cebpf4jnsgd1na2vs0mg"},{"bike_id":"1df6d920-f88d-48b1-98f9-19f870fdc7c7","system_id":"levelo_inurba_marseille","lat":43.26929,"lon":5.38911,"is_reserved":false,"is_disabled":false,"rental_uris":{"android":"levelo://app?vid=1df6d920-f88d-48b1-98f9-19f870fdc7c7","ios":"levelo://app?vid=1df6d920-f88d-48b1-98f9-19f870fdc7c7"},"vehicle_type_id":"4","last_reported":1731435139,"current_range_meters":36800,"station_id":"ce4bhhh2rcd13ifvqfl0","pricing_plan_id":"cebpf4jnsgd1na2vs0mg"},{"bike_id":"0e171ddd-bcf2-4897-a3c5-4bcad6a3968d","system_id":"levelo_inurba_marseille","lat":43.2955,"lon":5.42283,"is_reserved":false,"is_disabled":false,"rental_uris":{"android":"levelo://app?vid=0e171ddd-bcf2-4897-a3c5-4bcad6a3968d","ios":"levelo://app?vid=0e171ddd-bcf2-4897-a3c5-4bcad6a3968d"},"vehicle_type_id":"4","last_reported":1731435139,"current_range_meters":26800,"station_id":"ce4bhph2rcd13ifvqhdg","pricing_plan_id":"cebpf4jnsgd1na2vs0mg"},{"bike_id":"bddb5605-0bfb-43b6-9dd0-1c38f2de03e5","system_id":"levelo_inurba_marseille","lat":43.30949,"lon":5.39038,"is_reserved":false,"is_disabled":false,"rental_uris":{"android":"levelo://app?vid=bddb5605-0bfb-43b6-9dd0-1c38f2de03e5","ios":"levelo://app?vid=bddb5605-0bfb-43b6-9dd0-1c38f2de03e5"},"vehicle_type_id":"4","last_reported":1731435139,"current_range_meters":36400,"station_id":"ce4bgup2rcd13ifvqcn0","pricing_plan_id":"cebpf4jnsgd1na2vs0mg"},{"bike_id":"9af08856-558e-4b8b-bb3e-50f326ecab60","system_id":"levelo_inurba_marseille","lat":43.28369,"lon":5.38632,"is_reserved":false,"is_disabled":false,"rental_uris":{"android":"levelo://app?vid=9af08856-558e-4b8b-bb3e-50f326ecab60","ios":"levelo://app?vid=9af08856-558e-4b8b-bb3e-50f326ecab60"},"vehicle_type_id":"4","last_reported":1731435139,"current_range_meters":6800,"station_id":"ce4bh492rcd13ifvqdvg","pricing_plan_id":"cebpf4jnsgd1na2vs0mg"},{"bike_id":"e92c5947-6d80-41ba-aecc-06ded8281947","system_id":"levelo_inurba_marseille","lat":43.32484,"lon":5.36566,"is_reserved":false,"is_disabled":false,"rental_uris":{"android":"levelo://app?vid=e92c5947-6d80-41ba-aecc-06ded8281947","ios":"levelo://app?vid=e92c5947-6d80-41ba-aecc-06ded8281947"},"vehicle_type_id":"4","last_reported":1731435139,"current_range_meters":36400,"station_id":"ce4bhs12rcd13ifvqhvg","pricing_plan_id":"cebpf4jnsgd1na2vs0mg"},{"bike_id":"6f679363-0776-4dc8-8c9b-0119f93a8de5","system_id":"levelo_inurba_marseille","lat":43.30782,"lon":5.37651,"is_reserved":false,"is_disabled":false,"rental_uris":{"android":"levelo://app?vid=6f679363-0776-4dc8-8c9b-0119f93a8de5","ios":"levelo://app?vid=6f679363-0776-4dc8-8c9b-0119f93a8de5"},"vehicle_type_id":"4","last_reported":1731435139,"current_range_meters":36400,"station_id":"ce4bgv92rcd13ifvqcq0","pricing_plan_id":"cebpf4jnsgd1na2vs0mg"},{"bike_id":"634b8b3e-e24a-4a3a-b056-c4a931da7a17","system_id":"levelo_inurba_marseille","lat":43.298301,"lon":5.375952,"is_reserved":false,"is_disabled":false,"rental_uris":{"android":"levelo://app?vid=634b8b3e-e24a-4a3a-b056-c4a931da7a17","ios":"levelo://app?vid=634b8b3e-e24a-4a3a-b056-c4a931da7a17"},"vehicle_type_id":"4","last_reported":1731435139,"current_range_meters":36000,"station_id":"ce4bgrh2rcd13ifvqc8g","pricing_plan_id":"cebpf4jnsgd1na2vs0mg"},{"bike_id":"6d1d7ff5-212c-4c20-b347-740ab3978966","system_id":"levelo_inurba_marseille","lat":43.28699,"lon":5.39973,"is_reserved":false,"is_disabled":false,"rental_uris":{"android":"levelo://app?vid=6d1d7ff5-212c-4c20-b347-740ab3978966","ios":"levelo://app?vid=6d1d7ff5-212c-4c20-b347-740ab3978966"},"vehicle_type_id":"4","last_reported":1731435139,"current_range_meters":32400,"station_id":"ce4bho92rcd13ifvqh3g","pricing_plan_id":"cebpf4jnsgd1na2vs0mg"},{"bike_id":"c2707140-9d1f-4788-99d3-c85410a9d8ee","system_id":"levelo_inurba_marseille","lat":43.28921,"lon":5.38387,"is_reserved":false,"is_disabled":false,"rental_uris":{"android":"levelo://app?vid=c2707140-9d1f-4788-99d3-c85410a9d8ee","ios":"levelo://app?vid=c2707140-9d1f-4788-99d3-c85410a9d8ee"},"vehicle_type_id":"4","last_reported":1731435139,"current_range_meters":19600,"station_id":"ce4bh612rcd13ifvqe6g","pricing_plan_id":"cebpf4jnsgd1na2vs0mg"},{"bike_id":"4560d80d-b770-46a9-8ac0-6fe10fc64b4e","system_id":"levelo_inurba_marseille","lat":43.28026,"lon":5.36953,"is_reserved":false,"is_disabled":false,"rental_uris":{"android":"levelo://app?vid=4560d80d-b770-46a9-8ac0-6fe10fc64b4e","ios":"levelo://app?vid=4560d80d-b770-46a9-8ac0-6fe10fc64b4e"},"vehicle_type_id":"4","last_reported":1731435139,"current_range_meters":32800,"station_id":"ce4bha12rcd13ifvqef0","pricing_plan_id":"cebpf4jnsgd1na2vs0mg"},{"bike_id":"5594fe99-b55a-41fd-8790-f27d7f409282","system_id":"levelo_inurba_marseille","lat":43.30441,"lon":5.38895,"is_reserved":false,"is_disabled":false,"rental_uris":{"android":"levelo://app?vid=5594fe99-b55a-41fd-8790-f27d7f409282","ios":"levelo://app?vid=5594fe99-b55a-41fd-8790-f27d7f409282"},"vehicle_type_id":"4","last_reported":1731435139,"current_range_meters":22400,"station_id":"ce4bgk12rcd13ifvqbi0","pricing_plan_id":"cebpf4jnsgd1na2vs0mg"},{"bike_id":"e60b42f2-a281-4419-a16c-efdb587b14b5","system_id":"levelo_inurba_marseille","lat":43.32292,"lon":5.38269,"is_reserved":false,"is_disabled":false,"rental_uris":{"android":"levelo://app?vid=e60b42f2-a281-4419-a16c-efdb587b14b5","ios":"levelo://app?vid=e60b42f2-a281-4419-a16c-efdb587b14b5"},"vehicle_type_id":"4","last_reported":1731435139,"current_range_meters":25200,"station_id":"ce4bhr12rcd13ifvqhqg","pricing_plan_id":"cebpf4jnsgd1na2vs0mg"},{"bike_id":"0f816858-e938-49d2-86de-1319a253100a","system_id":"levelo_inurba_marseille","lat":43.303,"lon":5.36888,"is_reserved":false,"is_disabled":false,"rental_uris":{"android":"levelo://app?vid=0f816858-e938-49d2-86de-1319a253100a","ios":"levelo://app?vid=0f816858-e938-49d2-86de-1319a253100a"},"vehicle_type_id":"4","last_reported":1731435139,"current_range_meters":38400,"station_id":"ce4bgqh2rcd13ifvqc5g","pricing_plan_id":"cebpf4jnsgd1na2vs0mg"},{"bike_id":"b584bcef-14f5-403c-82dc-4eaab7e41403","system_id":"levelo_inurba_marseille","lat":43.29778,"lon":5.39343,"is_reserved":false,"is_disabled":false,"rental_uris":{"android":"levelo://app?vid=b584bcef-14f5-403c-82dc-4eaab7e41403","ios":"levelo://app?vid=b584bcef-14f5-403c-82dc-4eaab7e41403"},"vehicle_type_id":"4","last_reported":1731435139,"current_range_meters":29600,"station_id":"chh1huq6cuj3fo74tm60","pricing_plan_id":"cebpf4jnsgd1na2vs0mg"},{"bike_id":"7b1d3612-39cd-4cb3-9238-b7159cf9796b","system_id":"levelo_inurba_marseille","lat":43.28711,"lon":5.37373,"is_reserved":false,"is_disabled":false,"rental_uris":{"android":"levelo://app?vid=7b1d3612-39cd-4cb3-9238-b7159cf9796b","ios":"levelo://app?vid=7b1d3612-39cd-4cb3-9238-b7159cf9796b"},"vehicle_type_id":"4","last_reported":1731435139,"current_range_meters":28800,"station_id":"ce4bh3p2rcd13ifvqdq0","pricing_plan_id":"cebpf4jnsgd1na2vs0mg"},{"bike_id":"593dd953-92e9-4448-9d82-ca754ac12605","system_id":"levelo_inurba_marseille","lat":43.25089,"lon":5.39522,"is_reserved":false,"is_disabled":false,"rental_uris":{"android":"levelo://app?vid=593dd953-92e9-4448-9d82-ca754ac12605","ios":"levelo://app?vid=593dd953-92e9-4448-9d82-ca754ac12605"},"vehicle_type_id":"4","last_reported":1731435139,"current_range_meters":16800,"station_id":"ce4bhm12rcd13ifvqgkg","pricing_plan_id":"cebpf4jnsgd1na2vs0mg"},{"bike_id":"98a41b55-783d-4a53-9a0a-09f9b47b2669","system_id":"levelo_inurba_marseille","lat":43.23197,"lon":5.35556,"is_reserved":false,"is_disabled":false,"rental_uris":{"android":"levelo://app?vid=98a41b55-783d-4a53-9a0a-09f9b47b2669","ios":"levelo://app?vid=98a41b55-783d-4a53-9a0a-09f9b47b2669"},"vehicle_type_id":"4","last_reported":1731435139,"current_range_meters":19200,"station_id":"ce4bhu92rcd13ifvqi70","pricing_plan_id":"cebpf4jnsgd1na2vs0mg"},{"bike_id":"9b899324-9bf0-4e7e-944b-128cdc9d3596","system_id":"levelo_inurba_marseille","lat":43.25576,"lon":5.38235,"is_reserved":false,"is_disabled":false,"rental_uris":{"android":"levelo://app?vid=9b899324-9bf0-4e7e-944b-128cdc9d3596","ios":"levelo://app?vid=9b899324-9bf0-4e7e-944b-128cdc9d3596"},"vehicle_type_id":"4","last_reported":1731435139,"current_range_meters":32400,"station_id":"ce4bhih2rcd13ifvqfs0","pricing_plan_id":"cebpf4jnsgd1na2vs0mg"},{"bike_id":"abd9e3dc-324c-494b-a216-3fb205621da6","system_id":"levelo_inurba_marseille","lat":43.30418,"lon":5.41286,"is_reserved":false,"is_disabled":false,"rental_uris":{"android":"levelo://app?vid=abd9e3dc-324c-494b-a216-3fb205621da6","ios":"levelo://app?vid=abd9e3dc-324c-494b-a216-3fb205621da6"},"vehicle_type_id":"4","last_reported":1731435139,"current_range_meters":40000,"station_id":"ce4bhop2rcd13ifvqh8g","pricing_plan_id":"cebpf4jnsgd1na2vs0mg"},{"bike_id":"33982fe9-a903-40cd-a32c-32a0ffad344a","system_id":"levelo_inurba_marseille","lat":43.28462,"lon":5.3589,"is_reserved":false,"is_disabled":false,"rental_uris":{"android":"levelo://app?vid=33982fe9-a903-40cd-a32c-32a0ffad344a","ios":"levelo://app?vid=33982fe9-a903-40cd-a32c-32a0ffad344a"},"vehicle_type_id":"4","last_reported":1731435139,"current_range_meters":32800,"station_id":"ce4bhah2rcd13ifvqei0","pricing_plan_id":"cebpf4jnsgd1na2vs0mg"},{"bike_id":"52a803cd-037c-4542-9657-84b331aca8ec","system_id":"levelo_inurba_marseille","lat":43.27429,"lon":5.39411,"is_reserved":false,"is_disabled":false,"rental_uris":{"android":"levelo://app?vid=52a803cd-037c-4542-9657-84b331aca8ec","ios":"levelo://app?vid=52a803cd-037c-4542-9657-84b331aca8ec"},"vehicle_type_id":"4","last_reported":1731435139,"current_range_meters":38800,"station_id":"ce4bhdp2rcd13ifvqf20","pricing_plan_id":"cebpf4jnsgd1na2vs0mg"},{"bike_id":"2202a904-a13c-4eda-9d49-23c5c6db8e84","system_id":"levelo_inurba_marseille","lat":43.28266,"lon":5.35057,"is_reserved":false,"is_disabled":false,"rental_uris":{"android":"levelo://app?vid=2202a904-a13c-4eda-9d49-23c5c6db8e84","ios":"levelo://app?vid=2202a904-a13c-4eda-9d49-23c5c6db8e84"},"vehicle_type_id":"4","last_reported":1731435139,"current_range_meters":22800,"station_id":"ce4bhbp2rcd13ifvqerg","pricing_plan_id":"cebpf4jnsgd1na2vs0mg"},{"bike_id":"692fb841-efd6-45f3-98d5-6b03df882962","system_id":"levelo_inurba_marseille","lat":43.27495,"lon":5.4245,"is_reserved":false,"is_disabled":false,"rental_uris":{"android":"levelo://app?vid=692fb841-efd6-45f3-98d5-6b03df882962","ios":"levelo://app?vid=692fb841-efd6-45f3-98d5-6b03df882962"},"vehicle_type_id":"4","last_reported":1731435139,"current_range_meters":38400,"station_id":"ce4bhn92rcd13ifvqgrg","pricing_plan_id":"cebpf4jnsgd1na2vs0mg"},{"bike_id":"f7dfe9d8-8b1c-44bd-9e07-3a51ca4750f2","system_id":"levelo_inurba_marseille","lat":43.26491,"lon":5.3955,"is_reserved":false,"is_disabled":false,"rental_uris":{"android":"levelo://app?vid=f7dfe9d8-8b1c-44bd-9e07-3a51ca4750f2","ios":"levelo://app?vid=f7dfe9d8-8b1c-44bd-9e07-3a51ca4750f2"},"vehicle_type_id":"4","last_reported":1731435139,"current_range_meters":34000,"station_id":"ce4bhi12rcd13ifvqfq0","pricing_plan_id":"cebpf4jnsgd1na2vs0mg"},{"bike_id":"a71dd34f-7ee5-41dd-897b-defdf704a441","system_id":"levelo_inurba_marseille","lat":43.29992,"lon":5.39828,"is_reserved":false,"is_disabled":false,"rental_uris":{"android":"levelo://app?vid=a71dd34f-7ee5-41dd-897b-defdf704a441","ios":"levelo://app?vid=a71dd34f-7ee5-41dd-897b-defdf704a441"},"vehicle_type_id":"4","last_reported":1731435139,"current_range_meters":27200,"station_id":"ce4bh292rcd13ifvqdf0","pricing_plan_id":"cebpf4jnsgd1na2vs0mg"},{"bike_id":"afa715b5-1241-4d6f-8f78-73e0daefc925","system_id":"levelo_inurba_marseille","lat":43.29007,"lon":5.3561,"is_reserved":false,"is_disabled":false,"rental_uris":{"android":"levelo://app?vid=afa715b5-1241-4d6f-8f78-73e0daefc925","ios":"levelo://app?vid=afa715b5-1241-4d6f-8f78-73e0daefc925"},"vehicle_type_id":"4","last_reported":1731435139,"current_range_meters":36000,"station_id":"ce4bhb92rcd13ifvqen0","pricing_plan_id":"cebpf4jnsgd1na2vs0mg"},{"bike_id":"abd0a698-2fcf-429a-8556-4b725cd2cc9c","system_id":"levelo_inurba_marseille","lat":43.290343,"lon":5.399776,"is_reserved":false,"is_disabled":false,"rental_uris":{"android":"levelo://app?vid=abd0a698-2fcf-429a-8556-4b725cd2cc9c","ios":"levelo://app?vid=abd0a698-2fcf-429a-8556-4b725cd2cc9c"},"vehicle_type_id":"4","last_reported":1731435139,"current_range_meters":6000,"station_id":"ce4bh612rcd13ifvqe6g","pricing_plan_id":"cebpf4jnsgd1na2vs0mg"},{"bike_id":"3ee4df3f-aec6-4ea4-91a9-55e9372637f0","system_id":"levelo_inurba_marseille","lat":43.26558,"lon":5.37285,"is_reserved":false,"is_disabled":false,"rental_uris":{"android":"levelo://app?vid=3ee4df3f-aec6-4ea4-91a9-55e9372637f0","ios":"levelo://app?vid=3ee4df3f-aec6-4ea4-91a9-55e9372637f0"},"vehicle_type_id":"4","last_reported":1731435139,"current_range_meters":26000,"station_id":"ce4bhg12rcd13ifvqf70","pricing_plan_id":"cebpf4jnsgd1na2vs0mg"},{"bike_id":"0606443b-4369-42a4-bea1-57669a14e9a4","system_id":"levelo_inurba_marseille","lat":43.27816,"lon":5.40714,"is_reserved":false,"is_disabled":false,"rental_uris":{"android":"levelo://app?vid=0606443b-4369-42a4-bea1-57669a14e9a4","ios":"levelo://app?vid=0606443b-4369-42a4-bea1-57669a14e9a4"},"vehicle_type_id":"4","last_reported":1731435139,"current_range_meters":37600,"station_id":"ce4bhnh2rcd13ifvqgtg","pricing_plan_id":"cebpf4jnsgd1na2vs0mg"},{"bike_id":"0fb7af37-ed7e-4639-a28c-e6d4b52ce80c","system_id":"levelo_inurba_marseille","lat":43.30934,"lon":5.40156,"is_reserved":false,"is_disabled":false,"rental_uris":{"android":"levelo://app?vid=0fb7af37-ed7e-4639-a28c-e6d4b52ce80c","ios":"levelo://app?vid=0fb7af37-ed7e-4639-a28c-e6d4b52ce80c"},"vehicle_type_id":"4","last_reported":1731435139,"current_range_meters":37600,"station_id":"ce4bgvp2rcd13ifvqct0","pricing_plan_id":"cebpf4jnsgd1na2vs0mg"},{"bike_id":"39bfa097-59a6-4e1f-8c95-57f4aa2e83f3","system_id":"levelo_inurba_marseille","lat":43.29781,"lon":5.3711,"is_reserved":false,"is_disabled":false,"rental_uris":{"android":"levelo://app?vid=39bfa097-59a6-4e1f-8c95-57f4aa2e83f3","ios":"levelo://app?vid=39bfa097-59a6-4e1f-8c95-57f4aa2e83f3"},"vehicle_type_id":"4","last_reported":1731435139,"current_range_meters":38800,"station_id":"ce4bgop2rcd13ifvqc1g","pricing_plan_id":"cebpf4jnsgd1na2vs0mg"},{"bike_id":"c854b97e-9617-447f-b99c-ee2e070c2efa","system_id":"levelo_inurba_marseille","lat":43.30328,"lon":5.40441,"is_reserved":false,"is_disabled":false,"rental_uris":{"android":"levelo://app?vid=c854b97e-9617-447f-b99c-ee2e070c2efa","ios":"levelo://app?vid=c854b97e-9617-447f-b99c-ee2e070c2efa"},"vehicle_type_id":"4","last_reported":1731435139,"current_range_meters":36400,"station_id":"ce4bh012rcd13ifvqd10","pricing_plan_id":"cebpf4jnsgd1na2vs0mg"},{"bike_id":"b4d1b66c-c527-4228-8be0-3630aae8aa11","system_id":"levelo_inurba_marseille","lat":43.30146,"lon":5.39865,"is_reserved":false,"is_disabled":false,"rental_uris":{"android":"levelo://app?vid=b4d1b66c-c527-4228-8be0-3630aae8aa11","ios":"levelo://app?vid=b4d1b66c-c527-4228-8be0-3630aae8aa11"},"vehicle_type_id":"4","last_reported":1731435139,"current_range_meters":31200,"station_id":"ce4bh0h2rcd13ifvqd40","pricing_plan_id":"cebpf4jnsgd1na2vs0mg"},{"bike_id":"aa81cd4d-52e5-4916-b3b1-6e135085c8ef","system_id":"levelo_inurba_marseille","lat":43.24801,"lon":5.37448,"is_reserved":false,"is_disabled":false,"rental_uris":{"android":"levelo://app?vid=aa81cd4d-52e5-4916-b3b1-6e135085c8ef","ios":"levelo://app?vid=aa81cd4d-52e5-4916-b3b1-6e135085c8ef"},"vehicle_type_id":"4","last_reported":1731435139,"current_range_meters":38800,"station_id":"ce4bhgh2rcd13ifvqfb0","pricing_plan_id":"cebpf4jnsgd1na2vs0mg"},{"bike_id":"af3c2379-836a-42b2-a7e4-5e983acec102","system_id":"levelo_inurba_marseille","lat":43.29252,"lon":5.40911,"is_reserved":false,"is_disabled":false,"rental_uris":{"android":"levelo://app?vid=af3c2379-836a-42b2-a7e4-5e983acec102","ios":"levelo://app?vid=af3c2379-836a-42b2-a7e4-5e983acec102"},"vehicle_type_id":"4","last_reported":1731435139,"current_range_meters":33200,"station_id":"ce4bh192rcd13ifvqdc0","pricing_plan_id":"cebpf4jnsgd1na2vs0mg"},{"bike_id":"cc3af34b-80ce-4b56-91b7-b9447a903304","system_id":"levelo_inurba_marseille","lat":43.30353,"lon":5.41877,"is_reserved":false,"is_disabled":false,"rental_uris":{"android":"levelo://app?vid=cc3af34b-80ce-4b56-91b7-b9447a903304","ios":"levelo://app?vid=cc3af34b-80ce-4b56-91b7-b9447a903304"},"vehicle_type_id":"4","last_reported":1731435139,"current_range_meters":36400,"station_id":"ce4bhop2rcd13ifvqh7g","pricing_plan_id":"cebpf4jnsgd1na2vs0mg"},{"bike_id":"3dc82789-6946-4e3c-9189-4989036b52a8","system_id":"levelo_inurba_marseille","lat":43.29894,"lon":5.38618,"is_reserved":false,"is_disabled":false,"rental_uris":{"android":"levelo://app?vid=3dc82789-6946-4e3c-9189-4989036b52a8","ios":"levelo://app?vid=3dc82789-6946-4e3c-9189-4989036b52a8"},"vehicle_type_id":"4","last_reported":1731435139,"current_range_meters":7200,"station_id":"ce4bh692rcd13ifvqe90","pricing_plan_id":"cebpf4jnsgd1na2vs0mg"},{"bike_id":"ed2020d9-53c9-4082-9a6b-029c3dfcbe63","system_id":"levelo_inurba_marseille","lat":43.293,"lon":5.3933,"is_reserved":false,"is_disabled":false,"rental_uris":{"android":"levelo://app?vid=ed2020d9-53c9-4082-9a6b-029c3dfcbe63","ios":"levelo://app?vid=ed2020d9-53c9-4082-9a6b-029c3dfcbe63"},"vehicle_type_id":"4","last_reported":1731435139,"current_range_meters":4800,"station_id":"","pricing_plan_id":"cebpf4jnsgd1na2vs0mg"},{"bike_id":"7ca33f6b-e349-49e0-8226-5b445a766323","system_id":"levelo_inurba_marseille","lat":43.32102,"lon":5.36777,"is_reserved":false,"is_disabled":false,"rental_uris":{"android":"levelo://app?vid=7ca33f6b-e349-49e0-8226-5b445a766323","ios":"levelo://app?vid=7ca33f6b-e349-49e0-8226-5b445a766323"},"vehicle_type_id":"4","last_reported":1731435139,"current_range_meters":23200,"station_id":"ce4bhrh2rcd13ifvqhug","pricing_plan_id":"cebpf4jnsgd1na2vs0mg"},{"bike_id":"7eefa272-3116-4b84-a466-6a64c9d9db4c","system_id":"levelo_inurba_marseille","lat":43.28851,"lon":5.35843,"is_reserved":false,"is_disabled":false,"rental_uris":{"android":"levelo://app?vid=7eefa272-3116-4b84-a466-6a64c9d9db4c","ios":"levelo://app?vid=7eefa272-3116-4b84-a466-6a64c9d9db4c"},"vehicle_type_id":"4","last_reported":1731435139,"current_range_meters":36800,"station_id":"ce4bhb12rcd13ifvqem0","pricing_plan_id":"cebpf4jnsgd1na2vs0mg"},{"bike_id":"9b6f4511-578c-42ab-81ac-bef492210160","system_id":"levelo_inurba_marseille","lat":43.31331,"lon":5.39695,"is_reserved":false,"is_disabled":false,"rental_uris":{"android":"levelo://app?vid=9b6f4511-578c-42ab-81ac-bef492210160","ios":"levelo://app?vid=9b6f4511-578c-42ab-81ac-bef492210160"},"vehicle_type_id":"4","last_reported":1731435139,"current_range_meters":39200,"station_id":"ce4bgvp2rcd13ifvqcu0","pricing_plan_id":"cebpf4jnsgd1na2vs0mg"},{"bike_id":"1809c098-d7fb-42db-83b3-2e42d5e84b99","system_id":"levelo_inurba_marseille","lat":43.26776,"lon":5.39418,"is_reserved":false,"is_disabled":false,"rental_uris":{"android":"levelo://app?vid=1809c098-d7fb-42db-83b3-2e42d5e84b99","ios":"levelo://app?vid=1809c098-d7fb-42db-83b3-2e42d5e84b99"},"vehicle_type_id":"4","last_reported":1731435139,"current_range_meters":34800,"station_id":"ce4bhh12rcd13ifvqfg0","pricing_plan_id":"cebpf4jnsgd1na2vs0mg"},{"bike_id":"31fbc62d-402e-475c-a801-a5603d7284c0","system_id":"levelo_inurba_marseille","lat":43.30872,"lon":5.37192,"is_reserved":false,"is_disabled":false,"rental_uris":{"android":"levelo://app?vid=31fbc62d-402e-475c-a801-a5603d7284c0","ios":"levelo://app?vid=31fbc62d-402e-475c-a801-a5603d7284c0"},"vehicle_type_id":"4","last_reported":1731435139,"current_range_meters":22000,"station_id":"ce4bguh2rcd13ifvqckg","pricing_plan_id":"cebpf4jnsgd1na2vs0mg"},{"bike_id":"1861c33b-b11f-4777-a4a9-98785c24c355","system_id":"levelo_inurba_marseille","lat":43.28924,"lon":5.38382,"is_reserved":false,"is_disabled":false,"rental_uris":{"android":"levelo://app?vid=1861c33b-b11f-4777-a4a9-98785c24c355","ios":"levelo://app?vid=1861c33b-b11f-4777-a4a9-98785c24c355"},"vehicle_type_id":"4","last_reported":1731435139,"current_range_meters":34000,"station_id":"ce4bh612rcd13ifvqe6g","pricing_plan_id":"cebpf4jnsgd1na2vs0mg"},{"bike_id":"3a49739d-e0d5-44ce-afc6-bcfbf1160431","system_id":"levelo_inurba_marseille","lat":43.27948,"lon":5.41048,"is_reserved":false,"is_disabled":false,"rental_uris":{"android":"levelo://app?vid=3a49739d-e0d5-44ce-afc6-bcfbf1160431","ios":"levelo://app?vid=3a49739d-e0d5-44ce-afc6-bcfbf1160431"},"vehicle_type_id":"4","last_reported":1731435139,"current_range_meters":33600,"station_id":"ce4bhnp2rcd13ifvqh0g","pricing_plan_id":"cebpf4jnsgd1na2vs0mg"},{"bike_id":"d8691974-b452-4302-8aac-bf750f2c4c5d","system_id":"levelo_inurba_marseille","lat":43.28421,"lon":5.349927,"is_reserved":false,"is_disabled":false,"rental_uris":{"android":"levelo://app?vid=d8691974-b452-4302-8aac-bf750f2c4c5d","ios":"levelo://app?vid=d8691974-b452-4302-8aac-bf750f2c4c5d"},"vehicle_type_id":"4","last_reported":1731435139,"current_range_meters":37600,"station_id":"ce4bhbh2rcd13ifvqepg","pricing_plan_id":"cebpf4jnsgd1na2vs0mg"},{"bike_id":"6cc49a5a-10d7-4481-bb6e-0b4566b7e49e","system_id":"levelo_inurba_marseille","lat":43.3064,"lon":5.4007,"is_reserved":false,"is_disabled":false,"rental_uris":{"android":"levelo://app?vid=6cc49a5a-10d7-4481-bb6e-0b4566b7e49e","ios":"levelo://app?vid=6cc49a5a-10d7-4481-bb6e-0b4566b7e49e"},"vehicle_type_id":"4","last_reported":1731435139,"current_range_meters":39200,"station_id":"ce4bh112rcd13ifvqda0","pricing_plan_id":"cebpf4jnsgd1na2vs0mg"},{"bike_id":"290d9ccc-ec87-4d41-bca2-75fa1cd5e08e","system_id":"levelo_inurba_marseille","lat":43.28845,"lon":5.35847,"is_reserved":false,"is_disabled":false,"rental_uris":{"android":"levelo://app?vid=290d9ccc-ec87-4d41-bca2-75fa1cd5e08e","ios":"levelo://app?vid=290d9ccc-ec87-4d41-bca2-75fa1cd5e08e"},"vehicle_type_id":"4","last_reported":1731435139,"current_range_meters":38800,"station_id":"ce4bhb12rcd13ifvqem0","pricing_plan_id":"cebpf4jnsgd1na2vs0mg"},{"bike_id":"87405bba-8d27-43a9-ba45-4436b04620c4","system_id":"levelo_inurba_marseille","lat":43.31081,"lon":5.42429,"is_reserved":false,"is_disabled":false,"rental_uris":{"android":"levelo://app?vid=87405bba-8d27-43a9-ba45-4436b04620c4","ios":"levelo://app?vid=87405bba-8d27-43a9-ba45-4436b04620c4"},"vehicle_type_id":"4","last_reported":1731435139,"current_range_meters":34800,"station_id":"ce4bhp92rcd13ifvqhag","pricing_plan_id":"cebpf4jnsgd1na2vs0mg"},{"bike_id":"b9eaa622-f034-4bd3-b13f-7bbcca00d3b1","system_id":"levelo_inurba_marseille","lat":43.30422,"lon":5.41287,"is_reserved":false,"is_disabled":false,"rental_uris":{"android":"levelo://app?vid=b9eaa622-f034-4bd3-b13f-7bbcca00d3b1","ios":"levelo://app?vid=b9eaa622-f034-4bd3-b13f-7bbcca00d3b1"},"vehicle_type_id":"4","last_reported":1731435139,"current_range_meters":20800,"station_id":"ce4bhop2rcd13ifvqh8g","pricing_plan_id":"cebpf4jnsgd1na2vs0mg"},{"bike_id":"8f56e20b-a99a-472b-a297-96dfb4209466","system_id":"levelo_inurba_marseille","lat":43.25103,"lon":5.40331,"is_reserved":false,"is_disabled":false,"rental_uris":{"android":"levelo://app?vid=8f56e20b-a99a-472b-a297-96dfb4209466","ios":"levelo://app?vid=8f56e20b-a99a-472b-a297-96dfb4209466"},"vehicle_type_id":"4","last_reported":1731435139,"current_range_meters":20000,"station_id":"ce4bhlh2rcd13ifvqgig","pricing_plan_id":"cebpf4jnsgd1na2vs0mg"},{"bike_id":"7564c3c5-fc10-478c-9728-3f640f03a610","system_id":"levelo_inurba_marseille","lat":43.29162,"lon":5.37171,"is_reserved":false,"is_disabled":false,"rental_uris":{"android":"levelo://app?vid=7564c3c5-fc10-478c-9728-3f640f03a610","ios":"levelo://app?vid=7564c3c5-fc10-478c-9728-3f640f03a610"},"vehicle_type_id":"4","last_reported":1731435139,"current_range_meters":26800,"station_id":"ce4bha92rcd13ifvqeh0","pricing_plan_id":"cebpf4jnsgd1na2vs0mg"},{"bike_id":"652d5563-c48b-48dd-900b-0b62a1a21cc9","system_id":"levelo_inurba_marseille","lat":43.27995,"lon":5.41661,"is_reserved":false,"is_disabled":false,"rental_uris":{"android":"levelo://app?vid=652d5563-c48b-48dd-900b-0b62a1a21cc9","ios":"levelo://app?vid=652d5563-c48b-48dd-900b-0b62a1a21cc9"},"vehicle_type_id":"4","last_reported":1731435139,"current_range_meters":9600,"station_id":"ce4bho12rcd13ifvqh1g","pricing_plan_id":"cebpf4jnsgd1na2vs0mg"},{"bike_id":"2d94173c-4f0d-4143-927a-c405a687ba8f","system_id":"levelo_inurba_marseille","lat":43.26068,"lon":5.39388,"is_reserved":false,"is_disabled":false,"rental_uris":{"android":"levelo://app?vid=2d94173c-4f0d-4143-927a-c405a687ba8f","ios":"levelo://app?vid=2d94173c-4f0d-4143-927a-c405a687ba8f"},"vehicle_type_id":"4","last_reported":1731435139,"current_range_meters":20400,"station_id":"ce4bhh92rcd13ifvqfj0","pricing_plan_id":"cebpf4jnsgd1na2vs0mg"},{"bike_id":"1b78dc6f-bcd7-4772-9063-a0fe1798c19e","system_id":"levelo_inurba_marseille","lat":43.28152,"lon":5.42641,"is_reserved":false,"is_disabled":false,"rental_uris":{"android":"levelo://app?vid=1b78dc6f-bcd7-4772-9063-a0fe1798c19e","ios":"levelo://app?vid=1b78dc6f-bcd7-4772-9063-a0fe1798c19e"},"vehicle_type_id":"4","last_reported":1731435139,"current_range_meters":36400,"station_id":"ce4bhnh2rcd13ifvqgug","pricing_plan_id":"cebpf4jnsgd1na2vs0mg"},{"bike_id":"338beb6c-7d58-4935-9c4c-65b1e1f6e74d","system_id":"levelo_inurba_marseille","lat":43.25006,"lon":5.38918,"is_reserved":false,"is_disabled":false,"rental_uris":{"android":"levelo://app?vid=338beb6c-7d58-4935-9c4c-65b1e1f6e74d","ios":"levelo://app?vid=338beb6c-7d58-4935-9c4c-65b1e1f6e74d"},"vehicle_type_id":"4","last_reported":1731435139,"current_range_meters":20400,"station_id":"ce4bhgp2rcd13ifvqfd0","pricing_plan_id":"cebpf4jnsgd1na2vs0mg"},{"bike_id":"515a80a5-0ba7-4345-8558-977afc45db37","system_id":"levelo_inurba_marseille","lat":43.28728,"lon":5.36083,"is_reserved":false,"is_disabled":false,"rental_uris":{"android":"levelo://app?vid=515a80a5-0ba7-4345-8558-977afc45db37","ios":"levelo://app?vid=515a80a5-0ba7-4345-8558-977afc45db37"},"vehicle_type_id":"4","last_reported":1731435139,"current_range_meters":39200,"station_id":"cki0cbj6b192h4jlfktg","pricing_plan_id":"cebpf4jnsgd1na2vs0mg"},{"bike_id":"7f2168b2-5622-4833-a747-ee2d754883b4","system_id":"levelo_inurba_marseille","lat":43.28349,"lon":5.38112,"is_reserved":false,"is_disabled":false,"rental_uris":{"android":"levelo://app?vid=7f2168b2-5622-4833-a747-ee2d754883b4","ios":"levelo://app?vid=7f2168b2-5622-4833-a747-ee2d754883b4"},"vehicle_type_id":"4","last_reported":1731435139,"current_range_meters":6400,"station_id":"ce4bh412rcd13ifvqdr0","pricing_plan_id":"cebpf4jnsgd1na2vs0mg"},{"bike_id":"5247ae0d-4050-4030-8cf6-0e40d373c455","system_id":"levelo_inurba_marseille","lat":43.28704,"lon":5.373747,"is_reserved":false,"is_disabled":false,"rental_uris":{"android":"levelo://app?vid=5247ae0d-4050-4030-8cf6-0e40d373c455","ios":"levelo://app?vid=5247ae0d-4050-4030-8cf6-0e40d373c455"},"vehicle_type_id":"4","last_reported":1731435139,"current_range_meters":10800,"station_id":"ce4bh3p2rcd13ifvqdq0","pricing_plan_id":"cebpf4jnsgd1na2vs0mg"},{"bike_id":"75477a1a-4e8c-48d3-bcf2-d9ee5222e19e","system_id":"levelo_inurba_marseille","lat":43.24806,"lon":5.37455,"is_reserved":false,"is_disabled":false,"rental_uris":{"android":"levelo://app?vid=75477a1a-4e8c-48d3-bcf2-d9ee5222e19e","ios":"levelo://app?vid=75477a1a-4e8c-48d3-bcf2-d9ee5222e19e"},"vehicle_type_id":"4","last_reported":1731435139,"current_range_meters":17200,"station_id":"ce4bhgh2rcd13ifvqfb0","pricing_plan_id":"cebpf4jnsgd1na2vs0mg"},{"bike_id":"f9759fe8-3500-4cad-8ee7-da4c287019e9","system_id":"levelo_inurba_marseille","lat":43.32294,"lon":5.3826,"is_reserved":false,"is_disabled":false,"rental_uris":{"android":"levelo://app?vid=f9759fe8-3500-4cad-8ee7-da4c287019e9","ios":"levelo://app?vid=f9759fe8-3500-4cad-8ee7-da4c287019e9"},"vehicle_type_id":"4","last_reported":1731435139,"current_range_meters":10800,"station_id":"ce4bhr12rcd13ifvqhqg","pricing_plan_id":"cebpf4jnsgd1na2vs0mg"},{"bike_id":"257e8fcc-a6ab-4f4b-a151-1263f4c801c2","system_id":"levelo_inurba_marseille","lat":43.28463,"lon":5.35891,"is_reserved":false,"is_disabled":false,"rental_uris":{"android":"levelo://app?vid=257e8fcc-a6ab-4f4b-a151-1263f4c801c2","ios":"levelo://app?vid=257e8fcc-a6ab-4f4b-a151-1263f4c801c2"},"vehicle_type_id":"4","last_reported":1731435139,"current_range_meters":24800,"station_id":"ce4bhah2rcd13ifvqei0","pricing_plan_id":"cebpf4jnsgd1na2vs0mg"},{"bike_id":"87148da5-06df-4888-a298-011f089fd3a5","system_id":"levelo_inurba_marseille","lat":43.26945,"lon":5.40244,"is_reserved":false,"is_disabled":false,"rental_uris":{"android":"levelo://app?vid=87148da5-06df-4888-a298-011f089fd3a5","ios":"levelo://app?vid=87148da5-06df-4888-a298-011f089fd3a5"},"vehicle_type_id":"4","last_reported":1731435139,"current_range_meters":32400,"station_id":"cjm6bp8fraef2m0cb0m0","pricing_plan_id":"cebpf4jnsgd1na2vs0mg"},{"bike_id":"b85b7669-422e-46a3-afda-8ce2f94b78cc","system_id":"levelo_inurba_marseille","lat":43.31753,"lon":5.3902,"is_reserved":false,"is_disabled":false,"rental_uris":{"android":"levelo://app?vid=b85b7669-422e-46a3-afda-8ce2f94b78cc","ios":"levelo://app?vid=b85b7669-422e-46a3-afda-8ce2f94b78cc"},"vehicle_type_id":"4","last_reported":1731435139,"current_range_meters":26800,"station_id":"ce4bhqp2rcd13ifvqhng","pricing_plan_id":"cebpf4jnsgd1na2vs0mg"},{"bike_id":"dd02ec95-b3ad-4225-9aa3-99448bc4cdf5","system_id":"levelo_inurba_marseille","lat":43.30291,"lon":5.40116,"is_reserved":false,"is_disabled":false,"rental_uris":{"android":"levelo://app?vid=dd02ec95-b3ad-4225-9aa3-99448bc4cdf5","ios":"levelo://app?vid=dd02ec95-b3ad-4225-9aa3-99448bc4cdf5"},"vehicle_type_id":"4","last_reported":1731435139,"current_range_meters":27200,"station_id":"ce4bgvh2rcd13ifvqcs0","pricing_plan_id":"cebpf4jnsgd1na2vs0mg"},{"bike_id":"be7286c5-8ba3-48f2-9ec2-68842fd15d13","system_id":"levelo_inurba_marseille","lat":43.2738,"lon":5.36256,"is_reserved":false,"is_disabled":false,"rental_uris":{"android":"levelo://app?vid=be7286c5-8ba3-48f2-9ec2-68842fd15d13","ios":"levelo://app?vid=be7286c5-8ba3-48f2-9ec2-68842fd15d13"},"vehicle_type_id":"4","last_reported":1731435139,"current_range_meters":38400,"station_id":"ce4bhbh2rcd13ifvqeo0","pricing_plan_id":"cebpf4jnsgd1na2vs0mg"},{"bike_id":"4d4469f7-5424-4f01-8b8d-6eb6c3573259","system_id":"levelo_inurba_marseille","lat":43.337444,"lon":5.374475,"is_reserved":false,"is_disabled":false,"rental_uris":{"android":"levelo://app?vid=4d4469f7-5424-4f01-8b8d-6eb6c3573259","ios":"levelo://app?vid=4d4469f7-5424-4f01-8b8d-6eb6c3573259"},"vehicle_type_id":"4","last_reported":1731435139,"current_range_meters":37600,"station_id":"","pricing_plan_id":"cebpf4jnsgd1na2vs0mg"},{"bike_id":"2e1be7b0-9c8b-4213-a205-dfae4aa5e93c","system_id":"levelo_inurba_marseille","lat":43.30808,"lon":5.43521,"is_reserved":false,"is_disabled":false,"rental_uris":{"android":"levelo://app?vid=2e1be7b0-9c8b-4213-a205-dfae4aa5e93c","ios":"levelo://app?vid=2e1be7b0-9c8b-4213-a205-dfae4aa5e93c"},"vehicle_type_id":"4","last_reported":1731435139,"current_range_meters":29600,"station_id":"ce4bhph2rcd13ifvqheg","pricing_plan_id":"cebpf4jnsgd1na2vs0mg"},{"bike_id":"b6c8dd18-c0cf-43bd-8444-21dc55773db5","system_id":"levelo_inurba_marseille","lat":43.28701,"lon":5.39979,"is_reserved":false,"is_disabled":false,"rental_uris":{"android":"levelo://app?vid=b6c8dd18-c0cf-43bd-8444-21dc55773db5","ios":"levelo://app?vid=b6c8dd18-c0cf-43bd-8444-21dc55773db5"},"vehicle_type_id":"4","last_reported":1731435139,"current_range_meters":37600,"station_id":"ce4bho92rcd13ifvqh3g","pricing_plan_id":"cebpf4jnsgd1na2vs0mg"},{"bike_id":"6c299902-b4d4-405e-8f87-5de4739d6e7f","system_id":"levelo_inurba_marseille","lat":43.25584,"lon":5.38227,"is_reserved":false,"is_disabled":false,"rental_uris":{"android":"levelo://app?vid=6c299902-b4d4-405e-8f87-5de4739d6e7f","ios":"levelo://app?vid=6c299902-b4d4-405e-8f87-5de4739d6e7f"},"vehicle_type_id":"4","last_reported":1731435139,"current_range_meters":11600,"station_id":"ce4bhih2rcd13ifvqfs0","pricing_plan_id":"cebpf4jnsgd1na2vs0mg"},{"bike_id":"d6439d7d-43f6-4317-9fba-190513fcfbd9","system_id":"levelo_inurba_marseille","lat":43.28454,"lon":5.35891,"is_reserved":false,"is_disabled":false,"rental_uris":{"android":"levelo://app?vid=d6439d7d-43f6-4317-9fba-190513fcfbd9","ios":"levelo://app?vid=d6439d7d-43f6-4317-9fba-190513fcfbd9"},"vehicle_type_id":"4","last_reported":1731435139,"current_range_meters":8800,"station_id":"ce4bhah2rcd13ifvqei0","pricing_plan_id":"cebpf4jnsgd1na2vs0mg"},{"bike_id":"db63bedc-2c23-4536-821c-60587795bd16","system_id":"levelo_inurba_marseille","lat":43.28847,"lon":5.35841,"is_reserved":false,"is_disabled":false,"rental_uris":{"android":"levelo://app?vid=db63bedc-2c23-4536-821c-60587795bd16","ios":"levelo://app?vid=db63bedc-2c23-4536-821c-60587795bd16"},"vehicle_type_id":"4","last_reported":1731435139,"current_range_meters":36800,"station_id":"ce4bhb12rcd13ifvqem0","pricing_plan_id":"cebpf4jnsgd1na2vs0mg"},{"bike_id":"31a15e0b-a78e-4ad7-82b8-1543658bb76c","system_id":"levelo_inurba_marseille","lat":43.28614,"lon":5.35103,"is_reserved":false,"is_disabled":false,"rental_uris":{"android":"levelo://app?vid=31a15e0b-a78e-4ad7-82b8-1543658bb76c","ios":"levelo://app?vid=31a15e0b-a78e-4ad7-82b8-1543658bb76c"},"vehicle_type_id":"4","last_reported":1731435139,"current_range_meters":29600,"station_id":"ce4bhch2rcd13ifvqeug","pricing_plan_id":"cebpf4jnsgd1na2vs0mg"},{"bike_id":"d2d00d0c-0edb-4e3f-a6ed-e620fd87dfdf","system_id":"levelo_inurba_marseille","lat":43.29147,"lon":5.40342,"is_reserved":false,"is_disabled":false,"rental_uris":{"android":"levelo://app?vid=d2d00d0c-0edb-4e3f-a6ed-e620fd87dfdf","ios":"levelo://app?vid=d2d00d0c-0edb-4e3f-a6ed-e620fd87dfdf"},"vehicle_type_id":"4","last_reported":1731435139,"current_range_meters":25200,"station_id":"","pricing_plan_id":"cebpf4jnsgd1na2vs0mg"},