{"last_updated":1741680771,"ttl":60,"version":"2.2","data":{"bikes":[{"bike_id":"99d458d5-9d42-4927-a08f-ec4384c9275b","system_id":"levelo_inurba_marseille","lat":43.30962,"lon":5.39029,"is_reserved":false,"is_disabled":false,"rental_uris":{"android":"levelo://app?vid=99d458d5-9d42-4927-a08f-ec4384c9275b","ios":"levelo://app?vid=99d458d5-9d42-4927-a08f-ec4384c9275b"},"vehicle_type_id":"4","last_reported":1741680771,"current_range_meters":2800,"station_id":"ce4bgup2rcd13ifvqco0","pricing_plan_id":"cebpf4jnsgd1na2vs0mg"},{"bike_id":"51adcbf7-cc40-40b2-a2e5-10a977595c60","system_id":"levelo_inurba_marseille","lat":43.26684,"lon":5.38268,"is_reserved":false,"is_disabled":false,"rental_uris":{"android":"levelo://app?vid=51adcbf7-cc40-40b2-a2e5-10a977595c60","ios":"levelo://app?vid=51adcbf7-cc40-40b2-a2e5-10a977595c60"},"vehicle_type_id":"4","last_reported":1741680771,"current_range_meters":2800,"station_id":"ce4bhg92rcd13ifvqf90","pricing_plan_id":"cebpf4jnsgd1na2vs0mg"},{"bike_id":"bcf9394f-57a2-4df4-aa0c-6c80b13bc0af","system_id":"levelo_inurba_marseille","lat":43.27504,"lon":5.42458,"is_reserved":false,"is_disabled":false,"rental_uris":{"android":"levelo://app?vid=bcf9394f-57a2-4df4-aa0c-6c80b13bc0af","ios":"levelo://app?vid=bcf9394f-57a2-4df4-aa0c-6c80b13bc0af"},"vehicle_type_id":"4","last_reported":1741680771,"current_range_meters":2800,"station_id":"ce4bhn92rcd13ifvqgrg","pricing_plan_id":"cebpf4jnsgd1na2vs0mg"},{"bike_id":"ffabacd6-59d5-4e93-b987-7e83309d9413","system_id":"levelo_inurba_marseille","lat":43.29757,"lon":5.400835,"is_reserved":false,"is_disabled":false,"rental_uris":{"android":"levelo://app?vid=ffabacd6-59d5-4e93-b987-7e83309d9413","ios":"levelo://app?vid=ffabacd6-59d5-4e93-b987-7e83309d9413"},"vehicle_type_id":"4","last_reported":1741680771,"current_range_meters":2800,"station_id":"","pricing_plan_id":"cebpf4jnsgd1na2vs0mg"},{"bike_id":"8a24d815-6e1a-4ac7-a2fd-a2304265581f","system_id":"levelo_inurba_marseille","lat":43.27813,"lon":5.40714,"is_reserved":false,"is_disabled":false,"rental_uris":{"android":"levelo://app?vid=8a24d815-6e1a-4ac7-a2fd-a2304265581f","ios":"levelo://app?vid=8a24d815-6e1a-4ac7-a2fd-a2304265581f"},"vehicle_type_id":"4","last_reported":1741680771,"current_range_meters":3200,"station_id":"ce4bhnh2rcd13ifvqgtg","pricing_plan_id":"cebpf4jnsgd1na2vs0mg"},{"bike_id":"20ff66a4-a761-4356-aeaf-58f786047a64","system_id":"levelo_inurba_marseille","lat":43.25577,"lon":5.38241,"is_reserved":false,"is_disabled":false,"rental_uris":{"android":"levelo://app?vid=20ff66a4-a761-4356-aeaf-58f786047a64","ios":"levelo://app?vid=20ff66a4-a761-4356-aeaf-58f786047a64"},"vehicle_type_id":"4","last_reported":1741680771,"current_range_meters":3200,"station_id":"ce4bhih2rcd13ifvqfs0","pricing_plan_id":"cebpf4jnsgd1na2vs0mg"},{"bike_id":"65ebf940-f6f1-4ba2-8b75-2b2127dd3199","system_id":"levelo_inurba_marseille","lat":43.25023,"lon":5.38059,"is_reserved":false,"is_disabled":false,"rental_uris":{"android":"levelo://app?vid=65ebf940-f6f1-4ba2-8b75-2b2127dd3199","ios":"levelo://app?vid=65ebf940-f6f1-4ba2-8b75-2b2127dd3199"},"vehicle_type_id":"4","last_reported":1741680771,"current_range_meters":3200,"station_id":"","pricing_plan_id":"cebpf4jnsgd1na2vs0mg"},{"bike_id":"271d5b13-29db-49f8-a209-858374722b4d","system_id":"levelo_inurba_marseille","lat":43.27848,"lon":5.39216,"is_reserved":false,"is_disabled":false,"rental_uris":{"android":"levelo://app?vid=271d5b13-29db-49f8-a209-858374722b4d","ios":"levelo://app?vid=271d5b13-29db-49f8-a209-858374722b4d"},"vehicle_type_id":"4","last_reported":1741680771,"current_range_meters":3600,"station_id":"ce4bhjp2rcd13ifvqga0","pricing_plan_id":"cebpf4jnsgd1na2vs0mg"},{"bike_id":"35be52e8-6b84-4099-8ea0-f38652827724","system_id":"levelo_inurba_marseille","lat":43.30608,"lon":5.39356,"is_reserved":false,"is_disabled":true,"rental_uris":{"android":"levelo://app?vid=35be52e8-6b84-4099-8ea0-f38652827724","ios":"levelo://app?vid=35be52e8-6b84-4099-8ea0-f38652827724"},"vehicle_type_id":"4","last_reported":1741680771,"current_range_meters":3600,"station_id":"ce4bh0p2rcd13ifvqd80","pricing_plan_id":"cebpf4jnsgd1na2vs0mg"},{"bike_id":"807afc88-ea82-4990-b568-328348602505","system_id":"levelo_inurba_marseille","lat":43.24388,"lon":5.37056,"is_reserved":false,"is_disabled":false,"rental_uris":{"android":"levelo://app?vid=807afc88-ea82-4990-b568-328348602505","ios":"levelo://app?vid=807afc88-ea82-4990-b568-328348602505"},"vehicle_type_id":"4","last_reported":1741680771,"current_range_meters":3600,"station_id":"ce4bhhh2rcd13ifvqfk0","pricing_plan_id":"cebpf4jnsgd1na2vs0mg"},{"bike_id":"85858945-288d-4d7b-aac5-8cf9d060c580","system_id":"levelo_inurba_marseille","lat":43.32362,"lon":5.3676,"is_reserved":false,"is_disabled":false,"rental_uris":{"android":"levelo://app?vid=85858945-288d-4d7b-aac5-8cf9d060c580","ios":"levelo://app?vid=85858945-288d-4d7b-aac5-8cf9d060c580"},"vehicle_type_id":"4","last_reported":1741680771,"current_range_meters":3600,"station_id":"ce4bhsh2rcd13ifvqi2g","pricing_plan_id":"cebpf4jnsgd1na2vs0mg"},{"bike_id":"e268dd4c-9f4f-4a1a-85e8-2d3aaeef7cbe","system_id":"levelo_inurba_marseille","lat":43.25937,"lon":5.40904,"is_reserved":false,"is_disabled":false,"rental_uris":{"android":"levelo://app?vid=e268dd4c-9f4f-4a1a-85e8-2d3aaeef7cbe","ios":"levelo://app?vid=e268dd4c-9f4f-4a1a-85e8-2d3aaeef7cbe"},"vehicle_type_id":"4","last_reported":1741680771,"current_range_meters":4000,"station_id":"ce4bhm92rcd13ifvqglg","pricing_plan_id":"cebpf4jnsgd1na2vs0mg"},{"bike_id":"27e318c2-e264-4cfc-9929-f95db0150b20","system_id":"levelo_inurba_marseille","lat":43.25939,"lon":5.40906,"is_reserved":false,"is_disabled":false,"rental_uris":{"android":"levelo://app?vid=27e318c2-e264-4cfc-9929-f95db0150b20","ios":"levelo://app?vid=27e318c2-e264-4cfc-9929-f95db0150b20"},"vehicle_type_id":"4","last_reported":1741680771,"current_range_meters":4000,"station_id":"ce4bhm92rcd13ifvqglg","pricing_plan_id":"cebpf4jnsgd1na2vs0mg"},{"bike_id":"7e4fb9e0-3677-4bd5-bd29-d1a197242817","system_id":"levelo_inurba_marseille","lat":43.28156,"lon":5.42661,"is_reserved":false,"is_disabled":false,"rental_uris":{"android":"levelo://app?vid=7e4fb9e0-3677-4bd5-bd29-d1a197242817","ios":"levelo://app?vid=7e4fb9e0-3677-4bd5-bd29-d1a197242817"},"vehicle_type_id":"4","last_reported":1741680771,"current_range_meters":4000,"station_id":"ce4bhnh2rcd13ifvqgug","pricing_plan_id":"cebpf4jnsgd1na2vs0mg"},{"bike_id":"bcfee529-a085-4c7b-9ebf-e8eb23e2a928","system_id":"levelo_inurba_marseille","lat":43.30155,"lon":5.373835,"is_reserved":false,"is_disabled":false,"rental_uris":{"android":"levelo://app?vid=bcfee529-a085-4c7b-9ebf-e8eb23e2a928","ios":"levelo://app?vid=bcfee529-a085-4c7b-9ebf-e8eb23e2a928"},"vehicle_type_id":"4","last_reported":1741680771,"current_range_meters":4000,"station_id":"ce4bgs92rcd13ifvqcc0","pricing_plan_id":"cebpf4jnsgd1na2vs0mg"},{"bike_id":"57bb9620-7e1d-4375-9183-8aca42377c8c","system_id":"levelo_inurba_marseille","lat":43.30471,"lon":5.38207,"is_reserved":false,"is_disabled":false,"rental_uris":{"android":"levelo://app?vid=57bb9620-7e1d-4375-9183-8aca42377c8c","ios":"levelo://app?vid=57bb9620-7e1d-4375-9183-8aca42377c8c"},"vehicle_type_id":"4","last_reported":1741680771,"current_range_meters":4000,"station_id":"","pricing_plan_id":"cebpf4jnsgd1na2vs0mg"},{"bike_id":"cb5eeae3-caa5-49bd-a918-2181fb11b51c","system_id":"levelo_inurba_marseille","lat":43.2849,"lon":5.38564,"is_reserved":false,"is_disabled":false,"rental_uris":{"android":"levelo://app?vid=cb5eeae3-caa5-49bd-a918-2181fb11b51c","ios":"levelo://app?vid=cb5eeae3-caa5-49bd-a918-2181fb11b51c"},"vehicle_type_id":"4","last_reported":1741680771,"current_range_meters":4400,"station_id":"ce4bh8p2rcd13ifvqeb0","pricing_plan_id":"cebpf4jnsgd1na2vs0mg"},{"bike_id":"50801701-a220-46e0-8f69-8405fbc2e3ce","system_id":"levelo_inurba_marseille","lat":43.24173,"lon":5.36395,"is_reserved":false,"is_disabled":false,"rental_uris":{"android":"levelo://app?vid=50801701-a220-46e0-8f69-8405fbc2e3ce","ios":"levelo://app?vid=50801701-a220-46e0-8f69-8405fbc2e3ce"},"vehicle_type_id":"4","last_reported":1741680771,"current_range_meters":4400,"station_id":"cpo36qri1sfpv3e86is0","pricing_plan_id":"cebpf4jnsgd1na2vs0mg"},{"bike_id":"e2888f62-04e8-409e-beb7-afe6a7935306","system_id":"levelo_inurba_marseille","lat":43.280507,"lon":5.369387,"is_reserved":false,"is_disabled":false,"rental_uris":{"android":"levelo://app?vid=e2888f62-04e8-409e-beb7-afe6a7935306","ios":"levelo://app?vid=e2888f62-04e8-409e-beb7-afe6a7935306"},"vehicle_type_id":"4","last_reported":1741680771,"current_range_meters":4400,"station_id":"ce4bha12rcd13ifvqef0","pricing_plan_id":"cebpf4jnsgd1na2vs0mg"},{"bike_id":"b721eb50-abed-42ba-86f7-ef91b0c0cfd7","system_id":"levelo_inurba_marseille","lat":43.24076,"lon":5.37761,"is_reserved":false,"is_disabled":false,"rental_uris":{"android":"levelo://app?vid=b721eb50-abed-42ba-86f7-ef91b0c0cfd7","ios":"levelo://app?vid=b721eb50-abed-42ba-86f7-ef91b0c0cfd7"},"vehicle_type_id":"4","last_reported":1741680771,"current_range_meters":2800,"station_id":"ce4bhnp2rcd13ifvqgvg","pricing_plan_id":"cebpf4jnsgd1na2vs0mg"},{"bike_id":"1b1e3324-cba0-4288-b475-d492e5ad9ff9","system_id":"levelo_inurba_marseille","lat":43.30145,"lon":5.38074,"is_reserved":false,"is_disabled":false,"rental_uris":{"android":"levelo://app?vid=1b1e3324-cba0-4288-b475-d492e5ad9ff9","ios":"levelo://app?vid=1b1e3324-cba0-4288-b475-d492e5ad9ff9"},"vehicle_type_id":"4","last_reported":1741680771,"current_range_meters":4800,"station_id":"ce4bgjp2rcd13ifvqbh0","pricing_plan_id":"cebpf4jnsgd1na2vs0mg"},{"bike_id":"3eb8f8f5-aa00-458b-a036-a5d0cf0278f6","system_id":"levelo_inurba_marseille","lat":43.27319,"lon":5.39075,"is_reserved":false,"is_disabled":false,"rental_uris":{"android":"levelo://app?vid=3eb8f8f5-aa00-458b-a036-a5d0cf0278f6","ios":"levelo://app?vid=3eb8f8f5-aa00-458b-a036-a5d0cf0278f6"},"vehicle_type_id":"4","last_reported":1741680771,"current_range_meters":4800,"station_id":"ce4bhgp2rcd13ifvqfe0","pricing_plan_id":"cebpf4jnsgd1na2vs0mg"},{"bike_id":"b104001a-10f7-4c93-b613-2b76cb885027","system_id":"levelo_inurba_marseille","lat":43.31173,"lon":5.3713,"is_reserved":false,"is_disabled":false,"rental_uris":{"android":"levelo://app?vid=b104001a-10f7-4c93-b613-2b76cb885027","ios":"levelo://app?vid=b104001a-10f7-4c93-b613-2b76cb885027"},"vehicle_type_id":"4","last_reported":1741680771,"current_range_meters":4800,"station_id":"","pricing_plan_id":"cebpf4jnsgd1na2vs0mg"},{"bike_id":"a9d85d91-8fda-4ea0-81b1-a2470ba7092b","system_id":"levelo_inurba_marseille","lat":43.30152,"lon":5.37409,"is_reserved":false,"is_disabled":false,"rental_uris":{"android":"levelo://app?vid=a9d85d91-8fda-4ea0-81b1-a2470ba7092b","ios":"levelo://app?vid=a9d85d91-8fda-4ea0-81b1-a2470ba7092b"},"vehicle_type_id":"4","last_reported":1741680771,"current_range_meters":4800,"station_id":"ce4bgs92rcd13ifvqcc0","pricing_plan_id":"cebpf4jnsgd1na2vs0mg"},{"bike_id":"7f08542c-3622-4bee-8852-d0974c0ec085","system_id":"levelo_inurba_marseille","lat":43.24184,"lon":5.36319,"is_reserved":false,"is_disabled":false,"rental_uris":{"android":"levelo://app?vid=7f08542c-3622-4bee-8852-d0974c0ec085","ios":"levelo://app?vid=7f08542c-3622-4bee-8852-d0974c0ec085"},"vehicle_type_id":"4","last_reported":1741680771,"current_range_meters":5600,"station_id":"","pricing_plan_id":"cebpf4jnsgd1na2vs0mg"},{"bike_id":"3c57a3fc-75b6-4e79-8a13-aa2e0eee3189","system_id":"levelo_inurba_marseille","lat":43.28147,"lon":5.42639,"is_reserved":false,"is_disabled":false,"rental_uris":{"android":"levelo://app?vid=3c57a3fc-75b6-4e79-8a13-aa2e0eee3189","ios":"levelo://app?vid=3c57a3fc-75b6-4e79-8a13-aa2e0eee3189"},"vehicle_type_id":"4","last_reported":1741680771,"current_range_meters":5600,"station_id":"ce4bhnh2rcd13ifvqgug","pricing_plan_id":"cebpf4jnsgd1na2vs0mg"},{"bike_id":"4d0cbf12-a04b-415e-a154-bb959cf580e9","system_id":"levelo_inurba_marseille","lat":43.31376,"lon":5.38493,"is_reserved":false,"is_disabled":false,"rental_uris":{"android":"levelo://app?vid=4d0cbf12-a04b-415e-a154-bb959cf580e9","ios":"levelo://app?vid=4d0cbf12-a04b-415e-a154-bb959cf580e9"},"vehicle_type_id":"4","last_reported":1741680771,"current_range_meters":5600,"station_id":"ce4bgt92rcd13ifvqcf0","pricing_plan_id":"cebpf4jnsgd1na2vs0mg"},{"bike_id":"654968cd-8f70-4bea-ab46-7ea5521aaac7","system_id":"levelo_inurba_marseille","lat":43.27994,"lon":5.40013,"is_reserved":false,"is_disabled":false,"rental_uris":{"android":"levelo://app?vid=654968cd-8f70-4bea-ab46-7ea5521aaac7","ios":"levelo://app?vid=654968cd-8f70-4bea-ab46-7ea5521aaac7"},"vehicle_type_id":"4","last_reported":1741680771,"current_range_meters":5600,"station_id":"ce4bho92rcd13ifvqh4g","pricing_plan_id":"cebpf4jnsgd1na2vs0mg"},{"bike_id":"8b556025-3745-4f27-aabf-c177ed11b29c","system_id":"levelo_inurba_marseille","lat":43.296791,"lon":5.362701,"is_reserved":false,"is_disabled":false,"rental_uris":{"android":"levelo://app?vid=8b556025-3745-4f27-aabf-c177ed11b29c","ios":"levelo://app?vid=8b556025-3745-4f27-aabf-c177ed11b29c"},"vehicle_type_id":"4","last_reported":1741680771,"current_range_meters":5600,"station_id":"ce4bgnh2rcd13ifvqc0g","pricing_plan_id":"cebpf4jnsgd1na2vs0mg"},{"bike_id":"5d44eec5-0f76-4d9d-87c9-f425c19e364b","system_id":"levelo_inurba_marseille","lat":43.25087,"lon":5.39519,"is_reserved":false,"is_disabled":false,"rental_uris":{"android":"levelo://app?vid=5d44eec5-0f76-4d9d-87c9-f425c19e364b","ios":"levelo://app?vid=5d44eec5-0f76-4d9d-87c9-f425c19e364b"},"vehicle_type_id":"4","last_reported":1741680771,"current_range_meters":5600,"station_id":"ce4bhm12rcd13ifvqgkg","pricing_plan_id":"cebpf4jnsgd1na2vs0mg"},{"bike_id":"2fbb2f0e-b64e-445e-a2b3-ee5227dc63e4","system_id":"levelo_inurba_marseille","lat":43.26906,"lon":5.36718,"is_reserved":false,"is_disabled":false,"rental_uris":{"android":"levelo://app?vid=2fbb2f0e-b64e-445e-a2b3-ee5227dc63e4","ios":"levelo://app?vid=2fbb2f0e-b64e-445e-a2b3-ee5227dc63e4"},"vehicle_type_id":"4","last_reported":1741680771,"current_range_meters":6000,"station_id":"","pricing_plan_id":"cebpf4jnsgd1na2vs0mg"},{"bike_id":"0df7d369-121a-49f2-a477-e71ff66ee013","system_id":"levelo_inurba_marseille","lat":43.29306,"lon":5.3746,"is_reserved":false,"is_disabled":false,"rental_uris":{"android":"levelo://app?vid=0df7d369-121a-49f2-a477-e71ff66ee013","ios":"levelo://app?vid=0df7d369-121a-49f2-a477-e71ff66ee013"},"vehicle_type_id":"4","last_reported":1741680771,"current_range_meters":6000,"station_id":"ce4bgi12rcd13ifvqb70","pricing_plan_id":"cebpf4jnsgd1na2vs0mg"},{"bike_id":"51b43b8b-3545-4d48-8116-ac92a2b410e9","system_id":"levelo_inurba_marseille","lat":43.31494,"lon":5.37283,"is_reserved":false,"is_disabled":false,"rental_uris":{"android":"levelo://app?vid=51b43b8b-3545-4d48-8116-ac92a2b410e9","ios":"levelo://app?vid=51b43b8b-3545-4d48-8116-ac92a2b410e9"},"vehicle_type_id":"4","last_reported":1741680771,"current_range_meters":6000,"station_id":"ce4bgt12rcd13ifvqcd0","pricing_plan_id":"cebpf4jnsgd1na2vs0mg"},{"bike_id":"ff7e6dc6-f1cc-47c3-86cc-e5a81f654d05","system_id":"levelo_inurba_marseille","lat":43.2923,"lon":5.36062,"is_reserved":false,"is_disabled":false,"rental_uris":{"android":"levelo://app?vid=ff7e6dc6-f1cc-47c3-86cc-e5a81f654d05","ios":"levelo://app?vid=ff7e6dc6-f1cc-47c3-86cc-e5a81f654d05"},"vehicle_type_id":"4","last_reported":1741680771,"current_range_meters":6000,"station_id":"ce4bhbh2rcd13ifvqeqg","pricing_plan_id":"cebpf4jnsgd1na2vs0mg"},{"bike_id":"cff4445f-6b70-4c92-a3aa-728d1723639c","system_id":"levelo_inurba_marseille","lat":43.25079,"lon":5.39537,"is_reserved":false,"is_disabled":false,"rental_uris":{"android":"levelo://app?vid=cff4445f-6b70-4c92-a3aa-728d1723639c","ios":"levelo://app?vid=cff4445f-6b70-4c92-a3aa-728d1723639c"},"vehicle_type_id":"4","last_reported":1741680771,"current_range_meters":6400,"station_id":"ce4bhm12rcd13ifvqgkg","pricing_plan_id":"cebpf4jnsgd1na2vs0mg"},{"bike_id":"ff5b2e4a-cfcc-4193-9732-04c5f17aa254","system_id":"levelo_inurba_marseille","lat":43.27497,"lon":5.42467,"is_reserved":false,"is_disabled":false,"rental_uris":{"android":"levelo://app?vid=ff5b2e4a-cfcc-4193-9732-04c5f17aa254","ios":"levelo://app?vid=ff5b2e4a-cfcc-4193-9732-04c5f17aa254"},"vehicle_type_id":"4","last_reported":1741680771,"current_range_meters":6400,"station_id":"ce4bhn92rcd13ifvqgrg","pricing_plan_id":"cebpf4jnsgd1na2vs0mg"},{"bike_id":"e8772d48-caac-4533-aaa5-56369b3e2b87","system_id":"levelo_inurba_marseille","lat":43.29086,"lon":5.39994,"is_reserved":false,"is_disabled":false,"rental_uris":{"android":"levelo://app?vid=e8772d48-caac-4533-aaa5-56369b3e2b87","ios":"levelo://app?vid=e8772d48-caac-4533-aaa5-56369b3e2b87"},"vehicle_type_id":"4","last_reported":1741680771,"current_range_meters":6400,"station_id":"","pricing_plan_id":"cebpf4jnsgd1na2vs0mg"},{"bike_id":"ce4d618d-a090-462a-af94-5e66f4cc9c62","system_id":"levelo_inurba_marseille","lat":43.27494,"lon":5.42464,"is_reserved":false,"is_disabled":false,"rental_uris":{"android":"levelo://app?vid=ce4d618d-a090-462a-af94-5e66f4cc9c62","ios":"levelo://app?vid=ce4d618d-a090-462a-af94-5e66f4cc9c62"},"vehicle_type_id":"4","last_reported":1741680771,"current_range_meters":6400,"station_id":"ce4bhn92rcd13ifvqgrg","pricing_plan_id":"cebpf4jnsgd1na2vs0mg"},{"bike_id":"1f72adc6-3d1a-4fad-a905-cb9dcd596e26","system_id":"levelo_inurba_marseille","lat":43.23842,"lon":5.43563,"is_reserved":false,"is_disabled":false,"rental_uris":{"android":"levelo://app?vid=1f72adc6-3d1a-4fad-a905-cb9dcd596e26","ios":"levelo://app?vid=1f72adc6-3d1a-4fad-a905-cb9dcd596e26"},"vehicle_type_id":"4","last_reported":1741680771,"current_range_meters":6400,"station_id":"","pricing_plan_id":"cebpf4jnsgd1na2vs0mg"},{"bike_id":"4db736b9-68d3-4f2a-9431-002ce7a44183","system_id":"levelo_inurba_marseille","lat":43.2315,"lon":5.43719,"is_reserved":false,"is_disabled":false,"rental_uris":{"android":"levelo://app?vid=4db736b9-68d3-4f2a-9431-002ce7a44183","ios":"levelo://app?vid=4db736b9-68d3-4f2a-9431-002ce7a44183"},"vehicle_type_id":"4","last_reported":1741680771,"current_range_meters":6400,"station_id":"ce4bhmp2rcd13ifvqgog","pricing_plan_id":"cebpf4jnsgd1na2vs0mg"},{"bike_id":"4fc82004-ba25-46e8-9d12-a8bf2240aace","system_id":"levelo_inurba_marseille","lat":43.23194,"lon":5.39986,"is_reserved":false,"is_disabled":false,"rental_uris":{"android":"levelo://app?vid=4fc82004-ba25-46e8-9d12-a8bf2240aace","ios":"levelo://app?vid=4fc82004-ba25-46e8-9d12-a8bf2240aace"},"vehicle_type_id":"4","last_reported":1741680771,"current_range_meters":6800,"station_id":"ce4bhn12rcd13ifvqgqg","pricing_plan_id":"cebpf4jnsgd1na2vs0mg"},{"bike_id":"a60756e4-2849-4155-a38a-d73c68cfdb00","system_id":"levelo_inurba_marseille","lat":43.2936,"lon":5.37839,"is_reserved":false,"is_disabled":false,"rental_uris":{"android":"levelo://app?vid=a60756e4-2849-4155-a38a-d73c68cfdb00","ios":"levelo://app?vid=a60756e4-2849-4155-a38a-d73c68cfdb00"},"vehicle_type_id":"4","last_reported":1741680771,"current_range_meters":6400,"station_id":"ce4bgjh2rcd13ifvqbf0","pricing_plan_id":"cebpf4jnsgd1na2vs0mg"},{"bike_id":"0f46c260-b08f-45c0-9a52-992053540c96","system_id":"levelo_inurba_marseille","lat":43.30473,"lon":5.3791,"is_reserved":false,"is_disabled":false,"rental_uris":{"android":"levelo://app?vid=0f46c260-b08f-45c0-9a52-992053540c96","ios":"levelo://app?vid=0f46c260-b08f-45c0-9a52-992053540c96"},"vehicle_type_id":"4","last_reported":1741680771,"current_range_meters":6800,"station_id":"ce4bgup2rcd13ifvqcn0","pricing_plan_id":"cebpf4jnsgd1na2vs0mg"},{"bike_id":"1907067d-5e3d-40ca-8a47-ba415b8b2a28","system_id":"levelo_inurba_marseille","lat":43.33608,"lon":5.41007,"is_reserved":false,"is_disabled":true,"rental_uris":{"android":"levelo://app?vid=1907067d-5e3d-40ca-8a47-ba415b8b2a28","ios":"levelo://app?vid=1907067d-5e3d-40ca-8a47-ba415b8b2a28"},"vehicle_type_id":"4","last_reported":1741680771,"current_range_meters":6800,"station_id":"ce4bhqh2rcd13ifvqhmg","pricing_plan_id":"cebpf4jnsgd1na2vs0mg"},{"bike_id":"373a1af5-2b90-40ba-bdc3-b87140071d00","system_id":"levelo_inurba_marseille","lat":43.31188,"lon":5.40321,"is_reserved":false,"is_disabled":true,"rental_uris":{"android":"levelo://app?vid=373a1af5-2b90-40ba-bdc3-b87140071d00","ios":"levelo://app?vid=373a1af5-2b90-40ba-bdc3-b87140071d00"},"vehicle_type_id":"4","last_reported":1741680771,"current_range_meters":6800,"station_id":"","pricing_plan_id":"cebpf4jnsgd1na2vs0mg"},{"bike_id":"27ec60e3-b2e3-435c-ba4c-8372ab285bb1","system_id":"levelo_inurba_marseille","lat":43.28151,"lon":5.4267,"is_reserved":false,"is_disabled":false,"rental_uris":{"android":"levelo://app?vid=27ec60e3-b2e3-435c-ba4c-8372ab285bb1","ios":"levelo://app?vid=27ec60e3-b2e3-435c-ba4c-8372ab285bb1"},"vehicle_type_id":"4","last_reported":1741680771,"current_range_meters":6800,"station_id":"ce4bhnh2rcd13ifvqgug","pricing_plan_id":"cebpf4jnsgd1na2vs0mg"},{"bike_id":"58e479a9-c3a4-4826-ad96-179cb000b7c3","system_id":"levelo_inurba_marseille","lat":43.31411,"lon":5.36654,"is_reserved":false,"is_disabled":false,"rental_uris":{"android":"levelo://app?vid=58e479a9-c3a4-4826-ad96-179cb000b7c3","ios":"levelo://app?vid=58e479a9-c3a4-4826-ad96-179cb000b7c3"},"vehicle_type_id":"4","last_reported":1741680771,"current_range_meters":6800,"station_id":"","pricing_plan_id":"cebpf4jnsgd1na2vs0mg"},{"bike_id":"554f9d1a-c986-4f48-8e17-e97c1989f9c4","system_id":"levelo_inurba_marseille","lat":43.32332,"lon":5.40645,"is_reserved":false,"is_disabled":false,"rental_uris":{"android":"levelo://app?vid=554f9d1a-c986-4f48-8e17-e97c1989f9c4","ios":"levelo://app?vid=554f9d1a-c986-4f48-8e17-e97c1989f9c4"},"vehicle_type_id":"4","last_reported":1741680771,"current_range_meters":7200,"station_id":"ce4bhq92rcd13ifvqhjg","pricing_plan_id":"cebpf4jnsgd1na2vs0mg"},{"bike_id":"ae40c0ce-3c12-4d0b-bbf9-30cde05c01af","system_id":"levelo_inurba_marseille","lat":43.25938,"lon":5.40905,"is_reserved":false,"is_disabled":false,"rental_uris":{"android":"levelo://app?vid=ae40c0ce-3c12-4d0b-bbf9-30cde05c01af","ios":"levelo://app?vid=ae40c0ce-3c12-4d0b-bbf9-30cde05c01af"},"vehicle_type_id":"4","last_reported":1741680771,"current_range_meters":7200,"station_id":"ce4bhm92rcd13ifvqglg","pricing_plan_id":"cebpf4jnsgd1na2vs0mg"},{"bike_id":"eda074eb-77af-4e4c-901c-478d03102cf3","system_id":"levelo_inurba_marseille","lat":43.336018,"lon":5.410328,"is_reserved":false,"is_disabled":false,"rental_uris":{"android":"levelo://app?vid=eda074eb-77af-4e4c-901c-478d03102cf3","ios":"levelo://app?vid=eda074eb-77af-4e4c-901c-478d03102cf3"},"vehicle_type_id":"4","last_reported":1741680771,"current_range_meters":7200,"station_id":"ce4bhqh2rcd13ifvqhmg","pricing_plan_id":"cebpf4jnsgd1na2vs0mg"},{"bike_id":"3efbfa33-973e-4f96-90cd-269596d31f9c","system_id":"levelo_inurba_marseille","lat":43.29033,"lon":5.39976,"is_reserved":false,"is_disabled":false,"rental_uris":{"android":"levelo://app?vid=3efbfa33-973e-4f96-90cd-269596d31f9c","ios":"levelo://app?vid=3efbfa33-973e-4f96-90cd-269596d31f9c"},"vehicle_type_id":"4","last_reported":1741680771,"current_range_meters":7200,"station_id":"ce4bh392rcd13ifvqdm0","pricing_plan_id":"cebpf4jnsgd1na2vs0mg"},{"bike_id":"6f3fdde9-8483-4cac-974d-fe89c4dbd719","system_id":"levelo_inurba_marseille","lat":43.31085,"lon":5.42428,"is_reserved":false,"is_disabled":false,"rental_uris":{"android":"levelo://app?vid=6f3fdde9-8483-4cac-974d-fe89c4dbd719","ios":"levelo://app?vid=6f3fdde9-8483-4cac-974d-fe89c4dbd719"},"vehicle_type_id":"4","last_reported":1741680771,"current_range_meters":4400,"station_id":"ce4bhp92rcd13ifvqhag","pricing_plan_id":"cebpf4jnsgd1na2vs0mg"},{"bike_id":"61c8cbe6-f9a4-4966-a601-a31178d2ea4e","system_id":"levelo_inurba_marseille","lat":43.28383,"lon":5.38122,"is_reserved":false,"is_disabled":false,"rental_uris":{"android":"levelo://app?vid=61c8cbe6-f9a4-4966-a601-a31178d2ea4e","ios":"levelo://app?vid=61c8cbe6-f9a4-4966-a601-a31178d2ea4e"},"vehicle_type_id":"4","last_reported":1741680771,"current_range_meters":7200,"station_id":"ce4bh412rcd13ifvqdr0","pricing_plan_id":"cebpf4jnsgd1na2vs0mg"},{"bike_id":"54afd193-ee95-4f5e-975a-c9018d9dcb98","system_id":"levelo_inurba_marseille","lat":43.32366,"lon":5.36768,"is_reserved":false,"is_disabled":false,"rental_uris":{"android":"levelo://app?vid=54afd193-ee95-4f5e-975a-c9018d9dcb98","ios":"levelo://app?vid=54afd193-ee95-4f5e-975a-c9018d9dcb98"},"vehicle_type_id":"4","last_reported":1741680771,"current_range_meters":8000,"station_id":"ce4bhsh2rcd13ifvqi2g","pricing_plan_id":"cebpf4jnsgd1na2vs0mg"},{"bike_id":"7f59646a-2d98-41f1-be7c-a690e01f50fe","system_id":"levelo_inurba_marseille","lat":43.25935,"lon":5.40908,"is_reserved":false,"is_disabled":false,"rental_uris":{"android":"levelo://app?vid=7f59646a-2d98-41f1-be7c-a690e01f50fe","ios":"levelo://app?vid=7f59646a-2d98-41f1-be7c-a690e01f50fe"},"vehicle_type_id":"4","last_reported":1741680771,"current_range_meters":8000,"station_id":"ce4bhm92rcd13ifvqglg","pricing_plan_id":"cebpf4jnsgd1na2vs0mg"},{"bike_id":"d6b8b55b-28e0-4afb-9cbd-5f5195446675","system_id":"levelo_inurba_marseille","lat":43.27501,"lon":5.42465,"is_reserved":false,"is_disabled":false,"rental_uris":{"android":"levelo://app?vid=d6b8b55b-28e0-4afb-9cbd-5f5195446675","ios":"levelo://app?vid=d6b8b55b-28e0-4afb-9cbd-5f5195446675"},"vehicle_type_id":"4","last_reported":1741680771,"current_range_meters":8000,"station_id":"ce4bhn92rcd13ifvqgrg","pricing_plan_id":"cebpf4jnsgd1na2vs0mg"},{"bike_id":"1903ec43-b9f5-43f2-8e9d-88de6c1f7933","system_id":"levelo_inurba_marseille","lat":43.24176,"lon":5.39739,"is_reserved":false,"is_disabled":false,"rental_uris":{"android":"levelo://app?vid=1903ec43-b9f5-43f2-8e9d-88de6c1f7933","ios":"levelo://app?vid=1903ec43-b9f5-43f2-8e9d-88de6c1f7933"},"vehicle_type_id":"4","last_reported":1741680771,"current_range_meters":8000,"station_id":"ce4bhn12rcd13ifvqgpg","pricing_plan_id":"cebpf4jnsgd1na2vs0mg"},{"bike_id":"e5cf046b-59d9-4bef-98b0-d71713cfc93e","system_id":"levelo_inurba_marseille","lat":43.32591,"lon":5.41491,"is_reserved":false,"is_disabled":false,"rental_uris":{"android":"levelo://app?vid=e5cf046b-59d9-4bef-98b0-d71713cfc93e","ios":"levelo://app?vid=e5cf046b-59d9-4bef-98b0-d71713cfc93e"},"vehicle_type_id":"4","last_reported":1741680771,"current_range_meters":8000,"station_id":"ce4bhq12rcd13ifvqhhg","pricing_plan_id":"cebpf4jnsgd1na2vs0mg"},{"bike_id":"6ec85e6b-cb00-4d71-9c5c-2edd2b1be267","system_id":"levelo_inurba_marseille","lat":43.29055,"lon":5.39978,"is_reserved":false,"is_disabled":false,"rental_uris":{"android":"levelo://app?vid=6ec85e6b-cb00-4d71-9c5c-2edd2b1be267","ios":"levelo://app?vid=6ec85e6b-cb00-4d71-9c5c-2edd2b1be267"},"vehicle_type_id":"4","last_reported":1741680771,"current_range_meters":8000,"station_id":"ce4bh392rcd13ifvqdm0","pricing_plan_id":"cebpf4jnsgd1na2vs0mg"},{"bike_id":"550f4f9f-afbd-4396-bec2-cdce79ad77cc","system_id":"levelo_inurba_marseille","lat":43.32487,"lon":5.36568,"is_reserved":false,"is_disabled":false,"rental_uris":{"android":"levelo://app?vid=550f4f9f-afbd-4396-bec2-cdce79ad77cc","ios":"levelo://app?vid=550f4f9f-afbd-4396-bec2-cdce79ad77cc"},"vehicle_type_id":"4","last_reported":1741680771,"current_range_meters":8400,"station_id":"ce4bhs12rcd13ifvqhvg","pricing_plan_id":"cebpf4jnsgd1na2vs0mg"},{"bike_id":"2737d947-1ec6-43d4-bba3-1e9bf5e296db","system_id":"levelo_inurba_marseille","lat":43.30254,"lon":5.40064,"is_reserved":false,"is_disabled":false,"rental_uris":{"android":"levelo://app?vid=2737d947-1ec6-43d4-bba3-1e9bf5e296db","ios":"levelo://app?vid=2737d947-1ec6-43d4-bba3-1e9bf5e296db"},"vehicle_type_id":"4","last_reported":1741680771,"current_range_meters":8400,"station_id":"ce4bgvh2rcd13ifvqcs0","pricing_plan_id":"cebpf4jnsgd1na2vs0mg"},{"bike_id":"2307b9a2-3eec-4ec4-8600-1d354d88887c","system_id":"levelo_inurba_marseille","lat":43.29353,"lon":5.37839,"is_reserved":false,"is_disabled":false,"rental_uris":{"android":"levelo://app?vid=2307b9a2-3eec-4ec4-8600-1d354d88887c","ios":"levelo://app?vid=2307b9a2-3eec-4ec4-8600-1d354d88887c"},"vehicle_type_id":"4","last_reported":1741680771,"current_range_meters":8400,"station_id":"ce4bgjh2rcd13ifvqbf0","pricing_plan_id":"cebpf4jnsgd1na2vs0mg"},{"bike_id":"121171ad-f770-40f1-b831-4e91162b1f9d","system_id":"levelo_inurba_marseille","lat":43.28335,"lon":5.38107,"is_reserved":false,"is_disabled":false,"rental_uris":{"android":"levelo://app?vid=121171ad-f770-40f1-b831-4e91162b1f9d","ios":"levelo://app?vid=121171ad-f770-40f1-b831-4e91162b1f9d"},"vehicle_type_id":"4","last_reported":1741680771,"current_range_meters":8400,"station_id":"ce4bh412rcd13ifvqdr0","pricing_plan_id":"cebpf4jnsgd1na2vs0mg"},{"bike_id":"4491a1e2-eb06-49d1-bf0c-ffab94d6b1ae","system_id":"levelo_inurba_marseille","lat":43.24181,"lon":5.39726,"is_reserved":false,"is_disabled":true,"rental_uris":{"android":"levelo://app?vid=4491a1e2-eb06-49d1-bf0c-ffab94d6b1ae","ios":"levelo://app?vid=4491a1e2-eb06-49d1-bf0c-ffab94d6b1ae"},"vehicle_type_id":"4","last_reported":1741680771,"current_range_meters":8800,"station_id":"ce4bhn12rcd13ifvqgpg","pricing_plan_id":"cebpf4jnsgd1na2vs0mg"},{"bike_id":"d2ac0aa6-492c-406a-8f30-81aab53fe76b","system_id":"levelo_inurba_marseille","lat":43.24188,"lon":5.39722,"is_reserved":false,"is_disabled":true,"rental_uris":{"android":"levelo://app?vid=d2ac0aa6-492c-406a-8f30-81aab53fe76b","ios":"levelo://app?vid=d2ac0aa6-492c-406a-8f30-81aab53fe76b"},"vehicle_type_id":"4","last_reported":1741680771,"current_range_meters":8800,"station_id":"ce4bhn12rcd13ifvqgpg","pricing_plan_id":"cebpf4jnsgd1na2vs0mg"},{"bike_id":"e1498ebd-a42c-474f-8279-2c2e9cca71d4","system_id":"levelo_inurba_marseille","lat":43.288339,"lon":5.382336,"is_reserved":false,"is_disabled":false,"rental_uris":{"android":"levelo://app?vid=e1498ebd-a42c-474f-8279-2c2e9cca71d4","ios":"levelo://app?vid=e1498ebd-a42c-474f-8279-2c2e9cca71d4"},"vehicle_type_id":"4","last_reported":1741680771,"current_range_meters":8800,"station_id":"","pricing_plan_id":"cebpf4jnsgd1na2vs0mg"},{"bike_id":"787941c7-68e4-4a9e-b1f1-d3bf469258e1","system_id":"levelo_inurba_marseille","lat":43.241781,"lon":5.397348,"is_reserved":false,"is_disabled":false,"rental_uris":{"android":"levelo://app?vid=787941c7-68e4-4a9e-b1f1-d3bf469258e1","ios":"levelo://app?vid=787941c7-68e4-4a9e-b1f1-d3bf469258e1"},"vehicle_type_id":"4","last_reported":1741680771,"current_range_meters":8800,"station_id":"ce4bhn12rcd13ifvqgpg","pricing_plan_id":"cebpf4jnsgd1na2vs0mg"},{"bike_id":"63272bff-a31f-4915-aa0c-479605da3c2c","system_id":"levelo_inurba_marseille","lat":43.2942,"lon":5.38632,"is_reserved":false,"is_disabled":false,"rental_uris":{"android":"levelo://app?vid=63272bff-a31f-4915-aa0c-479605da3c2c","ios":"levelo://app?vid=63272bff-a31f-4915-aa0c-479605da3c2c"},"vehicle_type_id":"4","last_reported":1741680771,"current_range_meters":8800,"station_id":"ce4bh2h2rcd13ifvqdh0","pricing_plan_id":"cebpf4jnsgd1na2vs0mg"},{"bike_id":"0e74fd1f-eaa3-4d4e-8241-d5fba15781cb","system_id":"levelo_inurba_marseille","lat":43.299733,"lon":5.384797,"is_reserved":false,"is_disabled":false,"rental_uris":{"android":"levelo://app?vid=0e74fd1f-eaa3-4d4e-8241-d5fba15781cb","ios":"levelo://app?vid=0e74fd1f-eaa3-4d4e-8241-d5fba15781cb"},"vehicle_type_id":"4","last_reported":1741680771,"current_range_meters":8800,"station_id":"ce4bgs12rcd13ifvqcag","pricing_plan_id":"cebpf4jnsgd1na2vs0mg"},{"bike_id":"ad9885b8-46bd-41dc-b0e6-4f15bcb85518","system_id":"levelo_inurba_marseille","lat":43.31076,"lon":5.42444,"is_reserved":false,"is_disabled":false,"rental_uris":{"android":"levelo://app?vid=ad9885b8-46bd-41dc-b0e6-4f15bcb85518","ios":"levelo://app?vid=ad9885b8-46bd-41dc-b0e6-4f15bcb85518"},"vehicle_type_id":"4","last_reported":1741680771,"current_range_meters":8800,"station_id":"ce4bhp92rcd13ifvqhag","pricing_plan_id":"cebpf4jnsgd1na2vs0mg"},{"bike_id":"c62094b0-2a20-43cd-9e4f-8a087431e68a","system_id":"levelo_inurba_marseille","lat":43.29273,"lon":5.40104,"is_reserved":false,"is_disabled":true,"rental_uris":{"android":"levelo://app?vid=c62094b0-2a20-43cd-9e4f-8a087431e68a","ios":"levelo://app?vid=c62094b0-2a20-43cd-9e4f-8a087431e68a"},"vehicle_type_id":"4","last_reported":1741680771,"current_range_meters":8800,"station_id":"ce4bh312rcd13ifvqdk0","pricing_plan_id":"cebpf4jnsgd1na2vs0mg"},{"bike_id":"9fc042b1-ba36-492c-980d-1bd31e8d0406","system_id":"levelo_inurba_marseille","lat":43.25941,"lon":5.40906,"is_reserved":false,"is_disabled":false,"rental_uris":{"android":"levelo://app?vid=9fc042b1-ba36-492c-980d-1bd31e8d0406","ios":"levelo://app?vid=9fc042b1-ba36-492c-980d-1bd31e8d0406"},"vehicle_type_id":"4","last_reported":1741680771,"current_range_meters":6000,"station_id":"ce4bhm92rcd13ifvqglg","pricing_plan_id":"cebpf4jnsgd1na2vs0mg"},{"bike_id":"e6bfedde-b8d3-483f-9c12-e45beb87d7c9","system_id":"levelo_inurba_marseille","lat":43.2316,"lon":5.43732,"is_reserved":false,"is_disabled":false,"rental_uris":{"android":"levelo://app?vid=e6bfedde-b8d3-483f-9c12-e45beb87d7c9","ios":"levelo://app?vid=e6bfedde-b8d3-483f-9c12-e45beb87d7c9"},"vehicle_type_id":"4","last_reported":1741680771,"current_range_meters":8800,"station_id":"ce4bhmp2rcd13ifvqgog","pricing_plan_id":"cebpf4jnsgd1na2vs0mg"},{"bike_id":"42b8606a-5a39-4c18-ab8e-ae2998dcaace","system_id":"levelo_inurba_marseille","lat":43.29898,"lon":5.4367,"is_reserved":false,"is_disabled":false,"rental_uris":{"android":"levelo://app?vid=42b8606a-5a39-4c18-ab8e-ae2998dcaace","ios":"levelo://app?vid=42b8606a-5a39-4c18-ab8e-ae2998dcaace"},"vehicle_type_id":"4","last_reported":1741680771,"current_range_meters":9200,"station_id":"ce4bhpp2rcd13ifvqhfg","pricing_plan_id":"cebpf4jnsgd1na2vs0mg"},{"bike_id":"db441a66-3d21-427e-8114-b060e190a5c6","system_id":"levelo_inurba_marseille","lat":43.27358,"lon":5.39056,"is_reserved":false,"is_disabled":false,"rental_uris":{"android":"levelo://app?vid=db441a66-3d21-427e-8114-b060e190a5c6","ios":"levelo://app?vid=db441a66-3d21-427e-8114-b060e190a5c6"},"vehicle_type_id":"4","last_reported":1741680771,"current_range_meters":9200,"station_id":"ce4bhgp2rcd13ifvqfe0","pricing_plan_id":"cebpf4jnsgd1na2vs0mg"},{"bike_id":"9ec7e908-b0df-42ed-8d89-ffbf02b65291","system_id":"levelo_inurba_marseille","lat":43.23157,"lon":5.43709,"is_reserved":false,"is_disabled":false,"rental_uris":{"android":"levelo://app?vid=9ec7e908-b0df-42ed-8d89-ffbf02b65291","ios":"levelo://app?vid=9ec7e908-b0df-42ed-8d89-ffbf02b65291"},"vehicle_type_id":"4","last_reported":1741680771,"current_range_meters":9200,"station_id":"ce4bhmp2rcd13ifvqgog","pricing_plan_id":"cebpf4jnsgd1na2vs0mg"},{"bike_id":"a768a1bb-57c6-4d91-8299-52d77c1536a7","system_id":"levelo_inurba_marseille","lat":43.28406,"lon":5.37521,"is_reserved":false,"is_disabled":false,"rental_uris":{"android":"levelo://app?vid=a768a1bb-57c6-4d91-8299-52d77c1536a7","ios":"levelo://app?vid=a768a1bb-57c6-4d91-8299-52d77c1536a7"},"vehicle_type_id":"4","last_reported":1741680771,"current_range_meters":9200,"station_id":"ce4bh412rcd13ifvqds0","pricing_plan_id":"cebpf4jnsgd1na2vs0mg"},{"bike_id":"1920f354-c4b5-4d1a-bc6f-aba0c6cd151e","system_id":"levelo_inurba_marseille","lat":43.278,"lon":5.40705,"is_reserved":false,"is_disabled":false,"rental_uris":{"android":"levelo://app?vid=1920f354-c4b5-4d1a-bc6f-aba0c6cd151e","ios":"levelo://app?vid=1920f354-c4b5-4d1a-bc6f-aba0c6cd151e"},"vehicle_type_id":"4","last_reported":1741680771,"current_range_meters":9200,"station_id":"ce4bhnh2rcd13ifvqgtg","pricing_plan_id":"cebpf4jnsgd1na2vs0mg"},{"bike_id":"8dc2c2dc-de0f-4fd2-b739-faf253fff5e5","system_id":"levelo_inurba_marseille","lat":43.23189,"lon":5.43719,"is_reserved":false,"is_disabled":false,"rental_uris":{"android":"levelo://app?vid=8dc2c2dc-de0f-4fd2-b739-faf253fff5e5","ios":"levelo://app?vid=8dc2c2dc-de0f-4fd2-b739-faf253fff5e5"},"vehicle_type_id":"4","last_reported":1741680771,"current_range_meters":9200,"station_id":"ce4bhmp2rcd13ifvqgog","pricing_plan_id":"cebpf4jnsgd1na2vs0mg"},{"bike_id":"9ac769df-d675-4b38-ae4c-05460e311c38","system_id":"levelo_inurba_marseille","lat":43.23155,"lon":5.43709,"is_reserved":false,"is_disabled":false,"rental_uris":{"android":"levelo://app?vid=9ac769df-d675-4b38-ae4c-05460e311c38","ios":"levelo://app?vid=9ac769df-d675-4b38-ae4c-05460e311c38"},"vehicle_type_id":"4","last_reported":1741680771,"current_range_meters":14800,"station_id":"ce4bhmp2rcd13ifvqgog","pricing_plan_id":"cebpf4jnsgd1na2vs0mg"},{"bike_id":"9283d10b-1d18-4101-9ecc-a44946b9624f","system_id":"levelo_inurba_marseille","lat":43.31344,"lon":5.36696,"is_reserved":false,"is_disabled":false,"rental_uris":{"android":"levelo://app?vid=9283d10b-1d18-4101-9ecc-a44946b9624f","ios":"levelo://app?vid=9283d10b-1d18-4101-9ecc-a44946b9624f"},"vehicle_type_id":"4","last_reported":1741680771,"current_range_meters":9200,"station_id":"ce4bgr92rcd13ifvqc6g","pricing_plan_id":"cebpf4jnsgd1na2vs0mg"},{"bike_id":"10a93a3f-eec1-4069-9dee-564bf5e0d5e9","system_id":"levelo_inurba_marseille","lat":43.27491,"lon":5.42461,"is_reserved":false,"is_disabled":false,"rental_uris":{"android":"levelo://app?vid=10a93a3f-eec1-4069-9dee-564bf5e0d5e9","ios":"levelo://app?vid=10a93a3f-eec1-4069-9dee-564bf5e0d5e9"},"vehicle_type_id":"4","last_reported":1741680771,"current_range_meters":9200,"station_id":"ce4bhn92rcd13ifvqgrg","pricing_plan_id":"cebpf4jnsgd1na2vs0mg"},{"bike_id":"c2848185-3b42-44f9-b163-5d9be4b7c26e","system_id":"levelo_inurba_marseille","lat":43.22957,"lon":5.35406,"is_reserved":false,"is_disabled":false,"rental_uris":{"android":"levelo://app?vid=c2848185-3b42-44f9-b163-5d9be4b7c26e","ios":"levelo://app?vid=c2848185-3b42-44f9-b163-5d9be4b7c26e"},"vehicle_type_id":"4","last_reported":1741680771,"current_range_meters":9200,"station_id":"cpo3532slgdg3j2ikp40","pricing_plan_id":"cebpf4jnsgd1na2vs0mg"},{"bike_id":"09bbb690-af86-458c-bbad-70d10e2033ee","system_id":"levelo_inurba_marseille","lat":43.23075,"lon":5.35504,"is_reserved":false,"is_disabled":false,"rental_uris":{"android":"levelo://app?vid=09bbb690-af86-458c-bbad-70d10e2033ee","ios":"levelo://app?vid=09bbb690-af86-458c-bbad-70d10e2033ee"},"vehicle_type_id":"4","last_reported":1741680771,"current_range_meters":9200,"station_id":"cpo3342slgdg3j2ifvpg","pricing_plan_id":"cebpf4jnsgd1na2vs0mg"},{"bike_id":"80771939-f406-42f7-81c5-33180fd8a338","system_id":"levelo_inurba_marseille","lat":43.23213,"lon":5.3556,"is_reserved":false,"is_disabled":false,"rental_uris":{"android":"levelo://app?vid=80771939-f406-42f7-81c5-33180fd8a338","ios":"levelo://app?vid=80771939-f406-42f7-81c5-33180fd8a338"},"vehicle_type_id":"4","last_reported":1741680771,"current_range_meters":9200,"station_id":"ce4bhu92rcd13ifvqi70","pricing_plan_id":"cebpf4jnsgd1na2vs0mg"},{"bike_id":"51772d6c-c0b3-48d9-81cb-ae5466e6f822","system_id":"levelo_inurba_marseille","lat":43.23153,"lon":5.43728,"is_reserved":false,"is_disabled":false,"rental_uris":{"android":"levelo://app?vid=51772d6c-c0b3-48d9-81cb-ae5466e6f822","ios":"levelo://app?vid=51772d6c-c0b3-48d9-81cb-ae5466e6f822"},"vehicle_type_id":"4","last_reported":1741680771,"current_range_meters":9200,"station_id":"ce4bhmp2rcd13ifvqgog","pricing_plan_id":"cebpf4jnsgd1na2vs0mg"},{"bike_id":"26545405-0708-4e9e-a058-a3b4a6b3d3d1","system_id":"levelo_inurba_marseille","lat":43.27403,"lon":5.389449,"is_reserved":false,"is_disabled":false,"rental_uris":{"android":"levelo://app?vid=26545405-0708-4e9e-a058-a3b4a6b3d3d1","ios":"levelo://app?vid=26545405-0708-4e9e-a058-a3b4a6b3d3d1"},"vehicle_type_id":"4","last_reported":1741680771,"current_range_meters":9600,"station_id":"ce4bhjp2rcd13ifvqg90","pricing_plan_id":"cebpf4jnsgd1na2vs0mg"},{"bike_id":"acc1658b-7ea3-44a5-a65b-40f1faa0438d","system_id":"levelo_inurba_marseille","lat":43.32534,"lon":5.4147,"is_reserved":false,"is_disabled":false,"rental_uris":{"android":"levelo://app?vid=acc1658b-7ea3-44a5-a65b-40f1faa0438d","ios":"levelo://app?vid=acc1658b-7ea3-44a5-a65b-40f1faa0438d"},"vehicle_type_id":"4","last_reported":1741680771,"current_range_meters":9600,"station_id":"ce4bhq12rcd13ifvqhhg","pricing_plan_id":"cebpf4jnsgd1na2vs0mg"},{"bike_id":"a26045c1-1145-4eb4-a1da-7da4f3afe0e6","system_id":"levelo_inurba_marseille","lat":43.28414,"lon":5.34997,"is_reserved":false,"is_disabled":false,"rental_uris":{"android":"levelo://app?vid=a26045c1-1145-4eb4-a1da-7da4f3afe0e6","ios":"levelo://app?vid=a26045c1-1145-4eb4-a1da-7da4f3afe0e6"},"vehicle_type_id":"4","last_reported":1741680771,"current_range_meters":9600,"station_id":"ce4bhbh2rcd13ifvqepg","pricing_plan_id":"cebpf4jnsgd1na2vs0mg"},{"bike_id":"c30a5f55-cc1b-4590-b8ef-3b9f2512cc45","system_id":"levelo_inurba_marseille","lat":43.26062,"lon":5.39397,"is_reserved":false,"is_disabled":false,"rental_uris":{"android":"levelo://app?vid=c30a5f55-cc1b-4590-b8ef-3b9f2512cc45","ios":"levelo://app?vid=c30a5f55-cc1b-4590-b8ef-3b9f2512cc45"},"vehicle_type_id":"4","last_reported":1741680771,"current_range_meters":9600,"station_id":"ce4bhh92rcd13ifvqfj0","pricing_plan_id":"cebpf4jnsgd1na2vs0mg"},{"bike_id":"27459785-4edf-4f27-b842-1984a62c6dde","system_id":"levelo_inurba_marseille","lat":43.25092,"lon":5.39518,"is_reserved":false,"is_disabled":false,"rental_uris":{"android":"levelo://app?vid=27459785-4edf-4f27-b842-1984a62c6dde","ios":"levelo://app?vid=27459785-4edf-4f27-b842-1984a62c6dde"},"vehicle_type_id":"4","last_reported":1741680771,"current_range_meters":9600,"station_id":"ce4bhm12rcd13ifvqgkg","pricing_plan_id":"cebpf4jnsgd1na2vs0mg"},{"bike_id":"c1bda9e2-cfd4-46ef-b129-54b2ad3b2e00","system_id":"levelo_inurba_marseille","lat":43.2695,"lon":5.3863,"is_reserved":false,"is_disabled":false,"rental_uris":{"android":"levelo://app?vid=c1bda9e2-cfd4-46ef-b129-54b2ad3b2e00","ios":"levelo://app?vid=c1bda9e2-cfd4-46ef-b129-54b2ad3b2e00"},"vehicle_type_id":"4","last_reported":1741680771,"current_range_meters":9600,"station_id":"ce4bhh92rcd13ifvqfh0","pricing_plan_id":"cebpf4jnsgd1na2vs0mg"},{"bike_id":"a268dcbc-ddd2-4b2c-89cc-fbb307910755","system_id":"levelo_inurba_marseille","lat":43.30471,"lon":5.37903,"is_reserved":false,"is_disabled":false,"rental_uris":{"android":"levelo://app?vid=a268dcbc-ddd2-4b2c-89cc-fbb307910755","ios":"levelo://app?vid=a268dcbc-ddd2-4b2c-89cc-fbb307910755"},"vehicle_type_id":"4","last_reported":1741680771,"current_range_meters":9600,"station_id":"ce4bgup2rcd13ifvqcn0","pricing_plan_id":"cebpf4jnsgd1na2vs0mg"},{"bike_id":"df56eda1-e6ed-4c6f-8a9a-a8e1711b1f72","system_id":"levelo_inurba_marseille","lat":43.25935,"lon":5.40875,"is_reserved":false,"is_disabled":false,"rental_uris":{"android":"levelo://app?vid=df56eda1-e6ed-4c6f-8a9a-a8e1711b1f72","ios":"levelo://app?vid=df56eda1-e6ed-4c6f-8a9a-a8e1711b1f72"},"vehicle_type_id":"4","last_reported":1741680771,"current_range_meters":13600,"station_id":"ce4bhm92rcd13ifvqglg","pricing_plan_id":"cebpf4jnsgd1na2vs0mg"},{"bike_id":"d0c6aa16-9a4a-470a-bfa5-c5f4c2159474","system_id":"levelo_inurba_marseille","lat":43.25824,"lon":5.3944,"is_reserved":false,"is_disabled":false,"rental_uris":{"android":"levelo://app?vid=d0c6aa16-9a4a-470a-bfa5-c5f4c2159474","ios":"levelo://app?vid=d0c6aa16-9a4a-470a-bfa5-c5f4c2159474"},"vehicle_type_id":"4","last_reported":1741680771,"current_range_meters":9600,"station_id":"ce4bhip2rcd13ifvqft0","pricing_plan_id":"cebpf4jnsgd1na2vs0mg"},{"bike_id":"ae8af7b7-c05b-4384-9261-7a9f39e0a5b5","system_id":"levelo_inurba_marseille","lat":43.32478,"lon":5.36571,"is_reserved":false,"is_disabled":false,"rental_uris":{"android":"levelo://app?vid=ae8af7b7-c05b-4384-9261-7a9f39e0a5b5","ios":"levelo://app?vid=ae8af7b7-c05b-4384-9261-7a9f39e0a5b5"},"vehicle_type_id":"4","last_reported":1741680771,"current_range_meters":9600,"station_id":"ce4bhs12rcd13ifvqhvg","pricing_plan_id":"cebpf4jnsgd1na2vs0mg"},{"bike_id":"41f961de-067c-48ce-af3b-611892bf4388","system_id":"levelo_inurba_marseille","lat":43.31352,"lon":5.3673,"is_reserved":false,"is_disabled":false,"rental_uris":{"android":"levelo://app?vid=41f961de-067c-48ce-af3b-611892bf4388","ios":"levelo://app?vid=41f961de-067c-48ce-af3b-611892bf4388"},"vehicle_type_id":"4","last_reported":1741680771,"current_range_meters":9200,"station_id":"ce4bgr92rcd13ifvqc6g","pricing_plan_id":"cebpf4jnsgd1na2vs0mg"},{"bike_id":"d8a08524-68eb-4ea2-9817-725f7d1839a6","system_id":"levelo_inurba_marseille","lat":43.30984,"lon":5.39045,"is_reserved":false,"is_disabled":false,"rental_uris":{"android":"levelo://app?vid=d8a08524-68eb-4ea2-9817-725f7d1839a6","ios":"levelo://app?vid=d8a08524-68eb-4ea2-9817-725f7d1839a6"},"vehicle_type_id":"4","last_reported":1741680771,"current_range_meters":9600,"station_id":"ce4bgup2rcd13ifvqco0","pricing_plan_id":"cebpf4jnsgd1na2vs0mg"},{"bike_id":"1a8ab441-f02f-439e-9fd3-0bbc0b1b97af","system_id":"levelo_inurba_marseille","lat":43.32559,"lon":5.41437,"is_reserved":false,"is_disabled":false,"rental_uris":{"android":"levelo://app?vid=1a8ab441-f02f-439e-9fd3-0bbc0b1b97af","ios":"levelo://app?vid=1a8ab441-f02f-439e-9fd3-0bbc0b1b97af"},"vehicle_type_id":"4","last_reported":1741680771,"current_range_meters":10000,"station_id":"ce4bhq12rcd13ifvqhhg","pricing_plan_id":"cebpf4jnsgd1na2vs0mg"},{"bike_id":"3e48d50d-97c7-42a9-9f3c-e77a4ff15069","system_id":"levelo_inurba_marseille","lat":43.28154,"lon":5.4265,"is_reserved":false,"is_disabled":false,"rental_uris":{"android":"levelo://app?vid=3e48d50d-97c7-42a9-9f3c-e77a4ff15069","ios":"levelo://app?vid=3e48d50d-97c7-42a9-9f3c-e77a4ff15069"},"vehicle_type_id":"4","last_reported":1741680771,"current_range_meters":10000,"station_id":"ce4bhnh2rcd13ifvqgug","pricing_plan_id":"cebpf4jnsgd1na2vs0mg"},{"bike_id":"1a54d3c6-53dd-4a39-940e-6536b3ebda3e","system_id":"levelo_inurba_marseille","lat":43.32543,"lon":5.41427,"is_reserved":false,"is_disabled":false,"rental_uris":{"android":"levelo://app?vid=1a54d3c6-53dd-4a39-940e-6536b3ebda3e","ios":"levelo://app?vid=1a54d3c6-53dd-4a39-940e-6536b3ebda3e"},"vehicle_type_id":"4","last_reported":1741680771,"current_range_meters":10000,"station_id":"ce4bhq12rcd13ifvqhhg","pricing_plan_id":"cebpf4jnsgd1na2vs0mg"},{"bike_id":"19c52a1b-80e3-440c-ae06-7af4f2d2b2bc","system_id":"levelo_inurba_marseille","lat":43.27566,"lon":5.38429,"is_reserved":false,"is_disabled":false,"rental_uris":{"android":"levelo://app?vid=19c52a1b-80e3-440c-ae06-7af4f2d2b2bc","ios":"levelo://app?vid=19c52a1b-80e3-440c-ae06-7af4f2d2b2bc"},"vehicle_type_id":"4","last_reported":1741680771,"current_range_meters":10000,"station_id":"ce4bhh92rcd13ifvqfi0","pricing_plan_id":"cebpf4jnsgd1na2vs0mg"},{"bike_id":"301c8de4-8782-48bb-ba23-25ee745d055a","system_id":"levelo_inurba_marseille","lat":43.26953,"lon":5.38634,"is_reserved":false,"is_disabled":false,"rental_uris":{"android":"levelo://app?vid=301c8de4-8782-48bb-ba23-25ee745d055a","ios":"levelo://app?vid=301c8de4-8782-48bb-ba23-25ee745d055a"},"vehicle_type_id":"4","last_reported":1741680771,"current_range_meters":10000,"station_id":"ce4bhh92rcd13ifvqfh0","pricing_plan_id":"cebpf4jnsgd1na2vs0mg"},{"bike_id":"a6907114-91e5-4406-958d-4b895c3084d0","system_id":"levelo_inurba_marseille","lat":43.29898,"lon":5.43677,"is_reserved":false,"is_disabled":false,"rental_uris":{"android":"levelo://app?vid=a6907114-91e5-4406-958d-4b895c3084d0","ios":"levelo://app?vid=a6907114-91e5-4406-958d-4b895c3084d0"},"vehicle_type_id":"4","last_reported":1741680771,"current_range_meters":10000,"station_id":"ce4bhpp2rcd13ifvqhfg","pricing_plan_id":"cebpf4jnsgd1na2vs0mg"},{"bike_id":"1cd4f78f-14bd-402b-8aa4-df9dbb0e08fd","system_id":"levelo_inurba_marseille","lat":43.28933,"lon":5.36635,"is_reserved":false,"is_disabled":false,"rental_uris":{"android":"levelo://app?vid=1cd4f78f-14bd-402b-8aa4-df9dbb0e08fd","ios":"levelo://app?vid=1cd4f78f-14bd-402b-8aa4-df9dbb0e08fd"},"vehicle_type_id":"4","last_reported":1741680771,"current_range_meters":9600,"station_id":"ce4bhap2rcd13ifvqek0","pricing_plan_id":"cebpf4jnsgd1na2vs0mg"},{"bike_id":"ac808828-3aad-41c4-b8b4-7626348944a2","system_id":"levelo_inurba_marseille","lat":43.29708,"lon":5.37686,"is_reserved":false,"is_disabled":false,"rental_uris":{"android":"levelo://app?vid=ac808828-3aad-41c4-b8b4-7626348944a2","ios":"levelo://app?vid=ac808828-3aad-41c4-b8b4-7626348944a2"},"vehicle_type_id":"4","last_reported":1741680771,"current_range_meters":10000,"station_id":"ce4bgkh2rcd13ifvqbl0","pricing_plan_id":"cebpf4jnsgd1na2vs0mg"},{"bike_id":"1e6ed807-5d97-47cc-8e98-f33fb20dac7a","system_id":"levelo_inurba_marseille","lat":43.264963,"lon":5.395399,"is_reserved":false,"is_disabled":false,"rental_uris":{"android":"levelo://app?vid=1e6ed807-5d97-47cc-8e98-f33fb20dac7a","ios":"levelo://app?vid=1e6ed807-5d97-47cc-8e98-f33fb20dac7a"},"vehicle_type_id":"4","last_reported":1741680771,"current_range_meters":9600,"station_id":"ce4bgr92rcd13ifvqc7g","pricing_plan_id":"cebpf4jnsgd1na2vs0mg"},{"bike_id":"f8e0aebb-9570-4e43-9f51-19f51db951a0","system_id":"levelo_inurba_marseille","lat":43.265656,"lon":5.390051,"is_reserved":false,"is_disabled":true,"rental_uris":{"android":"levelo://app?vid=f8e0aebb-9570-4e43-9f51-19f51db951a0","ios":"levelo://app?vid=f8e0aebb-9570-4e43-9f51-19f51db951a0"},"vehicle_type_id":"4","last_reported":1741680771,"current_range_meters":10000,"station_id":"ce4bhe12rcd13ifvqf30","pricing_plan_id":"cebpf4jnsgd1na2vs0mg"},{"bike_id":"5642e684-db30-44c5-8b62-bc684f0d10a2","system_id":"levelo_inurba_marseille","lat":43.27492,"lon":5.42475,"is_reserved":false,"is_disabled":false,"rental_uris":{"android":"levelo://app?vid=5642e684-db30-44c5-8b62-bc684f0d10a2","ios":"levelo://app?vid=5642e684-db30-44c5-8b62-bc684f0d10a2"},"vehicle_type_id":"4","last_reported":1741680771,"current_range_meters":10000,"station_id":"ce4bhn92rcd13ifvqgrg","pricing_plan_id":"cebpf4jnsgd1na2vs0mg"},{"bike_id":"23656674-d6a3-4bae-91f6-7585900000fc","system_id":"levelo_inurba_marseille","lat":43.30961,"lon":5.39031,"is_reserved":false,"is_disabled":false,"rental_uris":{"android":"levelo://app?vid=23656674-d6a3-4bae-91f6-7585900000fc","ios":"levelo://app?vid=23656674-d6a3-4bae-91f6-7585900000fc"},"vehicle_type_id":"4","last_reported":1741680771,"current_range_meters":10000,"station_id":"ce4bgup2rcd13ifvqco0","pricing_plan_id":"cebpf4jnsgd1na2vs0mg"},{"bike_id":"9ec52ed9-9c0e-4e61-a378-5327e3711632","system_id":"levelo_inurba_marseille","lat":43.24727,"lon":5.41161,"is_reserved":false,"is_disabled":false,"rental_uris":{"android":"levelo://app?vid=9ec52ed9-9c0e-4e61-a378-5327e3711632","ios":"levelo://app?vid=9ec52ed9-9c0e-4e61-a378-5327e3711632"},"vehicle_type_id":"4","last_reported":1741680771,"current_range_meters":10000,"station_id":"","pricing_plan_id":"cebpf4jnsgd1na2vs0mg"},{"bike_id":"b9680ac6-d12e-4a12-9dd8-1396db5e067b","system_id":"levelo_inurba_marseille","lat":43.23152,"lon":5.43709,"is_reserved":false,"is_disabled":false,"rental_uris":{"android":"levelo://app?vid=b9680ac6-d12e-4a12-9dd8-1396db5e067b","ios":"levelo://app?vid=b9680ac6-d12e-4a12-9dd8-1396db5e067b"},"vehicle_type_id":"4","last_reported":1741680771,"current_range_meters":10800,"station_id":"ce4bhmp2rcd13ifvqgog","pricing_plan_id":"cebpf4jnsgd1na2vs0mg"},{"bike_id":"bfe76b26-4cce-4a8d-8e2e-190cbae21f24","system_id":"levelo_inurba_marseille","lat":43.27179,"lon":5.40984,"is_reserved":false,"is_disabled":false,"rental_uris":{"android":"levelo://app?vid=bfe76b26-4cce-4a8d-8e2e-190cbae21f24","ios":"levelo://app?vid=bfe76b26-4cce-4a8d-8e2e-190cbae21f24"},"vehicle_type_id":"4","last_reported":1741680771,"current_range_meters":10800,"station_id":"ce4bhl12rcd13ifvqgf0","pricing_plan_id":"cebpf4jnsgd1na2vs0mg"},{"bike_id":"33693a23-de93-4370-bba2-a86596247d48","system_id":"levelo_inurba_marseille","lat":43.24998,"lon":5.38928,"is_reserved":false,"is_disabled":false,"rental_uris":{"android":"levelo://app?vid=33693a23-de93-4370-bba2-a86596247d48","ios":"levelo://app?vid=33693a23-de93-4370-bba2-a86596247d48"},"vehicle_type_id":"4","last_reported":1741680771,"current_range_meters":10800,"station_id":"ce4bhgp2rcd13ifvqfd0","pricing_plan_id":"cebpf4jnsgd1na2vs0mg"},{"bike_id":"89059245-3b8b-486d-b024-20583b4ae4d8","system_id":"levelo_inurba_marseille","lat":43.30316,"lon":5.36933,"is_reserved":false,"is_disabled":false,"rental_uris":{"android":"levelo://app?vid=89059245-3b8b-486d-b024-20583b4ae4d8","ios":"levelo://app?vid=89059245-3b8b-486d-b024-20583b4ae4d8"},"vehicle_type_id":"4","last_reported":1741680771,"current_range_meters":10800,"station_id":"ce4bgqh2rcd13ifvqc5g","pricing_plan_id":"cebpf4jnsgd1na2vs0mg"},{"bike_id":"fdae8c57-1100-499f-a78a-815b16671136","system_id":"levelo_inurba_marseille","lat":43.24548,"lon":5.39527,"is_reserved":false,"is_disabled":false,"rental_uris":{"android":"levelo://app?vid=fdae8c57-1100-499f-a78a-815b16671136","ios":"levelo://app?vid=fdae8c57-1100-499f-a78a-815b16671136"},"vehicle_type_id":"4","last_reported":1741680771,"current_range_meters":10800,"station_id":"ce4bhlp2rcd13ifvqgjg","pricing_plan_id":"cebpf4jnsgd1na2vs0mg"},{"bike_id":"0d9431e1-f868-427a-acb7-8ddd048ba317","system_id":"levelo_inurba_marseille","lat":43.29849,"lon":5.36278,"is_reserved":false,"is_disabled":false,"rental_uris":{"android":"levelo://app?vid=0d9431e1-f868-427a-acb7-8ddd048ba317","ios":"levelo://app?vid=0d9431e1-f868-427a-acb7-8ddd048ba317"},"vehicle_type_id":"4","last_reported":1741680771,"current_range_meters":10800,"station_id":"ce4bgpp2rcd13ifvqc3g","pricing_plan_id":"cebpf4jnsgd1na2vs0mg"},{"bike_id":"f640465e-8c9e-425a-8e36-08d8d5201bf6","system_id":"levelo_inurba_marseille","lat":43.231931,"lon":5.355526,"is_reserved":false,"is_disabled":false,"rental_uris":{"android":"levelo://app?vid=f640465e-8c9e-425a-8e36-08d8d5201bf6","ios":"levelo://app?vid=f640465e-8c9e-425a-8e36-08d8d5201bf6"},"vehicle_type_id":"4","last_reported":1741680771,"current_range_meters":10800,"station_id":"ce4bhu92rcd13ifvqi70","pricing_plan_id":"cebpf4jnsgd1na2vs0mg"},{"bike_id":"58d1b5b3-d322-4418-97d0-3066ec3d9afc","system_id":"levelo_inurba_marseille","lat":43.231936,"lon":5.355438,"is_reserved":false,"is_disabled":false,"rental_uris":{"android":"levelo://app?vid=58d1b5b3-d322-4418-97d0-3066ec3d9afc","ios":"levelo://app?vid=58d1b5b3-d322-4418-97d0-3066ec3d9afc"},"vehicle_type_id":"4","last_reported":1741680771,"current_range_meters":10800,"station_id":"ce4bhu92rcd13ifvqi70","pricing_plan_id":"cebpf4jnsgd1na2vs0mg"},{"bike_id":"aaa6117f-695a-4870-93d8-ce1ed03dac44","system_id":"levelo_inurba_marseille","lat":43.3054,"lon":5.36529,"is_reserved":false,"is_disabled":true,"rental_uris":{"android":"levelo://app?vid=aaa6117f-695a-4870-93d8-ce1ed03dac44","ios":"levelo://app?vid=aaa6117f-695a-4870-93d8-ce1ed03dac44"},"vehicle_type_id":"4","last_reported":1741680771,"current_range_meters":11200,"station_id":"ce4bgs12rcd13ifvqcag","pricing_plan_id":"cebpf4jnsgd1na2vs0mg"},{"bike_id":"6d44f63a-0b96-41bf-b660-451115d175cf","system_id":"levelo_inurba_marseille","lat":43.25939,"lon":5.40902,"is_reserved":false,"is_disabled":false,"rental_uris":{"android":"levelo://app?vid=6d44f63a-0b96-41bf-b660-451115d175cf","ios":"levelo://app?vid=6d44f63a-0b96-41bf-b660-451115d175cf"},"vehicle_type_id":"4","last_reported":1741680771,"current_range_meters":11200,"station_id":"ce4bhm92rcd13ifvqglg","pricing_plan_id":"cebpf4jnsgd1na2vs0mg"},{"bike_id":"6423918c-790a-4fd7-b29d-6d9df26db5f9","system_id":"levelo_inurba_marseille","lat":43.29434,"lon":5.40899,"is_reserved":false,"is_disabled":false,"rental_uris":{"android":"levelo://app?vid=6423918c-790a-4fd7-b29d-6d9df26db5f9","ios":"levelo://app?vid=6423918c-790a-4fd7-b29d-6d9df26db5f9"},"vehicle_type_id":"4","last_reported":1741680771,"current_range_meters":11200,"station_id":"","pricing_plan_id":"cebpf4jnsgd1na2vs0mg"},{"bike_id":"8167d76a-4391-492b-b83c-49620a39a1ab","system_id":"levelo_inurba_marseille","lat":43.3008,"lon":5.39094,"is_reserved":false,"is_disabled":false,"rental_uris":{"android":"levelo://app?vid=8167d76a-4391-492b-b83c-49620a39a1ab","ios":"levelo://app?vid=8167d76a-4391-492b-b83c-49620a39a1ab"},"vehicle_type_id":"4","last_reported":1741680771,"current_range_meters":11200,"station_id":"ce4bh192rcd13ifvqdb0","pricing_plan_id":"cebpf4jnsgd1na2vs0mg"},{"bike_id":"fcbf8782-a849-4763-93c7-fc2f970c471e","system_id":"levelo_inurba_marseille","lat":43.30962,"lon":5.39042,"is_reserved":false,"is_disabled":false,"rental_uris":{"android":"levelo://app?vid=fcbf8782-a849-4763-93c7-fc2f970c471e","ios":"levelo://app?vid=fcbf8782-a849-4763-93c7-fc2f970c471e"},"vehicle_type_id":"4","last_reported":1741680771,"current_range_meters":11200,"station_id":"ce4bgup2rcd13ifvqco0","pricing_plan_id":"cebpf4jnsgd1na2vs0mg"},{"bike_id":"3c359072-1a24-44c8-bd35-3f89d20ef953","system_id":"levelo_inurba_marseille","lat":43.32543,"lon":5.41424,"is_reserved":false,"is_disabled":false,"rental_uris":{"android":"levelo://app?vid=3c359072-1a24-44c8-bd35-3f89d20ef953","ios":"levelo://app?vid=3c359072-1a24-44c8-bd35-3f89d20ef953"},"vehicle_type_id":"4","last_reported":1741680771,"current_range_meters":10800,"station_id":"ce4bhq12rcd13ifvqhhg","pricing_plan_id":"cebpf4jnsgd1na2vs0mg"},{"bike_id":"a3e991cd-2936-493d-9fcb-48f77e04aeb1","system_id":"levelo_inurba_marseille","lat":43.30534,"lon":5.365543,"is_reserved":false,"is_disabled":false,"rental_uris":{"android":"levelo://app?vid=a3e991cd-2936-493d-9fcb-48f77e04aeb1","ios":"levelo://app?vid=a3e991cd-2936-493d-9fcb-48f77e04aeb1"},"vehicle_type_id":"4","last_reported":1741680771,"current_range_meters":11600,"station_id":"ce4bgs12rcd13ifvqcag","pricing_plan_id":"cebpf4jnsgd1na2vs0mg"},{"bike_id":"714996a6-64f6-41af-a68f-e639f119975d","system_id":"levelo_inurba_marseille","lat":43.250901,"lon":5.395196,"is_reserved":false,"is_disabled":true,"rental_uris":{"android":"levelo://app?vid=714996a6-64f6-41af-a68f-e639f119975d","ios":"levelo://app?vid=714996a6-64f6-41af-a68f-e639f119975d"},"vehicle_type_id":"4","last_reported":1741680771,"current_range_meters":11600,"station_id":"ce4bhm12rcd13ifvqgkg","pricing_plan_id":"cebpf4jnsgd1na2vs0mg"},{"bike_id":"89161338-4aa7-4be6-a83f-b0356a2a39af","system_id":"levelo_inurba_marseille","lat":43.30085,"lon":5.39079,"is_reserved":false,"is_disabled":false,"rental_uris":{"android":"levelo://app?vid=89161338-4aa7-4be6-a83f-b0356a2a39af","ios":"levelo://app?vid=89161338-4aa7-4be6-a83f-b0356a2a39af"},"vehicle_type_id":"4","last_reported":1741680771,"current_range_meters":11600,"station_id":"ce4bh192rcd13ifvqdb0","pricing_plan_id":"cebpf4jnsgd1na2vs0mg"},{"bike_id":"1ee9dbf5-b0e2-4af5-8fd1-f41f66f7bf91","system_id":"levelo_inurba_marseille","lat":43.3082,"lon":5.3815,"is_reserved":false,"is_disabled":false,"rental_uris":{"android":"levelo://app?vid=1ee9dbf5-b0e2-4af5-8fd1-f41f66f7bf91","ios":"levelo://app?vid=1ee9dbf5-b0e2-4af5-8fd1-f41f66f7bf91"},"vehicle_type_id":"4","last_reported":1741680771,"current_range_meters":11600,"station_id":"ce4bgt12rcd13ifvqce0","pricing_plan_id":"cebpf4jnsgd1na2vs0mg"},{"bike_id":"984d21b3-a87a-4cc0-b244-763ba73e6b8c","system_id":"levelo_inurba_marseille","lat":43.24072,"lon":5.37765,"is_reserved":false,"is_disabled":false,"rental_uris":{"android":"levelo://app?vid=984d21b3-a87a-4cc0-b244-763ba73e6b8c","ios":"levelo://app?vid=984d21b3-a87a-4cc0-b244-763ba73e6b8c"},"vehicle_type_id":"4","last_reported":1741680771,"current_range_meters":11600,"station_id":"ce4bhnp2rcd13ifvqgvg","pricing_plan_id":"cebpf4jnsgd1na2vs0mg"},{"bike_id":"63efd6b9-d813-429c-b04f-99896658a589","system_id":"levelo_inurba_marseille","lat":43.27946,"lon":5.4104,"is_reserved":false,"is_disabled":false,"rental_uris":{"android":"levelo://app?vid=63efd6b9-d813-429c-b04f-99896658a589","ios":"levelo://app?vid=63efd6b9-d813-429c-b04f-99896658a589"},"vehicle_type_id":"4","last_reported":1741680771,"current_range_meters":11600,"station_id":"ce4bhnp2rcd13ifvqh0g","pricing_plan_id":"cebpf4jnsgd1na2vs0mg"},{"bike_id":"ec9375bc-a37c-44d5-8d37-ab71a54fda1f","system_id":"levelo_inurba_marseille","lat":43.29298,"lon":5.37456,"is_reserved":false,"is_disabled":false,"rental_uris":{"android":"levelo://app?vid=ec9375bc-a37c-44d5-8d37-ab71a54fda1f","ios":"levelo://app?vid=ec9375bc-a37c-44d5-8d37-ab71a54fda1f"},"vehicle_type_id":"4","last_reported":1741680771,"current_range_meters":11600,"station_id":"ce4bgi12rcd13ifvqb70","pricing_plan_id":"cebpf4jnsgd1na2vs0mg"},{"bike_id":"25e3d1b9-451e-49bf-a160-305203be0a21","system_id":"levelo_inurba_marseille","lat":43.28153,"lon":5.42658,"is_reserved":false,"is_disabled":false,"rental_uris":{"android":"levelo://app?vid=25e3d1b9-451e-49bf-a160-305203be0a21","ios":"levelo://app?vid=25e3d1b9-451e-49bf-a160-305203be0a21"},"vehicle_type_id":"4","last_reported":1741680771,"current_range_meters":11600,"station_id":"ce4bhnh2rcd13ifvqgug","pricing_plan_id":"cebpf4jnsgd1na2vs0mg"},{"bike_id":"03eedc1e-4d1b-434d-a293-b9016c70553c","system_id":"levelo_inurba_marseille","lat":43.31344,"lon":5.36721,"is_reserved":false,"is_disabled":false,"rental_uris":{"android":"levelo://app?vid=03eedc1e-4d1b-434d-a293-b9016c70553c","ios":"levelo://app?vid=03eedc1e-4d1b-434d-a293-b9016c70553c"},"vehicle_type_id":"4","last_reported":1741680771,"current_range_meters":11200,"station_id":"ce4bgr92rcd13ifvqc6g","pricing_plan_id":"cebpf4jnsgd1na2vs0mg"},{"bike_id":"2bc524aa-1466-4ab3-8deb-30d86b7d33b1","system_id":"levelo_inurba_marseille","lat":43.25017,"lon":5.38924,"is_reserved":false,"is_disabled":false,"rental_uris":{"android":"levelo://app?vid=2bc524aa-1466-4ab3-8deb-30d86b7d33b1","ios":"levelo://app?vid=2bc524aa-1466-4ab3-8deb-30d86b7d33b1"},"vehicle_type_id":"4","last_reported":1741680771,"current_range_meters":12000,"station_id":"ce4bhgp2rcd13ifvqfd0","pricing_plan_id":"cebpf4jnsgd1na2vs0mg"},{"bike_id":"9acab34d-76c9-4fd5-bed6-0265a89df8bb","system_id":"levelo_inurba_marseille","lat":43.2573,"lon":5.41118,"is_reserved":false,"is_disabled":false,"rental_uris":{"android":"levelo://app?vid=9acab34d-76c9-4fd5-bed6-0265a89df8bb","ios":"levelo://app?vid=9acab34d-76c9-4fd5-bed6-0265a89df8bb"},"vehicle_type_id":"4","last_reported":1741680771,"current_range_meters":12000,"station_id":"ce4bhkp2rcd13ifvqgd0","pricing_plan_id":"cebpf4jnsgd1na2vs0mg"},{"bike_id":"02ccda15-ca98-4f66-a5ee-609c485d624e","system_id":"levelo_inurba_marseille","lat":43.23979,"lon":5.36613,"is_reserved":false,"is_disabled":false,"rental_uris":{"android":"levelo://app?vid=02ccda15-ca98-4f66-a5ee-609c485d624e","ios":"levelo://app?vid=02ccda15-ca98-4f66-a5ee-609c485d624e"},"vehicle_type_id":"4","last_reported":1741680771,"current_range_meters":12000,"station_id":"ce4bhi12rcd13ifvqfp0","pricing_plan_id":"cebpf4jnsgd1na2vs0mg"},{"bike_id":"674fe8b8-599b-4e40-873d-2495c87f69c8","system_id":"levelo_inurba_marseille","lat":43.27554,"lon":5.38447,"is_reserved":false,"is_disabled":false,"rental_uris":{"android":"levelo://app?vid=674fe8b8-599b-4e40-873d-2495c87f69c8","ios":"levelo://app?vid=674fe8b8-599b-4e40-873d-2495c87f69c8"},"vehicle_type_id":"4","last_reported":1741680771,"current_range_meters":12000,"station_id":"ce4bhh92rcd13ifvqfi0","pricing_plan_id":"cebpf4jnsgd1na2vs0mg"},{"bike_id":"6bf2a12c-8e2e-4305-995a-5ba524d947aa","system_id":"levelo_inurba_marseille","lat":43.31709,"lon":5.40434,"is_reserved":false,"is_disabled":false,"rental_uris":{"android":"levelo://app?vid=6bf2a12c-8e2e-4305-995a-5ba524d947aa","ios":"levelo://app?vid=6bf2a12c-8e2e-4305-995a-5ba524d947aa"},"vehicle_type_id":"4","last_reported":1741680771,"current_range_meters":12000,"station_id":"ce4bh012rcd13ifvqd00","pricing_plan_id":"cebpf4jnsgd1na2vs0mg"},{"bike_id":"23ac169e-f280-4a7a-a122-4806f7d50a6f","system_id":"levelo_inurba_marseille","lat":43.2455,"lon":5.3952,"is_reserved":false,"is_disabled":false,"rental_uris":{"android":"levelo://app?vid=23ac169e-f280-4a7a-a122-4806f7d50a6f","ios":"levelo://app?vid=23ac169e-f280-4a7a-a122-4806f7d50a6f"},"vehicle_type_id":"4","last_reported":1741680771,"current_range_meters":12000,"station_id":"ce4bhlp2rcd13ifvqgjg","pricing_plan_id":"cebpf4jnsgd1na2vs0mg"},{"bike_id":"1e0ddd91-f000-49ad-b5c8-18c32daa31e7","system_id":"levelo_inurba_marseille","lat":43.30892,"lon":5.36842,"is_reserved":false,"is_disabled":false,"rental_uris":{"android":"levelo://app?vid=1e0ddd91-f000-49ad-b5c8-18c32daa31e7","ios":"levelo://app?vid=1e0ddd91-f000-49ad-b5c8-18c32daa31e7"},"vehicle_type_id":"4","last_reported":1741680771,"current_range_meters":12000,"station_id":"ce4bgn92rcd13ifvqbvg","pricing_plan_id":"cebpf4jnsgd1na2vs0mg"},{"bike_id":"8788ba1f-0302-4324-8ff2-c963e4002442","system_id":"levelo_inurba_marseille","lat":43.31076,"lon":5.38346,"is_reserved":false,"is_disabled":false,"rental_uris":{"android":"levelo://app?vid=8788ba1f-0302-4324-8ff2-c963e4002442","ios":"levelo://app?vid=8788ba1f-0302-4324-8ff2-c963e4002442"},"vehicle_type_id":"4","last_reported":1741680771,"current_range_meters":12400,"station_id":"ce4bgv92rcd13ifvqcr0","pricing_plan_id":"cebpf4jnsgd1na2vs0mg"},{"bike_id":"415e7a31-245d-4ead-9f33-dad092a04302","system_id":"levelo_inurba_marseille","lat":43.23083,"lon":5.35521,"is_reserved":false,"is_disabled":false,"rental_uris":{"android":"levelo://app?vid=415e7a31-245d-4ead-9f33-dad092a04302","ios":"levelo://app?vid=415e7a31-245d-4ead-9f33-dad092a04302"},"vehicle_type_id":"4","last_reported":1741680771,"current_range_meters":12400,"station_id":"cpo3342slgdg3j2ifvpg","pricing_plan_id":"cebpf4jnsgd1na2vs0mg"},{"bike_id":"cdd29a02-0905-4ed7-aa8a-6508ae564de9","system_id":"levelo_inurba_marseille","lat":43.27815,"lon":5.40711,"is_reserved":false,"is_disabled":false,"rental_uris":{"android":"levelo://app?vid=cdd29a02-0905-4ed7-aa8a-6508ae564de9","ios":"levelo://app?vid=cdd29a02-0905-4ed7-aa8a-6508ae564de9"},"vehicle_type_id":"4","last_reported":1741680771,"current_range_meters":12400,"station_id":"ce4bhnh2rcd13ifvqgtg","pricing_plan_id":"cebpf4jnsgd1na2vs0mg"},{"bike_id":"c31a3717-39c3-4263-8a0c-5146fff2f0d1","system_id":"levelo_inurba_marseille","lat":43.26792,"lon":5.39407,"is_reserved":false,"is_disabled":false,"rental_uris":{"android":"levelo://app?vid=c31a3717-39c3-4263-8a0c-5146fff2f0d1","ios":"levelo://app?vid=c31a3717-39c3-4263-8a0c-5146fff2f0d1"},"vehicle_type_id":"4","last_reported":1741680771,"current_range_meters":12400,"station_id":"ce4bhh12rcd13ifvqfg0","pricing_plan_id":"cebpf4jnsgd1na2vs0mg"},{"bike_id":"adbda3f8-bf28-42b6-b199-11ee1a621649","system_id":"levelo_inurba_marseille","lat":43.33789,"lon":5.37414,"is_reserved":false,"is_disabled":false,"rental_uris":{"android":"levelo://app?vid=adbda3f8-bf28-42b6-b199-11ee1a621649","ios":"levelo://app?vid=adbda3f8-bf28-42b6-b199-11ee1a621649"},"vehicle_type_id":"4","last_reported":1741680771,"current_range_meters":12400,"station_id":"","pricing_plan_id":"cebpf4jnsgd1na2vs0mg"},{"bike_id":"d2fb46e0-e2b4-4c51-811d-22794158f078","system_id":"levelo_inurba_marseille","lat":43.298819,"lon":5.397408,"is_reserved":false,"is_disabled":true,"rental_uris":{"android":"levelo://app?vid=d2fb46e0-e2b4-4c51-811d-22794158f078","ios":"levelo://app?vid=d2fb46e0-e2b4-4c51-811d-22794158f078"},"vehicle_type_id":"4","last_reported":1741680771,"current_range_meters":12400,"station_id":"ce4bh0h2rcd13ifvqd50","pricing_plan_id":"cebpf4jnsgd1na2vs0mg"},{"bike_id":"6ff4f2d2-b707-4499-93d9-8114b4a032ee","system_id":"levelo_inurba_marseille","lat":43.29605,"lon":5.37748,"is_reserved":false,"is_disabled":false,"rental_uris":{"android":"levelo://app?vid=6ff4f2d2-b707-4499-93d9-8114b4a032ee","ios":"levelo://app?vid=6ff4f2d2-b707-4499-93d9-8114b4a032ee"},"vehicle_type_id":"4","last_reported":1741680771,"current_range_meters":12800,"station_id":"ce4bgi92rcd13ifvqb90","pricing_plan_id":"cebpf4jnsgd1na2vs0mg"},{"bike_id":"716492ae-81b6-4ed5-8177-f4759b370b67","system_id":"levelo_inurba_marseille","lat":43.28153,"lon":5.42639,"is_reserved":false,"is_disabled":false,"rental_uris":{"android":"levelo://app?vid=716492ae-81b6-4ed5-8177-f4759b370b67","ios":"levelo://app?vid=716492ae-81b6-4ed5-8177-f4759b370b67"},"vehicle_type_id":"4","last_reported":1741680771,"current_range_meters":12800,"station_id":"ce4bhnh2rcd13ifvqgug","pricing_plan_id":"cebpf4jnsgd1na2vs0mg"},{"bike_id":"7d34c987-73ce-4ca4-a4f8-fc2f3288cfda","system_id":"levelo_inurba_marseille","lat":43.2418,"lon":5.39749,"is_reserved":false,"is_disabled":false,"rental_uris":{"android":"levelo://app?vid=7d34c987-73ce-4ca4-a4f8-fc2f3288cfda","ios":"levelo://app?vid=7d34c987-73ce-4ca4-a4f8-fc2f3288cfda"},"vehicle_type_id":"4","last_reported":1741680771,"current_range_meters":12800,"station_id":"ce4bhn12rcd13ifvqgpg","pricing_plan_id":"cebpf4jnsgd1na2vs0mg"},{"bike_id":"ab410545-7254-4198-8fd9-dfa90eaa8f96","system_id":"levelo_inurba_marseille","lat":43.29707,"lon":5.36616,"is_reserved":false,"is_disabled":false,"rental_uris":{"android":"levelo://app?vid=ab410545-7254-4198-8fd9-dfa90eaa8f96","ios":"levelo://app?vid=ab410545-7254-4198-8fd9-dfa90eaa8f96"},"vehicle_type_id":"4","last_reported":1741680771,"current_range_meters":11600,"station_id":"ce4bgn12rcd13ifvqbt0","pricing_plan_id":"cebpf4jnsgd1na2vs0mg"},{"bike_id":"3e37f03c-e5a4-4e97-951f-7786bb1c3928","system_id":"levelo_inurba_marseille","lat":43.2315,"lon":5.43709,"is_reserved":false,"is_disabled":false,"rental_uris":{"android":"levelo://app?vid=3e37f03c-e5a4-4e97-951f-7786bb1c3928","ios":"levelo://app?vid=3e37f03c-e5a4-4e97-951f-7786bb1c3928"},"vehicle_type_id":"4","last_reported":1741680771,"current_range_meters":12800,"station_id":"ce4bhmp2rcd13ifvqgog","pricing_plan_id":"cebpf4jnsgd1na2vs0mg"},{"bike_id":"04d7da3e-f521-4e1a-8b69-635cbaa95a87","system_id":"levelo_inurba_marseille","lat":43.29167,"lon":5.37159,"is_reserved":false,"is_disabled":false,"rental_uris":{"android":"levelo://app?vid=04d7da3e-f521-4e1a-8b69-635cbaa95a87","ios":"levelo://app?vid=04d7da3e-f521-4e1a-8b69-635cbaa95a87"},"vehicle_type_id":"4","last_reported":1741680771,"current_range_meters":13600,"station_id":"ce4bha92rcd13ifvqeh0","pricing_plan_id":"cebpf4jnsgd1na2vs0mg"},{"bike_id":"1e7796ce-bdc6-4cac-9cf7-413320c9b529","system_id":"levelo_inurba_marseille","lat":43.3134,"lon":5.36734,"is_reserved":false,"is_disabled":false,"rental_uris":{"android":"levelo://app?vid=1e7796ce-bdc6-4cac-9cf7-413320c9b529","ios":"levelo://app?vid=1e7796ce-bdc6-4cac-9cf7-413320c9b529"},"vehicle_type_id":"4","last_reported":1741680771,"current_range_meters":13600,"station_id":"ce4bgr92rcd13ifvqc6g","pricing_plan_id":"cebpf4jnsgd1na2vs0mg"},{"bike_id":"2b6d5e39-b232-48bb-b0f9-feacb0f696df","system_id":"levelo_inurba_marseille","lat":43.30289,"lon":5.37691,"is_reserved":false,"is_disabled":false,"rental_uris":{"android":"levelo://app?vid=2b6d5e39-b232-48bb-b0f9-feacb0f696df","ios":"levelo://app?vid=2b6d5e39-b232-48bb-b0f9-feacb0f696df"},"vehicle_type_id":"4","last_reported":1741680771,"current_range_meters":13600,"station_id":"ce4bguh2rcd13ifvqcj0","pricing_plan_id":"cebpf4jnsgd1na2vs0mg"},{"bike_id":"5231f4a9-dd03-45c8-9121-346262932eae","system_id":"levelo_inurba_marseille","lat":43.2316,"lon":5.43705,"is_reserved":false,"is_disabled":false,"rental_uris":{"android":"levelo://app?vid=5231f4a9-dd03-45c8-9121-346262932eae","ios":"levelo://app?vid=5231f4a9-dd03-45c8-9121-346262932eae"},"vehicle_type_id":"4","last_reported":1741680771,"current_range_meters":14000,"station_id":"ce4bhmp2rcd13ifvqgog","pricing_plan_id":"cebpf4jnsgd1na2vs0mg"},{"bike_id":"7f58d9e5-acbe-40df-8048-40fec1830ecf","system_id":"levelo_inurba_marseille","lat":43.324842,"lon":5.365673,"is_reserved":false,"is_disabled":false,"rental_uris":{"android":"levelo://app?vid=7f58d9e5-acbe-40df-8048-40fec1830ecf","ios":"levelo://app?vid=7f58d9e5-acbe-40df-8048-40fec1830ecf"},"vehicle_type_id":"4","last_reported":1741680771,"current_range_meters":13600,"station_id":"ce4bhs12rcd13ifvqhvg","pricing_plan_id":"cebpf4jnsgd1na2vs0mg"},{"bike_id":"29f90834-b4c2-48b1-9685-6a3827920966","system_id":"levelo_inurba_marseille","lat":43.241879,"lon":5.397176,"is_reserved":false,"is_disabled":false,"rental_uris":{"android":"levelo://app?vid=29f90834-b4c2-48b1-9685-6a3827920966","ios":"levelo://app?vid=29f90834-b4c2-48b1-9685-6a3827920966"},"vehicle_type_id":"4","last_reported":1741680771,"current_range_meters":13600,"station_id":"ce4bhhp2rcd13ifvqfm0","pricing_plan_id":"cebpf4jnsgd1na2vs0mg"},{"bike_id":"0e94516a-297e-4cac-830d-abb8abbbe50f","system_id":"levelo_inurba_marseille","lat":43.25004,"lon":5.38927,"is_reserved":false,"is_disabled":false,"rental_uris":{"android":"levelo://app?vid=0e94516a-297e-4cac-830d-abb8abbbe50f","ios":"levelo://app?vid=0e94516a-297e-4cac-830d-abb8abbbe50f"},"vehicle_type_id":"4","last_reported":1741680771,"current_range_meters":13600,"station_id":"ce4bhgp2rcd13ifvqfd0","pricing_plan_id":"cebpf4jnsgd1na2vs0mg"},{"bike_id":"602d068b-17ec-4c43-a941-51f4b635d1bf","system_id":"levelo_inurba_marseille","lat":43.2594,"lon":5.40914,"is_reserved":false,"is_disabled":false,"rental_uris":{"android":"levelo://app?vid=602d068b-17ec-4c43-a941-51f4b635d1bf","ios":"levelo://app?vid=602d068b-17ec-4c43-a941-51f4b635d1bf"},"vehicle_type_id":"4","last_reported":1741680771,"current_range_meters":13600,"station_id":"ce4bhm92rcd13ifvqglg","pricing_plan_id":"cebpf4jnsgd1na2vs0mg"},{"bike_id":"2cdec81d-2593-4153-a426-2f527f1b29e2","system_id":"levelo_inurba_marseille","lat":43.23595,"lon":5.391,"is_reserved":false,"is_disabled":false,"rental_uris":{"android":"levelo://app?vid=2cdec81d-2593-4153-a426-2f527f1b29e2","ios":"levelo://app?vid=2cdec81d-2593-4153-a426-2f527f1b29e2"},"vehicle_type_id":"4","last_reported":1741680771,"current_range_meters":14000,"station_id":"","pricing_plan_id":"cebpf4jnsgd1na2vs0mg"},{"bike_id":"f3bb8725-4b68-4c77-94ca-e14587dc5a22","system_id":"levelo_inurba_marseille","lat":43.24193,"lon":5.39745,"is_reserved":false,"is_disabled":false,"rental_uris":{"android":"levelo://app?vid=f3bb8725-4b68-4c77-94ca-e14587dc5a22","ios":"levelo://app?vid=f3bb8725-4b68-4c77-94ca-e14587dc5a22"},"vehicle_type_id":"4","last_reported":1741680771,"current_range_meters":14000,"station_id":"ce4bhn12rcd13ifvqgpg","pricing_plan_id":"cebpf4jnsgd1na2vs0mg"},{"bike_id":"602775d1-d9d5-416b-9611-899a0e39b82c","system_id":"levelo_inurba_marseille","lat":43.291,"lon":5.38407,"is_reserved":false,"is_disabled":true,"rental_uris":{"android":"levelo://app?vid=602775d1-d9d5-416b-9611-899a0e39b82c","ios":"levelo://app?vid=602775d1-d9d5-416b-9611-899a0e39b82c"},"vehicle_type_id":"4","last_reported":1741680771,"current_range_meters":14000,"station_id":"","pricing_plan_id":"cebpf4jnsgd1na2vs0mg"},{"bike_id":"4bfcd54c-0c6d-46de-b866-38b1631266ea","system_id":"levelo_inurba_marseille","lat":43.3254,"lon":5.41429,"is_reserved":false,"is_disabled":false,"rental_uris":{"android":"levelo://app?vid=4bfcd54c-0c6d-46de-b866-38b1631266ea","ios":"levelo://app?vid=4bfcd54c-0c6d-46de-b866-38b1631266ea"},"vehicle_type_id":"4","last_reported":1741680771,"current_range_meters":14000,"station_id":"ce4bhq12rcd13ifvqhhg","pricing_plan_id":"cebpf4jnsgd1na2vs0mg"},{"bike_id":"68af88e6-829f-4123-b3cd-e4ee404e800a","system_id":"levelo_inurba_marseille","lat":43.285,"lon":5.38423,"is_reserved":false,"is_disabled":false,"rental_uris":{"android":"levelo://app?vid=68af88e6-829f-4123-b3cd-e4ee404e800a","ios":"levelo://app?vid=68af88e6-829f-4123-b3cd-e4ee404e800a"},"vehicle_type_id":"4","last_reported":1741680771,"current_range_meters":14400,"station_id":"ce4bh512rcd13ifvqe3g","pricing_plan_id":"cebpf4jnsgd1na2vs0mg"},{"bike_id":"0755bdbc-0f44-48cb-b443-efca9fcfcc79","system_id":"levelo_inurba_marseille","lat":43.23177,"lon":5.43657,"is_reserved":false,"is_disabled":false,"rental_uris":{"android":"levelo://app?vid=0755bdbc-0f44-48cb-b443-efca9fcfcc79","ios":"levelo://app?vid=0755bdbc-0f44-48cb-b443-efca9fcfcc79"},"vehicle_type_id":"4","last_reported":1741680771,"current_range_meters":14800,"station_id":"ce4bhmp2rcd13ifvqgog","pricing_plan_id":"cebpf4jnsgd1na2vs0mg"},{"bike_id":"7efac877-4bac-4d33-81c2-5e8339d415d6","system_id":"levelo_inurba_marseille","lat":43.3137,"lon":5.36707,"is_reserved":false,"is_disabled":false,"rental_uris":{"android":"levelo://app?vid=7efac877-4bac-4d33-81c2-5e8339d415d6","ios":"levelo://app?vid=7efac877-4bac-4d33-81c2-5e8339d415d6"},"vehicle_type_id":"4","last_reported":1741680771,"current_range_meters":14800,"station_id":"ce4bgr92rcd13ifvqc6g","pricing_plan_id":"cebpf4jnsgd1na2vs0mg"},{"bike_id":"14e6a792-9cd8-4f34-a74a-bed40f5f94c8","system_id":"levelo_inurba_marseille","lat":43.29797,"lon":5.381,"is_reserved":false,"is_disabled":false,"rental_uris":{"android":"levelo://app?vid=14e6a792-9cd8-4f34-a74a-bed40f5f94c8","ios":"levelo://app?vid=14e6a792-9cd8-4f34-a74a-bed40f5f94c8"},"vehicle_type_id":"4","last_reported":1741680771,"current_range_meters":14400,"station_id":"ce4bgip2rcd13ifvqbb0","pricing_plan_id":"cebpf4jnsgd1na2vs0mg"},{"bike_id":"ebdc0adc-86d4-4882-8983-2d6c86413625","system_id":"levelo_inurba_marseille","lat":43.23146,"lon":5.43714,"is_reserved":false,"is_disabled":false,"rental_uris":{"android":"levelo://app?vid=ebdc0adc-86d4-4882-8983-2d6c86413625","ios":"levelo://app?vid=ebdc0adc-86d4-4882-8983-2d6c86413625"},"vehicle_type_id":"4","last_reported":1741680771,"current_range_meters":14400,"station_id":"ce4bhmp2rcd13ifvqgog","pricing_plan_id":"cebpf4jnsgd1na2vs0mg"},{"bike_id":"9776d519-3376-4f51-aaa3-2da63911d7cc","system_id":"levelo_inurba_marseille","lat":43.2508,"lon":5.39517,"is_reserved":false,"is_disabled":false,"rental_uris":{"android":"levelo://app?vid=9776d519-3376-4f51-aaa3-2da63911d7cc","ios":"levelo://app?vid=9776d519-3376-4f51-aaa3-2da63911d7cc"},"vehicle_type_id":"4","last_reported":1741680771,"current_range_meters":14400,"station_id":"ce4bhm12rcd13ifvqgkg","pricing_plan_id":"cebpf4jnsgd1na2vs0mg"},{"bike_id":"85feaa69-281c-4532-9634-3954940480cf","system_id":"levelo_inurba_marseille","lat":43.26743,"lon":5.38243,"is_reserved":false,"is_disabled":true,"rental_uris":{"android":"levelo://app?vid=85feaa69-281c-4532-9634-3954940480cf","ios":"levelo://app?vid=85feaa69-281c-4532-9634-3954940480cf"},"vehicle_type_id":"4","last_reported":1741680771,"current_range_meters":14400,"station_id":"ce4bhg92rcd13ifvqf90","pricing_plan_id":"cebpf4jnsgd1na2vs0mg"},{"bike_id":"21a98077-97a5-4182-b1fc-3570e927fac1","system_id":"levelo_inurba_marseille","lat":43.25834,"lon":5.39421,"is_reserved":false,"is_disabled":false,"rental_uris":{"android":"levelo://app?vid=21a98077-97a5-4182-b1fc-3570e927fac1","ios":"levelo://app?vid=21a98077-97a5-4182-b1fc-3570e927fac1"},"vehicle_type_id":"4","last_reported":1741680771,"current_range_meters":14400,"station_id":"ce4bhip2rcd13ifvqft0","pricing_plan_id":"cebpf4jnsgd1na2vs0mg"},{"bike_id":"ab133eb8-7645-481b-8d68-7b7e97d89317","system_id":"levelo_inurba_marseille","lat":43.24075,"lon":5.37762,"is_reserved":false,"is_disabled":false,"rental_uris":{"android":"levelo://app?vid=ab133eb8-7645-481b-8d68-7b7e97d89317","ios":"levelo://app?vid=ab133eb8-7645-481b-8d68-7b7e97d89317"},"vehicle_type_id":"4","last_reported":1741680771,"current_range_meters":14800,"station_id":"ce4bhnp2rcd13ifvqgvg","pricing_plan_id":"cebpf4jnsgd1na2vs0mg"},{"bike_id":"28dee74a-2db9-47f4-bb32-cd92a9519a0e","system_id":"levelo_inurba_marseille","lat":43.33796,"lon":5.37439,"is_reserved":false,"is_disabled":false,"rental_uris":{"android":"levelo://app?vid=28dee74a-2db9-47f4-bb32-cd92a9519a0e","ios":"levelo://app?vid=28dee74a-2db9-47f4-bb32-cd92a9519a0e"},"vehicle_type_id":"4","last_reported":1741680771,"current_range_meters":14800,"station_id":"","pricing_plan_id":"cebpf4jnsgd1na2vs0mg"},{"bike_id":"62ca53b8-1e4e-4910-a0a1-269f3f367cb3","system_id":"levelo_inurba_marseille","lat":43.27503,"lon":5.42447,"is_reserved":false,"is_disabled":false,"rental_uris":{"android":"levelo://app?vid=62ca53b8-1e4e-4910-a0a1-269f3f367cb3","ios":"levelo://app?vid=62ca53b8-1e4e-4910-a0a1-269f3f367cb3"},"vehicle_type_id":"4","last_reported":1741680771,"current_range_meters":14800,"station_id":"ce4bhn92rcd13ifvqgrg","pricing_plan_id":"cebpf4jnsgd1na2vs0mg"},{"bike_id":"fa6cd94b-4487-463b-9d8d-81b59d10f010","system_id":"levelo_inurba_marseille","lat":43.27201,"lon":5.40989,"is_reserved":false,"is_disabled":false,"rental_uris":{"android":"levelo://app?vid=fa6cd94b-4487-463b-9d8d-81b59d10f010","ios":"levelo://app?vid=fa6cd94b-4487-463b-9d8d-81b59d10f010"},"vehicle_type_id":"4","last_reported":1741680771,"current_range_meters":14400,"station_id":"ce4bhl12rcd13ifvqgf0","pricing_plan_id":"cebpf4jnsgd1na2vs0mg"},{"bike_id":"8e517124-4992-44de-86f2-acd52ad37c73","system_id":"levelo_inurba_marseille","lat":43.30528,"lon":5.36722,"is_reserved":false,"is_disabled":false,"rental_uris":{"android":"levelo://app?vid=8e517124-4992-44de-86f2-acd52ad37c73","ios":"levelo://app?vid=8e517124-4992-44de-86f2-acd52ad37c73"},"vehicle_type_id":"4","last_reported":1741680771,"current_range_meters":14800,"station_id":"ce4bgrp2rcd13ifvqc9g","pricing_plan_id":"cebpf4jnsgd1na2vs0mg"},{"bike_id":"6b11f8b0-acc5-4351-a647-741354616f28","system_id":"levelo_inurba_marseille","lat":43.2925,"lon":5.4091,"is_reserved":false,"is_disabled":false,"rental_uris":{"android":"levelo://app?vid=6b11f8b0-acc5-4351-a647-741354616f28","ios":"levelo://app?vid=6b11f8b0-acc5-4351-a647-741354616f28"},"vehicle_type_id":"4","last_reported":1741680771,"current_range_meters":15200,"station_id":"ce4bh192rcd13ifvqdc0","pricing_plan_id":"cebpf4jnsgd1na2vs0mg"},{"bike_id":"577fc21b-dbcc-468c-a81f-1f45a015cfda","system_id":"levelo_inurba_marseille","lat":43.23159,"lon":5.43707,"is_reserved":false,"is_disabled":false,"rental_uris":{"android":"levelo://app?vid=577fc21b-dbcc-468c-a81f-1f45a015cfda","ios":"levelo://app?vid=577fc21b-dbcc-468c-a81f-1f45a015cfda"},"vehicle_type_id":"4","last_reported":1741680771,"current_range_meters":15200,"station_id":"ce4bhmp2rcd13ifvqgog","pricing_plan_id":"cebpf4jnsgd1na2vs0mg"},{"bike_id":"c1fdf776-5ff6-4f38-96ad-d3bee4a7cebb","system_id":"levelo_inurba_marseille","lat":43.23153,"lon":5.43719,"is_reserved":false,"is_disabled":false,"rental_uris":{"android":"levelo://app?vid=c1fdf776-5ff6-4f38-96ad-d3bee4a7cebb","ios":"levelo://app?vid=c1fdf776-5ff6-4f38-96ad-d3bee4a7cebb"},"vehicle_type_id":"4","last_reported":1741680771,"current_range_meters":15200,"station_id":"ce4bhmp2rcd13ifvqgog","pricing_plan_id":"cebpf4jnsgd1na2vs0mg"},{"bike_id":"6b8201d0-3f03-49b3-a6b7-ded026ed176e","system_id":"levelo_inurba_marseille","lat":43.3028,"lon":5.37713,"is_reserved":false,"is_disabled":false,"rental_uris":{"android":"levelo://app?vid=6b8201d0-3f03-49b3-a6b7-ded026ed176e","ios":"levelo://app?vid=6b8201d0-3f03-49b3-a6b7-ded026ed176e"},"vehicle_type_id":"4","last_reported":1741680771,"current_range_meters":15200,"station_id":"ce4bguh2rcd13ifvqcj0","pricing_plan_id":"cebpf4jnsgd1na2vs0mg"},{"bike_id":"9ff2e847-1e44-4312-a236-c8feaac3ea45","system_id":"levelo_inurba_marseille","lat":43.2707,"lon":5.42285,"is_reserved":false,"is_disabled":false,"rental_uris":{"android":"levelo://app?vid=9ff2e847-1e44-4312-a236-c8feaac3ea45","ios":"levelo://app?vid=9ff2e847-1e44-4312-a236-c8feaac3ea45"},"vehicle_type_id":"4","last_reported":1741680771,"current_range_meters":14800,"station_id":"ce4bhk92rcd13ifvqgb0","pricing_plan_id":"cebpf4jnsgd1na2vs0mg"},{"bike_id":"d6e66ae7-b268-4ed5-ae5a-a3f5c62cc5cc","system_id":"levelo_inurba_marseille","lat":43.26786,"lon":5.39412,"is_reserved":false,"is_disabled":false,"rental_uris":{"android":"levelo://app?vid=d6e66ae7-b268-4ed5-ae5a-a3f5c62cc5cc","ios":"levelo://app?vid=d6e66ae7-b268-4ed5-ae5a-a3f5c62cc5cc"},"vehicle_type_id":"4","last_reported":1741680771,"current_range_meters":15200,"station_id":"ce4bhh12rcd13ifvqfg0","pricing_plan_id":"cebpf4jnsgd1na2vs0mg"},{"bike_id":"02672eb4-7881-450b-8fc9-e2c5980815b8","system_id":"levelo_inurba_marseille","lat":43.24058,"lon":5.37771,"is_reserved":false,"is_disabled":false,"rental_uris":{"android":"levelo://app?vid=02672eb4-7881-450b-8fc9-e2c5980815b8","ios":"levelo://app?vid=02672eb4-7881-450b-8fc9-e2c5980815b8"},"vehicle_type_id":"4","last_reported":1741680771,"current_range_meters":15200,"station_id":"ce4bhnp2rcd13ifvqgvg","pricing_plan_id":"cebpf4jnsgd1na2vs0mg"},{"bike_id":"c012cb5d-cc6c-48db-8d04-a321ffc6e266","system_id":"levelo_inurba_marseille","lat":43.30537,"lon":5.36721,"is_reserved":false,"is_disabled":false,"rental_uris":{"android":"levelo://app?vid=c012cb5d-cc6c-48db-8d04-a321ffc6e266","ios":"levelo://app?vid=c012cb5d-cc6c-48db-8d04-a321ffc6e266"},"vehicle_type_id":"4","last_reported":1741680771,"current_range_meters":16000,"station_id":"ce4bgrp2rcd13ifvqc9g","pricing_plan_id":"cebpf4jnsgd1na2vs0mg"},{"bike_id":"c6744031-ceb0-4286-96e0-03b89d3ddb4d","system_id":"levelo_inurba_marseille","lat":43.30956,"lon":5.39034,"is_reserved":false,"is_disabled":false,"rental_uris":{"android":"levelo://app?vid=c6744031-ceb0-4286-96e0-03b89d3ddb4d","ios":"levelo://app?vid=c6744031-ceb0-4286-96e0-03b89d3ddb4d"},"vehicle_type_id":"4","last_reported":1741680771,"current_range_meters":16000,"station_id":"ce4bgup2rcd13ifvqco0","pricing_plan_id":"cebpf4jnsgd1na2vs0mg"},{"bike_id":"90e4636f-5acf-4803-a3ed-f0ba6d29d559","system_id":"levelo_inurba_marseille","lat":43.30457,"lon":5.38893,"is_reserved":false,"is_disabled":true,"rental_uris":{"android":"levelo://app?vid=90e4636f-5acf-4803-a3ed-f0ba6d29d559","ios":"levelo://app?vid=90e4636f-5acf-4803-a3ed-f0ba6d29d559"},"vehicle_type_id":"4","last_reported":1741680771,"current_range_meters":16000,"station_id":"ce4bgk12rcd13ifvqbi0","pricing_plan_id":"cebpf4jnsgd1na2vs0mg"},{"bike_id":"ba12dbea-b652-4765-a637-f12265761c60","system_id":"levelo_inurba_marseille","lat":43.30454,"lon":5.37904,"is_reserved":false,"is_disabled":false,"rental_uris":{"android":"levelo://app?vid=ba12dbea-b652-4765-a637-f12265761c60","ios":"levelo://app?vid=ba12dbea-b652-4765-a637-f12265761c60"},"vehicle_type_id":"4","last_reported":1741680771,"current_range_meters":16000,"station_id":"ce4bgup2rcd13ifvqcn0","pricing_plan_id":"cebpf4jnsgd1na2vs0mg"},{"bike_id":"4fbcd95c-e0e8-4b39-8094-a467b4ba5057","system_id":"levelo_inurba_marseille","lat":43.243963,"lon":5.370572,"is_reserved":false,"is_disabled":false,"rental_uris":{"android":"levelo://app?vid=4fbcd95c-e0e8-4b39-8094-a467b4ba5057","ios":"levelo://app?vid=4fbcd95c-e0e8-4b39-8094-a467b4ba5057"},"vehicle_type_id":"4","last_reported":1741680771,"current_range_meters":16000,"station_id":"ce4bhhh2rcd13ifvqfk0","pricing_plan_id":"cebpf4jnsgd1na2vs0mg"},{"bike_id":"b4a0f766-3481-4a2f-88ab-bf050ea28608","system_id":"levelo_inurba_marseille","lat":43.2913,"lon":5.37933,"is_reserved":false,"is_disabled":false,"rental_uris":{"android":"levelo://app?vid=b4a0f766-3481-4a2f-88ab-bf050ea28608","ios":"levelo://app?vid=b4a0f766-3481-4a2f-88ab-bf050ea28608"},"vehicle_type_id":"4","last_reported":1741680771,"current_range_meters":16000,"station_id":"ce4bhqp2rcd13ifvqhng","pricing_plan_id":"cebpf4jnsgd1na2vs0mg"},{"bike_id":"17b872eb-086c-460e-bcad-782a4a781cf9","system_id":"levelo_inurba_marseille","lat":43.25223,"lon":5.42551,"is_reserved":false,"is_disabled":false,"rental_uris":{"android":"levelo://app?vid=17b872eb-086c-460e-bcad-782a4a781cf9","ios":"levelo://app?vid=17b872eb-086c-460e-bcad-782a4a781cf9"},"vehicle_type_id":"4","last_reported":1741680771,"current_range_meters":16400,"station_id":"","pricing_plan_id":"cebpf4jnsgd1na2vs0mg"},{"bike_id":"e23735d3-f17d-4415-b0db-476c79ec5d41","system_id":"levelo_inurba_marseille","lat":43.24077,"lon":5.37755,"is_reserved":false,"is_disabled":false,"rental_uris":{"android":"levelo://app?vid=e23735d3-f17d-4415-b0db-476c79ec5d41","ios":"levelo://app?vid=e23735d3-f17d-4415-b0db-476c79ec5d41"},"vehicle_type_id":"4","last_reported":1741680771,"current_range_meters":16400,"station_id":"ce4bhnp2rcd13ifvqgvg","pricing_plan_id":"cebpf4jnsgd1na2vs0mg"},{"bike_id":"69af4c50-9077-436a-8c73-2ffdc4c386f1","system_id":"levelo_inurba_marseille","lat":43.24177,"lon":5.39729,"is_reserved":false,"is_disabled":false,"rental_uris":{"android":"levelo://app?vid=69af4c50-9077-436a-8c73-2ffdc4c386f1","ios":"levelo://app?vid=69af4c50-9077-436a-8c73-2ffdc4c386f1"},"vehicle_type_id":"4","last_reported":1741680771,"current_range_meters":16400,"station_id":"ce4bhn12rcd13ifvqgpg","pricing_plan_id":"cebpf4jnsgd1na2vs0mg"},{"bike_id":"98abb632-e704-4d76-b282-59be888ae42b","system_id":"levelo_inurba_marseille","lat":43.24215,"lon":5.39721,"is_reserved":false,"is_disabled":false,"rental_uris":{"android":"levelo://app?vid=98abb632-e704-4d76-b282-59be888ae42b","ios":"levelo://app?vid=98abb632-e704-4d76-b282-59be888ae42b"},"vehicle_type_id":"4","last_reported":1741680771,"current_range_meters":16400,"station_id":"ce4bhn12rcd13ifvqgpg","pricing_plan_id":"cebpf4jnsgd1na2vs0mg"},{"bike_id":"8ad85dbe-e75c-44b7-a59f-2827b8a24433","system_id":"levelo_inurba_marseille","lat":43.29222,"lon":5.36058,"is_reserved":false,"is_disabled":false,"rental_uris":{"android":"levelo://app?vid=8ad85dbe-e75c-44b7-a59f-2827b8a24433","ios":"levelo://app?vid=8ad85dbe-e75c-44b7-a59f-2827b8a24433"},"vehicle_type_id":"4","last_reported":1741680771,"current_range_meters":16400,"station_id":"ce4bhbh2rcd13ifvqeqg","pricing_plan_id":"cebpf4jnsgd1na2vs0mg"},{"bike_id":"652c282d-7522-46a8-b99a-0b970b5cdd3a","system_id":"levelo_inurba_marseille","lat":43.29572,"lon":5.39968,"is_reserved":false,"is_disabled":true,"rental_uris":{"android":"levelo://app?vid=652c282d-7522-46a8-b99a-0b970b5cdd3a","ios":"levelo://app?vid=652c282d-7522-46a8-b99a-0b970b5cdd3a"},"vehicle_type_id":"4","last_reported":1741680771,"current_range_meters":16400,"station_id":"ce4bh312rcd13ifvqdj0","pricing_plan_id":"cebpf4jnsgd1na2vs0mg"},{"bike_id":"03fcef79-f017-4d15-a10d-891c5cd96db2","system_id":"levelo_inurba_marseille","lat":43.23079,"lon":5.35501,"is_reserved":false,"is_disabled":false,"rental_uris":{"android":"levelo://app?vid=03fcef79-f017-4d15-a10d-891c5cd96db2","ios":"levelo://app?vid=03fcef79-f017-4d15-a10d-891c5cd96db2"},"vehicle_type_id":"4","last_reported":1741680771,"current_range_meters":16400,"station_id":"cpo3342slgdg3j2ifvpg","pricing_plan_id":"cebpf4jnsgd1na2vs0mg"},{"bike_id":"f829a819-671e-4b71-9c22-56c5f8047725","system_id":"levelo_inurba_marseille","lat":43.32367,"lon":5.36763,"is_reserved":false,"is_disabled":false,"rental_uris":{"android":"levelo://app?vid=f829a819-671e-4b71-9c22-56c5f8047725","ios":"levelo://app?vid=f829a819-671e-4b71-9c22-56c5f8047725"},"vehicle_type_id":"4","last_reported":1741680771,"current_range_meters":16400,"station_id":"ce4bhsh2rcd13ifvqi2g","pricing_plan_id":"cebpf4jnsgd1na2vs0mg"},{"bike_id":"2013c27c-5f7f-44b7-bdf2-72998ddf9639","system_id":"levelo_inurba_marseille","lat":43.34142,"lon":5.40908,"is_reserved":false,"is_disabled":false,"rental_uris":{"android":"levelo://app?vid=2013c27c-5f7f-44b7-bdf2-72998ddf9639","ios":"levelo://app?vid=2013c27c-5f7f-44b7-bdf2-72998ddf9639"},"vehicle_type_id":"4","last_reported":1741680771,"current_range_meters":16000,"station_id":"ce4bhqh2rcd13ifvqhlg","pricing_plan_id":"cebpf4jnsgd1na2vs0mg"},{"bike_id":"f7d65875-3334-496a-95a9-c7219ff61e0d","system_id":"levelo_inurba_marseille","lat":43.29858,"lon":5.36287,"is_reserved":false,"is_disabled":false,"rental_uris":{"android":"levelo://app?vid=f7d65875-3334-496a-95a9-c7219ff61e0d","ios":"levelo://app?vid=f7d65875-3334-496a-95a9-c7219ff61e0d"},"vehicle_type_id":"4","last_reported":1741680771,"current_range_meters":16400,"station_id":"ce4bgpp2rcd13ifvqc3g","pricing_plan_id":"cebpf4jnsgd1na2vs0mg"},{"bike_id":"d8f8b9d4-699d-4feb-9a45-c202cb90c6f0","system_id":"levelo_inurba_marseille","lat":43.25129,"lon":5.39598,"is_reserved":false,"is_disabled":false,"rental_uris":{"android":"levelo://app?vid=d8f8b9d4-699d-4feb-9a45-c202cb90c6f0","ios":"levelo://app?vid=d8f8b9d4-699d-4feb-9a45-c202cb90c6f0"},"vehicle_type_id":"4","last_reported":1741680771,"current_range_meters":16400,"station_id":"","pricing_plan_id":"cebpf4jnsgd1na2vs0mg"},{"bike_id":"28ddcdf4-024a-4f42-80ff-fb3bac3f5f61","system_id":"levelo_inurba_marseille","lat":43.24165,"lon":5.36394,"is_reserved":false,"is_disabled":false,"rental_uris":{"android":"levelo://app?vid=28ddcdf4-024a-4f42-80ff-fb3bac3f5f61","ios":"levelo://app?vid=28ddcdf4-024a-4f42-80ff-fb3bac3f5f61"},"vehicle_type_id":"4","last_reported":1741680771,"current_range_meters":16800,"station_id":"cpo36qri1sfpv3e86is0","pricing_plan_id":"cebpf4jnsgd1na2vs0mg"},{"bike_id":"0c65e6ca-7494-49e4-9cfc-2bac04035b1d","system_id":"levelo_inurba_marseille","lat":43.28712,"lon":5.399895,"is_reserved":false,"is_disabled":true,"rental_uris":{"android":"levelo://app?vid=0c65e6ca-7494-49e4-9cfc-2bac04035b1d","ios":"levelo://app?vid=0c65e6ca-7494-49e4-9cfc-2bac04035b1d"},"vehicle_type_id":"4","last_reported":1741680771,"current_range_meters":16800,"station_id":"ce4bho92rcd13ifvqh3g","pricing_plan_id":"cebpf4jnsgd1na2vs0mg"},{"bike_id":"e246a648-b32b-470c-8c3a-0e61d94ed94c","system_id":"levelo_inurba_marseille","lat":43.28846,"lon":5.39356,"is_reserved":false,"is_disabled":true,"rental_uris":{"android":"levelo://app?vid=e246a648-b32b-470c-8c3a-0e61d94ed94c","ios":"levelo://app?vid=e246a648-b32b-470c-8c3a-0e61d94ed94c"},"vehicle_type_id":"4","last_reported":1741680771,"current_range_meters":16800,"station_id":"ce4bh2p2rcd13ifvqdi0","pricing_plan_id":"cebpf4jnsgd1na2vs0mg"},{"bike_id":"bf1fa238-64b6-47da-af78-02e7db9c53de","system_id":"levelo_inurba_marseille","lat":43.3108,"lon":5.42436,"is_reserved":false,"is_disabled":false,"rental_uris":{"android":"levelo://app?vid=bf1fa238-64b6-47da-af78-02e7db9c53de","ios":"levelo://app?vid=bf1fa238-64b6-47da-af78-02e7db9c53de"},"vehicle_type_id":"4","last_reported":1741680771,"current_range_meters":16800,"station_id":"ce4bhp92rcd13ifvqhag","pricing_plan_id":"cebpf4jnsgd1na2vs0mg"},{"bike_id":"d8e28cdb-b3c8-4bf1-8245-74feb22695f1","system_id":"levelo_inurba_marseille","lat":43.29616,"lon":5.37727,"is_reserved":false,"is_disabled":false,"rental_uris":{"android":"levelo://app?vid=d8e28cdb-b3c8-4bf1-8245-74feb22695f1","ios":"levelo://app?vid=d8e28cdb-b3c8-4bf1-8245-74feb22695f1"},"vehicle_type_id":"4","last_reported":1741680771,"current_range_meters":16800,"station_id":"ce4bgi92rcd13ifvqb90","pricing_plan_id":"cebpf4jnsgd1na2vs0mg"},{"bike_id":"be04fb7b-49e7-491b-ab49-5893cbae4799","system_id":"levelo_inurba_marseille","lat":43.2501,"lon":5.3892,"is_reserved":false,"is_disabled":false,"rental_uris":{"android":"levelo://app?vid=be04fb7b-49e7-491b-ab49-5893cbae4799","ios":"levelo://app?vid=be04fb7b-49e7-491b-ab49-5893cbae4799"},"vehicle_type_id":"4","last_reported":1741680771,"current_range_meters":16800,"station_id":"ce4bhgp2rcd13ifvqfd0","pricing_plan_id":"cebpf4jnsgd1na2vs0mg"},{"bike_id":"1bddbc37-0e00-4efd-b04d-dc4ea5b3009f","system_id":"levelo_inurba_marseille","lat":43.31225,"lon":5.36866,"is_reserved":false,"is_disabled":false,"rental_uris":{"android":"levelo://app?vid=1bddbc37-0e00-4efd-b04d-dc4ea5b3009f","ios":"levelo://app?vid=1bddbc37-0e00-4efd-b04d-dc4ea5b3009f"},"vehicle_type_id":"4","last_reported":1741680771,"current_range_meters":16800,"station_id":"ce4bgl92rcd13ifvqbq0","pricing_plan_id":"cebpf4jnsgd1na2vs0mg"},{"bike_id":"83c4e274-5ff4-421e-b0f9-066b9c0b7fc4","system_id":"levelo_inurba_marseille","lat":43.25943,"lon":5.409,"is_reserved":false,"is_disabled":false,"rental_uris":{"android":"levelo://app?vid=83c4e274-5ff4-421e-b0f9-066b9c0b7fc4","ios":"levelo://app?vid=83c4e274-5ff4-421e-b0f9-066b9c0b7fc4"},"vehicle_type_id":"4","last_reported":1741680771,"current_range_meters":16800,"station_id":"ce4bhm92rcd13ifvqglg","pricing_plan_id":"cebpf4jnsgd1na2vs0mg"},{"bike_id":"5b40fcbb-5339-4d09-8622-7ef474631ab1","system_id":"levelo_inurba_marseille","lat":43.3054,"lon":5.36683,"is_reserved":false,"is_disabled":false,"rental_uris":{"android":"levelo://app?vid=5b40fcbb-5339-4d09-8622-7ef474631ab1","ios":"levelo://app?vid=5b40fcbb-5339-4d09-8622-7ef474631ab1"},"vehicle_type_id":"4","last_reported":1741680771,"current_range_meters":16800,"station_id":"ce4bgrp2rcd13ifvqc9g","pricing_plan_id":"cebpf4jnsgd1na2vs0mg"},{"bike_id":"4b3d0364-e93e-4eb0-b7b0-5f3ffffd5a40","system_id":"levelo_inurba_marseille","lat":43.28283,"lon":5.35064,"is_reserved":false,"is_disabled":false,"rental_uris":{"android":"levelo://app?vid=4b3d0364-e93e-4eb0-b7b0-5f3ffffd5a40","ios":"levelo://app?vid=4b3d0364-e93e-4eb0-b7b0-5f3ffffd5a40"},"vehicle_type_id":"4","last_reported":1741680771,"current_range_meters":16800,"station_id":"ce4bhbp2rcd13ifvqerg","pricing_plan_id":"cebpf4jnsgd1na2vs0mg"},{"bike_id":"803ea8dd-d180-4e7f-8cac-6164ca1b88ff","system_id":"levelo_inurba_marseille","lat":43.2784,"lon":5.40683,"is_reserved":false,"is_disabled":false,"rental_uris":{"android":"levelo://app?vid=803ea8dd-d180-4e7f-8cac-6164ca1b88ff","ios":"levelo://app?vid=803ea8dd-d180-4e7f-8cac-6164ca1b88ff"},"vehicle_type_id":"4","last_reported":1741680771,"current_range_meters":16800,"station_id":"ce4bhnh2rcd13ifvqgtg","pricing_plan_id":"cebpf4jnsgd1na2vs0mg"},{"bike_id":"03b33c89-18ad-4b5a-9620-67ce05eedc38","system_id":"levelo_inurba_marseille","lat":43.27071,"lon":5.4228,"is_reserved":false,"is_disabled":false,"rental_uris":{"android":"levelo://app?vid=03b33c89-18ad-4b5a-9620-67ce05eedc38","ios":"levelo://app?vid=03b33c89-18ad-4b5a-9620-67ce05eedc38"},"vehicle_type_id":"4","last_reported":1741680771,"current_range_meters":16400,"station_id":"ce4bhk92rcd13ifvqgb0","pricing_plan_id":"cebpf4jnsgd1na2vs0mg"},{"bike_id":"bb6388ec-21b2-40d4-86e4-837e36c85c50","system_id":"levelo_inurba_marseille","lat":43.24174,"lon":5.364,"is_reserved":false,"is_disabled":false,"rental_uris":{"android":"levelo://app?vid=bb6388ec-21b2-40d4-86e4-837e36c85c50","ios":"levelo://app?vid=bb6388ec-21b2-40d4-86e4-837e36c85c50"},"vehicle_type_id":"4","last_reported":1741680771,"current_range_meters":17200,"station_id":"cpo36qri1sfpv3e86is0","pricing_plan_id":"cebpf4jnsgd1na2vs0mg"},{"bike_id":"a7b6ac05-6af3-44a0-8d14-80658f4a55b8","system_id":"levelo_inurba_marseille","lat":43.27051,"lon":5.40275,"is_reserved":false,"is_disabled":false,"rental_uris":{"android":"levelo://app?vid=a7b6ac05-6af3-44a0-8d14-80658f4a55b8","ios":"levelo://app?vid=a7b6ac05-6af3-44a0-8d14-80658f4a55b8"},"vehicle_type_id":"4","last_reported":1741680771,"current_range_meters":17200,"station_id":"ce4bhk92rcd13ifvqgc0","pricing_plan_id":"cebpf4jnsgd1na2vs0mg"},{"bike_id":"2e17f9b9-a1bb-4d5c-865d-32cf753f1e5f","system_id":"levelo_inurba_marseille","lat":43.27509,"lon":5.42405,"is_reserved":false,"is_disabled":false,"rental_uris":{"android":"levelo://app?vid=2e17f9b9-a1bb-4d5c-865d-32cf753f1e5f","ios":"levelo://app?vid=2e17f9b9-a1bb-4d5c-865d-32cf753f1e5f"},"vehicle_type_id":"4","last_reported":1741680771,"current_range_meters":17200,"station_id":"ce4bhn92rcd13ifvqgrg","pricing_plan_id":"cebpf4jnsgd1na2vs0mg"},{"bike_id":"3ea8914c-4d1e-4908-8e3f-d1ca0cffded0","system_id":"levelo_inurba_marseille","lat":43.25939,"lon":5.4091,"is_reserved":false,"is_disabled":false,"rental_uris":{"android":"levelo://app?vid=3ea8914c-4d1e-4908-8e3f-d1ca0cffded0","ios":"levelo://app?vid=3ea8914c-4d1e-4908-8e3f-d1ca0cffded0"},"vehicle_type_id":"4","last_reported":1741680771,"current_range_meters":17200,"station_id":"ce4bhm92rcd13ifvqglg","pricing_plan_id":"cebpf4jnsgd1na2vs0mg"},{"bike_id":"2f5a9a6a-d9b3-43b1-9abb-f5abbfff54de","system_id":"levelo_inurba_marseille","lat":43.30964,"lon":5.3904,"is_reserved":false,"is_disabled":false,"rental_uris":{"android":"levelo://app?vid=2f5a9a6a-d9b3-43b1-9abb-f5abbfff54de","ios":"levelo://app?vid=2f5a9a6a-d9b3-43b1-9abb-f5abbfff54de"},"vehicle_type_id":"4","last_reported":1741680771,"current_range_meters":17200,"station_id":"ce4bgup2rcd13ifvqco0","pricing_plan_id":"cebpf4jnsgd1na2vs0mg"},{"bike_id":"c4250e82-8c81-4e44-ba6b-37b6bdb4676e","system_id":"levelo_inurba_marseille","lat":43.30546,"lon":5.36708,"is_reserved":false,"is_disabled":false,"rental_uris":{"android":"levelo://app?vid=c4250e82-8c81-4e44-ba6b-37b6bdb4676e","ios":"levelo://app?vid=c4250e82-8c81-4e44-ba6b-37b6bdb4676e"},"vehicle_type_id":"4","last_reported":1741680771,"current_range_meters":17200,"station_id":"ce4bgrp2rcd13ifvqc9g","pricing_plan_id":"cebpf4jnsgd1na2vs0mg"},{"bike_id":"6cb56eaa-4d50-40c3-a31a-4e5b3e5f32d1","system_id":"levelo_inurba_marseille","lat":43.29911,"lon":5.37478,"is_reserved":false,"is_disabled":false,"rental_uris":{"android":"levelo://app?vid=6cb56eaa-4d50-40c3-a31a-4e5b3e5f32d1","ios":"levelo://app?vid=6cb56eaa-4d50-40c3-a31a-4e5b3e5f32d1"},