{"last_updated":1686967442,"ttl":30,"version":"2.2","data":{"bikes":[{"bike_id":"1615f221-8f08-4abe-bc90-671ab5eb1b03","system_id":"levelo_inurba_marseille","lat":43.313391,"lon":5.36706,"is_reserved":false,"is_disabled":false,"rental_uris":{"android":"levelo://app?vid=1615f221-8f08-4abe-bc90-671ab5eb1b03","ios":"levelo://app?vid=1615f221-8f08-4abe-bc90-671ab5eb1b03"},"vehicle_type_id":"4","last_reported":1686967443,"current_range_meters":30000,"station_id":"ce4bgr92rcd13ifvqc6g","pricing_plan_id":"free"},{"bike_id":"6f3ed759-34b6-407c-852f-dcce198c67f8","system_id":"levelo_inurba_marseille","lat":43.309076,"lon":5.368465,"is_reserved":false,"is_disabled":false,"rental_uris":{"android":"levelo://app?vid=6f3ed759-34b6-407c-852f-dcce198c67f8","ios":"levelo://app?vid=6f3ed759-34b6-407c-852f-dcce198c67f8"},"vehicle_type_id":"4","last_reported":1686967443,"current_range_meters":10000,"station_id":"ce4bgn92rcd13ifvqbvg","pricing_plan_id":"free"},{"bike_id":"39e0fcf5-cac1-402b-809a-9a7caeccbbcb","system_id":"levelo_inurba_marseille","lat":43.309076,"lon":5.368465,"is_reserved":false,"is_disabled":false,"rental_uris":{"android":"levelo://app?vid=39e0fcf5-cac1-402b-809a-9a7caeccbbcb","ios":"levelo://app?vid=39e0fcf5-cac1-402b-809a-9a7caeccbbcb"},"vehicle_type_id":"4","last_reported":1686967443,"current_range_meters":5600,"station_id":"ce4bgn92rcd13ifvqbvg","pricing_plan_id":"free"},{"bike_id":"c39d44af-cb99-46cc-a64a-3fff3934cdd1","system_id":"levelo_inurba_marseille","lat":43.314811,"lon":5.373103,"is_reserved":false,"is_disabled":false,"rental_uris":{"android":"levelo://app?vid=c39d44af-cb99-46cc-a64a-3fff3934cdd1","ios":"levelo://app?vid=c39d44af-cb99-46cc-a64a-3fff3934cdd1"},"vehicle_type_id":"4","last_reported":1686967443,"current_range_meters":30400,"station_id":"ce4bgt12rcd13ifvqcd0","pricing_plan_id":"free"},{"bike_id":"813d2ea6-0ab5-4f5b-a035-e02a6477a758","system_id":"levelo_inurba_marseille","lat":43.314811,"lon":5.373103,"is_reserved":false,"is_disabled":false,"rental_uris":{"android":"levelo://app?vid=813d2ea6-0ab5-4f5b-a035-e02a6477a758","ios":"levelo://app?vid=813d2ea6-0ab5-4f5b-a035-e02a6477a758"},"vehicle_type_id":"4","last_reported":1686967443,"current_range_meters":27200,"station_id":"ce4bgt12rcd13ifvqcd0","pricing_plan_id":"free"},{"bike_id":"73d7dcd5-04a7-4cd5-86ad-38e8b7a76c2d","system_id":"levelo_inurba_marseille","lat":43.314811,"lon":5.373103,"is_reserved":false,"is_disabled":false,"rental_uris":{"android":"levelo://app?vid=73d7dcd5-04a7-4cd5-86ad-38e8b7a76c2d","ios":"levelo://app?vid=73d7dcd5-04a7-4cd5-86ad-38e8b7a76c2d"},"vehicle_type_id":"4","last_reported":1686967443,"current_range_meters":8000,"station_id":"ce4bgt12rcd13ifvqcd0","pricing_plan_id":"free"},{"bike_id":"c341b37a-aecc-49f6-b38a-a8e3eb192627","system_id":"levelo_inurba_marseille","lat":43.314811,"lon":5.373104,"is_reserved":false,"is_disabled":false,"rental_uris":{"android":"levelo://app?vid=c341b37a-aecc-49f6-b38a-a8e3eb192627","ios":"levelo://app?vid=c341b37a-aecc-49f6-b38a-a8e3eb192627"},"vehicle_type_id":"4","last_reported":1686967443,"current_range_meters":21600,"station_id":"ce4bgt12rcd13ifvqcd0","pricing_plan_id":"free"},{"bike_id":"cff32689-03f8-4e03-a008-88fcf8e7cbb8","system_id":"levelo_inurba_marseille","lat":43.31499,"lon":5.37311,"is_reserved":false,"is_disabled":false,"rental_uris":{"android":"levelo://app?vid=cff32689-03f8-4e03-a008-88fcf8e7cbb8","ios":"levelo://app?vid=cff32689-03f8-4e03-a008-88fcf8e7cbb8"},"vehicle_type_id":"4","last_reported":1686967443,"current_range_meters":4000,"station_id":"","pricing_plan_id":"free"},{"bike_id":"739bb2be-33b1-40cd-b95b-ecac5a2fc4af","system_id":"levelo_inurba_marseille","lat":43.308606,"lon":5.372099,"is_reserved":false,"is_disabled":false,"rental_uris":{"android":"levelo://app?vid=739bb2be-33b1-40cd-b95b-ecac5a2fc4af","ios":"levelo://app?vid=739bb2be-33b1-40cd-b95b-ecac5a2fc4af"},"vehicle_type_id":"4","last_reported":1686967443,"current_range_meters":31200,"station_id":"ce4bguh2rcd13ifvqckg","pricing_plan_id":"free"},{"bike_id":"8b882f6f-8785-49aa-ada2-2c191f9e5dcf","system_id":"levelo_inurba_marseille","lat":43.308606,"lon":5.372099,"is_reserved":false,"is_disabled":false,"rental_uris":{"android":"levelo://app?vid=8b882f6f-8785-49aa-ada2-2c191f9e5dcf","ios":"levelo://app?vid=8b882f6f-8785-49aa-ada2-2c191f9e5dcf"},"vehicle_type_id":"4","last_reported":1686967443,"current_range_meters":27600,"station_id":"ce4bguh2rcd13ifvqckg","pricing_plan_id":"free"},{"bike_id":"5b49b277-b9e9-46f4-be4e-78c444274c59","system_id":"levelo_inurba_marseille","lat":43.308606,"lon":5.372099,"is_reserved":false,"is_disabled":false,"rental_uris":{"android":"levelo://app?vid=5b49b277-b9e9-46f4-be4e-78c444274c59","ios":"levelo://app?vid=5b49b277-b9e9-46f4-be4e-78c444274c59"},"vehicle_type_id":"4","last_reported":1686967443,"current_range_meters":29600,"station_id":"ce4bguh2rcd13ifvqckg","pricing_plan_id":"free"},{"bike_id":"6f3850d0-56fb-4181-a831-a67c1fd38537","system_id":"levelo_inurba_marseille","lat":43.308606,"lon":5.372099,"is_reserved":false,"is_disabled":false,"rental_uris":{"android":"levelo://app?vid=6f3850d0-56fb-4181-a831-a67c1fd38537","ios":"levelo://app?vid=6f3850d0-56fb-4181-a831-a67c1fd38537"},"vehicle_type_id":"4","last_reported":1686967443,"current_range_meters":28400,"station_id":"ce4bguh2rcd13ifvqckg","pricing_plan_id":"free"},{"bike_id":"33a029e5-e9ed-4510-ba7e-fc301507c035","system_id":"levelo_inurba_marseille","lat":43.31728,"lon":5.3742,"is_reserved":false,"is_disabled":false,"rental_uris":{"android":"levelo://app?vid=33a029e5-e9ed-4510-ba7e-fc301507c035","ios":"levelo://app?vid=33a029e5-e9ed-4510-ba7e-fc301507c035"},"vehicle_type_id":"4","last_reported":1686967443,"current_range_meters":2000,"station_id":"","pricing_plan_id":"free"},{"bike_id":"ab9508de-8a14-4605-abaa-bb5121c76072","system_id":"levelo_inurba_marseille","lat":43.30533,"lon":5.36699,"is_reserved":false,"is_disabled":false,"rental_uris":{"android":"levelo://app?vid=ab9508de-8a14-4605-abaa-bb5121c76072","ios":"levelo://app?vid=ab9508de-8a14-4605-abaa-bb5121c76072"},"vehicle_type_id":"4","last_reported":1686967443,"current_range_meters":11600,"station_id":"ce4bgrp2rcd13ifvqc9g","pricing_plan_id":"free"},{"bike_id":"80049f59-4adf-4d31-bd06-706f96dc58bd","system_id":"levelo_inurba_marseille","lat":43.30535,"lon":5.36597,"is_reserved":false,"is_disabled":false,"rental_uris":{"android":"levelo://app?vid=80049f59-4adf-4d31-bd06-706f96dc58bd","ios":"levelo://app?vid=80049f59-4adf-4d31-bd06-706f96dc58bd"},"vehicle_type_id":"4","last_reported":1686967443,"current_range_meters":31200,"station_id":"ce4bgs12rcd13ifvqcag","pricing_plan_id":"free"},{"bike_id":"688af030-4781-4878-ad04-385303c24597","system_id":"levelo_inurba_marseille","lat":43.30533,"lon":5.3654,"is_reserved":false,"is_disabled":false,"rental_uris":{"android":"levelo://app?vid=688af030-4781-4878-ad04-385303c24597","ios":"levelo://app?vid=688af030-4781-4878-ad04-385303c24597"},"vehicle_type_id":"4","last_reported":1686967443,"current_range_meters":31200,"station_id":"ce4bgs12rcd13ifvqcag","pricing_plan_id":"free"},{"bike_id":"d9053597-4116-4e8f-b2c7-cb882b0f4abc","system_id":"levelo_inurba_marseille","lat":43.311131,"lon":5.377651,"is_reserved":false,"is_disabled":false,"rental_uris":{"android":"levelo://app?vid=d9053597-4116-4e8f-b2c7-cb882b0f4abc","ios":"levelo://app?vid=d9053597-4116-4e8f-b2c7-cb882b0f4abc"},"vehicle_type_id":"4","last_reported":1686967443,"current_range_meters":30000,"station_id":"ce4bgt92rcd13ifvqcg0","pricing_plan_id":"free"},{"bike_id":"c3ba90eb-a943-4a9c-b70d-d355daca4f1d","system_id":"levelo_inurba_marseille","lat":43.311125,"lon":5.377624,"is_reserved":false,"is_disabled":false,"rental_uris":{"android":"levelo://app?vid=c3ba90eb-a943-4a9c-b70d-d355daca4f1d","ios":"levelo://app?vid=c3ba90eb-a943-4a9c-b70d-d355daca4f1d"},"vehicle_type_id":"4","last_reported":1686967443,"current_range_meters":31200,"station_id":"ce4bgt92rcd13ifvqcg0","pricing_plan_id":"free"},{"bike_id":"4fa084c6-8e62-429d-9e78-297dd52c5075","system_id":"levelo_inurba_marseille","lat":43.311125,"lon":5.377624,"is_reserved":false,"is_disabled":false,"rental_uris":{"android":"levelo://app?vid=4fa084c6-8e62-429d-9e78-297dd52c5075","ios":"levelo://app?vid=4fa084c6-8e62-429d-9e78-297dd52c5075"},"vehicle_type_id":"4","last_reported":1686967443,"current_range_meters":24400,"station_id":"ce4bgt92rcd13ifvqcg0","pricing_plan_id":"free"},{"bike_id":"392d2bad-b508-4faa-9a4d-18c86da73251","system_id":"levelo_inurba_marseille","lat":43.311125,"lon":5.377624,"is_reserved":false,"is_disabled":false,"rental_uris":{"android":"levelo://app?vid=392d2bad-b508-4faa-9a4d-18c86da73251","ios":"levelo://app?vid=392d2bad-b508-4faa-9a4d-18c86da73251"},"vehicle_type_id":"4","last_reported":1686967443,"current_range_meters":30000,"station_id":"ce4bgt92rcd13ifvqcg0","pricing_plan_id":"free"},{"bike_id":"58d1ce3c-aa8d-4000-abcd-c41a3b25f47d","system_id":"levelo_inurba_marseille","lat":43.311125,"lon":5.377624,"is_reserved":false,"is_disabled":false,"rental_uris":{"android":"levelo://app?vid=58d1ce3c-aa8d-4000-abcd-c41a3b25f47d","ios":"levelo://app?vid=58d1ce3c-aa8d-4000-abcd-c41a3b25f47d"},"vehicle_type_id":"4","last_reported":1686967443,"current_range_meters":11200,"station_id":"ce4bgt92rcd13ifvqcg0","pricing_plan_id":"free"},{"bike_id":"9859d3d6-a469-4070-a4a0-40b626f625f3","system_id":"levelo_inurba_marseille","lat":43.317075,"lon":5.377367,"is_reserved":false,"is_disabled":false,"rental_uris":{"android":"levelo://app?vid=9859d3d6-a469-4070-a4a0-40b626f625f3","ios":"levelo://app?vid=9859d3d6-a469-4070-a4a0-40b626f625f3"},"vehicle_type_id":"4","last_reported":1686967443,"current_range_meters":8000,"station_id":"ce4bgth2rcd13ifvqch0","pricing_plan_id":"free"},{"bike_id":"46df6f56-1135-49f2-8aa4-e221987385d2","system_id":"levelo_inurba_marseille","lat":43.31705,"lon":5.37747,"is_reserved":false,"is_disabled":false,"rental_uris":{"android":"levelo://app?vid=46df6f56-1135-49f2-8aa4-e221987385d2","ios":"levelo://app?vid=46df6f56-1135-49f2-8aa4-e221987385d2"},"vehicle_type_id":"4","last_reported":1686967443,"current_range_meters":17200,"station_id":"ce4bgth2rcd13ifvqch0","pricing_plan_id":"free"},{"bike_id":"09941c8e-d9e9-4d84-87eb-77d4dbb68a64","system_id":"levelo_inurba_marseille","lat":43.317075,"lon":5.377367,"is_reserved":false,"is_disabled":false,"rental_uris":{"android":"levelo://app?vid=09941c8e-d9e9-4d84-87eb-77d4dbb68a64","ios":"levelo://app?vid=09941c8e-d9e9-4d84-87eb-77d4dbb68a64"},"vehicle_type_id":"4","last_reported":1686967443,"current_range_meters":28400,"station_id":"ce4bgth2rcd13ifvqch0","pricing_plan_id":"free"},{"bike_id":"2424216c-0462-4ad0-b127-d0366c91b61c","system_id":"levelo_inurba_marseille","lat":43.317075,"lon":5.377367,"is_reserved":false,"is_disabled":false,"rental_uris":{"android":"levelo://app?vid=2424216c-0462-4ad0-b127-d0366c91b61c","ios":"levelo://app?vid=2424216c-0462-4ad0-b127-d0366c91b61c"},"vehicle_type_id":"4","last_reported":1686967443,"current_range_meters":31600,"station_id":"ce4bgth2rcd13ifvqch0","pricing_plan_id":"free"},{"bike_id":"ae5d4e75-563e-40b6-870d-88174dbf03d0","system_id":"levelo_inurba_marseille","lat":43.317075,"lon":5.377367,"is_reserved":false,"is_disabled":false,"rental_uris":{"android":"levelo://app?vid=ae5d4e75-563e-40b6-870d-88174dbf03d0","ios":"levelo://app?vid=ae5d4e75-563e-40b6-870d-88174dbf03d0"},"vehicle_type_id":"4","last_reported":1686967443,"current_range_meters":9600,"station_id":"ce4bgth2rcd13ifvqch0","pricing_plan_id":"free"},{"bike_id":"b2631404-f55a-4eb5-9d98-dd8b4ccf246b","system_id":"levelo_inurba_marseille","lat":43.303046,"lon":5.368981,"is_reserved":false,"is_disabled":false,"rental_uris":{"android":"levelo://app?vid=b2631404-f55a-4eb5-9d98-dd8b4ccf246b","ios":"levelo://app?vid=b2631404-f55a-4eb5-9d98-dd8b4ccf246b"},"vehicle_type_id":"4","last_reported":1686967443,"current_range_meters":16400,"station_id":"ce4bgqh2rcd13ifvqc5g","pricing_plan_id":"free"},{"bike_id":"6573676c-079f-4b5f-a5d7-37b697765e47","system_id":"levelo_inurba_marseille","lat":43.303046,"lon":5.368981,"is_reserved":false,"is_disabled":false,"rental_uris":{"android":"levelo://app?vid=6573676c-079f-4b5f-a5d7-37b697765e47","ios":"levelo://app?vid=6573676c-079f-4b5f-a5d7-37b697765e47"},"vehicle_type_id":"4","last_reported":1686967443,"current_range_meters":9600,"station_id":"ce4bgqh2rcd13ifvqc5g","pricing_plan_id":"free"},{"bike_id":"2754d6b1-c631-489f-8bbd-48263c28661c","system_id":"levelo_inurba_marseille","lat":43.315289,"lon":5.380349,"is_reserved":false,"is_disabled":false,"rental_uris":{"android":"levelo://app?vid=2754d6b1-c631-489f-8bbd-48263c28661c","ios":"levelo://app?vid=2754d6b1-c631-489f-8bbd-48263c28661c"},"vehicle_type_id":"4","last_reported":1686967443,"current_range_meters":9600,"station_id":"ce4bhsp2rcd13ifvqi50","pricing_plan_id":"free"},{"bike_id":"46bb3f47-908b-4b9e-9d58-bbeb1fffa81a","system_id":"levelo_inurba_marseille","lat":43.315293,"lon":5.380349,"is_reserved":false,"is_disabled":false,"rental_uris":{"android":"levelo://app?vid=46bb3f47-908b-4b9e-9d58-bbeb1fffa81a","ios":"levelo://app?vid=46bb3f47-908b-4b9e-9d58-bbeb1fffa81a"},"vehicle_type_id":"4","last_reported":1686967443,"current_range_meters":13600,"station_id":"ce4bhsp2rcd13ifvqi50","pricing_plan_id":"free"},{"bike_id":"9626abd1-d254-4098-8ba5-cfe5ade1833b","system_id":"levelo_inurba_marseille","lat":43.315289,"lon":5.380349,"is_reserved":false,"is_disabled":false,"rental_uris":{"android":"levelo://app?vid=9626abd1-d254-4098-8ba5-cfe5ade1833b","ios":"levelo://app?vid=9626abd1-d254-4098-8ba5-cfe5ade1833b"},"vehicle_type_id":"4","last_reported":1686967443,"current_range_meters":24800,"station_id":"ce4bhsp2rcd13ifvqi50","pricing_plan_id":"free"},{"bike_id":"b3aafb43-eded-49bc-a398-70a1458b366c","system_id":"levelo_inurba_marseille","lat":43.315289,"lon":5.380349,"is_reserved":false,"is_disabled":false,"rental_uris":{"android":"levelo://app?vid=b3aafb43-eded-49bc-a398-70a1458b366c","ios":"levelo://app?vid=b3aafb43-eded-49bc-a398-70a1458b366c"},"vehicle_type_id":"4","last_reported":1686967443,"current_range_meters":22400,"station_id":"ce4bhsp2rcd13ifvqi50","pricing_plan_id":"free"},{"bike_id":"26bfc090-2078-4756-b91b-70e491a2fa9d","system_id":"levelo_inurba_marseille","lat":43.301939,"lon":5.366286,"is_reserved":false,"is_disabled":false,"rental_uris":{"android":"levelo://app?vid=26bfc090-2078-4756-b91b-70e491a2fa9d","ios":"levelo://app?vid=26bfc090-2078-4756-b91b-70e491a2fa9d"},"vehicle_type_id":"4","last_reported":1686967443,"current_range_meters":30800,"station_id":"ce4bgrh2rcd13ifvqc8g","pricing_plan_id":"free"},{"bike_id":"ae33307b-fcd5-479b-9ae1-9002ed226c6e","system_id":"levelo_inurba_marseille","lat":43.308012,"lon":5.381511,"is_reserved":false,"is_disabled":false,"rental_uris":{"android":"levelo://app?vid=ae33307b-fcd5-479b-9ae1-9002ed226c6e","ios":"levelo://app?vid=ae33307b-fcd5-479b-9ae1-9002ed226c6e"},"vehicle_type_id":"4","last_reported":1686967443,"current_range_meters":12000,"station_id":"ce4bgt12rcd13ifvqce0","pricing_plan_id":"free"},{"bike_id":"48eb6878-17c3-47d0-8787-065910bd8bca","system_id":"levelo_inurba_marseille","lat":43.30806,"lon":5.38159,"is_reserved":false,"is_disabled":false,"rental_uris":{"android":"levelo://app?vid=48eb6878-17c3-47d0-8787-065910bd8bca","ios":"levelo://app?vid=48eb6878-17c3-47d0-8787-065910bd8bca"},"vehicle_type_id":"4","last_reported":1686967443,"current_range_meters":1600,"station_id":"","pricing_plan_id":"free"},{"bike_id":"721ca755-5419-4da8-8f0f-ef8c35c044cc","system_id":"levelo_inurba_marseille","lat":43.308012,"lon":5.381511,"is_reserved":false,"is_disabled":false,"rental_uris":{"android":"levelo://app?vid=721ca755-5419-4da8-8f0f-ef8c35c044cc","ios":"levelo://app?vid=721ca755-5419-4da8-8f0f-ef8c35c044cc"},"vehicle_type_id":"4","last_reported":1686967443,"current_range_meters":24000,"station_id":"ce4bgt12rcd13ifvqce0","pricing_plan_id":"free"},{"bike_id":"e8b01655-e1e8-4dc3-9a17-f1efb791f700","system_id":"levelo_inurba_marseille","lat":43.308012,"lon":5.381511,"is_reserved":false,"is_disabled":false,"rental_uris":{"android":"levelo://app?vid=e8b01655-e1e8-4dc3-9a17-f1efb791f700","ios":"levelo://app?vid=e8b01655-e1e8-4dc3-9a17-f1efb791f700"},"vehicle_type_id":"4","last_reported":1686967443,"current_range_meters":16000,"station_id":"ce4bgt12rcd13ifvqce0","pricing_plan_id":"free"},{"bike_id":"6333e840-4ab0-43a6-a339-aead18cede89","system_id":"levelo_inurba_marseille","lat":43.308012,"lon":5.381511,"is_reserved":false,"is_disabled":false,"rental_uris":{"android":"levelo://app?vid=6333e840-4ab0-43a6-a339-aead18cede89","ios":"levelo://app?vid=6333e840-4ab0-43a6-a339-aead18cede89"},"vehicle_type_id":"4","last_reported":1686967443,"current_range_meters":18800,"station_id":"ce4bgt12rcd13ifvqce0","pricing_plan_id":"free"},{"bike_id":"2ec54fb0-89ce-425d-8219-040a30476501","system_id":"levelo_inurba_marseille","lat":43.30799,"lon":5.38161,"is_reserved":false,"is_disabled":false,"rental_uris":{"android":"levelo://app?vid=2ec54fb0-89ce-425d-8219-040a30476501","ios":"levelo://app?vid=2ec54fb0-89ce-425d-8219-040a30476501"},"vehicle_type_id":"4","last_reported":1686967443,"current_range_meters":800,"station_id":"ce4bgt12rcd13ifvqce0","pricing_plan_id":"free"},{"bike_id":"32827146-2d6b-4fb1-b00e-6b2f535ca544","system_id":"levelo_inurba_marseille","lat":43.30479,"lon":5.37908,"is_reserved":false,"is_disabled":false,"rental_uris":{"android":"levelo://app?vid=32827146-2d6b-4fb1-b00e-6b2f535ca544","ios":"levelo://app?vid=32827146-2d6b-4fb1-b00e-6b2f535ca544"},"vehicle_type_id":"4","last_reported":1686967443,"current_range_meters":30000,"station_id":"ce4bgup2rcd13ifvqcn0","pricing_plan_id":"free"},{"bike_id":"bb1ea159-308a-4083-bc1f-50528c4e92d8","system_id":"levelo_inurba_marseille","lat":43.30469,"lon":5.37907,"is_reserved":false,"is_disabled":false,"rental_uris":{"android":"levelo://app?vid=bb1ea159-308a-4083-bc1f-50528c4e92d8","ios":"levelo://app?vid=bb1ea159-308a-4083-bc1f-50528c4e92d8"},"vehicle_type_id":"4","last_reported":1686967443,"current_range_meters":19600,"station_id":"ce4bgup2rcd13ifvqcn0","pricing_plan_id":"free"},{"bike_id":"fc4a69da-5dee-4c68-8631-20ee11bc487b","system_id":"levelo_inurba_marseille","lat":43.30459,"lon":5.379,"is_reserved":false,"is_disabled":false,"rental_uris":{"android":"levelo://app?vid=fc4a69da-5dee-4c68-8631-20ee11bc487b","ios":"levelo://app?vid=fc4a69da-5dee-4c68-8631-20ee11bc487b"},"vehicle_type_id":"4","last_reported":1686967443,"current_range_meters":30800,"station_id":"ce4bgup2rcd13ifvqcn0","pricing_plan_id":"free"},{"bike_id":"33d43e6d-4a13-4ceb-aa6f-8cf8f953f80a","system_id":"levelo_inurba_marseille","lat":43.304606,"lon":5.379026,"is_reserved":false,"is_disabled":false,"rental_uris":{"android":"levelo://app?vid=33d43e6d-4a13-4ceb-aa6f-8cf8f953f80a","ios":"levelo://app?vid=33d43e6d-4a13-4ceb-aa6f-8cf8f953f80a"},"vehicle_type_id":"4","last_reported":1686967443,"current_range_meters":31200,"station_id":"ce4bgup2rcd13ifvqcn0","pricing_plan_id":"free"},{"bike_id":"43fc693e-f2a9-4aec-8fd9-d094bb02cb70","system_id":"levelo_inurba_marseille","lat":43.304606,"lon":5.379026,"is_reserved":false,"is_disabled":false,"rental_uris":{"android":"levelo://app?vid=43fc693e-f2a9-4aec-8fd9-d094bb02cb70","ios":"levelo://app?vid=43fc693e-f2a9-4aec-8fd9-d094bb02cb70"},"vehicle_type_id":"4","last_reported":1686967443,"current_range_meters":23200,"station_id":"ce4bgup2rcd13ifvqcn0","pricing_plan_id":"free"},{"bike_id":"9f3a129a-ea77-4460-b3f5-662da8601911","system_id":"levelo_inurba_marseille","lat":43.30149,"lon":5.37403,"is_reserved":false,"is_disabled":false,"rental_uris":{"android":"levelo://app?vid=9f3a129a-ea77-4460-b3f5-662da8601911","ios":"levelo://app?vid=9f3a129a-ea77-4460-b3f5-662da8601911"},"vehicle_type_id":"4","last_reported":1686967443,"current_range_meters":30800,"station_id":"ce4bgs92rcd13ifvqcc0","pricing_plan_id":"free"},{"bike_id":"583d2692-26c7-4ae9-85da-831217821178","system_id":"levelo_inurba_marseille","lat":43.302784,"lon":5.377158,"is_reserved":false,"is_disabled":false,"rental_uris":{"android":"levelo://app?vid=583d2692-26c7-4ae9-85da-831217821178","ios":"levelo://app?vid=583d2692-26c7-4ae9-85da-831217821178"},"vehicle_type_id":"4","last_reported":1686967443,"current_range_meters":14800,"station_id":"ce4bguh2rcd13ifvqcj0","pricing_plan_id":"free"},{"bike_id":"c3db52e0-7ad4-4740-8f26-39de01bb6913","system_id":"levelo_inurba_marseille","lat":43.30146,"lon":5.37416,"is_reserved":false,"is_disabled":false,"rental_uris":{"android":"levelo://app?vid=c3db52e0-7ad4-4740-8f26-39de01bb6913","ios":"levelo://app?vid=c3db52e0-7ad4-4740-8f26-39de01bb6913"},"vehicle_type_id":"4","last_reported":1686967443,"current_range_meters":0,"station_id":"ce4bgs92rcd13ifvqcc0","pricing_plan_id":"free"},{"bike_id":"b01c55d8-ca57-4345-832f-c14d349849ee","system_id":"levelo_inurba_marseille","lat":43.302784,"lon":5.377158,"is_reserved":false,"is_disabled":false,"rental_uris":{"android":"levelo://app?vid=b01c55d8-ca57-4345-832f-c14d349849ee","ios":"levelo://app?vid=b01c55d8-ca57-4345-832f-c14d349849ee"},"vehicle_type_id":"4","last_reported":1686967443,"current_range_meters":0,"station_id":"ce4bguh2rcd13ifvqcj0","pricing_plan_id":"free"},{"bike_id":"1a0f4494-e6b8-4ac3-8278-98e5000d6150","system_id":"levelo_inurba_marseille","lat":43.30145,"lon":5.37422,"is_reserved":false,"is_disabled":false,"rental_uris":{"android":"levelo://app?vid=1a0f4494-e6b8-4ac3-8278-98e5000d6150","ios":"levelo://app?vid=1a0f4494-e6b8-4ac3-8278-98e5000d6150"},"vehicle_type_id":"4","last_reported":1686967443,"current_range_meters":17600,"station_id":"ce4bgs92rcd13ifvqcc0","pricing_plan_id":"free"},{"bike_id":"dc735052-c6d5-4d4d-b6db-f55c34aeda24","system_id":"levelo_inurba_marseille","lat":43.30141,"lon":5.37421,"is_reserved":false,"is_disabled":false,"rental_uris":{"android":"levelo://app?vid=dc735052-c6d5-4d4d-b6db-f55c34aeda24","ios":"levelo://app?vid=dc735052-c6d5-4d4d-b6db-f55c34aeda24"},"vehicle_type_id":"4","last_reported":1686967443,"current_range_meters":25600,"station_id":"ce4bgs92rcd13ifvqcc0","pricing_plan_id":"free"},{"bike_id":"35c2b480-e69a-4543-9412-895f27c2a34e","system_id":"levelo_inurba_marseille","lat":43.32,"lon":5.3815,"is_reserved":false,"is_disabled":false,"rental_uris":{"android":"levelo://app?vid=35c2b480-e69a-4543-9412-895f27c2a34e","ios":"levelo://app?vid=35c2b480-e69a-4543-9412-895f27c2a34e"},"vehicle_type_id":"4","last_reported":1686967443,"current_range_meters":31200,"station_id":"ce4bhr12rcd13ifvqhpg","pricing_plan_id":"free"},{"bike_id":"16e72490-daac-4bae-9425-2f086768338e","system_id":"levelo_inurba_marseille","lat":43.31999,"lon":5.38152,"is_reserved":false,"is_disabled":false,"rental_uris":{"android":"levelo://app?vid=16e72490-daac-4bae-9425-2f086768338e","ios":"levelo://app?vid=16e72490-daac-4bae-9425-2f086768338e"},"vehicle_type_id":"4","last_reported":1686967443,"current_range_meters":24800,"station_id":"ce4bhr12rcd13ifvqhpg","pricing_plan_id":"free"},{"bike_id":"5003c2fa-8578-4b5b-aee0-bf9c6a52e3f5","system_id":"levelo_inurba_marseille","lat":43.31997,"lon":5.38156,"is_reserved":false,"is_disabled":false,"rental_uris":{"android":"levelo://app?vid=5003c2fa-8578-4b5b-aee0-bf9c6a52e3f5","ios":"levelo://app?vid=5003c2fa-8578-4b5b-aee0-bf9c6a52e3f5"},"vehicle_type_id":"4","last_reported":1686967443,"current_range_meters":0,"station_id":"ce4bhr12rcd13ifvqhpg","pricing_plan_id":"free"},{"bike_id":"8fce8128-d8b9-4e54-b948-117df1579464","system_id":"levelo_inurba_marseille","lat":43.32005,"lon":5.38155,"is_reserved":false,"is_disabled":false,"rental_uris":{"android":"levelo://app?vid=8fce8128-d8b9-4e54-b948-117df1579464","ios":"levelo://app?vid=8fce8128-d8b9-4e54-b948-117df1579464"},"vehicle_type_id":"4","last_reported":1686967443,"current_range_meters":30400,"station_id":"","pricing_plan_id":"free"},{"bike_id":"c2b1f2e6-8ddf-41ed-91a7-cc9da7d49a9f","system_id":"levelo_inurba_marseille","lat":43.313571,"lon":5.384829,"is_reserved":false,"is_disabled":false,"rental_uris":{"android":"levelo://app?vid=c2b1f2e6-8ddf-41ed-91a7-cc9da7d49a9f","ios":"levelo://app?vid=c2b1f2e6-8ddf-41ed-91a7-cc9da7d49a9f"},"vehicle_type_id":"4","last_reported":1686967443,"current_range_meters":23200,"station_id":"ce4bgt92rcd13ifvqcf0","pricing_plan_id":"free"},{"bike_id":"40edd119-69d0-4956-a91d-54e1e5db0fd0","system_id":"levelo_inurba_marseille","lat":43.313571,"lon":5.384829,"is_reserved":false,"is_disabled":false,"rental_uris":{"android":"levelo://app?vid=40edd119-69d0-4956-a91d-54e1e5db0fd0","ios":"levelo://app?vid=40edd119-69d0-4956-a91d-54e1e5db0fd0"},"vehicle_type_id":"4","last_reported":1686967443,"current_range_meters":27200,"station_id":"ce4bgt92rcd13ifvqcf0","pricing_plan_id":"free"},{"bike_id":"330412da-b9eb-49fa-9ba0-9288ee9ddd31","system_id":"levelo_inurba_marseille","lat":43.3004,"lon":5.37532,"is_reserved":false,"is_disabled":false,"rental_uris":{"android":"levelo://app?vid=330412da-b9eb-49fa-9ba0-9288ee9ddd31","ios":"levelo://app?vid=330412da-b9eb-49fa-9ba0-9288ee9ddd31"},"vehicle_type_id":"4","last_reported":1686967443,"current_range_meters":20800,"station_id":"","pricing_plan_id":"free"},{"bike_id":"47692439-e19a-49ff-b184-2080db695639","system_id":"levelo_inurba_marseille","lat":43.299243,"lon":5.37481,"is_reserved":false,"is_disabled":false,"rental_uris":{"android":"levelo://app?vid=47692439-e19a-49ff-b184-2080db695639","ios":"levelo://app?vid=47692439-e19a-49ff-b184-2080db695639"},"vehicle_type_id":"4","last_reported":1686967443,"current_range_meters":20000,"station_id":"ce4bgjh2rcd13ifvqbg0","pricing_plan_id":"free"},{"bike_id":"56585c89-ab43-4249-8283-67df7ca612b4","system_id":"levelo_inurba_marseille","lat":43.311722,"lon":5.387247,"is_reserved":false,"is_disabled":false,"rental_uris":{"android":"levelo://app?vid=56585c89-ab43-4249-8283-67df7ca612b4","ios":"levelo://app?vid=56585c89-ab43-4249-8283-67df7ca612b4"},"vehicle_type_id":"4","last_reported":1686967443,"current_range_meters":28400,"station_id":"ce4bgv12rcd13ifvqcp0","pricing_plan_id":"free"},{"bike_id":"8acc6e83-457b-4f1c-98d1-0af1725aeef0","system_id":"levelo_inurba_marseille","lat":43.311722,"lon":5.387247,"is_reserved":false,"is_disabled":false,"rental_uris":{"android":"levelo://app?vid=8acc6e83-457b-4f1c-98d1-0af1725aeef0","ios":"levelo://app?vid=8acc6e83-457b-4f1c-98d1-0af1725aeef0"},"vehicle_type_id":"4","last_reported":1686967443,"current_range_meters":16800,"station_id":"ce4bgv12rcd13ifvqcp0","pricing_plan_id":"free"},{"bike_id":"ba670715-2b09-4806-b618-2ae5ce4919b4","system_id":"levelo_inurba_marseille","lat":43.299243,"lon":5.374807,"is_reserved":false,"is_disabled":false,"rental_uris":{"android":"levelo://app?vid=ba670715-2b09-4806-b618-2ae5ce4919b4","ios":"levelo://app?vid=ba670715-2b09-4806-b618-2ae5ce4919b4"},"vehicle_type_id":"4","last_reported":1686967443,"current_range_meters":30400,"station_id":"ce4bgjh2rcd13ifvqbg0","pricing_plan_id":"free"},{"bike_id":"176f4894-d7fc-460e-aa5d-7c8c1e206dc3","system_id":"levelo_inurba_marseille","lat":43.297163,"lon":5.365866,"is_reserved":false,"is_disabled":false,"rental_uris":{"android":"levelo://app?vid=176f4894-d7fc-460e-aa5d-7c8c1e206dc3","ios":"levelo://app?vid=176f4894-d7fc-460e-aa5d-7c8c1e206dc3"},"vehicle_type_id":"4","last_reported":1686967443,"current_range_meters":18000,"station_id":"ce4bgn12rcd13ifvqbt0","pricing_plan_id":"free"},{"bike_id":"c2786562-cb1d-4669-b7a3-672ee6c9a2ed","system_id":"levelo_inurba_marseille","lat":43.297163,"lon":5.365866,"is_reserved":false,"is_disabled":false,"rental_uris":{"android":"levelo://app?vid=c2786562-cb1d-4669-b7a3-672ee6c9a2ed","ios":"levelo://app?vid=c2786562-cb1d-4669-b7a3-672ee6c9a2ed"},"vehicle_type_id":"4","last_reported":1686967443,"current_range_meters":1200,"station_id":"ce4bgn12rcd13ifvqbt0","pricing_plan_id":"free"},{"bike_id":"6180f392-3b85-4166-b278-1bdde1910ae7","system_id":"levelo_inurba_marseille","lat":43.2968,"lon":5.37291,"is_reserved":false,"is_disabled":false,"rental_uris":{"android":"levelo://app?vid=6180f392-3b85-4166-b278-1bdde1910ae7","ios":"levelo://app?vid=6180f392-3b85-4166-b278-1bdde1910ae7"},"vehicle_type_id":"4","last_reported":1686967443,"current_range_meters":14000,"station_id":"ce4bgk12rcd13ifvqbj0","pricing_plan_id":"free"},{"bike_id":"88d0330c-5bb0-4a19-9b65-d4683b42e015","system_id":"levelo_inurba_marseille","lat":43.29683,"lon":5.36046,"is_reserved":false,"is_disabled":false,"rental_uris":{"android":"levelo://app?vid=88d0330c-5bb0-4a19-9b65-d4683b42e015","ios":"levelo://app?vid=88d0330c-5bb0-4a19-9b65-d4683b42e015"},"vehicle_type_id":"4","last_reported":1686967443,"current_range_meters":8400,"station_id":"ce4bgpp2rcd13ifvqc3g","pricing_plan_id":"free"},{"bike_id":"1d40f1cb-b641-44bd-b17d-c0e0ca8ab739","system_id":"levelo_inurba_marseille","lat":43.29622,"lon":5.37151,"is_reserved":false,"is_disabled":false,"rental_uris":{"android":"levelo://app?vid=1d40f1cb-b641-44bd-b17d-c0e0ca8ab739","ios":"levelo://app?vid=1d40f1cb-b641-44bd-b17d-c0e0ca8ab739"},"vehicle_type_id":"4","last_reported":1686967443,"current_range_meters":0,"station_id":"","pricing_plan_id":"free"},{"bike_id":"3d3c8966-8207-45e4-a7ec-8f3707b578d2","system_id":"levelo_inurba_marseille","lat":43.29619,"lon":5.37149,"is_reserved":false,"is_disabled":false,"rental_uris":{"android":"levelo://app?vid=3d3c8966-8207-45e4-a7ec-8f3707b578d2","ios":"levelo://app?vid=3d3c8966-8207-45e4-a7ec-8f3707b578d2"},"vehicle_type_id":"4","last_reported":1686967443,"current_range_meters":0,"station_id":"","pricing_plan_id":"free"},{"bike_id":"3038e62f-bf5d-47fe-88c1-dadc67fccb04","system_id":"levelo_inurba_marseille","lat":43.29737,"lon":5.37683,"is_reserved":false,"is_disabled":false,"rental_uris":{"android":"levelo://app?vid=3038e62f-bf5d-47fe-88c1-dadc67fccb04","ios":"levelo://app?vid=3038e62f-bf5d-47fe-88c1-dadc67fccb04"},"vehicle_type_id":"4","last_reported":1686967443,"current_range_meters":31200,"station_id":"","pricing_plan_id":"free"},{"bike_id":"24f41ca5-b432-4feb-a0c8-a15026b97306","system_id":"levelo_inurba_marseille","lat":43.296131,"lon":5.370773,"is_reserved":false,"is_disabled":false,"rental_uris":{"android":"levelo://app?vid=24f41ca5-b432-4feb-a0c8-a15026b97306","ios":"levelo://app?vid=24f41ca5-b432-4feb-a0c8-a15026b97306"},"vehicle_type_id":"4","last_reported":1686967443,"current_range_meters":17600,"station_id":"ce4bgnh2rcd13ifvqc0g","pricing_plan_id":"free"},{"bike_id":"b3bed222-c604-4ac4-ba0e-686149a4707b","system_id":"levelo_inurba_marseille","lat":43.29731,"lon":5.37706,"is_reserved":false,"is_disabled":false,"rental_uris":{"android":"levelo://app?vid=b3bed222-c604-4ac4-ba0e-686149a4707b","ios":"levelo://app?vid=b3bed222-c604-4ac4-ba0e-686149a4707b"},"vehicle_type_id":"4","last_reported":1686967443,"current_range_meters":31200,"station_id":"","pricing_plan_id":"free"},{"bike_id":"7efc5387-608b-4f78-af71-523365705b4a","system_id":"levelo_inurba_marseille","lat":43.296935,"lon":5.376544,"is_reserved":false,"is_disabled":false,"rental_uris":{"android":"levelo://app?vid=7efc5387-608b-4f78-af71-523365705b4a","ios":"levelo://app?vid=7efc5387-608b-4f78-af71-523365705b4a"},"vehicle_type_id":"4","last_reported":1686967443,"current_range_meters":30000,"station_id":"ce4bgkh2rcd13ifvqbl0","pricing_plan_id":"free"},{"bike_id":"eb8ef5e1-805f-4000-939c-1df3a83a108d","system_id":"levelo_inurba_marseille","lat":43.30948,"lon":5.39037,"is_reserved":false,"is_disabled":false,"rental_uris":{"android":"levelo://app?vid=eb8ef5e1-805f-4000-939c-1df3a83a108d","ios":"levelo://app?vid=eb8ef5e1-805f-4000-939c-1df3a83a108d"},"vehicle_type_id":"4","last_reported":1686967443,"current_range_meters":400,"station_id":"ce4bgup2rcd13ifvqco0","pricing_plan_id":"free"},{"bike_id":"f2318124-78d6-462b-8341-d1e58f2c9157","system_id":"levelo_inurba_marseille","lat":43.309589,"lon":5.390258,"is_reserved":false,"is_disabled":false,"rental_uris":{"android":"levelo://app?vid=f2318124-78d6-462b-8341-d1e58f2c9157","ios":"levelo://app?vid=f2318124-78d6-462b-8341-d1e58f2c9157"},"vehicle_type_id":"4","last_reported":1686967443,"current_range_meters":28000,"station_id":"ce4bgup2rcd13ifvqco0","pricing_plan_id":"free"},{"bike_id":"f0d398ba-5fbd-40a2-8eb4-3daf2a765a19","system_id":"levelo_inurba_marseille","lat":43.317557,"lon":5.390173,"is_reserved":false,"is_disabled":false,"rental_uris":{"android":"levelo://app?vid=f0d398ba-5fbd-40a2-8eb4-3daf2a765a19","ios":"levelo://app?vid=f0d398ba-5fbd-40a2-8eb4-3daf2a765a19"},"vehicle_type_id":"4","last_reported":1686967443,"current_range_meters":26000,"station_id":"ce4bhqp2rcd13ifvqhng","pricing_plan_id":"free"},{"bike_id":"7e19f6e8-c594-4a18-9388-3bcca6b82816","system_id":"levelo_inurba_marseille","lat":43.317557,"lon":5.390173,"is_reserved":false,"is_disabled":false,"rental_uris":{"android":"levelo://app?vid=7e19f6e8-c594-4a18-9388-3bcca6b82816","ios":"levelo://app?vid=7e19f6e8-c594-4a18-9388-3bcca6b82816"},"vehicle_type_id":"4","last_reported":1686967443,"current_range_meters":24000,"station_id":"ce4bhqp2rcd13ifvqhng","pricing_plan_id":"free"},{"bike_id":"f6cb89c9-4f39-4c2e-8a69-b2f9c75b9ad2","system_id":"levelo_inurba_marseille","lat":43.317557,"lon":5.390173,"is_reserved":false,"is_disabled":false,"rental_uris":{"android":"levelo://app?vid=f6cb89c9-4f39-4c2e-8a69-b2f9c75b9ad2","ios":"levelo://app?vid=f6cb89c9-4f39-4c2e-8a69-b2f9c75b9ad2"},"vehicle_type_id":"4","last_reported":1686967443,"current_range_meters":26400,"station_id":"ce4bhqp2rcd13ifvqhng","pricing_plan_id":"free"},{"bike_id":"8645bbae-7bc8-4fd8-9c33-93d6ea4e8eda","system_id":"levelo_inurba_marseille","lat":43.317557,"lon":5.390173,"is_reserved":false,"is_disabled":false,"rental_uris":{"android":"levelo://app?vid=8645bbae-7bc8-4fd8-9c33-93d6ea4e8eda","ios":"levelo://app?vid=8645bbae-7bc8-4fd8-9c33-93d6ea4e8eda"},"vehicle_type_id":"4","last_reported":1686967443,"current_range_meters":30800,"station_id":"ce4bhqp2rcd13ifvqhng","pricing_plan_id":"free"},{"bike_id":"d4c71e33-1695-4403-9bf7-c782499bc9a8","system_id":"levelo_inurba_marseille","lat":43.304274,"lon":5.388873,"is_reserved":false,"is_disabled":false,"rental_uris":{"android":"levelo://app?vid=d4c71e33-1695-4403-9bf7-c782499bc9a8","ios":"levelo://app?vid=d4c71e33-1695-4403-9bf7-c782499bc9a8"},"vehicle_type_id":"4","last_reported":1686967443,"current_range_meters":24800,"station_id":"ce4bgk12rcd13ifvqbi0","pricing_plan_id":"free"},{"bike_id":"250c8a96-8498-4211-b8f3-1b00a8d1fbaf","system_id":"levelo_inurba_marseille","lat":43.296477,"lon":5.37768,"is_reserved":false,"is_disabled":false,"rental_uris":{"android":"levelo://app?vid=250c8a96-8498-4211-b8f3-1b00a8d1fbaf","ios":"levelo://app?vid=250c8a96-8498-4211-b8f3-1b00a8d1fbaf"},"vehicle_type_id":"4","last_reported":1686967443,"current_range_meters":18400,"station_id":"","pricing_plan_id":"free"},{"bike_id":"2cadf575-a4d8-4710-a520-59042b48417b","system_id":"levelo_inurba_marseille","lat":43.304278,"lon":5.388868,"is_reserved":false,"is_disabled":false,"rental_uris":{"android":"levelo://app?vid=2cadf575-a4d8-4710-a520-59042b48417b","ios":"levelo://app?vid=2cadf575-a4d8-4710-a520-59042b48417b"},"vehicle_type_id":"4","last_reported":1686967443,"current_range_meters":27600,"station_id":"ce4bgk12rcd13ifvqbi0","pricing_plan_id":"free"},{"bike_id":"7e5cc100-fb4d-4476-b5ff-f5053b8c6798","system_id":"levelo_inurba_marseille","lat":43.30432,"lon":5.38889,"is_reserved":false,"is_disabled":false,"rental_uris":{"android":"levelo://app?vid=7e5cc100-fb4d-4476-b5ff-f5053b8c6798","ios":"levelo://app?vid=7e5cc100-fb4d-4476-b5ff-f5053b8c6798"},"vehicle_type_id":"4","last_reported":1686967443,"current_range_meters":7200,"station_id":"ce4bgk12rcd13ifvqbi0","pricing_plan_id":"free"},{"bike_id":"c4eb1444-4374-44e9-8519-ddec8722d0c7","system_id":"levelo_inurba_marseille","lat":43.304274,"lon":5.388873,"is_reserved":false,"is_disabled":false,"rental_uris":{"android":"levelo://app?vid=c4eb1444-4374-44e9-8519-ddec8722d0c7","ios":"levelo://app?vid=c4eb1444-4374-44e9-8519-ddec8722d0c7"},"vehicle_type_id":"4","last_reported":1686967443,"current_range_meters":23600,"station_id":"ce4bgk12rcd13ifvqbi0","pricing_plan_id":"free"},{"bike_id":"572bbe0f-e658-41ce-a415-c7748101a2a0","system_id":"levelo_inurba_marseille","lat":43.30434,"lon":5.38896,"is_reserved":false,"is_disabled":false,"rental_uris":{"android":"levelo://app?vid=572bbe0f-e658-41ce-a415-c7748101a2a0","ios":"levelo://app?vid=572bbe0f-e658-41ce-a415-c7748101a2a0"},"vehicle_type_id":"4","last_reported":1686967443,"current_range_meters":25600,"station_id":"ce4bgk12rcd13ifvqbi0","pricing_plan_id":"free"},{"bike_id":"129278b9-af38-4b0c-bbcc-a916a3853b0f","system_id":"levelo_inurba_marseille","lat":43.29786,"lon":5.38125,"is_reserved":false,"is_disabled":false,"rental_uris":{"android":"levelo://app?vid=129278b9-af38-4b0c-bbcc-a916a3853b0f","ios":"levelo://app?vid=129278b9-af38-4b0c-bbcc-a916a3853b0f"},"vehicle_type_id":"4","last_reported":1686967443,"current_range_meters":27200,"station_id":"","pricing_plan_id":"free"},{"bike_id":"83b38324-f17b-45ea-9c79-54277f7f017e","system_id":"levelo_inurba_marseille","lat":43.29983,"lon":5.38492,"is_reserved":false,"is_disabled":false,"rental_uris":{"android":"levelo://app?vid=83b38324-f17b-45ea-9c79-54277f7f017e","ios":"levelo://app?vid=83b38324-f17b-45ea-9c79-54277f7f017e"},"vehicle_type_id":"4","last_reported":1686967443,"current_range_meters":21200,"station_id":"ce4bgj92rcd13ifvqbd0","pricing_plan_id":"free"},{"bike_id":"2c9ad911-25e0-4222-8751-d809dfadd582","system_id":"levelo_inurba_marseille","lat":43.32372,"lon":5.38876,"is_reserved":false,"is_disabled":false,"rental_uris":{"android":"levelo://app?vid=2c9ad911-25e0-4222-8751-d809dfadd582","ios":"levelo://app?vid=2c9ad911-25e0-4222-8751-d809dfadd582"},"vehicle_type_id":"4","last_reported":1686967443,"current_range_meters":28000,"station_id":"ce4bhqp2rcd13ifvqhog","pricing_plan_id":"free"},{"bike_id":"a045c849-e5ad-4d56-be6d-1331c6ff64bc","system_id":"levelo_inurba_marseille","lat":43.32367,"lon":5.388836,"is_reserved":false,"is_disabled":false,"rental_uris":{"android":"levelo://app?vid=a045c849-e5ad-4d56-be6d-1331c6ff64bc","ios":"levelo://app?vid=a045c849-e5ad-4d56-be6d-1331c6ff64bc"},"vehicle_type_id":"4","last_reported":1686967443,"current_range_meters":31200,"station_id":"ce4bhqp2rcd13ifvqhog","pricing_plan_id":"free"},{"bike_id":"dd9b1657-99f6-46f0-bc40-16c4a72800ae","system_id":"levelo_inurba_marseille","lat":43.32367,"lon":5.388836,"is_reserved":false,"is_disabled":false,"rental_uris":{"android":"levelo://app?vid=dd9b1657-99f6-46f0-bc40-16c4a72800ae","ios":"levelo://app?vid=dd9b1657-99f6-46f0-bc40-16c4a72800ae"},"vehicle_type_id":"4","last_reported":1686967443,"current_range_meters":31200,"station_id":"ce4bhqp2rcd13ifvqhog","pricing_plan_id":"free"},{"bike_id":"5a2be942-eb74-4d02-b446-be02a784316f","system_id":"levelo_inurba_marseille","lat":43.32367,"lon":5.388836,"is_reserved":false,"is_disabled":false,"rental_uris":{"android":"levelo://app?vid=5a2be942-eb74-4d02-b446-be02a784316f","ios":"levelo://app?vid=5a2be942-eb74-4d02-b446-be02a784316f"},"vehicle_type_id":"4","last_reported":1686967443,"current_range_meters":31200,"station_id":"ce4bhqp2rcd13ifvqhog","pricing_plan_id":"free"},{"bike_id":"6563fc8f-37de-404e-be9b-a296b574b350","system_id":"levelo_inurba_marseille","lat":43.32367,"lon":5.388836,"is_reserved":false,"is_disabled":false,"rental_uris":{"android":"levelo://app?vid=6563fc8f-37de-404e-be9b-a296b574b350","ios":"levelo://app?vid=6563fc8f-37de-404e-be9b-a296b574b350"},"vehicle_type_id":"4","last_reported":1686967443,"current_range_meters":31200,"station_id":"ce4bhqp2rcd13ifvqhog","pricing_plan_id":"free"},{"bike_id":"97f54d17-c97f-440f-89b4-ed27b9cb734f","system_id":"levelo_inurba_marseille","lat":43.32367,"lon":5.388836,"is_reserved":false,"is_disabled":false,"rental_uris":{"android":"levelo://app?vid=97f54d17-c97f-440f-89b4-ed27b9cb734f","ios":"levelo://app?vid=97f54d17-c97f-440f-89b4-ed27b9cb734f"},"vehicle_type_id":"4","last_reported":1686967443,"current_range_meters":31200,"station_id":"ce4bhqp2rcd13ifvqhog","pricing_plan_id":"free"},{"bike_id":"fe268e13-742c-4fe4-9737-283b7505cc45","system_id":"levelo_inurba_marseille","lat":43.32368,"lon":5.38888,"is_reserved":false,"is_disabled":false,"rental_uris":{"android":"levelo://app?vid=fe268e13-742c-4fe4-9737-283b7505cc45","ios":"levelo://app?vid=fe268e13-742c-4fe4-9737-283b7505cc45"},"vehicle_type_id":"4","last_reported":1686967443,"current_range_meters":31200,"station_id":"ce4bhqp2rcd13ifvqhog","pricing_plan_id":"free"},{"bike_id":"4449cb93-e4f9-4ded-83a4-1fbee662e778","system_id":"levelo_inurba_marseille","lat":43.30527,"lon":5.39161,"is_reserved":false,"is_disabled":false,"rental_uris":{"android":"levelo://app?vid=4449cb93-e4f9-4ded-83a4-1fbee662e778","ios":"levelo://app?vid=4449cb93-e4f9-4ded-83a4-1fbee662e778"},"vehicle_type_id":"4","last_reported":1686967443,"current_range_meters":10000,"station_id":"","pricing_plan_id":"free"},{"bike_id":"19830262-b022-4ec0-a4f2-bb3c52867a0b","system_id":"levelo_inurba_marseille","lat":43.33033,"lon":5.37926,"is_reserved":false,"is_disabled":false,"rental_uris":{"android":"levelo://app?vid=19830262-b022-4ec0-a4f2-bb3c52867a0b","ios":"levelo://app?vid=19830262-b022-4ec0-a4f2-bb3c52867a0b"},"vehicle_type_id":"4","last_reported":1686967443,"current_range_meters":25600,"station_id":"","pricing_plan_id":"free"},{"bike_id":"3fd23078-1949-4516-91a8-19491a232073","system_id":"levelo_inurba_marseille","lat":43.305994,"lon":5.393687,"is_reserved":false,"is_disabled":false,"rental_uris":{"android":"levelo://app?vid=3fd23078-1949-4516-91a8-19491a232073","ios":"levelo://app?vid=3fd23078-1949-4516-91a8-19491a232073"},"vehicle_type_id":"4","last_reported":1686967443,"current_range_meters":23600,"station_id":"ce4bh0p2rcd13ifvqd80","pricing_plan_id":"free"},{"bike_id":"1e7f87b1-3f6c-4089-9f0e-7ec30bd90f0b","system_id":"levelo_inurba_marseille","lat":43.305994,"lon":5.393687,"is_reserved":false,"is_disabled":false,"rental_uris":{"android":"levelo://app?vid=1e7f87b1-3f6c-4089-9f0e-7ec30bd90f0b","ios":"levelo://app?vid=1e7f87b1-3f6c-4089-9f0e-7ec30bd90f0b"},"vehicle_type_id":"4","last_reported":1686967443,"current_range_meters":4000,"station_id":"ce4bh0p2rcd13ifvqd80","pricing_plan_id":"free"},{"bike_id":"edfe0fdb-5e66-4825-905e-319b6bd81a59","system_id":"levelo_inurba_marseille","lat":43.303102,"lon":5.39208,"is_reserved":false,"is_disabled":false,"rental_uris":{"android":"levelo://app?vid=edfe0fdb-5e66-4825-905e-319b6bd81a59","ios":"levelo://app?vid=edfe0fdb-5e66-4825-905e-319b6bd81a59"},"vehicle_type_id":"4","last_reported":1686967443,"current_range_meters":31200,"station_id":"ce4bgkh2rcd13ifvqbk0","pricing_plan_id":"free"},{"bike_id":"18da994c-c813-4f5f-b52d-13379fd16a07","system_id":"levelo_inurba_marseille","lat":43.30304,"lon":5.39206,"is_reserved":false,"is_disabled":false,"rental_uris":{"android":"levelo://app?vid=18da994c-c813-4f5f-b52d-13379fd16a07","ios":"levelo://app?vid=18da994c-c813-4f5f-b52d-13379fd16a07"},"vehicle_type_id":"4","last_reported":1686967443,"current_range_meters":31200,"station_id":"ce4bgkh2rcd13ifvqbk0","pricing_plan_id":"free"},{"bike_id":"05aeb7fb-aecd-4957-a931-a8c9dab7e31c","system_id":"levelo_inurba_marseille","lat":43.303056,"lon":5.392101,"is_reserved":false,"is_disabled":false,"rental_uris":{"android":"levelo://app?vid=05aeb7fb-aecd-4957-a931-a8c9dab7e31c","ios":"levelo://app?vid=05aeb7fb-aecd-4957-a931-a8c9dab7e31c"},"vehicle_type_id":"4","last_reported":1686967443,"current_range_meters":31200,"station_id":"ce4bgkh2rcd13ifvqbk0","pricing_plan_id":"free"},{"bike_id":"4cfbaa32-059c-4d42-8d73-5c8f2295d8d1","system_id":"levelo_inurba_marseille","lat":43.303002,"lon":5.392142,"is_reserved":false,"is_disabled":false,"rental_uris":{"android":"levelo://app?vid=4cfbaa32-059c-4d42-8d73-5c8f2295d8d1","ios":"levelo://app?vid=4cfbaa32-059c-4d42-8d73-5c8f2295d8d1"},"vehicle_type_id":"4","last_reported":1686967443,"current_range_meters":31200,"station_id":"ce4bgkh2rcd13ifvqbk0","pricing_plan_id":"free"},{"bike_id":"ea113d29-bfa4-49b6-a0e8-627cdc1d3467","system_id":"levelo_inurba_marseille","lat":43.303002,"lon":5.392142,"is_reserved":false,"is_disabled":false,"rental_uris":{"android":"levelo://app?vid=ea113d29-bfa4-49b6-a0e8-627cdc1d3467","ios":"levelo://app?vid=ea113d29-bfa4-49b6-a0e8-627cdc1d3467"},"vehicle_type_id":"4","last_reported":1686967443,"current_range_meters":14400,"station_id":"ce4bgkh2rcd13ifvqbk0","pricing_plan_id":"free"},{"bike_id":"d611f795-aeac-472c-a112-0b03aad82e40","system_id":"levelo_inurba_marseille","lat":43.30289,"lon":5.39225,"is_reserved":false,"is_disabled":false,"rental_uris":{"android":"levelo://app?vid=d611f795-aeac-472c-a112-0b03aad82e40","ios":"levelo://app?vid=d611f795-aeac-472c-a112-0b03aad82e40"},"vehicle_type_id":"4","last_reported":1686967443,"current_range_meters":31200,"station_id":"ce4bgkh2rcd13ifvqbk0","pricing_plan_id":"free"},{"bike_id":"165c2a78-3204-4896-b816-6abdb1677d6c","system_id":"levelo_inurba_marseille","lat":43.303002,"lon":5.392142,"is_reserved":false,"is_disabled":false,"rental_uris":{"android":"levelo://app?vid=165c2a78-3204-4896-b816-6abdb1677d6c","ios":"levelo://app?vid=165c2a78-3204-4896-b816-6abdb1677d6c"},"vehicle_type_id":"4","last_reported":1686967443,"current_range_meters":31200,"station_id":"ce4bgkh2rcd13ifvqbk0","pricing_plan_id":"free"},{"bike_id":"a1825481-11af-434e-a762-ce31cdaab077","system_id":"levelo_inurba_marseille","lat":43.30085,"lon":5.390856,"is_reserved":false,"is_disabled":false,"rental_uris":{"android":"levelo://app?vid=a1825481-11af-434e-a762-ce31cdaab077","ios":"levelo://app?vid=a1825481-11af-434e-a762-ce31cdaab077"},"vehicle_type_id":"4","last_reported":1686967443,"current_range_meters":29200,"station_id":"ce4bh192rcd13ifvqdb0","pricing_plan_id":"free"},{"bike_id":"23c20baf-d13a-4e1a-a560-0bd8954b22f7","system_id":"levelo_inurba_marseille","lat":43.304274,"lon":5.397513,"is_reserved":false,"is_disabled":false,"rental_uris":{"android":"levelo://app?vid=23c20baf-d13a-4e1a-a560-0bd8954b22f7","ios":"levelo://app?vid=23c20baf-d13a-4e1a-a560-0bd8954b22f7"},"vehicle_type_id":"4","last_reported":1686967443,"current_range_meters":6800,"station_id":"ce4bh092rcd13ifvqd20","pricing_plan_id":"free"},{"bike_id":"09bce4fd-1099-4f66-b29c-b2459d707213","system_id":"levelo_inurba_marseille","lat":43.298764,"lon":5.388973,"is_reserved":false,"is_disabled":false,"rental_uris":{"android":"levelo://app?vid=09bce4fd-1099-4f66-b29c-b2459d707213","ios":"levelo://app?vid=09bce4fd-1099-4f66-b29c-b2459d707213"},"vehicle_type_id":"4","last_reported":1686967443,"current_range_meters":21200,"station_id":"ce4bh392rcd13ifvqdl0","pricing_plan_id":"free"},{"bike_id":"f464baad-e01e-4888-acc7-1745c27d6dfd","system_id":"levelo_inurba_marseille","lat":43.298761,"lon":5.389026,"is_reserved":false,"is_disabled":false,"rental_uris":{"android":"levelo://app?vid=f464baad-e01e-4888-acc7-1745c27d6dfd","ios":"levelo://app?vid=f464baad-e01e-4888-acc7-1745c27d6dfd"},"vehicle_type_id":"4","last_reported":1686967443,"current_range_meters":19200,"station_id":"ce4bh392rcd13ifvqdl0","pricing_plan_id":"free"},{"bike_id":"7949a834-5e88-4bc1-b62f-8a50ddcd9e13","system_id":"levelo_inurba_marseille","lat":43.29883,"lon":5.38911,"is_reserved":false,"is_disabled":false,"rental_uris":{"android":"levelo://app?vid=7949a834-5e88-4bc1-b62f-8a50ddcd9e13","ios":"levelo://app?vid=7949a834-5e88-4bc1-b62f-8a50ddcd9e13"},"vehicle_type_id":"4","last_reported":1686967443,"current_range_meters":31200,"station_id":"ce4bh392rcd13ifvqdl0","pricing_plan_id":"free"},{"bike_id":"86c0446b-1751-4bd2-9bc6-a9b4aa2f8a14","system_id":"levelo_inurba_marseille","lat":43.298764,"lon":5.388973,"is_reserved":false,"is_disabled":false,"rental_uris":{"android":"levelo://app?vid=86c0446b-1751-4bd2-9bc6-a9b4aa2f8a14","ios":"levelo://app?vid=86c0446b-1751-4bd2-9bc6-a9b4aa2f8a14"},"vehicle_type_id":"4","last_reported":1686967443,"current_range_meters":31200,"station_id":"ce4bh392rcd13ifvqdl0","pricing_plan_id":"free"},{"bike_id":"bcd85ec7-b7de-4919-9d4b-3502a794269e","system_id":"levelo_inurba_marseille","lat":43.298764,"lon":5.388973,"is_reserved":false,"is_disabled":false,"rental_uris":{"android":"levelo://app?vid=bcd85ec7-b7de-4919-9d4b-3502a794269e","ios":"levelo://app?vid=bcd85ec7-b7de-4919-9d4b-3502a794269e"},"vehicle_type_id":"4","last_reported":1686967443,"current_range_meters":31200,"station_id":"ce4bh392rcd13ifvqdl0","pricing_plan_id":"free"},{"bike_id":"edd27ecf-5e8a-44a0-82e6-021137b2b9de","system_id":"levelo_inurba_marseille","lat":43.29277,"lon":5.35639,"is_reserved":false,"is_disabled":false,"rental_uris":{"android":"levelo://app?vid=edd27ecf-5e8a-44a0-82e6-021137b2b9de","ios":"levelo://app?vid=edd27ecf-5e8a-44a0-82e6-021137b2b9de"},"vehicle_type_id":"4","last_reported":1686967443,"current_range_meters":2800,"station_id":"","pricing_plan_id":"free"},{"bike_id":"5a2529a9-b724-4784-b059-81f327013db1","system_id":"levelo_inurba_marseille","lat":43.29167,"lon":5.37211,"is_reserved":false,"is_disabled":false,"rental_uris":{"android":"levelo://app?vid=5a2529a9-b724-4784-b059-81f327013db1","ios":"levelo://app?vid=5a2529a9-b724-4784-b059-81f327013db1"},"vehicle_type_id":"4","last_reported":1686967443,"current_range_meters":0,"station_id":"","pricing_plan_id":"free"},{"bike_id":"52c43ac0-779c-4e12-bfe5-955b04a61d0d","system_id":"levelo_inurba_marseille","lat":43.2921,"lon":5.35797,"is_reserved":false,"is_disabled":false,"rental_uris":{"android":"levelo://app?vid=52c43ac0-779c-4e12-bfe5-955b04a61d0d","ios":"levelo://app?vid=52c43ac0-779c-4e12-bfe5-955b04a61d0d"},"vehicle_type_id":"4","last_reported":1686967443,"current_range_meters":31200,"station_id":"ce4bhb12rcd13ifvqel0","pricing_plan_id":"free"},{"bike_id":"eec9743f-fce6-4a6f-bb45-5a4a7d109958","system_id":"levelo_inurba_marseille","lat":43.309038,"lon":5.396546,"is_reserved":false,"is_disabled":false,"rental_uris":{"android":"levelo://app?vid=eec9743f-fce6-4a6f-bb45-5a4a7d109958","ios":"levelo://app?vid=eec9743f-fce6-4a6f-bb45-5a4a7d109958"},"vehicle_type_id":"4","last_reported":1686967443,"current_range_meters":3200,"station_id":"ce4bh012rcd13ifvqcv0","pricing_plan_id":"free"},{"bike_id":"d7aa4019-6784-442f-9cb5-fa2262f25c58","system_id":"levelo_inurba_marseille","lat":43.29197,"lon":5.35795,"is_reserved":false,"is_disabled":false,"rental_uris":{"android":"levelo://app?vid=d7aa4019-6784-442f-9cb5-fa2262f25c58","ios":"levelo://app?vid=d7aa4019-6784-442f-9cb5-fa2262f25c58"},"vehicle_type_id":"4","last_reported":1686967443,"current_range_meters":30800,"station_id":"ce4bhb12rcd13ifvqel0","pricing_plan_id":"free"},{"bike_id":"3dedf831-b5ed-4419-a1b0-de6e080c9e5b","system_id":"levelo_inurba_marseille","lat":43.29196,"lon":5.35797,"is_reserved":false,"is_disabled":false,"rental_uris":{"android":"levelo://app?vid=3dedf831-b5ed-4419-a1b0-de6e080c9e5b","ios":"levelo://app?vid=3dedf831-b5ed-4419-a1b0-de6e080c9e5b"},"vehicle_type_id":"4","last_reported":1686967443,"current_range_meters":31200,"station_id":"ce4bhb12rcd13ifvqel0","pricing_plan_id":"free"},{"bike_id":"a0cc9c33-6600-49fc-9a70-da6cacac930e","system_id":"levelo_inurba_marseille","lat":43.309038,"lon":5.396546,"is_reserved":false,"is_disabled":false,"rental_uris":{"android":"levelo://app?vid=a0cc9c33-6600-49fc-9a70-da6cacac930e","ios":"levelo://app?vid=a0cc9c33-6600-49fc-9a70-da6cacac930e"},"vehicle_type_id":"4","last_reported":1686967443,"current_range_meters":23600,"station_id":"ce4bh012rcd13ifvqcv0","pricing_plan_id":"free"},{"bike_id":"4d2b4b3b-7640-453e-b6d7-8a9aa9fbe0cd","system_id":"levelo_inurba_marseille","lat":43.313291,"lon":5.396838,"is_reserved":false,"is_disabled":false,"rental_uris":{"android":"levelo://app?vid=4d2b4b3b-7640-453e-b6d7-8a9aa9fbe0cd","ios":"levelo://app?vid=4d2b4b3b-7640-453e-b6d7-8a9aa9fbe0cd"},"vehicle_type_id":"4","last_reported":1686967443,"current_range_meters":800,"station_id":"ce4bgvp2rcd13ifvqcu0","pricing_plan_id":"free"},{"bike_id":"06191352-0ed9-4282-9430-e44419e00ca8","system_id":"levelo_inurba_marseille","lat":43.313291,"lon":5.396838,"is_reserved":false,"is_disabled":false,"rental_uris":{"android":"levelo://app?vid=06191352-0ed9-4282-9430-e44419e00ca8","ios":"levelo://app?vid=06191352-0ed9-4282-9430-e44419e00ca8"},"vehicle_type_id":"4","last_reported":1686967443,"current_range_meters":20800,"station_id":"ce4bgvp2rcd13ifvqcu0","pricing_plan_id":"free"},{"bike_id":"27757642-d2f4-4d4b-8592-84d01d7871d5","system_id":"levelo_inurba_marseille","lat":43.29195,"lon":5.3579,"is_reserved":false,"is_disabled":false,"rental_uris":{"android":"levelo://app?vid=27757642-d2f4-4d4b-8592-84d01d7871d5","ios":"levelo://app?vid=27757642-d2f4-4d4b-8592-84d01d7871d5"},"vehicle_type_id":"4","last_reported":1686967443,"current_range_meters":31200,"station_id":"ce4bhb12rcd13ifvqel0","pricing_plan_id":"free"},{"bike_id":"6e857488-9324-4dc3-a14e-a5f0c6ee2faf","system_id":"levelo_inurba_marseille","lat":43.309038,"lon":5.396546,"is_reserved":false,"is_disabled":false,"rental_uris":{"android":"levelo://app?vid=6e857488-9324-4dc3-a14e-a5f0c6ee2faf","ios":"levelo://app?vid=6e857488-9324-4dc3-a14e-a5f0c6ee2faf"},"vehicle_type_id":"4","last_reported":1686967443,"current_range_meters":15600,"station_id":"ce4bh012rcd13ifvqcv0","pricing_plan_id":"free"},{"bike_id":"5a9f00bd-cd48-4368-9c6b-f11b48f8ee67","system_id":"levelo_inurba_marseille","lat":43.313291,"lon":5.396838,"is_reserved":false,"is_disabled":false,"rental_uris":{"android":"levelo://app?vid=5a9f00bd-cd48-4368-9c6b-f11b48f8ee67","ios":"levelo://app?vid=5a9f00bd-cd48-4368-9c6b-f11b48f8ee67"},"vehicle_type_id":"4","last_reported":1686967443,"current_range_meters":2400,"station_id":"ce4bgvp2rcd13ifvqcu0","pricing_plan_id":"free"},{"bike_id":"8f1cb3c9-4606-49db-9a2b-2e81242719a1","system_id":"levelo_inurba_marseille","lat":43.313291,"lon":5.396838,"is_reserved":false,"is_disabled":false,"rental_uris":{"android":"levelo://app?vid=8f1cb3c9-4606-49db-9a2b-2e81242719a1","ios":"levelo://app?vid=8f1cb3c9-4606-49db-9a2b-2e81242719a1"},"vehicle_type_id":"4","last_reported":1686967443,"current_range_meters":2800,"station_id":"ce4bgvp2rcd13ifvqcu0","pricing_plan_id":"free"},{"bike_id":"de4fca8b-5df8-4c2e-bef1-72683a16dd30","system_id":"levelo_inurba_marseille","lat":43.309038,"lon":5.396546,"is_reserved":false,"is_disabled":false,"rental_uris":{"android":"levelo://app?vid=de4fca8b-5df8-4c2e-bef1-72683a16dd30","ios":"levelo://app?vid=de4fca8b-5df8-4c2e-bef1-72683a16dd30"},"vehicle_type_id":"4","last_reported":1686967443,"current_range_meters":6000,"station_id":"ce4bh012rcd13ifvqcv0","pricing_plan_id":"free"},{"bike_id":"2f624efe-ebb6-4599-ac0b-1b83543f2081","system_id":"levelo_inurba_marseille","lat":43.313291,"lon":5.396838,"is_reserved":false,"is_disabled":false,"rental_uris":{"android":"levelo://app?vid=2f624efe-ebb6-4599-ac0b-1b83543f2081","ios":"levelo://app?vid=2f624efe-ebb6-4599-ac0b-1b83543f2081"},"vehicle_type_id":"4","last_reported":1686967443,"current_range_meters":11600,"station_id":"ce4bgvp2rcd13ifvqcu0","pricing_plan_id":"free"},{"bike_id":"a599d736-91d5-4137-981e-54cbfaa30792","system_id":"levelo_inurba_marseille","lat":43.309038,"lon":5.396546,"is_reserved":false,"is_disabled":false,"rental_uris":{"android":"levelo://app?vid=a599d736-91d5-4137-981e-54cbfaa30792","ios":"levelo://app?vid=a599d736-91d5-4137-981e-54cbfaa30792"},"vehicle_type_id":"4","last_reported":1686967443,"current_range_meters":0,"station_id":"ce4bh012rcd13ifvqcv0","pricing_plan_id":"free"},{"bike_id":"42c8e5d5-9b6e-4fa3-8a1f-9a52236a8737","system_id":"levelo_inurba_marseille","lat":43.313291,"lon":5.396838,"is_reserved":false,"is_disabled":false,"rental_uris":{"android":"levelo://app?vid=42c8e5d5-9b6e-4fa3-8a1f-9a52236a8737","ios":"levelo://app?vid=42c8e5d5-9b6e-4fa3-8a1f-9a52236a8737"},"vehicle_type_id":"4","last_reported":1686967443,"current_range_meters":21200,"station_id":"ce4bgvp2rcd13ifvqcu0","pricing_plan_id":"free"},{"bike_id":"58f172ad-c132-4377-8297-bd06c7f83a60","system_id":"levelo_inurba_marseille","lat":43.313291,"lon":5.396838,"is_reserved":false,"is_disabled":false,"rental_uris":{"android":"levelo://app?vid=58f172ad-c132-4377-8297-bd06c7f83a60","ios":"levelo://app?vid=58f172ad-c132-4377-8297-bd06c7f83a60"},"vehicle_type_id":"4","last_reported":1686967443,"current_range_meters":24800,"station_id":"ce4bgvp2rcd13ifvqcu0","pricing_plan_id":"free"},{"bike_id":"ffe0770f-601c-4c3f-bc07-7505917ed955","system_id":"levelo_inurba_marseille","lat":43.29188,"lon":5.35794,"is_reserved":false,"is_disabled":false,"rental_uris":{"android":"levelo://app?vid=ffe0770f-601c-4c3f-bc07-7505917ed955","ios":"levelo://app?vid=ffe0770f-601c-4c3f-bc07-7505917ed955"},"vehicle_type_id":"4","last_reported":1686967443,"current_range_meters":31200,"station_id":"ce4bhb12rcd13ifvqel0","pricing_plan_id":"free"},{"bike_id":"4fabf872-fe0e-48c5-9f1c-538adf12ec08","system_id":"levelo_inurba_marseille","lat":43.313291,"lon":5.396838,"is_reserved":false,"is_disabled":false,"rental_uris":{"android":"levelo://app?vid=4fabf872-fe0e-48c5-9f1c-538adf12ec08","ios":"levelo://app?vid=4fabf872-fe0e-48c5-9f1c-538adf12ec08"},"vehicle_type_id":"4","last_reported":1686967443,"current_range_meters":24400,"station_id":"ce4bgvp2rcd13ifvqcu0","pricing_plan_id":"free"},{"bike_id":"446d40ff-fd92-43f5-afea-4f144f2e02f0","system_id":"levelo_inurba_marseille","lat":43.29187,"lon":5.35792,"is_reserved":false,"is_disabled":false,"rental_uris":{"android":"levelo://app?vid=446d40ff-fd92-43f5-afea-4f144f2e02f0","ios":"levelo://app?vid=446d40ff-fd92-43f5-afea-4f144f2e02f0"},"vehicle_type_id":"4","last_reported":1686967443,"current_range_meters":0,"station_id":"ce4bhb12rcd13ifvqel0","pricing_plan_id":"free"},{"bike_id":"e1b17844-9fc4-4bf7-87d6-7143fd7d65a2","system_id":"levelo_inurba_marseille","lat":43.313291,"lon":5.396838,"is_reserved":false,"is_disabled":false,"rental_uris":{"android":"levelo://app?vid=e1b17844-9fc4-4bf7-87d6-7143fd7d65a2","ios":"levelo://app?vid=e1b17844-9fc4-4bf7-87d6-7143fd7d65a2"},"vehicle_type_id":"4","last_reported":1686967443,"current_range_meters":23600,"station_id":"ce4bgvp2rcd13ifvqcu0","pricing_plan_id":"free"},{"bike_id":"ed83f85f-763f-4985-acab-74c4c10171ea","system_id":"levelo_inurba_marseille","lat":43.309038,"lon":5.396546,"is_reserved":false,"is_disabled":false,"rental_uris":{"android":"levelo://app?vid=ed83f85f-763f-4985-acab-74c4c10171ea","ios":"levelo://app?vid=ed83f85f-763f-4985-acab-74c4c10171ea"},"vehicle_type_id":"4","last_reported":1686967443,"current_range_meters":22400,"station_id":"ce4bh012rcd13ifvqcv0","pricing_plan_id":"free"},{"bike_id":"76e43cb8-5cae-490e-aac6-ffe6129b3dd8","system_id":"levelo_inurba_marseille","lat":43.2907,"lon":5.37174,"is_reserved":false,"is_disabled":false,"rental_uris":{"android":"levelo://app?vid=76e43cb8-5cae-490e-aac6-ffe6129b3dd8","ios":"levelo://app?vid=76e43cb8-5cae-490e-aac6-ffe6129b3dd8"},"vehicle_type_id":"4","last_reported":1686967443,"current_range_meters":29600,"station_id":"","pricing_plan_id":"free"},{"bike_id":"8f832882-810e-4712-af17-a87efbc467e2","system_id":"levelo_inurba_marseille","lat":43.30213,"lon":5.39459,"is_reserved":false,"is_disabled":false,"rental_uris":{"android":"levelo://app?vid=8f832882-810e-4712-af17-a87efbc467e2","ios":"levelo://app?vid=8f832882-810e-4712-af17-a87efbc467e2"},"vehicle_type_id":"4","last_reported":1686967443,"current_range_meters":22800,"station_id":"ce4bh0p2rcd13ifvqd70","pricing_plan_id":"free"},{"bike_id":"bfcfa257-8712-41e9-a25d-9b8b2648eb42","system_id":"levelo_inurba_marseille","lat":43.302008,"lon":5.394694,"is_reserved":false,"is_disabled":false,"rental_uris":{"android":"levelo://app?vid=bfcfa257-8712-41e9-a25d-9b8b2648eb42","ios":"levelo://app?vid=bfcfa257-8712-41e9-a25d-9b8b2648eb42"},"vehicle_type_id":"4","last_reported":1686967443,"current_range_meters":26800,"station_id":"ce4bh0p2rcd13ifvqd70","pricing_plan_id":"free"},{"bike_id":"9901c01a-905e-4345-a23a-f8309ec41c9a","system_id":"levelo_inurba_marseille","lat":43.290624,"lon":5.359245,"is_reserved":false,"is_disabled":false,"rental_uris":{"android":"levelo://app?vid=9901c01a-905e-4345-a23a-f8309ec41c9a","ios":"levelo://app?vid=9901c01a-905e-4345-a23a-f8309ec41c9a"},"vehicle_type_id":"4","last_reported":1686967443,"current_range_meters":27600,"station_id":"ce4bha92rcd13ifvqeg0","pricing_plan_id":"free"},{"bike_id":"50252c47-f7cf-4dad-8c76-42843cdcc84a","system_id":"levelo_inurba_marseille","lat":43.29038,"lon":5.35925,"is_reserved":false,"is_disabled":false,"rental_uris":{"android":"levelo://app?vid=50252c47-f7cf-4dad-8c76-42843cdcc84a","ios":"levelo://app?vid=50252c47-f7cf-4dad-8c76-42843cdcc84a"},"vehicle_type_id":"4","last_reported":1686967443,"current_range_meters":30800,"station_id":"ce4bha92rcd13ifvqeg0","pricing_plan_id":"free"},{"bike_id":"110ccf80-5b86-4ef4-9de8-e23236ec0200","system_id":"levelo_inurba_marseille","lat":43.290624,"lon":5.359245,"is_reserved":false,"is_disabled":false,"rental_uris":{"android":"levelo://app?vid=110ccf80-5b86-4ef4-9de8-e23236ec0200","ios":"levelo://app?vid=110ccf80-5b86-4ef4-9de8-e23236ec0200"},"vehicle_type_id":"4","last_reported":1686967443,"current_range_meters":31200,"station_id":"ce4bha92rcd13ifvqeg0","pricing_plan_id":"free"},{"bike_id":"d867f3af-0d47-4f1e-bc3a-a2fcdd31135a","system_id":"levelo_inurba_marseille","lat":43.29036,"lon":5.35924,"is_reserved":false,"is_disabled":false,"rental_uris":{"android":"levelo://app?vid=d867f3af-0d47-4f1e-bc3a-a2fcdd31135a","ios":"levelo://app?vid=d867f3af-0d47-4f1e-bc3a-a2fcdd31135a"},"vehicle_type_id":"4","last_reported":1686967443,"current_range_meters":31200,"station_id":"","pricing_plan_id":"free"},{"bike_id":"9508e66a-16d0-4a01-8982-760b1ebee17b","system_id":"levelo_inurba_marseille","lat":43.29421,"lon":5.38637,"is_reserved":false,"is_disabled":false,"rental_uris":{"android":"levelo://app?vid=9508e66a-16d0-4a01-8982-760b1ebee17b","ios":"levelo://app?vid=9508e66a-16d0-4a01-8982-760b1ebee17b"},"vehicle_type_id":"4","last_reported":1686967443,"current_range_meters":0,"station_id":"ce4bh2h2rcd13ifvqdh0","pricing_plan_id":"free"},{"bike_id":"6b3a774e-efd2-4259-aefd-1dfb87859a51","system_id":"levelo_inurba_marseille","lat":43.289184,"lon":5.366408,"is_reserved":false,"is_disabled":false,"rental_uris":{"android":"levelo://app?vid=6b3a774e-efd2-4259-aefd-1dfb87859a51","ios":"levelo://app?vid=6b3a774e-efd2-4259-aefd-1dfb87859a51"},"vehicle_type_id":"4","last_reported":1686967443,"current_range_meters":21200,"station_id":"ce4bhap2rcd13ifvqek0","pricing_plan_id":"free"},{"bike_id":"5bb65e2b-dfc5-4ab1-9bdc-876088d20782","system_id":"levelo_inurba_marseille","lat":43.290327,"lon":5.375711,"is_reserved":false,"is_disabled":false,"rental_uris":{"android":"levelo://app?vid=5bb65e2b-dfc5-4ab1-9bdc-876088d20782","ios":"levelo://app?vid=5bb65e2b-dfc5-4ab1-9bdc-876088d20782"},"vehicle_type_id":"4","last_reported":1686967443,"current_range_meters":28400,"station_id":"ce4bh692rcd13ifvqe90","pricing_plan_id":"free"},{"bike_id":"c9a44a5d-db77-4354-b4f6-0b2e14225e1f","system_id":"levelo_inurba_marseille","lat":43.289184,"lon":5.366408,"is_reserved":false,"is_disabled":false,"rental_uris":{"android":"levelo://app?vid=c9a44a5d-db77-4354-b4f6-0b2e14225e1f","ios":"levelo://app?vid=c9a44a5d-db77-4354-b4f6-0b2e14225e1f"},"vehicle_type_id":"4","last_reported":1686967443,"current_range_meters":15200,"station_id":"ce4bhap2rcd13ifvqek0","pricing_plan_id":"free"},{"bike_id":"b6d0a107-d4a9-42be-9304-3aa7ef394224","system_id":"levelo_inurba_marseille","lat":43.28938,"lon":5.36632,"is_reserved":false,"is_disabled":false,"rental_uris":{"android":"levelo://app?vid=b6d0a107-d4a9-42be-9304-3aa7ef394224","ios":"levelo://app?vid=b6d0a107-d4a9-42be-9304-3aa7ef394224"},"vehicle_type_id":"4","last_reported":1686967443,"current_range_meters":4800,"station_id":"","pricing_plan_id":"free"},{"bike_id":"b604c29f-42a1-424e-8852-44a07b6a2a06","system_id":"levelo_inurba_marseille","lat":43.289468,"lon":5.363719,"is_reserved":false,"is_disabled":false,"rental_uris":{"android":"levelo://app?vid=b604c29f-42a1-424e-8852-44a07b6a2a06","ios":"levelo://app?vid=b604c29f-42a1-424e-8852-44a07b6a2a06"},"vehicle_type_id":"4","last_reported":1686967443,"current_range_meters":28400,"station_id":"ce4bhc92rcd13ifvqetg","pricing_plan_id":"free"},{"bike_id":"38eb09af-7166-42b9-865e-84246929498f","system_id":"levelo_inurba_marseille","lat":43.292642,"lon":5.384254,"is_reserved":false,"is_disabled":false,"rental_uris":{"android":"levelo://app?vid=38eb09af-7166-42b9-865e-84246929498f","ios":"levelo://app?vid=38eb09af-7166-42b9-865e-84246929498f"},"vehicle_type_id":"4","last_reported":1686967443,"current_range_meters":31200,"station_id":"ce4bh692rcd13ifvqea0","pricing_plan_id":"free"},{"bike_id":"04960201-7de4-4ba7-a436-146c2b8fadfa","system_id":"levelo_inurba_marseille","lat":43.304296,"lon":5.397513,"is_reserved":false,"is_disabled":false,"rental_uris":{"android":"levelo://app?vid=04960201-7de4-4ba7-a436-146c2b8fadfa","ios":"levelo://app?vid=04960201-7de4-4ba7-a436-146c2b8fadfa"},"vehicle_type_id":"4","last_reported":1686967443,"current_range_meters":22400,"station_id":"ce4bh092rcd13ifvqd20","pricing_plan_id":"free"},{"bike_id":"ce5d9fdb-7097-4409-9010-89c09e18da51","system_id":"levelo_inurba_marseille","lat":43.304296,"lon":5.397513,"is_reserved":false,"is_disabled":false,"rental_uris":{"android":"levelo://app?vid=ce5d9fdb-7097-4409-9010-89c09e18da51","ios":"levelo://app?vid=ce5d9fdb-7097-4409-9010-89c09e18da51"},"vehicle_type_id":"4","last_reported":1686967443,"current_range_meters":16400,"station_id":"ce4bh092rcd13ifvqd20","pricing_plan_id":"free"},{"bike_id":"4faf2fe0-7f46-4f91-895e-d65be93b4bcb","system_id":"levelo_inurba_marseille","lat":43.330442,"lon":5.389148,"is_reserved":false,"is_disabled":false,"rental_uris":{"android":"levelo://app?vid=4faf2fe0-7f46-4f91-895e-d65be93b4bcb","ios":"levelo://app?vid=4faf2fe0-7f46-4f91-895e-d65be93b4bcb"},"vehicle_type_id":"4","last_reported":1686967443,"current_range_meters":5600,"station_id":"ce4bhr92rcd13ifvqhrg","pricing_plan_id":"free"},{"bike_id":"efd9ad73-20e4-48a8-9273-d79e81729f94","system_id":"levelo_inurba_marseille","lat":43.33041,"lon":5.38916,"is_reserved":false,"is_disabled":false,"rental_uris":{"android":"levelo://app?vid=efd9ad73-20e4-48a8-9273-d79e81729f94","ios":"levelo://app?vid=efd9ad73-20e4-48a8-9273-d79e81729f94"},"vehicle_type_id":"4","last_reported":1686967443,"current_range_meters":31200,"station_id":"ce4bhr92rcd13ifvqhrg","pricing_plan_id":"free"},{"bike_id":"33efefb8-a7c6-41ca-b7ff-92539cefc65c","system_id":"levelo_inurba_marseille","lat":43.33043,"lon":5.38921,"is_reserved":false,"is_disabled":false,"rental_uris":{"android":"levelo://app?vid=33efefb8-a7c6-41ca-b7ff-92539cefc65c","ios":"levelo://app?vid=33efefb8-a7c6-41ca-b7ff-92539cefc65c"},"vehicle_type_id":"4","last_reported":1686967443,"current_range_meters":31200,"station_id":"ce4bhr92rcd13ifvqhrg","pricing_plan_id":"free"},{"bike_id":"f7af38f4-dcf2-4269-85ef-33009e36c047","system_id":"levelo_inurba_marseille","lat":43.295169,"lon":5.390426,"is_reserved":false,"is_disabled":false,"rental_uris":{"android":"levelo://app?vid=f7af38f4-dcf2-4269-85ef-33009e36c047","ios":"levelo://app?vid=f7af38f4-dcf2-4269-85ef-33009e36c047"},"vehicle_type_id":"4","last_reported":1686967443,"current_range_meters":21200,"station_id":"ce4bh3p2rcd13ifvqdp0","pricing_plan_id":"free"},{"bike_id":"f21fbf3f-09bf-4b0f-8f0f-051f5197ed7a","system_id":"levelo_inurba_marseille","lat":43.297815,"lon":5.393548,"is_reserved":false,"is_disabled":false,"rental_uris":{"android":"levelo://app?vid=f21fbf3f-09bf-4b0f-8f0f-051f5197ed7a","ios":"levelo://app?vid=f21fbf3f-09bf-4b0f-8f0f-051f5197ed7a"},"vehicle_type_id":"4","last_reported":1686967443,"current_range_meters":400,"station_id":"chh1huq6cuj3fo74tm60","pricing_plan_id":"free"},{"bike_id":"c919fe47-f345-49a8-9c61-1dd1faaf0e78","system_id":"levelo_inurba_marseille","lat":43.297815,"lon":5.393548,"is_reserved":false,"is_disabled":false,"rental_uris":{"android":"levelo://app?vid=c919fe47-f345-49a8-9c61-1dd1faaf0e78","ios":"levelo://app?vid=c919fe47-f345-49a8-9c61-1dd1faaf0e78"},"vehicle_type_id":"4","last_reported":1686967443,"current_range_meters":21600,"station_id":"chh1huq6cuj3fo74tm60","pricing_plan_id":"free"},{"bike_id":"a8d9d549-b4af-41a2-b973-b0ccd0e842b5","system_id":"levelo_inurba_marseille","lat":43.297815,"lon":5.393548,"is_reserved":false,"is_disabled":false,"rental_uris":{"android":"levelo://app?vid=a8d9d549-b4af-41a2-b973-b0ccd0e842b5","ios":"levelo://app?vid=a8d9d549-b4af-41a2-b973-b0ccd0e842b5"},"vehicle_type_id":"4","last_reported":1686967443,"current_range_meters":0,"station_id":"chh1huq6cuj3fo74tm60","pricing_plan_id":"free"},{"bike_id":"3db011a4-bbea-4e71-b680-5cb67989a226","system_id":"levelo_inurba_marseille","lat":43.297815,"lon":5.393548,"is_reserved":false,"is_disabled":false,"rental_uris":{"android":"levelo://app?vid=3db011a4-bbea-4e71-b680-5cb67989a226","ios":"levelo://app?vid=3db011a4-bbea-4e71-b680-5cb67989a226"},"vehicle_type_id":"4","last_reported":1686967443,"current_range_meters":2800,"station_id":"chh1huq6cuj3fo74tm60","pricing_plan_id":"free"},{"bike_id":"9abf8901-4970-435b-91cf-ebb4e5b120e4","system_id":"levelo_inurba_marseille","lat":43.297815,"lon":5.393548,"is_reserved":false,"is_disabled":false,"rental_uris":{"android":"levelo://app?vid=9abf8901-4970-435b-91cf-ebb4e5b120e4","ios":"levelo://app?vid=9abf8901-4970-435b-91cf-ebb4e5b120e4"},"vehicle_type_id":"4","last_reported":1686967443,"current_range_meters":18800,"station_id":"chh1huq6cuj3fo74tm60","pricing_plan_id":"free"},{"bike_id":"c2e3aa44-936e-48e2-81bc-1e3836295453","system_id":"levelo_inurba_marseille","lat":43.28856,"lon":5.358371,"is_reserved":false,"is_disabled":false,"rental_uris":{"android":"levelo://app?vid=c2e3aa44-936e-48e2-81bc-1e3836295453","ios":"levelo://app?vid=c2e3aa44-936e-48e2-81bc-1e3836295453"},"vehicle_type_id":"4","last_reported":1686967443,"current_range_meters":27200,"station_id":"ce4bhb12rcd13ifvqem0","pricing_plan_id":"free"},{"bike_id":"a3c3cf62-7bf0-45a9-875c-5b09bb3ae097","system_id":"levelo_inurba_marseille","lat":43.28856,"lon":5.358371,"is_reserved":false,"is_disabled":false,"rental_uris":{"android":"levelo://app?vid=a3c3cf62-7bf0-45a9-875c-5b09bb3ae097","ios":"levelo://app?vid=a3c3cf62-7bf0-45a9-875c-5b09bb3ae097"},"vehicle_type_id":"4","last_reported":1686967443,"current_range_meters":31200,"station_id":"ce4bhb12rcd13ifvqem0","pricing_plan_id":"free"},{"bike_id":"d3704486-4b87-40a4-886f-056ca3a9b43f","system_id":"levelo_inurba_marseille","lat":43.28856,"lon":5.358371,"is_reserved":false,"is_disabled":false,"rental_uris":{"android":"levelo://app?vid=d3704486-4b87-40a4-886f-056ca3a9b43f","ios":"levelo://app?vid=d3704486-4b87-40a4-886f-056ca3a9b43f"},"vehicle_type_id":"4","last_reported":1686967443,"current_range_meters":31200,"station_id":"ce4bhb12rcd13ifvqem0","pricing_plan_id":"free"},{"bike_id":"c0fb8083-e02d-4dec-b1b9-fa095e6c5b75","system_id":"levelo_inurba_marseille","lat":43.337396,"lon":5.374526,"is_reserved":false,"is_disabled":false,"rental_uris":{"android":"levelo://app?vid=c0fb8083-e02d-4dec-b1b9-fa095e6c5b75","ios":"levelo://app?vid=c0fb8083-e02d-4dec-b1b9-fa095e6c5b75"},"vehicle_type_id":"4","last_reported":1686967443,"current_range_meters":0,"station_id":"ce4bhp92rcd13ifvqhag","pricing_plan_id":"free"},{"bike_id":"44beca7c-d7ed-45cc-a3dc-4b9651da780a","system_id":"levelo_inurba_marseille","lat":43.309371,"lon":5.401449,"is_reserved":false,"is_disabled":false,"rental_uris":{"android":"levelo://app?vid=44beca7c-d7ed-45cc-a3dc-4b9651da780a","ios":"levelo://app?vid=44beca7c-d7ed-45cc-a3dc-4b9651da780a"},"vehicle_type_id":"4","last_reported":1686967443,"current_range_meters":23600,"station_id":"ce4bgvp2rcd13ifvqct0","pricing_plan_id":"free"},{"bike_id":"89b4a9bc-3a7f-430d-bb2d-d1c3a82d3598","system_id":"levelo_inurba_marseille","lat":43.30642,"lon":5.401031,"is_reserved":false,"is_disabled":false,"rental_uris":{"android":"levelo://app?vid=89b4a9bc-3a7f-430d-bb2d-d1c3a82d3598","ios":"levelo://app?vid=89b4a9bc-3a7f-430d-bb2d-d1c3a82d3598"},"vehicle_type_id":"4","last_reported":1686967443,"current_range_meters":21200,"station_id":"ce4bh112rcd13ifvqda0","pricing_plan_id":"free"},{"bike_id":"1e403eff-b1ed-4803-9c1c-6784f940039f","system_id":"levelo_inurba_marseille","lat":43.309371,"lon":5.401449,"is_reserved":false,"is_disabled":false,"rental_uris":{"android":"levelo://app?vid=1e403eff-b1ed-4803-9c1c-6784f940039f","ios":"levelo://app?vid=1e403eff-b1ed-4803-9c1c-6784f940039f"},"vehicle_type_id":"4","last_reported":1686967443,"current_range_meters":22400,"station_id":"ce4bgvp2rcd13ifvqct0","pricing_plan_id":"free"},{"bike_id":"740b9160-4311-4479-a19d-66e7642db81c","system_id":"levelo_inurba_marseille","lat":43.309371,"lon":5.401449,"is_reserved":false,"is_disabled":false,"rental_uris":{"android":"levelo://app?vid=740b9160-4311-4479-a19d-66e7642db81c","ios":"levelo://app?vid=740b9160-4311-4479-a19d-66e7642db81c"},"vehicle_type_id":"4","last_reported":1686967443,"current_range_meters":27600,"station_id":"ce4bgvp2rcd13ifvqct0","pricing_plan_id":"free"},{"bike_id":"a3914528-27ba-4acc-bec1-258d2b2744ea","system_id":"levelo_inurba_marseille","lat":43.309371,"lon":5.401449,"is_reserved":false,"is_disabled":false,"rental_uris":{"android":"levelo://app?vid=a3914528-27ba-4acc-bec1-258d2b2744ea","ios":"levelo://app?vid=a3914528-27ba-4acc-bec1-258d2b2744ea"},"vehicle_type_id":"4","last_reported":1686967443,"current_range_meters":8400,"station_id":"ce4bgvp2rcd13ifvqct0","pricing_plan_id":"free"},{"bike_id":"f9dfebcb-aa9a-4a0d-8fd8-6b494c353fcc","system_id":"levelo_inurba_marseille","lat":43.30938,"lon":5.40153,"is_reserved":false,"is_disabled":false,"rental_uris":{"android":"levelo://app?vid=f9dfebcb-aa9a-4a0d-8fd8-6b494c353fcc","ios":"levelo://app?vid=f9dfebcb-aa9a-4a0d-8fd8-6b494c353fcc"},"vehicle_type_id":"4","last_reported":1686967443,"current_range_meters":4000,"station_id":"ce4bgvp2rcd13ifvqct0","pricing_plan_id":"free"},{"bike_id":"d5e6bd0f-c204-4df0-a839-e4ec2e2e56d8","system_id":"levelo_inurba_marseille","lat":43.309371,"lon":5.401449,"is_reserved":false,"is_disabled":false,"rental_uris":{"android":"levelo://app?vid=d5e6bd0f-c204-4df0-a839-e4ec2e2e56d8","ios":"levelo://app?vid=d5e6bd0f-c204-4df0-a839-e4ec2e2e56d8"},"vehicle_type_id":"4","last_reported":1686967443,"current_range_meters":23200,"station_id":"ce4bgvp2rcd13ifvqct0","pricing_plan_id":"free"},{"bike_id":"510d5f0b-f939-4a6f-b6eb-ae75dcc3e76d","system_id":"levelo_inurba_marseille","lat":43.30642,"lon":5.401031,"is_reserved":false,"is_disabled":false,"rental_uris":{"android":"levelo://app?vid=510d5f0b-f939-4a6f-b6eb-ae75dcc3e76d","ios":"levelo://app?vid=510d5f0b-f939-4a6f-b6eb-ae75dcc3e76d"},"vehicle_type_id":"4","last_reported":1686967443,"current_range_meters":5200,"station_id":"ce4bh112rcd13ifvqda0","pricing_plan_id":"free"},{"bike_id":"b86282cd-98ec-4b07-a35c-603607df662f","system_id":"levelo_inurba_marseille","lat":43.309371,"lon":5.401449,"is_reserved":false,"is_disabled":false,"rental_uris":{"android":"levelo://app?vid=b86282cd-98ec-4b07-a35c-603607df662f","ios":"levelo://app?vid=b86282cd-98ec-4b07-a35c-603607df662f"},"vehicle_type_id":"4","last_reported":1686967443,"current_range_meters":24000,"station_id":"ce4bgvp2rcd13ifvqct0","pricing_plan_id":"free"},{"bike_id":"db42e44a-2775-4c62-83dc-a3c8c71b6bb3","system_id":"levelo_inurba_marseille","lat":43.309371,"lon":5.401449,"is_reserved":false,"is_disabled":false,"rental_uris":{"android":"levelo://app?vid=db42e44a-2775-4c62-83dc-a3c8c71b6bb3","ios":"levelo://app?vid=db42e44a-2775-4c62-83dc-a3c8c71b6bb3"},"vehicle_type_id":"4","last_reported":1686967443,"current_range_meters":0,"station_id":"ce4bgvp2rcd13ifvqct0","pricing_plan_id":"free"},{"bike_id":"603cc049-0ef3-47d4-a8ba-245e25b339f3","system_id":"levelo_inurba_marseille","lat":43.30932,"lon":5.40154,"is_reserved":false,"is_disabled":false,"rental_uris":{"android":"levelo://app?vid=603cc049-0ef3-47d4-a8ba-245e25b339f3","ios":"levelo://app?vid=603cc049-0ef3-47d4-a8ba-245e25b339f3"},"vehicle_type_id":"4","last_reported":1686967443,"current_range_meters":4800,"station_id":"ce4bgvp2rcd13ifvqct0","pricing_plan_id":"free"},{"bike_id":"26b75fff-b89e-468f-b6c7-b0b405d561ad","system_id":"levelo_inurba_marseille","lat":43.309371,"lon":5.401449,"is_reserved":false,"is_disabled":false,"rental_uris":{"android":"levelo://app?vid=26b75fff-b89e-468f-b6c7-b0b405d561ad","ios":"levelo://app?vid=26b75fff-b89e-468f-b6c7-b0b405d561ad"},"vehicle_type_id":"4","last_reported":1686967443,"current_range_meters":10800,"station_id":"ce4bgvp2rcd13ifvqct0","pricing_plan_id":"free"},{"bike_id":"619f5c8e-4ed6-4ac9-b1ea-febf4585366a","system_id":"levelo_inurba_marseille","lat":43.309371,"lon":5.401449,"is_reserved":false,"is_disabled":false,"rental_uris":{"android":"levelo://app?vid=619f5c8e-4ed6-4ac9-b1ea-febf4585366a","ios":"levelo://app?vid=619f5c8e-4ed6-4ac9-b1ea-febf4585366a"},"vehicle_type_id":"4","last_reported":1686967443,"current_range_meters":17200,"station_id":"ce4bgvp2rcd13ifvqct0","pricing_plan_id":"free"},{"bike_id":"e4774801-57d9-4a26-a1c4-13cd7d65bdf4","system_id":"levelo_inurba_marseille","lat":43.30642,"lon":5.401031,"is_reserved":false,"is_disabled":false,"rental_uris":{"android":"levelo://app?vid=e4774801-57d9-4a26-a1c4-13cd7d65bdf4","ios":"levelo://app?vid=e4774801-57d9-4a26-a1c4-13cd7d65bdf4"},"vehicle_type_id":"4","last_reported":1686967443,"current_range_meters":22000,"station_id":"ce4bh112rcd13ifvqda0","pricing_plan_id":"free"},{"bike_id":"0bf6e3cb-ded6-4c75-823d-5eee2a3cb3d9","system_id":"levelo_inurba_marseille","lat":43.301117,"lon":5.398795,"is_reserved":false,"is_disabled":false,"rental_uris":{"android":"levelo://app?vid=0bf6e3cb-ded6-4c75-823d-5eee2a3cb3d9","ios":"levelo://app?vid=0bf6e3cb-ded6-4c75-823d-5eee2a3cb3d9"},"vehicle_type_id":"4","last_reported":1686967443,"current_range_meters":24800,"station_id":"ce4bh0h2rcd13ifvqd40","pricing_plan_id":"free"},{"bike_id":"80d21622-e966-4954-958d-9a116055f97f","system_id":"levelo_inurba_marseille","lat":43.301117,"lon":5.398795,"is_reserved":false,"is_disabled":false,"rental_uris":{"android":"levelo://app?vid=80d21622-e966-4954-958d-9a116055f97f","ios":"levelo://app?vid=80d21622-e966-4954-958d-9a116055f97f"},"vehicle_type_id":"4","last_reported":1686967443,"current_range_meters":29600,"station_id":"ce4bh0h2rcd13ifvqd40","pricing_plan_id":"free"},{"bike_id":"1204d2b3-06d7-459e-b772-dd51f8bf0828","system_id":"levelo_inurba_marseille","lat":43.298681,"lon":5.397225,"is_reserved":false,"is_disabled":false,"rental_uris":{"android":"levelo://app?vid=1204d2b3-06d7-459e-b772-dd51f8bf0828","ios":"levelo://app?vid=1204d2b3-06d7-459e-b772-dd51f8bf0828"},"vehicle_type_id":"4","last_reported":1686967443,"current_range_meters":24400,"station_id":"ce4bh0h2rcd13ifvqd50","pricing_plan_id":"free"},{"bike_id":"1f3eb13c-b4ac-46ec-91b6-9866dffe5e80","system_id":"levelo_inurba_marseille","lat":43.298681,"lon":5.397225,"is_reserved":false,"is_disabled":false,"rental_uris":{"android":"levelo://app?vid=1f3eb13c-b4ac-46ec-91b6-9866dffe5e80","ios":"levelo://app?vid=1f3eb13c-b4ac-46ec-91b6-9866dffe5e80"},"vehicle_type_id":"4","last_reported":1686967443,"current_range_meters":19200,"station_id":"ce4bh0h2rcd13ifvqd50","pricing_plan_id":"free"},{"bike_id":"24fdee23-3960-4f97-b366-c82ca33cc7c8","system_id":"levelo_inurba_marseille","lat":43.298681,"lon":5.397225,"is_reserved":false,"is_disabled":false,"rental_uris":{"android":"levelo://app?vid=24fdee23-3960-4f97-b366-c82ca33cc7c8","ios":"levelo://app?vid=24fdee23-3960-4f97-b366-c82ca33cc7c8"},"vehicle_type_id":"4","last_reported":1686967443,"current_range_meters":21600,"station_id":"ce4bh0h2rcd13ifvqd50","pricing_plan_id":"free"},{"bike_id":"e9936b49-c45e-4348-afc1-35ed30a834b3","system_id":"levelo_inurba_marseille","lat":43.298681,"lon":5.397225,"is_reserved":false,"is_disabled":false,"rental_uris":{"android":"levelo://app?vid=e9936b49-c45e-4348-afc1-35ed30a834b3","ios":"levelo://app?vid=e9936b49-c45e-4348-afc1-35ed30a834b3"},"vehicle_type_id":"4","last_reported":1686967443,"current_range_meters":21200,"station_id":"ce4bh0h2rcd13ifvqd50","pricing_plan_id":"free"},{"bike_id":"1ff12555-aaf8-438f-ad49-59a195ea6052","system_id":"levelo_inurba_marseille","lat":43.298681,"lon":5.397225,"is_reserved":false,"is_disabled":false,"rental_uris":{"android":"levelo://app?vid=1ff12555-aaf8-438f-ad49-59a195ea6052","ios":"levelo://app?vid=1ff12555-aaf8-438f-ad49-59a195ea6052"},"vehicle_type_id":"4","last_reported":1686967443,"current_range_meters":31200,"station_id":"ce4bh0h2rcd13ifvqd50","pricing_plan_id":"free"},{"bike_id":"2160d3b1-a8d0-4216-8ea3-ce40ea925cb3","system_id":"levelo_inurba_marseille","lat":43.295196,"lon":5.39397,"is_reserved":false,"is_disabled":false,"rental_uris":{"android":"levelo://app?vid=2160d3b1-a8d0-4216-8ea3-ce40ea925cb3","ios":"levelo://app?vid=2160d3b1-a8d0-4216-8ea3-ce40ea925cb3"},"vehicle_type_id":"4","last_reported":1686967443,"current_range_meters":14400,"station_id":"ce4bh292rcd13ifvqdf0","pricing_plan_id":"free"},{"bike_id":"a2a257ca-563a-4c39-830a-ca15d456adec","system_id":"levelo_inurba_marseille","lat":43.29867,"lon":5.39751,"is_reserved":false,"is_disabled":false,"rental_uris":{"android":"levelo://app?vid=a2a257ca-563a-4c39-830a-ca15d456adec","ios":"levelo://app?vid=a2a257ca-563a-4c39-830a-ca15d456adec"},"vehicle_type_id":"4","last_reported":1686967443,"current_range_meters":0,"station_id":"ce4bh0h2rcd13ifvqd50","pricing_plan_id":"free"},{"bike_id":"3146e6a0-ef80-45a5-8d58-1a46d4dd2ef9","system_id":"levelo_inurba_marseille","lat":43.295196,"lon":5.39397,"is_reserved":false,"is_disabled":false,"rental_uris":{"android":"levelo://app?vid=3146e6a0-ef80-45a5-8d58-1a46d4dd2ef9","ios":"levelo://app?vid=3146e6a0-ef80-45a5-8d58-1a46d4dd2ef9"},"vehicle_type_id":"4","last_reported":1686967443,"current_range_meters":26800,"station_id":"ce4bh292rcd13ifvqdf0","pricing_plan_id":"free"},{"bike_id":"ff13265c-e996-4698-8c0c-62debd5be8b2","system_id":"levelo_inurba_marseille","lat":43.302759,"lon":5.400793,"is_reserved":false,"is_disabled":false,"rental_uris":{"android":"levelo://app?vid=ff13265c-e996-4698-8c0c-62debd5be8b2","ios":"levelo://app?vid=ff13265c-e996-4698-8c0c-62debd5be8b2"},"vehicle_type_id":"4","last_reported":1686967443,"current_range_meters":6400,"station_id":"ce4bgvh2rcd13ifvqcs0","pricing_plan_id":"free"},{"bike_id":"181c194b-ca70-40a6-bf50-5c49c14702ce","system_id":"levelo_inurba_marseille","lat":43.295194,"lon":5.39397,"is_reserved":false,"is_disabled":false,"rental_uris":{"android":"levelo://app?vid=181c194b-ca70-40a6-bf50-5c49c14702ce","ios":"levelo://app?vid=181c194b-ca70-40a6-bf50-5c49c14702ce"},"vehicle_type_id":"4","last_reported":1686967443,"current_range_meters":26800,"station_id":"ce4bh292rcd13ifvqdf0","pricing_plan_id":"free"},{"bike_id":"72bee1ab-231d-468e-b4d2-cc1251004e3b","system_id":"levelo_inurba_marseille","lat":43.302759,"lon":5.400793,"is_reserved":false,"is_disabled":false,"rental_uris":{"android":"levelo://app?vid=72bee1ab-231d-468e-b4d2-cc1251004e3b","ios":"levelo://app?vid=72bee1ab-231d-468e-b4d2-cc1251004e3b"},"vehicle_type_id":"4","last_reported":1686967443,"current_range_meters":26000,"station_id":"ce4bgvh2rcd13ifvqcs0","pricing_plan_id":"free"},{"bike_id":"7696080c-c38b-418a-b8a1-ff02dbfd7d55","system_id":"levelo_inurba_marseille","lat":43.295196,"lon":5.39397,"is_reserved":false,"is_disabled":false,"rental_uris":{"android":"levelo://app?vid=7696080c-c38b-418a-b8a1-ff02dbfd7d55","ios":"levelo://app?vid=7696080c-c38b-418a-b8a1-ff02dbfd7d55"},"vehicle_type_id":"4","last_reported":1686967443,"current_range_meters":19200,"station_id":"ce4bh292rcd13ifvqdf0","pricing_plan_id":"free"},{"bike_id":"a20e3139-8ffe-451e-9f8a-224494e4badb","system_id":"levelo_inurba_marseille","lat":43.302759,"lon":5.400793,"is_reserved":false,"is_disabled":false,"rental_uris":{"android":"levelo://app?vid=a20e3139-8ffe-451e-9f8a-224494e4badb","ios":"levelo://app?vid=a20e3139-8ffe-451e-9f8a-224494e4badb"},"vehicle_type_id":"4","last_reported":1686967443,"current_range_meters":11200,"station_id":"ce4bgvh2rcd13ifvqcs0","pricing_plan_id":"free"},{"bike_id":"02dd1612-4e5f-4392-8927-317f45d9f4a8","system_id":"levelo_inurba_marseille","lat":43.302759,"lon":5.400793,"is_reserved":false,"is_disabled":false,"rental_uris":{"android":"levelo://app?vid=02dd1612-4e5f-4392-8927-317f45d9f4a8","ios":"levelo://app?vid=02dd1612-4e5f-4392-8927-317f45d9f4a8"},"vehicle_type_id":"4","last_reported":1686967443,"current_range_meters":22800,"station_id":"ce4bgvh2rcd13ifvqcs0","pricing_plan_id":"free"},{"bike_id":"85cdcada-9c40-47d6-9a92-e1c351404509","system_id":"levelo_inurba_marseille","lat":43.302759,"lon":5.400793,"is_reserved":false,"is_disabled":false,"rental_uris":{"android":"levelo://app?vid=85cdcada-9c40-47d6-9a92-e1c351404509","ios":"levelo://app?vid=85cdcada-9c40-47d6-9a92-e1c351404509"},"vehicle_type_id":"4","last_reported":1686967443,"current_range_meters":20400,"station_id":"ce4bgvh2rcd13ifvqcs0","pricing_plan_id":"free"},{"bike_id":"788f9d84-6916-4786-99c9-24b10741232c","system_id":"levelo_inurba_marseille","lat":43.302759,"lon":5.400793,"is_reserved":false,"is_disabled":false,"rental_uris":{"android":"levelo://app?vid=788f9d84-6916-4786-99c9-24b10741232c","ios":"levelo://app?vid=788f9d84-6916-4786-99c9-24b10741232c"},"vehicle_type_id":"4","last_reported":1686967443,"current_range_meters":4400,"station_id":"ce4bgvh2rcd13ifvqcs0","pricing_plan_id":"free"},{"bike_id":"03e8667d-c6c1-4a94-ad6e-c559e2bf05a1","system_id":"levelo_inurba_marseille","lat":43.302759,"lon":5.400793,"is_reserved":false,"is_disabled":false,"rental_uris":{"android":"levelo://app?vid=03e8667d-c6c1-4a94-ad6e-c559e2bf05a1","ios":"levelo://app?vid=03e8667d-c6c1-4a94-ad6e-c559e2bf05a1"},"vehicle_type_id":"4","last_reported":1686967443,"current_range_meters":2400,"station_id":"ce4bgvh2rcd13ifvqcs0","pricing_plan_id":"free"},{"bike_id":"497f3d48-ff51-4c45-877d-59fc710f7e10","system_id":"levelo_inurba_marseille","lat":43.302759,"lon":5.400793,"is_reserved":false,"is_disabled":false,"rental_uris":{"android":"levelo://app?vid=497f3d48-ff51-4c45-877d-59fc710f7e10","ios":"levelo://app?vid=497f3d48-ff51-4c45-877d-59fc710f7e10"},"vehicle_type_id":"4","last_reported":1686967443,"current_range_meters":16800,"station_id":"ce4bgvh2rcd13ifvqcs0","pricing_plan_id":"free"},{"bike_id":"128d8370-1a1a-40aa-ac67-f17c20d8c1be","system_id":"levelo_inurba_marseille","lat":43.302759,"lon":5.400793,"is_reserved":false,"is_disabled":false,"rental_uris":{"android":"levelo://app?vid=128d8370-1a1a-40aa-ac67-f17c20d8c1be","ios":"levelo://app?vid=128d8370-1a1a-40aa-ac67-f17c20d8c1be"},"vehicle_type_id":"4","last_reported":1686967443,"current_range_meters":16000,"station_id":"ce4bgvh2rcd13ifvqcs0","pricing_plan_id":"free"},{"bike_id":"f3936868-6e36-4afe-812c-1b9004c7f193","system_id":"levelo_inurba_marseille","lat":43.286039,"lon":5.370679,"is_reserved":false,"is_disabled":false,"rental_uris":{"android":"levelo://app?vid=f3936868-6e36-4afe-812c-1b9004c7f193","ios":"levelo://app?vid=f3936868-6e36-4afe-812c-1b9004c7f193"},"vehicle_type_id":"4","last_reported":1686967443,"current_range_meters":2400,"station_id":"ce4bht12rcd13ifvqi60","pricing_plan_id":"free"},{"bike_id":"e4fa9283-4cbe-4364-9a94-3d3f2e329a22","system_id":"levelo_inurba_marseille","lat":43.302759,"lon":5.400793,"is_reserved":false,"is_disabled":false,"rental_uris":{"android":"levelo://app?vid=e4fa9283-4cbe-4364-9a94-3d3f2e329a22","ios":"levelo://app?vid=e4fa9283-4cbe-4364-9a94-3d3f2e329a22"},"vehicle_type_id":"4","last_reported":1686967443,"current_range_meters":30400,"station_id":"ce4bgvh2rcd13ifvqcs0","pricing_plan_id":"free"},{"bike_id":"40a1b78f-ed99-43be-a63c-30e85225865f","system_id":"levelo_inurba_marseille","lat":43.28616,"lon":5.37063,"is_reserved":false,"is_disabled":false,"rental_uris":{"android":"levelo://app?vid=40a1b78f-ed99-43be-a63c-30e85225865f","ios":"levelo://app?vid=40a1b78f-ed99-43be-a63c-30e85225865f"},"vehicle_type_id":"4","last_reported":1686967443,"current_range_meters":4000,"station_id":"ce4bht12rcd13ifvqi60","pricing_plan_id":"free"},{"bike_id":"8d602efa-8900-45b0-ba6d-65b4f44324cb","system_id":"levelo_inurba_marseille","lat":43.286039,"lon":5.370679,"is_reserved":false,"is_disabled":false,"rental_uris":{"android":"levelo://app?vid=8d602efa-8900-45b0-ba6d-65b4f44324cb","ios":"levelo://app?vid=8d602efa-8900-45b0-ba6d-65b4f44324cb"},"vehicle_type_id":"4","last_reported":1686967443,"current_range_meters":29600,"station_id":"ce4bht12rcd13ifvqi60","pricing_plan_id":"free"},{"bike_id":"7d5831b3-6ce2-4ffd-b2a0-2cafcf8b06e1","system_id":"levelo_inurba_marseille","lat":43.286039,"lon":5.370681,"is_reserved":false,"is_disabled":false,"rental_uris":{"android":"levelo://app?vid=7d5831b3-6ce2-4ffd-b2a0-2cafcf8b06e1","ios":"levelo://app?vid=7d5831b3-6ce2-4ffd-b2a0-2cafcf8b06e1"},"vehicle_type_id":"4","last_reported":1686967443,"current_range_meters":15600,"station_id":"ce4bht12rcd13ifvqi60","pricing_plan_id":"free"},{"bike_id":"f82cf2aa-4e66-4662-a087-aef04279b5af","system_id":"levelo_inurba_marseille","lat":43.31645,"lon":5.40433,"is_reserved":false,"is_disabled":false,"rental_uris":{"android":"levelo://app?vid=f82cf2aa-4e66-4662-a087-aef04279b5af","ios":"levelo://app?vid=f82cf2aa-4e66-4662-a087-aef04279b5af"},"vehicle_type_id":"4","last_reported":1686967443,"current_range_meters":2400,"station_id":"ce4bh012rcd13ifvqd00","pricing_plan_id":"free"},{"bike_id":"d43dc855-7531-4724-a556-e72b91069e6b","system_id":"levelo_inurba_marseille","lat":43.316517,"lon":5.404375,"is_reserved":false,"is_disabled":false,"rental_uris":{"android":"levelo://app?vid=d43dc855-7531-4724-a556-e72b91069e6b","ios":"levelo://app?vid=d43dc855-7531-4724-a556-e72b91069e6b"},"vehicle_type_id":"4","last_reported":1686967443,"current_range_meters":1200,"station_id":"ce4bh012rcd13ifvqd00","pricing_plan_id":"free"},{"bike_id":"0aa1a4dc-ff1d-459e-bac9-b81b2053f138","system_id":"levelo_inurba_marseille","lat":43.31642,"lon":5.40436,"is_reserved":false,"is_disabled":false,"rental_uris":{"android":"levelo://app?vid=0aa1a4dc-ff1d-459e-bac9-b81b2053f138","ios":"levelo://app?vid=0aa1a4dc-ff1d-459e-bac9-b81b2053f138"},"vehicle_type_id":"4","last_reported":1686967443,"current_range_meters":22400,"station_id":"ce4bh012rcd13ifvqd00","pricing_plan_id":"free"},{"bike_id":"28a1e054-e515-41f6-a2c3-b3056b2f035b","system_id":"levelo_inurba_marseille","lat":43.31647,"lon":5.40436,"is_reserved":false,"is_disabled":false,"rental_uris":{"android":"levelo://app?vid=28a1e054-e515-41f6-a2c3-b3056b2f035b","ios":"levelo://app?vid=28a1e054-e515-41f6-a2c3-b3056b2f035b"},"vehicle_type_id":"4","last_reported":1686967443,"current_range_meters":15200,"station_id":"ce4bh012rcd13ifvqd00","pricing_plan_id":"free"},{"bike_id":"880637e6-f2ec-451a-b643-35a7c843b3bf","system_id":"levelo_inurba_marseille","lat":43.31646,"lon":5.40438,"is_reserved":false,"is_disabled":false,"rental_uris":{"android":"levelo://app?vid=880637e6-f2ec-451a-b643-35a7c843b3bf","ios":"levelo://app?vid=880637e6-f2ec-451a-b643-35a7c843b3bf"},"vehicle_type_id":"4","last_reported":1686967443,"current_range_meters":0,"station_id":"ce4bh012rcd13ifvqd00","pricing_plan_id":"free"},{"bike_id":"35b6d6d6-d6af-4acd-865e-c70f7c932848","system_id":"levelo_inurba_marseille","lat":43.3165,"lon":5.40444,"is_reserved":false,"is_disabled":false,"rental_uris":{"android":"levelo://app?vid=35b6d6d6-d6af-4acd-865e-c70f7c932848","ios":"levelo://app?vid=35b6d6d6-d6af-4acd-865e-c70f7c932848"},"vehicle_type_id":"4","last_reported":1686967443,"current_range_meters":0,"station_id":"ce4bh012rcd13ifvqd00","pricing_plan_id":"free"},{"bike_id":"f8d232fd-fb03-4b66-8421-38bf70bfa040","system_id":"levelo_inurba_marseille","lat":43.28612,"lon":5.37749,"is_reserved":false,"is_disabled":false,"rental_uris":{"android":"levelo://app?vid=f8d232fd-fb03-4b66-8421-38bf70bfa040","ios":"levelo://app?vid=f8d232fd-fb03-4b66-8421-38bf70bfa040"},"vehicle_type_id":"4","last_reported":1686967443,"current_range_meters":0,"station_id":"","pricing_plan_id":"free"},{"bike_id":"5435ba47-84c7-4500-98a8-714cf4877593","system_id":"levelo_inurba_marseille","lat":43.291994,"lon":5.392907,"is_reserved":false,"is_disabled":false,"rental_uris":{"android":"levelo://app?vid=5435ba47-84c7-4500-98a8-714cf4877593","ios":"levelo://app?vid=5435ba47-84c7-4500-98a8-714cf4877593"},"vehicle_type_id":"4","last_reported":1686967443,"current_range_meters":1600,"station_id":"ce4bh192rcd13ifvqdd0","pricing_plan_id":"free"},{"bike_id":"af74f7e9-5561-4062-a396-b081c4500996","system_id":"levelo_inurba_marseille","lat":43.291994,"lon":5.392907,"is_reserved":false,"is_disabled":false,"rental_uris":{"android":"levelo://app?vid=af74f7e9-5561-4062-a396-b081c4500996","ios":"levelo://app?vid=af74f7e9-5561-4062-a396-b081c4500996"},"vehicle_type_id":"4","last_reported":1686967443,"current_range_meters":400,"station_id":"ce4bh192rcd13ifvqdd0","pricing_plan_id":"free"},{"bike_id":"306ffb91-67a8-491f-a008-fff219f6581c","system_id":"levelo_inurba_marseille","lat":43.291994,"lon":5.392907,"is_reserved":false,"is_disabled":false,"rental_uris":{"android":"levelo://app?vid=306ffb91-67a8-491f-a008-fff219f6581c","ios":"levelo://app?vid=306ffb91-67a8-491f-a008-fff219f6581c"},"vehicle_type_id":"4","last_reported":1686967443,"current_range_meters":28400,"station_id":"ce4bh192rcd13ifvqdd0","pricing_plan_id":"free"},{"bike_id":"3f35dd4c-bc9d-4530-893d-5e79411bf6a5","system_id":"levelo_inurba_marseille","lat":43.284534,"lon":5.358662,"is_reserved":false,"is_disabled":false,"rental_uris":{"android":"levelo://app?vid=3f35dd4c-bc9d-4530-893d-5e79411bf6a5","ios":"levelo://app?vid=3f35dd4c-bc9d-4530-893d-5e79411bf6a5"},"vehicle_type_id":"4","last_reported":1686967443,"current_range_meters":9200,"station_id":"ce4bhah2rcd13ifvqei0","pricing_plan_id":"free"},{"bike_id":"b2484b48-3261-4490-b636-899464e9f915","system_id":"levelo_inurba_marseille","lat":43.284534,"lon":5.358662,"is_reserved":false,"is_disabled":false,"rental_uris":{"android":"levelo://app?vid=b2484b48-3261-4490-b636-899464e9f915","ios":"levelo://app?vid=b2484b48-3261-4490-b636-899464e9f915"},"vehicle_type_id":"4","last_reported":1686967443,"current_range_meters":6000,"station_id":"ce4bhah2rcd13ifvqei0","pricing_plan_id":"free"},{"bike_id":"ab7e49e9-6eb3-4bb0-8522-d110410e007b","system_id":"levelo_inurba_marseille","lat":43.284534,"lon":5.358662,"is_reserved":false,"is_disabled":false,"rental_uris":{"android":"levelo://app?vid=ab7e49e9-6eb3-4bb0-8522-d110410e007b","ios":"levelo://app?vid=ab7e49e9-6eb3-4bb0-8522-d110410e007b"},"vehicle_type_id":"4","last_reported":1686967443,"current_range_meters":24000,"station_id":"ce4bhah2rcd13ifvqei0","pricing_plan_id":"free"},{"bike_id":"c3a18d89-2ef0-4138-9c87-47d0408464ae","system_id":"levelo_inurba_marseille","lat":43.284534,"lon":5.358662,"is_reserved":false,"is_disabled":false,"rental_uris":{"android":"levelo://app?vid=c3a18d89-2ef0-4138-9c87-47d0408464ae","ios":"levelo://app?vid=c3a18d89-2ef0-4138-9c87-47d0408464ae"},"vehicle_type_id":"4","last_reported":1686967443,"current_range_meters":5600,"station_id":"ce4bhah2rcd13ifvqei0","pricing_plan_id":"free"},{"bike_id":"0baf26d4-fbaa-4cd5-bb59-e10981efd559","system_id":"levelo_inurba_marseille","lat":43.28466,"lon":5.35886,"is_reserved":false,"is_disabled":false,"rental_uris":{"android":"levelo://app?vid=0baf26d4-fbaa-4cd5-bb59-e10981efd559","ios":"levelo://app?vid=0baf26d4-fbaa-4cd5-bb59-e10981efd559"},"vehicle_type_id":"4","last_reported":1686967443,"current_range_meters":24000,"station_id":"ce4bhah2rcd13ifvqei0","pricing_plan_id":"free"},{"bike_id":"ae6e4d99-2052-4f88-8bb6-a157a26d46ab","system_id":"levelo_inurba_marseille","lat":43.284534,"lon":5.358662,"is_reserved":false,"is_disabled":false,"rental_uris":{"android":"levelo://app?vid=ae6e4d99-2052-4f88-8bb6-a157a26d46ab","ios":"levelo://app?vid=ae6e4d99-2052-4f88-8bb6-a157a26d46ab"},"vehicle_type_id":"4","last_reported":1686967443,"current_range_meters":12400,"station_id":"ce4bhah2rcd13ifvqei0","pricing_plan_id":"free"},{"bike_id":"63bf8f93-d143-4579-9ced-b1d3eb6920ed","system_id":"levelo_inurba_marseille","lat":43.28466,"lon":5.35882,"is_reserved":false,"is_disabled":false,"rental_uris":{"android":"levelo://app?vid=63bf8f93-d143-4579-9ced-b1d3eb6920ed","ios":"levelo://app?vid=63bf8f93-d143-4579-9ced-b1d3eb6920ed"},"vehicle_type_id":"4","last_reported":1686967443,"current_range_meters":26400,"station_id":"ce4bhah2rcd13ifvqei0","pricing_plan_id":"free"},{"bike_id":"47ed272e-f6d5-47a4-905b-9191b4e40f6d","system_id":"levelo_inurba_marseille","lat":43.28465,"lon":5.35882,"is_reserved":false,"is_disabled":false,"rental_uris":{"android":"levelo://app?vid=47ed272e-f6d5-47a4-905b-9191b4e40f6d","ios":"levelo://app?vid=47ed272e-f6d5-47a4-905b-9191b4e40f6d"},"vehicle_type_id":"4","last_reported":1686967443,"current_range_meters":14400,"station_id":"ce4bhah2rcd13ifvqei0","pricing_plan_id":"free"},{"bike_id":"8a9af38d-0d83-4acf-b908-f1e517ccacd8","system_id":"levelo_inurba_marseille","lat":43.284534,"lon":5.358662,"is_reserved":false,"is_disabled":false,"rental_uris":{"android":"levelo://app?vid=8a9af38d-0d83-4acf-b908-f1e517ccacd8","ios":"levelo://app?vid=8a9af38d-0d83-4acf-b908-f1e517ccacd8"},"vehicle_type_id":"4","last_reported":1686967443,"current_range_meters":18400,"station_id":"ce4bhah2rcd13ifvqei0","pricing_plan_id":"free"},{"bike_id":"c32e53b1-a838-46c0-b2b8-d5d97739eebc","system_id":"levelo_inurba_marseille","lat":43.284534,"lon":5.358662,"is_reserved":false,"is_disabled":false,"rental_uris":{"android":"levelo://app?vid=c32e53b1-a838-46c0-b2b8-d5d97739eebc","ios":"levelo://app?vid=c32e53b1-a838-46c0-b2b8-d5d97739eebc"},"vehicle_type_id":"4","last_reported":1686967443,"current_range_meters":4000,"station_id":"ce4bhah2rcd13ifvqei0","pricing_plan_id":"free"},{"bike_id":"51f87bfd-a68d-46f8-9b7a-85b3e1b02fac","system_id":"levelo_inurba_marseille","lat":43.284534,"lon":5.358662,"is_reserved":false,"is_disabled":false,"rental_uris":{"android":"levelo://app?vid=51f87bfd-a68d-46f8-9b7a-85b3e1b02fac","ios":"levelo://app?vid=51f87bfd-a68d-46f8-9b7a-85b3e1b02fac"},"vehicle_type_id":"4","last_reported":1686967443,"current_range_meters":22400,"station_id":"ce4bhah2rcd13ifvqei0","pricing_plan_id":"free"},{"bike_id":"48c19f76-005f-4bcf-af56-4f2ac0ea9251","system_id":"levelo_inurba_marseille","lat":43.284534,"lon":5.358662,"is_reserved":false,"is_disabled":false,"rental_uris":{"android":"levelo://app?vid=48c19f76-005f-4bcf-af56-4f2ac0ea9251","ios":"levelo://app?vid=48c19f76-005f-4bcf-af56-4f2ac0ea9251"},"vehicle_type_id":"4","last_reported":1686967443,"current_range_meters":18400,"station_id":"ce4bhah2rcd13ifvqei0","pricing_plan_id":"free"},{"bike_id":"f06a2c23-abd0-461e-ac55-d46aa1eb5e59","system_id":"levelo_inurba_marseille","lat":43.284534,"lon":5.358662,"is_reserved":false,"is_disabled":false,"rental_uris":{"android":"levelo://app?vid=f06a2c23-abd0-461e-ac55-d46aa1eb5e59","ios":"levelo://app?vid=f06a2c23-abd0-461e-ac55-d46aa1eb5e59"},"vehicle_type_id":"4","last_reported":1686967443,"current_range_meters":26000,"station_id":"ce4bhah2rcd13ifvqei0","pricing_plan_id":"free"},{"bike_id":"866c0150-e936-4c3a-9f0d-516e80fa09f5","system_id":"levelo_inurba_marseille","lat":43.284534,"lon":5.358662,"is_reserved":false,"is_disabled":false,"rental_uris":{"android":"levelo://app?vid=866c0150-e936-4c3a-9f0d-516e80fa09f5","ios":"levelo://app?vid=866c0150-e936-4c3a-9f0d-516e80fa09f5"},"vehicle_type_id":"4","last_reported":1686967443,"current_range_meters":6800,"station_id":"ce4bhah2rcd13ifvqei0","pricing_plan_id":"free"},{"bike_id":"d19d5077-af18-4c7e-a272-9e140fe97d39","system_id":"levelo_inurba_marseille","lat":43.28455,"lon":5.35886,"is_reserved":false,"is_disabled":false,"rental_uris":{"android":"levelo://app?vid=d19d5077-af18-4c7e-a272-9e140fe97d39","ios":"levelo://app?vid=d19d5077-af18-4c7e-a272-9e140fe97d39"},"vehicle_type_id":"4","last_reported":1686967443,"current_range_meters":28800,"station_id":"ce4bhah2rcd13ifvqei0","pricing_plan_id":"free"},