{"last_updated":1720379172,"ttl":30,"version":"2.2","data":{"bikes":[{"bike_id":"4d1e7700-e093-427b-9432-fe4f91e909d6","system_id":"levelo_inurba_marseille","lat":43.312239,"lon":5.368562,"is_reserved":false,"is_disabled":false,"rental_uris":{"android":"levelo://app?vid=4d1e7700-e093-427b-9432-fe4f91e909d6","ios":"levelo://app?vid=4d1e7700-e093-427b-9432-fe4f91e909d6"},"vehicle_type_id":"4","last_reported":1720379172,"current_range_meters":0,"station_id":"ce4bgl92rcd13ifvqbq0","pricing_plan_id":"cebpf4jnsgd1na2vs0mg"},{"bike_id":"cd2a0882-e984-45a1-859f-f29630ca8de7","system_id":"levelo_inurba_marseille","lat":43.312239,"lon":5.368562,"is_reserved":false,"is_disabled":false,"rental_uris":{"android":"levelo://app?vid=cd2a0882-e984-45a1-859f-f29630ca8de7","ios":"levelo://app?vid=cd2a0882-e984-45a1-859f-f29630ca8de7"},"vehicle_type_id":"4","last_reported":1720379172,"current_range_meters":18800,"station_id":"ce4bgl92rcd13ifvqbq0","pricing_plan_id":"cebpf4jnsgd1na2vs0mg"},{"bike_id":"1d28d230-2005-4c49-8b2a-c74e540cc277","system_id":"levelo_inurba_marseille","lat":43.31231,"lon":5.36865,"is_reserved":false,"is_disabled":false,"rental_uris":{"android":"levelo://app?vid=1d28d230-2005-4c49-8b2a-c74e540cc277","ios":"levelo://app?vid=1d28d230-2005-4c49-8b2a-c74e540cc277"},"vehicle_type_id":"4","last_reported":1720379172,"current_range_meters":0,"station_id":"ce4bgl92rcd13ifvqbq0","pricing_plan_id":"cebpf4jnsgd1na2vs0mg"},{"bike_id":"9ca6c1bd-8f87-4527-90c6-5675b86a5073","system_id":"levelo_inurba_marseille","lat":43.30803,"lon":5.36792,"is_reserved":false,"is_disabled":false,"rental_uris":{"android":"levelo://app?vid=9ca6c1bd-8f87-4527-90c6-5675b86a5073","ios":"levelo://app?vid=9ca6c1bd-8f87-4527-90c6-5675b86a5073"},"vehicle_type_id":"4","last_reported":1720379172,"current_range_meters":0,"station_id":"","pricing_plan_id":"cebpf4jnsgd1na2vs0mg"},{"bike_id":"5f90342c-a472-49df-a3b4-0c2e92c80c75","system_id":"levelo_inurba_marseille","lat":43.314811,"lon":5.373103,"is_reserved":false,"is_disabled":false,"rental_uris":{"android":"levelo://app?vid=5f90342c-a472-49df-a3b4-0c2e92c80c75","ios":"levelo://app?vid=5f90342c-a472-49df-a3b4-0c2e92c80c75"},"vehicle_type_id":"4","last_reported":1720379172,"current_range_meters":400,"station_id":"ce4bgt12rcd13ifvqcd0","pricing_plan_id":"cebpf4jnsgd1na2vs0mg"},{"bike_id":"5c7e2300-cdb9-4f95-b00c-570826511c5b","system_id":"levelo_inurba_marseille","lat":43.309039,"lon":5.371797,"is_reserved":false,"is_disabled":false,"rental_uris":{"android":"levelo://app?vid=5c7e2300-cdb9-4f95-b00c-570826511c5b","ios":"levelo://app?vid=5c7e2300-cdb9-4f95-b00c-570826511c5b"},"vehicle_type_id":"4","last_reported":1720379172,"current_range_meters":0,"station_id":"ce4bguh2rcd13ifvqckg","pricing_plan_id":"cebpf4jnsgd1na2vs0mg"},{"bike_id":"ca00bdff-d9dc-4f0d-bdfa-9d3f602c723e","system_id":"levelo_inurba_marseille","lat":43.309039,"lon":5.371797,"is_reserved":false,"is_disabled":false,"rental_uris":{"android":"levelo://app?vid=ca00bdff-d9dc-4f0d-bdfa-9d3f602c723e","ios":"levelo://app?vid=ca00bdff-d9dc-4f0d-bdfa-9d3f602c723e"},"vehicle_type_id":"4","last_reported":1720379172,"current_range_meters":6400,"station_id":"ce4bguh2rcd13ifvqckg","pricing_plan_id":"cebpf4jnsgd1na2vs0mg"},{"bike_id":"41cdcdd6-ded1-4424-b142-2da7b544bf9d","system_id":"levelo_inurba_marseille","lat":43.31784,"lon":5.36939,"is_reserved":false,"is_disabled":false,"rental_uris":{"android":"levelo://app?vid=41cdcdd6-ded1-4424-b142-2da7b544bf9d","ios":"levelo://app?vid=41cdcdd6-ded1-4424-b142-2da7b544bf9d"},"vehicle_type_id":"4","last_reported":1720379172,"current_range_meters":0,"station_id":"","pricing_plan_id":"cebpf4jnsgd1na2vs0mg"},{"bike_id":"a959135e-73bb-4d74-a703-61fd9ed332ec","system_id":"levelo_inurba_marseille","lat":43.30534,"lon":5.36661,"is_reserved":false,"is_disabled":false,"rental_uris":{"android":"levelo://app?vid=a959135e-73bb-4d74-a703-61fd9ed332ec","ios":"levelo://app?vid=a959135e-73bb-4d74-a703-61fd9ed332ec"},"vehicle_type_id":"4","last_reported":1720379172,"current_range_meters":27600,"station_id":"","pricing_plan_id":"cebpf4jnsgd1na2vs0mg"},{"bike_id":"1c2f430b-09cf-4538-b365-4f88b05fd743","system_id":"levelo_inurba_marseille","lat":43.30499,"lon":5.37084,"is_reserved":false,"is_disabled":false,"rental_uris":{"android":"levelo://app?vid=1c2f430b-09cf-4538-b365-4f88b05fd743","ios":"levelo://app?vid=1c2f430b-09cf-4538-b365-4f88b05fd743"},"vehicle_type_id":"4","last_reported":1720379172,"current_range_meters":0,"station_id":"","pricing_plan_id":"cebpf4jnsgd1na2vs0mg"},{"bike_id":"75419850-4444-40fd-b139-0fc83f9b78be","system_id":"levelo_inurba_marseille","lat":43.307945,"lon":5.376487,"is_reserved":false,"is_disabled":false,"rental_uris":{"android":"levelo://app?vid=75419850-4444-40fd-b139-0fc83f9b78be","ios":"levelo://app?vid=75419850-4444-40fd-b139-0fc83f9b78be"},"vehicle_type_id":"4","last_reported":1720379172,"current_range_meters":19600,"station_id":"ce4bgv92rcd13ifvqcq0","pricing_plan_id":"cebpf4jnsgd1na2vs0mg"},{"bike_id":"98c40ded-8ad8-445a-98b7-b04da4fa7c36","system_id":"levelo_inurba_marseille","lat":43.301939,"lon":5.366286,"is_reserved":false,"is_disabled":false,"rental_uris":{"android":"levelo://app?vid=98c40ded-8ad8-445a-98b7-b04da4fa7c36","ios":"levelo://app?vid=98c40ded-8ad8-445a-98b7-b04da4fa7c36"},"vehicle_type_id":"4","last_reported":1720379172,"current_range_meters":0,"station_id":"ce4bgrh2rcd13ifvqc8g","pricing_plan_id":"cebpf4jnsgd1na2vs0mg"},{"bike_id":"04a6fe77-22af-4339-8d0c-754d6e0c09ec","system_id":"levelo_inurba_marseille","lat":43.31167,"lon":5.38262,"is_reserved":false,"is_disabled":false,"rental_uris":{"android":"levelo://app?vid=04a6fe77-22af-4339-8d0c-754d6e0c09ec","ios":"levelo://app?vid=04a6fe77-22af-4339-8d0c-754d6e0c09ec"},"vehicle_type_id":"4","last_reported":1720379172,"current_range_meters":28800,"station_id":"","pricing_plan_id":"cebpf4jnsgd1na2vs0mg"},{"bike_id":"de7f94a0-f3a6-4702-b950-2ed30e4e8005","system_id":"levelo_inurba_marseille","lat":43.31628,"lon":5.38202,"is_reserved":false,"is_disabled":false,"rental_uris":{"android":"levelo://app?vid=de7f94a0-f3a6-4702-b950-2ed30e4e8005","ios":"levelo://app?vid=de7f94a0-f3a6-4702-b950-2ed30e4e8005"},"vehicle_type_id":"4","last_reported":1720379172,"current_range_meters":11200,"station_id":"","pricing_plan_id":"cebpf4jnsgd1na2vs0mg"},{"bike_id":"10547e81-fc8d-4808-b367-a784008cf1cb","system_id":"levelo_inurba_marseille","lat":43.301008,"lon":5.368712,"is_reserved":false,"is_disabled":false,"rental_uris":{"android":"levelo://app?vid=10547e81-fc8d-4808-b367-a784008cf1cb","ios":"levelo://app?vid=10547e81-fc8d-4808-b367-a784008cf1cb"},"vehicle_type_id":"4","last_reported":1720379172,"current_range_meters":14800,"station_id":"","pricing_plan_id":"cebpf4jnsgd1na2vs0mg"},{"bike_id":"90aa0df5-4123-428a-b494-dacb4a609223","system_id":"levelo_inurba_marseille","lat":43.30459,"lon":5.37893,"is_reserved":false,"is_disabled":false,"rental_uris":{"android":"levelo://app?vid=90aa0df5-4123-428a-b494-dacb4a609223","ios":"levelo://app?vid=90aa0df5-4123-428a-b494-dacb4a609223"},"vehicle_type_id":"4","last_reported":1720379172,"current_range_meters":0,"station_id":"ce4bgup2rcd13ifvqcn0","pricing_plan_id":"cebpf4jnsgd1na2vs0mg"},{"bike_id":"a7fa4c98-8a6a-4c45-9e93-d9479b2c3155","system_id":"levelo_inurba_marseille","lat":43.324771,"lon":5.36557,"is_reserved":false,"is_disabled":false,"rental_uris":{"android":"levelo://app?vid=a7fa4c98-8a6a-4c45-9e93-d9479b2c3155","ios":"levelo://app?vid=a7fa4c98-8a6a-4c45-9e93-d9479b2c3155"},"vehicle_type_id":"4","last_reported":1720379172,"current_range_meters":11600,"station_id":"ce4bhs12rcd13ifvqhvg","pricing_plan_id":"cebpf4jnsgd1na2vs0mg"},{"bike_id":"cba06cdd-58a4-4e5d-bbdd-20cdfd8568b3","system_id":"levelo_inurba_marseille","lat":43.32483,"lon":5.3657,"is_reserved":false,"is_disabled":false,"rental_uris":{"android":"levelo://app?vid=cba06cdd-58a4-4e5d-bbdd-20cdfd8568b3","ios":"levelo://app?vid=cba06cdd-58a4-4e5d-bbdd-20cdfd8568b3"},"vehicle_type_id":"4","last_reported":1720379172,"current_range_meters":2400,"station_id":"ce4bhs12rcd13ifvqhvg","pricing_plan_id":"cebpf4jnsgd1na2vs0mg"},{"bike_id":"f094d6e9-8310-4f1f-94a2-7cd8812ca797","system_id":"levelo_inurba_marseille","lat":43.32484,"lon":5.36564,"is_reserved":false,"is_disabled":false,"rental_uris":{"android":"levelo://app?vid=f094d6e9-8310-4f1f-94a2-7cd8812ca797","ios":"levelo://app?vid=f094d6e9-8310-4f1f-94a2-7cd8812ca797"},"vehicle_type_id":"4","last_reported":1720379172,"current_range_meters":0,"station_id":"ce4bhs12rcd13ifvqhvg","pricing_plan_id":"cebpf4jnsgd1na2vs0mg"},{"bike_id":"195a3c08-b51e-480b-818f-9838d543d9ee","system_id":"levelo_inurba_marseille","lat":43.310804,"lon":5.38359,"is_reserved":false,"is_disabled":false,"rental_uris":{"android":"levelo://app?vid=195a3c08-b51e-480b-818f-9838d543d9ee","ios":"levelo://app?vid=195a3c08-b51e-480b-818f-9838d543d9ee"},"vehicle_type_id":"4","last_reported":1720379172,"current_range_meters":0,"station_id":"ce4bgv92rcd13ifvqcr0","pricing_plan_id":"cebpf4jnsgd1na2vs0mg"},{"bike_id":"4cdce938-6cac-4bba-9bcc-ca47debef506","system_id":"levelo_inurba_marseille","lat":43.324771,"lon":5.36557,"is_reserved":false,"is_disabled":false,"rental_uris":{"android":"levelo://app?vid=4cdce938-6cac-4bba-9bcc-ca47debef506","ios":"levelo://app?vid=4cdce938-6cac-4bba-9bcc-ca47debef506"},"vehicle_type_id":"4","last_reported":1720379172,"current_range_meters":2000,"station_id":"ce4bhs12rcd13ifvqhvg","pricing_plan_id":"cebpf4jnsgd1na2vs0mg"},{"bike_id":"5e65e1ab-ca2a-42e4-9304-26f733b45267","system_id":"levelo_inurba_marseille","lat":43.310804,"lon":5.38359,"is_reserved":false,"is_disabled":false,"rental_uris":{"android":"levelo://app?vid=5e65e1ab-ca2a-42e4-9304-26f733b45267","ios":"levelo://app?vid=5e65e1ab-ca2a-42e4-9304-26f733b45267"},"vehicle_type_id":"4","last_reported":1720379172,"current_range_meters":0,"station_id":"ce4bgv92rcd13ifvqcr0","pricing_plan_id":"cebpf4jnsgd1na2vs0mg"},{"bike_id":"6b5d6ca5-8f40-4763-aca4-9e18f0ebea8c","system_id":"levelo_inurba_marseille","lat":43.31074,"lon":5.38358,"is_reserved":false,"is_disabled":false,"rental_uris":{"android":"levelo://app?vid=6b5d6ca5-8f40-4763-aca4-9e18f0ebea8c","ios":"levelo://app?vid=6b5d6ca5-8f40-4763-aca4-9e18f0ebea8c"},"vehicle_type_id":"4","last_reported":1720379172,"current_range_meters":0,"station_id":"ce4bgv92rcd13ifvqcr0","pricing_plan_id":"cebpf4jnsgd1na2vs0mg"},{"bike_id":"a5b97dc8-de9a-4dec-8674-11378d364ff3","system_id":"levelo_inurba_marseille","lat":43.310804,"lon":5.38359,"is_reserved":false,"is_disabled":false,"rental_uris":{"android":"levelo://app?vid=a5b97dc8-de9a-4dec-8674-11378d364ff3","ios":"levelo://app?vid=a5b97dc8-de9a-4dec-8674-11378d364ff3"},"vehicle_type_id":"4","last_reported":1720379172,"current_range_meters":0,"station_id":"ce4bgv92rcd13ifvqcr0","pricing_plan_id":"cebpf4jnsgd1na2vs0mg"},{"bike_id":"da2a053f-855b-453e-b26e-b576ae14143f","system_id":"levelo_inurba_marseille","lat":43.319935,"lon":5.381699,"is_reserved":false,"is_disabled":false,"rental_uris":{"android":"levelo://app?vid=da2a053f-855b-453e-b26e-b576ae14143f","ios":"levelo://app?vid=da2a053f-855b-453e-b26e-b576ae14143f"},"vehicle_type_id":"4","last_reported":1720379172,"current_range_meters":5600,"station_id":"ce4bhr12rcd13ifvqhpg","pricing_plan_id":"cebpf4jnsgd1na2vs0mg"},{"bike_id":"229c394f-c25f-4b37-ac6b-a6c6cd72870d","system_id":"levelo_inurba_marseille","lat":43.313571,"lon":5.384829,"is_reserved":false,"is_disabled":false,"rental_uris":{"android":"levelo://app?vid=229c394f-c25f-4b37-ac6b-a6c6cd72870d","ios":"levelo://app?vid=229c394f-c25f-4b37-ac6b-a6c6cd72870d"},"vehicle_type_id":"4","last_reported":1720379172,"current_range_meters":1200,"station_id":"ce4bgt92rcd13ifvqcf0","pricing_plan_id":"cebpf4jnsgd1na2vs0mg"},{"bike_id":"dabeb2c2-10f4-49ec-84b5-eb4ebc43f17a","system_id":"levelo_inurba_marseille","lat":43.30001,"lon":5.37177,"is_reserved":false,"is_disabled":false,"rental_uris":{"android":"levelo://app?vid=dabeb2c2-10f4-49ec-84b5-eb4ebc43f17a","ios":"levelo://app?vid=dabeb2c2-10f4-49ec-84b5-eb4ebc43f17a"},"vehicle_type_id":"4","last_reported":1720379172,"current_range_meters":3200,"station_id":"","pricing_plan_id":"cebpf4jnsgd1na2vs0mg"},{"bike_id":"b359f874-6cd8-46f2-b96a-4953e472d3bf","system_id":"levelo_inurba_marseille","lat":43.299222,"lon":5.365554,"is_reserved":false,"is_disabled":false,"rental_uris":{"android":"levelo://app?vid=b359f874-6cd8-46f2-b96a-4953e472d3bf","ios":"levelo://app?vid=b359f874-6cd8-46f2-b96a-4953e472d3bf"},"vehicle_type_id":"4","last_reported":1720379172,"current_range_meters":31200,"station_id":"ce4bgm92rcd13ifvqbr0","pricing_plan_id":"cebpf4jnsgd1na2vs0mg"},{"bike_id":"63df68cd-dc9f-49e0-8ac1-04fe87b16f1a","system_id":"levelo_inurba_marseille","lat":43.305364,"lon":5.384119,"is_reserved":false,"is_disabled":false,"rental_uris":{"android":"levelo://app?vid=63df68cd-dc9f-49e0-8ac1-04fe87b16f1a","ios":"levelo://app?vid=63df68cd-dc9f-49e0-8ac1-04fe87b16f1a"},"vehicle_type_id":"4","last_reported":1720379172,"current_range_meters":0,"station_id":"ce4bgg92rcd13ifvqb30","pricing_plan_id":"cebpf4jnsgd1na2vs0mg"},{"bike_id":"48e2bc9c-9e2f-4f08-b96f-1885457bdde5","system_id":"levelo_inurba_marseille","lat":43.298433,"lon":5.362774,"is_reserved":false,"is_disabled":false,"rental_uris":{"android":"levelo://app?vid=48e2bc9c-9e2f-4f08-b96f-1885457bdde5","ios":"levelo://app?vid=48e2bc9c-9e2f-4f08-b96f-1885457bdde5"},"vehicle_type_id":"4","last_reported":1720379172,"current_range_meters":31200,"station_id":"ce4bgpp2rcd13ifvqc3g","pricing_plan_id":"cebpf4jnsgd1na2vs0mg"},{"bike_id":"d8687fd2-5bf2-49a9-8ed5-3ad747aed64f","system_id":"levelo_inurba_marseille","lat":43.298476,"lon":5.362777,"is_reserved":false,"is_disabled":false,"rental_uris":{"android":"levelo://app?vid=d8687fd2-5bf2-49a9-8ed5-3ad747aed64f","ios":"levelo://app?vid=d8687fd2-5bf2-49a9-8ed5-3ad747aed64f"},"vehicle_type_id":"4","last_reported":1720379172,"current_range_meters":0,"station_id":"ce4bgpp2rcd13ifvqc3g","pricing_plan_id":"cebpf4jnsgd1na2vs0mg"},{"bike_id":"eaab6bbf-d946-4263-85cf-636abc54512b","system_id":"levelo_inurba_marseille","lat":43.298433,"lon":5.362774,"is_reserved":false,"is_disabled":false,"rental_uris":{"android":"levelo://app?vid=eaab6bbf-d946-4263-85cf-636abc54512b","ios":"levelo://app?vid=eaab6bbf-d946-4263-85cf-636abc54512b"},"vehicle_type_id":"4","last_reported":1720379172,"current_range_meters":31200,"station_id":"ce4bgpp2rcd13ifvqc3g","pricing_plan_id":"cebpf4jnsgd1na2vs0mg"},{"bike_id":"dbe24ba5-2bd7-4c49-b963-1a38e4f7b92a","system_id":"levelo_inurba_marseille","lat":43.2984,"lon":5.36269,"is_reserved":false,"is_disabled":false,"rental_uris":{"android":"levelo://app?vid=dbe24ba5-2bd7-4c49-b963-1a38e4f7b92a","ios":"levelo://app?vid=dbe24ba5-2bd7-4c49-b963-1a38e4f7b92a"},"vehicle_type_id":"4","last_reported":1720379172,"current_range_meters":10800,"station_id":"ce4bgpp2rcd13ifvqc3g","pricing_plan_id":"cebpf4jnsgd1na2vs0mg"},{"bike_id":"c0692240-e873-4851-b1e0-96826f971415","system_id":"levelo_inurba_marseille","lat":43.297794,"lon":5.370888,"is_reserved":false,"is_disabled":false,"rental_uris":{"android":"levelo://app?vid=c0692240-e873-4851-b1e0-96826f971415","ios":"levelo://app?vid=c0692240-e873-4851-b1e0-96826f971415"},"vehicle_type_id":"4","last_reported":1720379172,"current_range_meters":31200,"station_id":"ce4bgop2rcd13ifvqc1g","pricing_plan_id":"cebpf4jnsgd1na2vs0mg"},{"bike_id":"7704cbbf-4c9c-4eb3-9576-7b61085d26b4","system_id":"levelo_inurba_marseille","lat":43.297794,"lon":5.370888,"is_reserved":false,"is_disabled":false,"rental_uris":{"android":"levelo://app?vid=7704cbbf-4c9c-4eb3-9576-7b61085d26b4","ios":"levelo://app?vid=7704cbbf-4c9c-4eb3-9576-7b61085d26b4"},"vehicle_type_id":"4","last_reported":1720379172,"current_range_meters":31200,"station_id":"ce4bgop2rcd13ifvqc1g","pricing_plan_id":"cebpf4jnsgd1na2vs0mg"},{"bike_id":"49e3571a-b01d-4c86-b893-ba18e3ad9508","system_id":"levelo_inurba_marseille","lat":43.322872,"lon":5.382756,"is_reserved":false,"is_disabled":false,"rental_uris":{"android":"levelo://app?vid=49e3571a-b01d-4c86-b893-ba18e3ad9508","ios":"levelo://app?vid=49e3571a-b01d-4c86-b893-ba18e3ad9508"},"vehicle_type_id":"4","last_reported":1720379172,"current_range_meters":15600,"station_id":"ce4bhr12rcd13ifvqhqg","pricing_plan_id":"cebpf4jnsgd1na2vs0mg"},{"bike_id":"280525b4-850d-4349-9c72-4f70d3424eeb","system_id":"levelo_inurba_marseille","lat":43.327231,"lon":5.378481,"is_reserved":false,"is_disabled":false,"rental_uris":{"android":"levelo://app?vid=280525b4-850d-4349-9c72-4f70d3424eeb","ios":"levelo://app?vid=280525b4-850d-4349-9c72-4f70d3424eeb"},"vehicle_type_id":"4","last_reported":1720379172,"current_range_meters":6400,"station_id":"","pricing_plan_id":"cebpf4jnsgd1na2vs0mg"},{"bike_id":"8c211d43-0135-44ff-a6a8-65498b588f3d","system_id":"levelo_inurba_marseille","lat":43.29573,"lon":5.367355,"is_reserved":false,"is_disabled":false,"rental_uris":{"android":"levelo://app?vid=8c211d43-0135-44ff-a6a8-65498b588f3d","ios":"levelo://app?vid=8c211d43-0135-44ff-a6a8-65498b588f3d"},"vehicle_type_id":"4","last_reported":1720379172,"current_range_meters":3200,"station_id":"ce4bgph2rcd13ifvqc2g","pricing_plan_id":"cebpf4jnsgd1na2vs0mg"},{"bike_id":"34cb01e0-8c12-4c83-906b-a1c0dec60fff","system_id":"levelo_inurba_marseille","lat":43.296921,"lon":5.376579,"is_reserved":false,"is_disabled":false,"rental_uris":{"android":"levelo://app?vid=34cb01e0-8c12-4c83-906b-a1c0dec60fff","ios":"levelo://app?vid=34cb01e0-8c12-4c83-906b-a1c0dec60fff"},"vehicle_type_id":"4","last_reported":1720379172,"current_range_meters":16800,"station_id":"ce4bgkh2rcd13ifvqbl0","pricing_plan_id":"cebpf4jnsgd1na2vs0mg"},{"bike_id":"c691b115-44f9-4287-ac17-98ffa0feaa67","system_id":"levelo_inurba_marseille","lat":43.296935,"lon":5.376544,"is_reserved":false,"is_disabled":false,"rental_uris":{"android":"levelo://app?vid=c691b115-44f9-4287-ac17-98ffa0feaa67","ios":"levelo://app?vid=c691b115-44f9-4287-ac17-98ffa0feaa67"},"vehicle_type_id":"4","last_reported":1720379172,"current_range_meters":2400,"station_id":"ce4bgkh2rcd13ifvqbl0","pricing_plan_id":"cebpf4jnsgd1na2vs0mg"},{"bike_id":"eaa18251-0bfa-4425-b53d-0bed34bd37a2","system_id":"levelo_inurba_marseille","lat":43.299028,"lon":5.381509,"is_reserved":false,"is_disabled":false,"rental_uris":{"android":"levelo://app?vid=eaa18251-0bfa-4425-b53d-0bed34bd37a2","ios":"levelo://app?vid=eaa18251-0bfa-4425-b53d-0bed34bd37a2"},"vehicle_type_id":"4","last_reported":1720379172,"current_range_meters":18800,"station_id":"ce4bgj12rcd13ifvqbc0","pricing_plan_id":"cebpf4jnsgd1na2vs0mg"},{"bike_id":"b4261424-e218-4114-ab4f-baa50b3e9958","system_id":"levelo_inurba_marseille","lat":43.295748,"lon":5.37522,"is_reserved":false,"is_disabled":false,"rental_uris":{"android":"levelo://app?vid=b4261424-e218-4114-ab4f-baa50b3e9958","ios":"levelo://app?vid=b4261424-e218-4114-ab4f-baa50b3e9958"},"vehicle_type_id":"4","last_reported":1720379172,"current_range_meters":0,"station_id":"ce4bgh92rcd13ifvqb50","pricing_plan_id":"cebpf4jnsgd1na2vs0mg"},{"bike_id":"4e159352-db4d-4a10-a1dc-4d69b58b38fb","system_id":"levelo_inurba_marseille","lat":43.298037,"lon":5.381066,"is_reserved":false,"is_disabled":false,"rental_uris":{"android":"levelo://app?vid=4e159352-db4d-4a10-a1dc-4d69b58b38fb","ios":"levelo://app?vid=4e159352-db4d-4a10-a1dc-4d69b58b38fb"},"vehicle_type_id":"4","last_reported":1720379172,"current_range_meters":0,"station_id":"ce4bgip2rcd13ifvqbb0","pricing_plan_id":"cebpf4jnsgd1na2vs0mg"},{"bike_id":"72485730-8ce6-4594-b458-5efa703b47d5","system_id":"levelo_inurba_marseille","lat":43.295767,"lon":5.37505,"is_reserved":false,"is_disabled":false,"rental_uris":{"android":"levelo://app?vid=72485730-8ce6-4594-b458-5efa703b47d5","ios":"levelo://app?vid=72485730-8ce6-4594-b458-5efa703b47d5"},"vehicle_type_id":"4","last_reported":1720379172,"current_range_meters":0,"station_id":"ce4bgh92rcd13ifvqb50","pricing_plan_id":"cebpf4jnsgd1na2vs0mg"},{"bike_id":"5a1c1eeb-b808-4d74-b361-7a04db92c34e","system_id":"levelo_inurba_marseille","lat":43.296263,"lon":5.377094,"is_reserved":false,"is_disabled":false,"rental_uris":{"android":"levelo://app?vid=5a1c1eeb-b808-4d74-b361-7a04db92c34e","ios":"levelo://app?vid=5a1c1eeb-b808-4d74-b361-7a04db92c34e"},"vehicle_type_id":"4","last_reported":1720379172,"current_range_meters":24800,"station_id":"ce4bgi92rcd13ifvqb90","pricing_plan_id":"cebpf4jnsgd1na2vs0mg"},{"bike_id":"ff8274c9-348e-49ea-9ac8-62caa87c7690","system_id":"levelo_inurba_marseille","lat":43.298037,"lon":5.381066,"is_reserved":false,"is_disabled":false,"rental_uris":{"android":"levelo://app?vid=ff8274c9-348e-49ea-9ac8-62caa87c7690","ios":"levelo://app?vid=ff8274c9-348e-49ea-9ac8-62caa87c7690"},"vehicle_type_id":"4","last_reported":1720379172,"current_range_meters":800,"station_id":"ce4bgip2rcd13ifvqbb0","pricing_plan_id":"cebpf4jnsgd1na2vs0mg"},{"bike_id":"7d4db31b-9296-4ad8-8440-c5ccdfcc5ae3","system_id":"levelo_inurba_marseille","lat":43.298037,"lon":5.381066,"is_reserved":false,"is_disabled":false,"rental_uris":{"android":"levelo://app?vid=7d4db31b-9296-4ad8-8440-c5ccdfcc5ae3","ios":"levelo://app?vid=7d4db31b-9296-4ad8-8440-c5ccdfcc5ae3"},"vehicle_type_id":"4","last_reported":1720379172,"current_range_meters":0,"station_id":"ce4bgip2rcd13ifvqbb0","pricing_plan_id":"cebpf4jnsgd1na2vs0mg"},{"bike_id":"146cb8be-6862-4b47-aaee-0081f6c8f65a","system_id":"levelo_inurba_marseille","lat":43.29618,"lon":5.37718,"is_reserved":false,"is_disabled":false,"rental_uris":{"android":"levelo://app?vid=146cb8be-6862-4b47-aaee-0081f6c8f65a","ios":"levelo://app?vid=146cb8be-6862-4b47-aaee-0081f6c8f65a"},"vehicle_type_id":"4","last_reported":1720379172,"current_range_meters":19600,"station_id":"ce4bgi92rcd13ifvqb90","pricing_plan_id":"cebpf4jnsgd1na2vs0mg"},{"bike_id":"fb5a12a0-4d25-44ef-a478-d5b587233e84","system_id":"levelo_inurba_marseille","lat":43.296263,"lon":5.377094,"is_reserved":false,"is_disabled":false,"rental_uris":{"android":"levelo://app?vid=fb5a12a0-4d25-44ef-a478-d5b587233e84","ios":"levelo://app?vid=fb5a12a0-4d25-44ef-a478-d5b587233e84"},"vehicle_type_id":"4","last_reported":1720379172,"current_range_meters":0,"station_id":"ce4bgi92rcd13ifvqb90","pricing_plan_id":"cebpf4jnsgd1na2vs0mg"},{"bike_id":"10a55cce-a65c-4581-b089-9693887aa20d","system_id":"levelo_inurba_marseille","lat":43.29529,"lon":5.37447,"is_reserved":false,"is_disabled":false,"rental_uris":{"android":"levelo://app?vid=10a55cce-a65c-4581-b089-9693887aa20d","ios":"levelo://app?vid=10a55cce-a65c-4581-b089-9693887aa20d"},"vehicle_type_id":"4","last_reported":1720379172,"current_range_meters":24800,"station_id":"","pricing_plan_id":"cebpf4jnsgd1na2vs0mg"},{"bike_id":"8feb6bbf-efd8-43e5-ab05-7607d5d95f4b","system_id":"levelo_inurba_marseille","lat":43.309589,"lon":5.390258,"is_reserved":false,"is_disabled":false,"rental_uris":{"android":"levelo://app?vid=8feb6bbf-efd8-43e5-ab05-7607d5d95f4b","ios":"levelo://app?vid=8feb6bbf-efd8-43e5-ab05-7607d5d95f4b"},"vehicle_type_id":"4","last_reported":1720379172,"current_range_meters":0,"station_id":"ce4bgup2rcd13ifvqco0","pricing_plan_id":"cebpf4jnsgd1na2vs0mg"},{"bike_id":"b2dea992-4294-49d0-b11d-66395bd744d5","system_id":"levelo_inurba_marseille","lat":43.295279,"lon":5.375048,"is_reserved":false,"is_disabled":false,"rental_uris":{"android":"levelo://app?vid=b2dea992-4294-49d0-b11d-66395bd744d5","ios":"levelo://app?vid=b2dea992-4294-49d0-b11d-66395bd744d5"},"vehicle_type_id":"4","last_reported":1720379172,"current_range_meters":14000,"station_id":"ce4bgkp2rcd13ifvqbmg","pricing_plan_id":"cebpf4jnsgd1na2vs0mg"},{"bike_id":"07b94628-d88c-4cfe-9e8d-11069332b102","system_id":"levelo_inurba_marseille","lat":43.301396,"lon":5.387812,"is_reserved":false,"is_disabled":false,"rental_uris":{"android":"levelo://app?vid=07b94628-d88c-4cfe-9e8d-11069332b102","ios":"levelo://app?vid=07b94628-d88c-4cfe-9e8d-11069332b102"},"vehicle_type_id":"4","last_reported":1720379172,"current_range_meters":0,"station_id":"ce4bghh2rcd13ifvqb60","pricing_plan_id":"cebpf4jnsgd1na2vs0mg"},{"bike_id":"5a65e832-892d-45dd-a115-38f520e7e901","system_id":"levelo_inurba_marseille","lat":43.32367,"lon":5.388836,"is_reserved":false,"is_disabled":false,"rental_uris":{"android":"levelo://app?vid=5a65e832-892d-45dd-a115-38f520e7e901","ios":"levelo://app?vid=5a65e832-892d-45dd-a115-38f520e7e901"},"vehicle_type_id":"4","last_reported":1720379172,"current_range_meters":0,"station_id":"ce4bhqp2rcd13ifvqhog","pricing_plan_id":"cebpf4jnsgd1na2vs0mg"},{"bike_id":"5b7ef8f9-ea74-418d-ab98-6c471f6e84ea","system_id":"levelo_inurba_marseille","lat":43.32367,"lon":5.388836,"is_reserved":false,"is_disabled":false,"rental_uris":{"android":"levelo://app?vid=5b7ef8f9-ea74-418d-ab98-6c471f6e84ea","ios":"levelo://app?vid=5b7ef8f9-ea74-418d-ab98-6c471f6e84ea"},"vehicle_type_id":"4","last_reported":1720379172,"current_range_meters":0,"station_id":"ce4bhqp2rcd13ifvqhog","pricing_plan_id":"cebpf4jnsgd1na2vs0mg"},{"bike_id":"ce2b170c-f212-4cad-914d-78e2f9970b4c","system_id":"levelo_inurba_marseille","lat":43.32367,"lon":5.388836,"is_reserved":false,"is_disabled":false,"rental_uris":{"android":"levelo://app?vid=ce2b170c-f212-4cad-914d-78e2f9970b4c","ios":"levelo://app?vid=ce2b170c-f212-4cad-914d-78e2f9970b4c"},"vehicle_type_id":"4","last_reported":1720379172,"current_range_meters":0,"station_id":"ce4bhqp2rcd13ifvqhog","pricing_plan_id":"cebpf4jnsgd1na2vs0mg"},{"bike_id":"69961ca8-91ec-42c8-a0b8-c3ff35d5168a","system_id":"levelo_inurba_marseille","lat":43.29295,"lon":5.36884,"is_reserved":false,"is_disabled":false,"rental_uris":{"android":"levelo://app?vid=69961ca8-91ec-42c8-a0b8-c3ff35d5168a","ios":"levelo://app?vid=69961ca8-91ec-42c8-a0b8-c3ff35d5168a"},"vehicle_type_id":"4","last_reported":1720379172,"current_range_meters":0,"station_id":"","pricing_plan_id":"cebpf4jnsgd1na2vs0mg"},{"bike_id":"cd90d865-3663-4d37-b4f0-cfd9b5892393","system_id":"levelo_inurba_marseille","lat":43.29273,"lon":5.36839,"is_reserved":false,"is_disabled":false,"rental_uris":{"android":"levelo://app?vid=cd90d865-3663-4d37-b4f0-cfd9b5892393","ios":"levelo://app?vid=cd90d865-3663-4d37-b4f0-cfd9b5892393"},"vehicle_type_id":"4","last_reported":1720379172,"current_range_meters":0,"station_id":"ce4bhbp2rcd13ifvqesg","pricing_plan_id":"cebpf4jnsgd1na2vs0mg"},{"bike_id":"b2762deb-b5f2-4ade-bb4d-7a5b0a32eac9","system_id":"levelo_inurba_marseille","lat":43.29272,"lon":5.36839,"is_reserved":false,"is_disabled":false,"rental_uris":{"android":"levelo://app?vid=b2762deb-b5f2-4ade-bb4d-7a5b0a32eac9","ios":"levelo://app?vid=b2762deb-b5f2-4ade-bb4d-7a5b0a32eac9"},"vehicle_type_id":"4","last_reported":1720379172,"current_range_meters":0,"station_id":"ce4bhbp2rcd13ifvqesg","pricing_plan_id":"cebpf4jnsgd1na2vs0mg"},{"bike_id":"21180023-fd31-4a3f-8a3c-4236df3bf61c","system_id":"levelo_inurba_marseille","lat":43.2927,"lon":5.36847,"is_reserved":false,"is_disabled":false,"rental_uris":{"android":"levelo://app?vid=21180023-fd31-4a3f-8a3c-4236df3bf61c","ios":"levelo://app?vid=21180023-fd31-4a3f-8a3c-4236df3bf61c"},"vehicle_type_id":"4","last_reported":1720379172,"current_range_meters":2800,"station_id":"","pricing_plan_id":"cebpf4jnsgd1na2vs0mg"},{"bike_id":"93cb5bd2-263a-46f5-948e-72bf9c98c115","system_id":"levelo_inurba_marseille","lat":43.292749,"lon":5.368402,"is_reserved":false,"is_disabled":false,"rental_uris":{"android":"levelo://app?vid=93cb5bd2-263a-46f5-948e-72bf9c98c115","ios":"levelo://app?vid=93cb5bd2-263a-46f5-948e-72bf9c98c115"},"vehicle_type_id":"4","last_reported":1720379172,"current_range_meters":23200,"station_id":"ce4bhbp2rcd13ifvqesg","pricing_plan_id":"cebpf4jnsgd1na2vs0mg"},{"bike_id":"c27e8371-e4ec-464e-9bda-f15a4285f366","system_id":"levelo_inurba_marseille","lat":43.29234,"lon":5.36416,"is_reserved":false,"is_disabled":false,"rental_uris":{"android":"levelo://app?vid=c27e8371-e4ec-464e-9bda-f15a4285f366","ios":"levelo://app?vid=c27e8371-e4ec-464e-9bda-f15a4285f366"},"vehicle_type_id":"4","last_reported":1720379172,"current_range_meters":1600,"station_id":"","pricing_plan_id":"cebpf4jnsgd1na2vs0mg"},{"bike_id":"6e4ee24a-2ba2-4a0b-a645-120bd8b6b29d","system_id":"levelo_inurba_marseille","lat":43.2936,"lon":5.37835,"is_reserved":false,"is_disabled":false,"rental_uris":{"android":"levelo://app?vid=6e4ee24a-2ba2-4a0b-a645-120bd8b6b29d","ios":"levelo://app?vid=6e4ee24a-2ba2-4a0b-a645-120bd8b6b29d"},"vehicle_type_id":"4","last_reported":1720379172,"current_range_meters":28000,"station_id":"ce4bgjh2rcd13ifvqbf0","pricing_plan_id":"cebpf4jnsgd1na2vs0mg"},{"bike_id":"e3c8e4a7-54d7-4b61-8eaa-207ab8dbfff1","system_id":"levelo_inurba_marseille","lat":43.2936,"lon":5.37835,"is_reserved":false,"is_disabled":false,"rental_uris":{"android":"levelo://app?vid=e3c8e4a7-54d7-4b61-8eaa-207ab8dbfff1","ios":"levelo://app?vid=e3c8e4a7-54d7-4b61-8eaa-207ab8dbfff1"},"vehicle_type_id":"4","last_reported":1720379172,"current_range_meters":0,"station_id":"ce4bgjh2rcd13ifvqbf0","pricing_plan_id":"cebpf4jnsgd1na2vs0mg"},{"bike_id":"958bd8b7-f650-4a64-a89c-1cf9381c01be","system_id":"levelo_inurba_marseille","lat":43.30085,"lon":5.390856,"is_reserved":false,"is_disabled":false,"rental_uris":{"android":"levelo://app?vid=958bd8b7-f650-4a64-a89c-1cf9381c01be","ios":"levelo://app?vid=958bd8b7-f650-4a64-a89c-1cf9381c01be"},"vehicle_type_id":"4","last_reported":1720379172,"current_range_meters":3200,"station_id":"ce4bh192rcd13ifvqdb0","pricing_plan_id":"cebpf4jnsgd1na2vs0mg"},{"bike_id":"ebda80da-7197-445c-a763-7cac601eb7ed","system_id":"levelo_inurba_marseille","lat":43.298764,"lon":5.388973,"is_reserved":false,"is_disabled":false,"rental_uris":{"android":"levelo://app?vid=ebda80da-7197-445c-a763-7cac601eb7ed","ios":"levelo://app?vid=ebda80da-7197-445c-a763-7cac601eb7ed"},"vehicle_type_id":"4","last_reported":1720379172,"current_range_meters":26400,"station_id":"ce4bh392rcd13ifvqdl0","pricing_plan_id":"cebpf4jnsgd1na2vs0mg"},{"bike_id":"b838c035-3391-4015-803e-fe7d4cea154a","system_id":"levelo_inurba_marseille","lat":43.29879,"lon":5.38909,"is_reserved":false,"is_disabled":false,"rental_uris":{"android":"levelo://app?vid=b838c035-3391-4015-803e-fe7d4cea154a","ios":"levelo://app?vid=b838c035-3391-4015-803e-fe7d4cea154a"},"vehicle_type_id":"4","last_reported":1720379172,"current_range_meters":0,"station_id":"ce4bh392rcd13ifvqdl0","pricing_plan_id":"cebpf4jnsgd1na2vs0mg"},{"bike_id":"080a074a-f283-4491-b73d-b818c79c8bd7","system_id":"levelo_inurba_marseille","lat":43.2988,"lon":5.38911,"is_reserved":false,"is_disabled":false,"rental_uris":{"android":"levelo://app?vid=080a074a-f283-4491-b73d-b818c79c8bd7","ios":"levelo://app?vid=080a074a-f283-4491-b73d-b818c79c8bd7"},"vehicle_type_id":"4","last_reported":1720379172,"current_range_meters":400,"station_id":"ce4bh392rcd13ifvqdl0","pricing_plan_id":"cebpf4jnsgd1na2vs0mg"},{"bike_id":"c2313155-2be8-4e59-922e-902b19fcefed","system_id":"levelo_inurba_marseille","lat":43.291675,"lon":5.371583,"is_reserved":false,"is_disabled":false,"rental_uris":{"android":"levelo://app?vid=c2313155-2be8-4e59-922e-902b19fcefed","ios":"levelo://app?vid=c2313155-2be8-4e59-922e-902b19fcefed"},"vehicle_type_id":"4","last_reported":1720379172,"current_range_meters":24000,"station_id":"ce4bha92rcd13ifvqeh0","pricing_plan_id":"cebpf4jnsgd1na2vs0mg"},{"bike_id":"392cfd10-008e-4da9-a10a-71792862e973","system_id":"levelo_inurba_marseille","lat":43.29194,"lon":5.3592,"is_reserved":false,"is_disabled":false,"rental_uris":{"android":"levelo://app?vid=392cfd10-008e-4da9-a10a-71792862e973","ios":"levelo://app?vid=392cfd10-008e-4da9-a10a-71792862e973"},"vehicle_type_id":"4","last_reported":1720379172,"current_range_meters":0,"station_id":"","pricing_plan_id":"cebpf4jnsgd1na2vs0mg"},{"bike_id":"dfdaa758-57ce-46a3-825c-00b7e9afb3b6","system_id":"levelo_inurba_marseille","lat":43.313297,"lon":5.396904,"is_reserved":false,"is_disabled":false,"rental_uris":{"android":"levelo://app?vid=dfdaa758-57ce-46a3-825c-00b7e9afb3b6","ios":"levelo://app?vid=dfdaa758-57ce-46a3-825c-00b7e9afb3b6"},"vehicle_type_id":"4","last_reported":1720379172,"current_range_meters":1600,"station_id":"ce4bgvp2rcd13ifvqcu0","pricing_plan_id":"cebpf4jnsgd1na2vs0mg"},{"bike_id":"a869296c-161e-481c-9d22-4abbe0543026","system_id":"levelo_inurba_marseille","lat":43.313291,"lon":5.396838,"is_reserved":false,"is_disabled":false,"rental_uris":{"android":"levelo://app?vid=a869296c-161e-481c-9d22-4abbe0543026","ios":"levelo://app?vid=a869296c-161e-481c-9d22-4abbe0543026"},"vehicle_type_id":"4","last_reported":1720379172,"current_range_meters":0,"station_id":"ce4bgvp2rcd13ifvqcu0","pricing_plan_id":"cebpf4jnsgd1na2vs0mg"},{"bike_id":"395e2991-79bb-4f51-9ff5-9192784e6ced","system_id":"levelo_inurba_marseille","lat":43.29529,"lon":5.385581,"is_reserved":false,"is_disabled":false,"rental_uris":{"android":"levelo://app?vid=395e2991-79bb-4f51-9ff5-9192784e6ced","ios":"levelo://app?vid=395e2991-79bb-4f51-9ff5-9192784e6ced"},"vehicle_type_id":"4","last_reported":1720379172,"current_range_meters":7600,"station_id":"ce4bgih2rcd13ifvqba0","pricing_plan_id":"cebpf4jnsgd1na2vs0mg"},{"bike_id":"b8b72846-8206-49d0-9380-9560aca95909","system_id":"levelo_inurba_marseille","lat":43.29529,"lon":5.385581,"is_reserved":false,"is_disabled":false,"rental_uris":{"android":"levelo://app?vid=b8b72846-8206-49d0-9380-9560aca95909","ios":"levelo://app?vid=b8b72846-8206-49d0-9380-9560aca95909"},"vehicle_type_id":"4","last_reported":1720379172,"current_range_meters":1600,"station_id":"ce4bgih2rcd13ifvqba0","pricing_plan_id":"cebpf4jnsgd1na2vs0mg"},{"bike_id":"7462f41e-60ea-45b4-84bf-4a5513f1032e","system_id":"levelo_inurba_marseille","lat":43.29529,"lon":5.385581,"is_reserved":false,"is_disabled":false,"rental_uris":{"android":"levelo://app?vid=7462f41e-60ea-45b4-84bf-4a5513f1032e","ios":"levelo://app?vid=7462f41e-60ea-45b4-84bf-4a5513f1032e"},"vehicle_type_id":"4","last_reported":1720379172,"current_range_meters":2000,"station_id":"ce4bgih2rcd13ifvqba0","pricing_plan_id":"cebpf4jnsgd1na2vs0mg"},{"bike_id":"2e779fee-f5fc-4e64-a07e-78cc06aaabab","system_id":"levelo_inurba_marseille","lat":43.29529,"lon":5.385581,"is_reserved":false,"is_disabled":false,"rental_uris":{"android":"levelo://app?vid=2e779fee-f5fc-4e64-a07e-78cc06aaabab","ios":"levelo://app?vid=2e779fee-f5fc-4e64-a07e-78cc06aaabab"},"vehicle_type_id":"4","last_reported":1720379172,"current_range_meters":2400,"station_id":"ce4bgih2rcd13ifvqba0","pricing_plan_id":"cebpf4jnsgd1na2vs0mg"},{"bike_id":"0b0c8204-614a-493d-9a6b-d6484596845b","system_id":"levelo_inurba_marseille","lat":43.294153,"lon":5.386305,"is_reserved":false,"is_disabled":false,"rental_uris":{"android":"levelo://app?vid=0b0c8204-614a-493d-9a6b-d6484596845b","ios":"levelo://app?vid=0b0c8204-614a-493d-9a6b-d6484596845b"},"vehicle_type_id":"4","last_reported":1720379172,"current_range_meters":26800,"station_id":"ce4bh2h2rcd13ifvqdh0","pricing_plan_id":"cebpf4jnsgd1na2vs0mg"},{"bike_id":"a390daf5-cdf0-4829-ba2e-144b49d6894b","system_id":"levelo_inurba_marseille","lat":43.294153,"lon":5.386305,"is_reserved":false,"is_disabled":false,"rental_uris":{"android":"levelo://app?vid=a390daf5-cdf0-4829-ba2e-144b49d6894b","ios":"levelo://app?vid=a390daf5-cdf0-4829-ba2e-144b49d6894b"},"vehicle_type_id":"4","last_reported":1720379172,"current_range_meters":0,"station_id":"ce4bh2h2rcd13ifvqdh0","pricing_plan_id":"cebpf4jnsgd1na2vs0mg"},{"bike_id":"76908f4a-ae05-49a8-bd63-6d94b61f41a1","system_id":"levelo_inurba_marseille","lat":43.294153,"lon":5.386305,"is_reserved":false,"is_disabled":false,"rental_uris":{"android":"levelo://app?vid=76908f4a-ae05-49a8-bd63-6d94b61f41a1","ios":"levelo://app?vid=76908f4a-ae05-49a8-bd63-6d94b61f41a1"},"vehicle_type_id":"4","last_reported":1720379172,"current_range_meters":4000,"station_id":"ce4bh2h2rcd13ifvqdh0","pricing_plan_id":"cebpf4jnsgd1na2vs0mg"},{"bike_id":"41d3d502-1518-4d1a-a02a-66bf69191af0","system_id":"levelo_inurba_marseille","lat":43.294162,"lon":5.386292,"is_reserved":false,"is_disabled":false,"rental_uris":{"android":"levelo://app?vid=41d3d502-1518-4d1a-a02a-66bf69191af0","ios":"levelo://app?vid=41d3d502-1518-4d1a-a02a-66bf69191af0"},"vehicle_type_id":"4","last_reported":1720379172,"current_range_meters":800,"station_id":"ce4bh2h2rcd13ifvqdh0","pricing_plan_id":"cebpf4jnsgd1na2vs0mg"},{"bike_id":"8bd2fb30-532c-4a88-b65b-8a550d1360fa","system_id":"levelo_inurba_marseille","lat":43.294162,"lon":5.386292,"is_reserved":false,"is_disabled":false,"rental_uris":{"android":"levelo://app?vid=8bd2fb30-532c-4a88-b65b-8a550d1360fa","ios":"levelo://app?vid=8bd2fb30-532c-4a88-b65b-8a550d1360fa"},"vehicle_type_id":"4","last_reported":1720379172,"current_range_meters":1600,"station_id":"ce4bh2h2rcd13ifvqdh0","pricing_plan_id":"cebpf4jnsgd1na2vs0mg"},{"bike_id":"6c327ea9-18bd-44d6-9aa2-758ca68cfb38","system_id":"levelo_inurba_marseille","lat":43.29418,"lon":5.38617,"is_reserved":false,"is_disabled":false,"rental_uris":{"android":"levelo://app?vid=6c327ea9-18bd-44d6-9aa2-758ca68cfb38","ios":"levelo://app?vid=6c327ea9-18bd-44d6-9aa2-758ca68cfb38"},"vehicle_type_id":"4","last_reported":1720379172,"current_range_meters":0,"station_id":"ce4bh2h2rcd13ifvqdh0","pricing_plan_id":"cebpf4jnsgd1na2vs0mg"},{"bike_id":"a46a2050-e3b0-4a83-b05a-7c23068779d4","system_id":"levelo_inurba_marseille","lat":43.294153,"lon":5.386305,"is_reserved":false,"is_disabled":false,"rental_uris":{"android":"levelo://app?vid=a46a2050-e3b0-4a83-b05a-7c23068779d4","ios":"levelo://app?vid=a46a2050-e3b0-4a83-b05a-7c23068779d4"},"vehicle_type_id":"4","last_reported":1720379172,"current_range_meters":2400,"station_id":"ce4bh2h2rcd13ifvqdh0","pricing_plan_id":"cebpf4jnsgd1na2vs0mg"},{"bike_id":"50f3166d-51c6-4ea8-a8b7-d241471b5117","system_id":"levelo_inurba_marseille","lat":43.29415,"lon":5.38619,"is_reserved":false,"is_disabled":false,"rental_uris":{"android":"levelo://app?vid=50f3166d-51c6-4ea8-a8b7-d241471b5117","ios":"levelo://app?vid=50f3166d-51c6-4ea8-a8b7-d241471b5117"},"vehicle_type_id":"4","last_reported":1720379172,"current_range_meters":0,"station_id":"ce4bh2h2rcd13ifvqdh0","pricing_plan_id":"cebpf4jnsgd1na2vs0mg"},{"bike_id":"d5ef9d7c-2306-4669-ac95-78a709e6d654","system_id":"levelo_inurba_marseille","lat":43.294162,"lon":5.386292,"is_reserved":false,"is_disabled":false,"rental_uris":{"android":"levelo://app?vid=d5ef9d7c-2306-4669-ac95-78a709e6d654","ios":"levelo://app?vid=d5ef9d7c-2306-4669-ac95-78a709e6d654"},"vehicle_type_id":"4","last_reported":1720379172,"current_range_meters":0,"station_id":"ce4bh2h2rcd13ifvqdh0","pricing_plan_id":"cebpf4jnsgd1na2vs0mg"},{"bike_id":"99c1f2b9-6604-4723-b4fa-b8a0c8ef0b2d","system_id":"levelo_inurba_marseille","lat":43.294162,"lon":5.386292,"is_reserved":false,"is_disabled":false,"rental_uris":{"android":"levelo://app?vid=99c1f2b9-6604-4723-b4fa-b8a0c8ef0b2d","ios":"levelo://app?vid=99c1f2b9-6604-4723-b4fa-b8a0c8ef0b2d"},"vehicle_type_id":"4","last_reported":1720379172,"current_range_meters":30800,"station_id":"ce4bh2h2rcd13ifvqdh0","pricing_plan_id":"cebpf4jnsgd1na2vs0mg"},{"bike_id":"26d18e7c-78fd-40ad-87cc-9d2e3207f87a","system_id":"levelo_inurba_marseille","lat":43.28941,"lon":5.36636,"is_reserved":false,"is_disabled":false,"rental_uris":{"android":"levelo://app?vid=26d18e7c-78fd-40ad-87cc-9d2e3207f87a","ios":"levelo://app?vid=26d18e7c-78fd-40ad-87cc-9d2e3207f87a"},"vehicle_type_id":"4","last_reported":1720379172,"current_range_meters":0,"station_id":"ce4bhap2rcd13ifvqek0","pricing_plan_id":"cebpf4jnsgd1na2vs0mg"},{"bike_id":"e8efdb41-3e8b-4a38-8bd8-c5ebcdf1798f","system_id":"levelo_inurba_marseille","lat":43.289468,"lon":5.363719,"is_reserved":false,"is_disabled":false,"rental_uris":{"android":"levelo://app?vid=e8efdb41-3e8b-4a38-8bd8-c5ebcdf1798f","ios":"levelo://app?vid=e8efdb41-3e8b-4a38-8bd8-c5ebcdf1798f"},"vehicle_type_id":"4","last_reported":1720379172,"current_range_meters":0,"station_id":"ce4bhc92rcd13ifvqetg","pricing_plan_id":"cebpf4jnsgd1na2vs0mg"},{"bike_id":"078bed90-b0ad-4f83-9eea-38b181751131","system_id":"levelo_inurba_marseille","lat":43.31258,"lon":5.39938,"is_reserved":false,"is_disabled":false,"rental_uris":{"android":"levelo://app?vid=078bed90-b0ad-4f83-9eea-38b181751131","ios":"levelo://app?vid=078bed90-b0ad-4f83-9eea-38b181751131"},"vehicle_type_id":"4","last_reported":1720379172,"current_range_meters":1200,"station_id":"","pricing_plan_id":"cebpf4jnsgd1na2vs0mg"},{"bike_id":"2e425175-5090-47fb-9694-e9e675a3a02f","system_id":"levelo_inurba_marseille","lat":43.292642,"lon":5.384254,"is_reserved":false,"is_disabled":false,"rental_uris":{"android":"levelo://app?vid=2e425175-5090-47fb-9694-e9e675a3a02f","ios":"levelo://app?vid=2e425175-5090-47fb-9694-e9e675a3a02f"},"vehicle_type_id":"4","last_reported":1720379172,"current_range_meters":0,"station_id":"ce4bh692rcd13ifvqea0","pricing_plan_id":"cebpf4jnsgd1na2vs0mg"},{"bike_id":"4a27734b-ea7b-4ac7-8f28-0a4a47f34edf","system_id":"levelo_inurba_marseille","lat":43.292642,"lon":5.384254,"is_reserved":false,"is_disabled":false,"rental_uris":{"android":"levelo://app?vid=4a27734b-ea7b-4ac7-8f28-0a4a47f34edf","ios":"levelo://app?vid=4a27734b-ea7b-4ac7-8f28-0a4a47f34edf"},"vehicle_type_id":"4","last_reported":1720379172,"current_range_meters":26400,"station_id":"ce4bh692rcd13ifvqea0","pricing_plan_id":"cebpf4jnsgd1na2vs0mg"},{"bike_id":"6dd34507-55d8-450c-bda2-d0774bce57b3","system_id":"levelo_inurba_marseille","lat":43.292642,"lon":5.384254,"is_reserved":false,"is_disabled":false,"rental_uris":{"android":"levelo://app?vid=6dd34507-55d8-450c-bda2-d0774bce57b3","ios":"levelo://app?vid=6dd34507-55d8-450c-bda2-d0774bce57b3"},"vehicle_type_id":"4","last_reported":1720379172,"current_range_meters":19600,"station_id":"ce4bh692rcd13ifvqea0","pricing_plan_id":"cebpf4jnsgd1na2vs0mg"},{"bike_id":"c280d14e-7deb-4706-b147-caf374831bf4","system_id":"levelo_inurba_marseille","lat":43.292642,"lon":5.384254,"is_reserved":false,"is_disabled":false,"rental_uris":{"android":"levelo://app?vid=c280d14e-7deb-4706-b147-caf374831bf4","ios":"levelo://app?vid=c280d14e-7deb-4706-b147-caf374831bf4"},"vehicle_type_id":"4","last_reported":1720379172,"current_range_meters":400,"station_id":"ce4bh692rcd13ifvqea0","pricing_plan_id":"cebpf4jnsgd1na2vs0mg"},{"bike_id":"a34f69ce-4c9c-4521-a96e-9289e28b14f0","system_id":"levelo_inurba_marseille","lat":43.290103,"lon":5.356114,"is_reserved":false,"is_disabled":false,"rental_uris":{"android":"levelo://app?vid=a34f69ce-4c9c-4521-a96e-9289e28b14f0","ios":"levelo://app?vid=a34f69ce-4c9c-4521-a96e-9289e28b14f0"},"vehicle_type_id":"4","last_reported":1720379172,"current_range_meters":0,"station_id":"ce4bhb92rcd13ifvqen0","pricing_plan_id":"cebpf4jnsgd1na2vs0mg"},{"bike_id":"cd59c501-6cf9-443b-bc84-979004d80568","system_id":"levelo_inurba_marseille","lat":43.290995,"lon":5.381361,"is_reserved":false,"is_disabled":false,"rental_uris":{"android":"levelo://app?vid=cd59c501-6cf9-443b-bc84-979004d80568","ios":"levelo://app?vid=cd59c501-6cf9-443b-bc84-979004d80568"},"vehicle_type_id":"4","last_reported":1720379172,"current_range_meters":2800,"station_id":"ce4bh512rcd13ifvqe2g","pricing_plan_id":"cebpf4jnsgd1na2vs0mg"},{"bike_id":"176be101-9abd-4837-8528-a9591b584362","system_id":"levelo_inurba_marseille","lat":43.290995,"lon":5.381361,"is_reserved":false,"is_disabled":false,"rental_uris":{"android":"levelo://app?vid=176be101-9abd-4837-8528-a9591b584362","ios":"levelo://app?vid=176be101-9abd-4837-8528-a9591b584362"},"vehicle_type_id":"4","last_reported":1720379172,"current_range_meters":2800,"station_id":"ce4bh512rcd13ifvqe2g","pricing_plan_id":"cebpf4jnsgd1na2vs0mg"},{"bike_id":"d928cc06-f741-48d6-96ea-ec9d4ab19e15","system_id":"levelo_inurba_marseille","lat":43.3302,"lon":5.39033,"is_reserved":false,"is_disabled":false,"rental_uris":{"android":"levelo://app?vid=d928cc06-f741-48d6-96ea-ec9d4ab19e15","ios":"levelo://app?vid=d928cc06-f741-48d6-96ea-ec9d4ab19e15"},"vehicle_type_id":"4","last_reported":1720379172,"current_range_meters":17200,"station_id":"ce4bhr92rcd13ifvqhrg","pricing_plan_id":"cebpf4jnsgd1na2vs0mg"},{"bike_id":"600d9ffe-3ca5-41a6-818c-f0d1b1f192c4","system_id":"levelo_inurba_marseille","lat":43.295169,"lon":5.390426,"is_reserved":false,"is_disabled":false,"rental_uris":{"android":"levelo://app?vid=600d9ffe-3ca5-41a6-818c-f0d1b1f192c4","ios":"levelo://app?vid=600d9ffe-3ca5-41a6-818c-f0d1b1f192c4"},"vehicle_type_id":"4","last_reported":1720379172,"current_range_meters":2000,"station_id":"ce4bh3p2rcd13ifvqdp0","pricing_plan_id":"cebpf4jnsgd1na2vs0mg"},{"bike_id":"ab21f94a-615e-45cb-9d2c-3bbcdf0bc378","system_id":"levelo_inurba_marseille","lat":43.33024,"lon":5.39041,"is_reserved":false,"is_disabled":false,"rental_uris":{"android":"levelo://app?vid=ab21f94a-615e-45cb-9d2c-3bbcdf0bc378","ios":"levelo://app?vid=ab21f94a-615e-45cb-9d2c-3bbcdf0bc378"},"vehicle_type_id":"4","last_reported":1720379172,"current_range_meters":400,"station_id":"ce4bhr92rcd13ifvqhrg","pricing_plan_id":"cebpf4jnsgd1na2vs0mg"},{"bike_id":"b48fb9c4-1bd6-43e4-884f-f344ca34470b","system_id":"levelo_inurba_marseille","lat":43.330442,"lon":5.389148,"is_reserved":false,"is_disabled":false,"rental_uris":{"android":"levelo://app?vid=b48fb9c4-1bd6-43e4-884f-f344ca34470b","ios":"levelo://app?vid=b48fb9c4-1bd6-43e4-884f-f344ca34470b"},"vehicle_type_id":"4","last_reported":1720379172,"current_range_meters":3600,"station_id":"ce4bhr92rcd13ifvqhrg","pricing_plan_id":"cebpf4jnsgd1na2vs0mg"},{"bike_id":"bcb8582a-4ef7-4f80-88af-fe5d97a5bd20","system_id":"levelo_inurba_marseille","lat":43.295169,"lon":5.390426,"is_reserved":false,"is_disabled":false,"rental_uris":{"android":"levelo://app?vid=bcb8582a-4ef7-4f80-88af-fe5d97a5bd20","ios":"levelo://app?vid=bcb8582a-4ef7-4f80-88af-fe5d97a5bd20"},"vehicle_type_id":"4","last_reported":1720379172,"current_range_meters":20800,"station_id":"ce4bh3p2rcd13ifvqdp0","pricing_plan_id":"cebpf4jnsgd1na2vs0mg"},{"bike_id":"327c009c-3d09-4d8d-9403-f24a95a050fa","system_id":"levelo_inurba_marseille","lat":43.289741,"lon":5.378306,"is_reserved":false,"is_disabled":false,"rental_uris":{"android":"levelo://app?vid=327c009c-3d09-4d8d-9403-f24a95a050fa","ios":"levelo://app?vid=327c009c-3d09-4d8d-9403-f24a95a050fa"},"vehicle_type_id":"4","last_reported":1720379172,"current_range_meters":7200,"station_id":"ce4bh9p2rcd13ifvqed0","pricing_plan_id":"cebpf4jnsgd1na2vs0mg"},{"bike_id":"44ca1e2c-a6b2-444b-8aab-66cc5962034f","system_id":"levelo_inurba_marseille","lat":43.330442,"lon":5.389148,"is_reserved":false,"is_disabled":false,"rental_uris":{"android":"levelo://app?vid=44ca1e2c-a6b2-444b-8aab-66cc5962034f","ios":"levelo://app?vid=44ca1e2c-a6b2-444b-8aab-66cc5962034f"},"vehicle_type_id":"4","last_reported":1720379172,"current_range_meters":4000,"station_id":"ce4bhr92rcd13ifvqhrg","pricing_plan_id":"cebpf4jnsgd1na2vs0mg"},{"bike_id":"0605d7c2-1fe3-4178-a5af-1a72291b2120","system_id":"levelo_inurba_marseille","lat":43.294162,"lon":5.386292,"is_reserved":false,"is_disabled":false,"rental_uris":{"android":"levelo://app?vid=0605d7c2-1fe3-4178-a5af-1a72291b2120","ios":"levelo://app?vid=0605d7c2-1fe3-4178-a5af-1a72291b2120"},"vehicle_type_id":"4","last_reported":1720379172,"current_range_meters":12800,"station_id":"ce4bh2h2rcd13ifvqdh0","pricing_plan_id":"cebpf4jnsgd1na2vs0mg"},{"bike_id":"fdbfcc29-04c6-4739-ba7e-441fb2e2593e","system_id":"levelo_inurba_marseille","lat":43.337408,"lon":5.374532,"is_reserved":false,"is_disabled":false,"rental_uris":{"android":"levelo://app?vid=fdbfcc29-04c6-4739-ba7e-441fb2e2593e","ios":"levelo://app?vid=fdbfcc29-04c6-4739-ba7e-441fb2e2593e"},"vehicle_type_id":"4","last_reported":1720379172,"current_range_meters":30400,"station_id":"","pricing_plan_id":"cebpf4jnsgd1na2vs0mg"},{"bike_id":"24d4a583-7d11-4387-9fe3-9db9afb7cc8e","system_id":"levelo_inurba_marseille","lat":43.312609,"lon":5.401662,"is_reserved":false,"is_disabled":false,"rental_uris":{"android":"levelo://app?vid=24d4a583-7d11-4387-9fe3-9db9afb7cc8e","ios":"levelo://app?vid=24d4a583-7d11-4387-9fe3-9db9afb7cc8e"},"vehicle_type_id":"4","last_reported":1720379172,"current_range_meters":28400,"station_id":"ce4bh092rcd13ifvqd30","pricing_plan_id":"cebpf4jnsgd1na2vs0mg"},{"bike_id":"88f27a2f-daa4-4dfc-b23a-0cfd244fc967","system_id":"levelo_inurba_marseille","lat":43.337447,"lon":5.374523,"is_reserved":false,"is_disabled":false,"rental_uris":{"android":"levelo://app?vid=88f27a2f-daa4-4dfc-b23a-0cfd244fc967","ios":"levelo://app?vid=88f27a2f-daa4-4dfc-b23a-0cfd244fc967"},"vehicle_type_id":"4","last_reported":1720379172,"current_range_meters":12800,"station_id":"","pricing_plan_id":"cebpf4jnsgd1na2vs0mg"},{"bike_id":"ba77c056-6fe7-4228-884f-a9f07e3f5ccc","system_id":"levelo_inurba_marseille","lat":43.33757,"lon":5.37433,"is_reserved":false,"is_disabled":false,"rental_uris":{"android":"levelo://app?vid=ba77c056-6fe7-4228-884f-a9f07e3f5ccc","ios":"levelo://app?vid=ba77c056-6fe7-4228-884f-a9f07e3f5ccc"},"vehicle_type_id":"4","last_reported":1720379172,"current_range_meters":30000,"station_id":"ce4rr2p2rcd13i802rgg","pricing_plan_id":"cebpf4jnsgd1na2vs0mg"},{"bike_id":"41fcb31e-469f-4a07-8a88-fbe57c2d85f5","system_id":"levelo_inurba_marseille","lat":43.33755,"lon":5.37455,"is_reserved":false,"is_disabled":false,"rental_uris":{"android":"levelo://app?vid=41fcb31e-469f-4a07-8a88-fbe57c2d85f5","ios":"levelo://app?vid=41fcb31e-469f-4a07-8a88-fbe57c2d85f5"},"vehicle_type_id":"4","last_reported":1720379172,"current_range_meters":22800,"station_id":"","pricing_plan_id":"cebpf4jnsgd1na2vs0mg"},{"bike_id":"568e51fe-3317-4e32-82a4-2bd4944c6912","system_id":"levelo_inurba_marseille","lat":43.337594,"lon":5.374289,"is_reserved":false,"is_disabled":false,"rental_uris":{"android":"levelo://app?vid=568e51fe-3317-4e32-82a4-2bd4944c6912","ios":"levelo://app?vid=568e51fe-3317-4e32-82a4-2bd4944c6912"},"vehicle_type_id":"4","last_reported":1720379172,"current_range_meters":1600,"station_id":"","pricing_plan_id":"cebpf4jnsgd1na2vs0mg"},{"bike_id":"d18fc15d-e9a7-4dbb-9aed-fc17bcc86552","system_id":"levelo_inurba_marseille","lat":43.337618,"lon":5.374324,"is_reserved":false,"is_disabled":false,"rental_uris":{"android":"levelo://app?vid=d18fc15d-e9a7-4dbb-9aed-fc17bcc86552","ios":"levelo://app?vid=d18fc15d-e9a7-4dbb-9aed-fc17bcc86552"},"vehicle_type_id":"4","last_reported":1720379172,"current_range_meters":12000,"station_id":"","pricing_plan_id":"cebpf4jnsgd1na2vs0mg"},{"bike_id":"e8043679-5e2d-45ca-af32-4c2eeb2d3b4d","system_id":"levelo_inurba_marseille","lat":43.33763,"lon":5.37425,"is_reserved":false,"is_disabled":false,"rental_uris":{"android":"levelo://app?vid=e8043679-5e2d-45ca-af32-4c2eeb2d3b4d","ios":"levelo://app?vid=e8043679-5e2d-45ca-af32-4c2eeb2d3b4d"},"vehicle_type_id":"4","last_reported":1720379172,"current_range_meters":14400,"station_id":"","pricing_plan_id":"cebpf4jnsgd1na2vs0mg"},{"bike_id":"22664dbb-05c6-44b7-ac76-723d395f476e","system_id":"levelo_inurba_marseille","lat":43.337634,"lon":5.374303,"is_reserved":false,"is_disabled":false,"rental_uris":{"android":"levelo://app?vid=22664dbb-05c6-44b7-ac76-723d395f476e","ios":"levelo://app?vid=22664dbb-05c6-44b7-ac76-723d395f476e"},"vehicle_type_id":"4","last_reported":1720379172,"current_range_meters":24400,"station_id":"","pricing_plan_id":"cebpf4jnsgd1na2vs0mg"},{"bike_id":"ca28a750-034c-4926-945c-7b5f8a0741a9","system_id":"levelo_inurba_marseille","lat":43.337677,"lon":5.374411,"is_reserved":false,"is_disabled":false,"rental_uris":{"android":"levelo://app?vid=ca28a750-034c-4926-945c-7b5f8a0741a9","ios":"levelo://app?vid=ca28a750-034c-4926-945c-7b5f8a0741a9"},"vehicle_type_id":"4","last_reported":1720379172,"current_range_meters":25600,"station_id":"","pricing_plan_id":"cebpf4jnsgd1na2vs0mg"},{"bike_id":"79937dd0-0574-43b7-9e6f-ec67506038cd","system_id":"levelo_inurba_marseille","lat":43.30138,"lon":5.398707,"is_reserved":false,"is_disabled":false,"rental_uris":{"android":"levelo://app?vid=79937dd0-0574-43b7-9e6f-ec67506038cd","ios":"levelo://app?vid=79937dd0-0574-43b7-9e6f-ec67506038cd"},"vehicle_type_id":"4","last_reported":1720379172,"current_range_meters":8800,"station_id":"ce4bh0h2rcd13ifvqd40","pricing_plan_id":"cebpf4jnsgd1na2vs0mg"},{"bike_id":"521138e1-cc76-4f6c-a6ca-333c20821687","system_id":"levelo_inurba_marseille","lat":43.337374,"lon":5.355796,"is_reserved":false,"is_disabled":false,"rental_uris":{"android":"levelo://app?vid=521138e1-cc76-4f6c-a6ca-333c20821687","ios":"levelo://app?vid=521138e1-cc76-4f6c-a6ca-333c20821687"},"vehicle_type_id":"4","last_reported":1720379172,"current_range_meters":25600,"station_id":"","pricing_plan_id":"cebpf4jnsgd1na2vs0mg"},{"bike_id":"771ca116-6b54-4178-9881-e8c12e32513b","system_id":"levelo_inurba_marseille","lat":43.286593,"lon":5.363346,"is_reserved":false,"is_disabled":false,"rental_uris":{"android":"levelo://app?vid=771ca116-6b54-4178-9881-e8c12e32513b","ios":"levelo://app?vid=771ca116-6b54-4178-9881-e8c12e32513b"},"vehicle_type_id":"4","last_reported":1720379172,"current_range_meters":12400,"station_id":"ce4bhah2rcd13ifvqej0","pricing_plan_id":"cebpf4jnsgd1na2vs0mg"},{"bike_id":"beae7c01-c797-4692-9a6e-bb19478c5a1b","system_id":"levelo_inurba_marseille","lat":43.286593,"lon":5.363346,"is_reserved":false,"is_disabled":false,"rental_uris":{"android":"levelo://app?vid=beae7c01-c797-4692-9a6e-bb19478c5a1b","ios":"levelo://app?vid=beae7c01-c797-4692-9a6e-bb19478c5a1b"},"vehicle_type_id":"4","last_reported":1720379172,"current_range_meters":24000,"station_id":"ce4bhah2rcd13ifvqej0","pricing_plan_id":"cebpf4jnsgd1na2vs0mg"},{"bike_id":"6241e5e5-81e2-40ac-8edc-a1531ce29369","system_id":"levelo_inurba_marseille","lat":43.286961,"lon":5.373785,"is_reserved":false,"is_disabled":false,"rental_uris":{"android":"levelo://app?vid=6241e5e5-81e2-40ac-8edc-a1531ce29369","ios":"levelo://app?vid=6241e5e5-81e2-40ac-8edc-a1531ce29369"},"vehicle_type_id":"4","last_reported":1720379172,"current_range_meters":0,"station_id":"ce4bh3p2rcd13ifvqdq0","pricing_plan_id":"cebpf4jnsgd1na2vs0mg"},{"bike_id":"1013e222-c4e1-40b1-8991-1f1f46bd49a1","system_id":"levelo_inurba_marseille","lat":43.29527,"lon":5.394,"is_reserved":false,"is_disabled":false,"rental_uris":{"android":"levelo://app?vid=1013e222-c4e1-40b1-8991-1f1f46bd49a1","ios":"levelo://app?vid=1013e222-c4e1-40b1-8991-1f1f46bd49a1"},"vehicle_type_id":"4","last_reported":1720379172,"current_range_meters":0,"station_id":"ce4bh292rcd13ifvqdf0","pricing_plan_id":"cebpf4jnsgd1na2vs0mg"},{"bike_id":"0573f929-b958-4b2e-85bc-1fed5ef2e0db","system_id":"levelo_inurba_marseille","lat":43.29029,"lon":5.38638,"is_reserved":false,"is_disabled":false,"rental_uris":{"android":"levelo://app?vid=0573f929-b958-4b2e-85bc-1fed5ef2e0db","ios":"levelo://app?vid=0573f929-b958-4b2e-85bc-1fed5ef2e0db"},"vehicle_type_id":"4","last_reported":1720379172,"current_range_meters":0,"station_id":"ce4bh4p2rcd13ifvqe0g","pricing_plan_id":"cebpf4jnsgd1na2vs0mg"},{"bike_id":"cb4af983-b60c-4988-8ceb-fef74db8e694","system_id":"levelo_inurba_marseille","lat":43.290226,"lon":5.386342,"is_reserved":false,"is_disabled":false,"rental_uris":{"android":"levelo://app?vid=cb4af983-b60c-4988-8ceb-fef74db8e694","ios":"levelo://app?vid=cb4af983-b60c-4988-8ceb-fef74db8e694"},"vehicle_type_id":"4","last_reported":1720379172,"current_range_meters":0,"station_id":"ce4bh4p2rcd13ifvqe0g","pricing_plan_id":"cebpf4jnsgd1na2vs0mg"},{"bike_id":"fcf8680f-d8e0-48c8-93c0-a7fe6fc9a09b","system_id":"levelo_inurba_marseille","lat":43.302759,"lon":5.400793,"is_reserved":false,"is_disabled":false,"rental_uris":{"android":"levelo://app?vid=fcf8680f-d8e0-48c8-93c0-a7fe6fc9a09b","ios":"levelo://app?vid=fcf8680f-d8e0-48c8-93c0-a7fe6fc9a09b"},"vehicle_type_id":"4","last_reported":1720379172,"current_range_meters":1200,"station_id":"ce4bgvh2rcd13ifvqcs0","pricing_plan_id":"cebpf4jnsgd1na2vs0mg"},{"bike_id":"bdb1958b-64c7-4f07-a8a3-f6999782411c","system_id":"levelo_inurba_marseille","lat":43.30257,"lon":5.40074,"is_reserved":false,"is_disabled":false,"rental_uris":{"android":"levelo://app?vid=bdb1958b-64c7-4f07-a8a3-f6999782411c","ios":"levelo://app?vid=bdb1958b-64c7-4f07-a8a3-f6999782411c"},"vehicle_type_id":"4","last_reported":1720379172,"current_range_meters":0,"station_id":"ce4bgvh2rcd13ifvqcs0","pricing_plan_id":"cebpf4jnsgd1na2vs0mg"},{"bike_id":"828916b1-5c1f-4e05-a568-f3b280ed55e2","system_id":"levelo_inurba_marseille","lat":43.28613,"lon":5.3706,"is_reserved":false,"is_disabled":false,"rental_uris":{"android":"levelo://app?vid=828916b1-5c1f-4e05-a568-f3b280ed55e2","ios":"levelo://app?vid=828916b1-5c1f-4e05-a568-f3b280ed55e2"},"vehicle_type_id":"4","last_reported":1720379172,"current_range_meters":21200,"station_id":"ce4bht12rcd13ifvqi60","pricing_plan_id":"cebpf4jnsgd1na2vs0mg"},{"bike_id":"9895d461-3323-41cc-bce8-d34645733584","system_id":"levelo_inurba_marseille","lat":43.28715,"lon":5.37944,"is_reserved":false,"is_disabled":false,"rental_uris":{"android":"levelo://app?vid=9895d461-3323-41cc-bce8-d34645733584","ios":"levelo://app?vid=9895d461-3323-41cc-bce8-d34645733584"},"vehicle_type_id":"4","last_reported":1720379172,"current_range_meters":0,"station_id":"ce4bh9p2rcd13ifvqec0","pricing_plan_id":"cebpf4jnsgd1na2vs0mg"},{"bike_id":"b92d0bb1-057f-4e4c-ae00-ced475c471a6","system_id":"levelo_inurba_marseille","lat":43.313291,"lon":5.396838,"is_reserved":false,"is_disabled":false,"rental_uris":{"android":"levelo://app?vid=b92d0bb1-057f-4e4c-ae00-ced475c471a6","ios":"levelo://app?vid=b92d0bb1-057f-4e4c-ae00-ced475c471a6"},"vehicle_type_id":"4","last_reported":1720379172,"current_range_meters":20400,"station_id":"ce4bgvp2rcd13ifvqcu0","pricing_plan_id":"cebpf4jnsgd1na2vs0mg"},{"bike_id":"041b9f82-6603-4cb1-be56-56a0c1e06504","system_id":"levelo_inurba_marseille","lat":43.316828,"lon":5.404723,"is_reserved":false,"is_disabled":false,"rental_uris":{"android":"levelo://app?vid=041b9f82-6603-4cb1-be56-56a0c1e06504","ios":"levelo://app?vid=041b9f82-6603-4cb1-be56-56a0c1e06504"},"vehicle_type_id":"4","last_reported":1720379172,"current_range_meters":5200,"station_id":"ce4bh012rcd13ifvqd00","pricing_plan_id":"cebpf4jnsgd1na2vs0mg"},{"bike_id":"da37514c-24bb-409f-b126-8a4e7ba5d794","system_id":"levelo_inurba_marseille","lat":43.316821,"lon":5.404737,"is_reserved":false,"is_disabled":false,"rental_uris":{"android":"levelo://app?vid=da37514c-24bb-409f-b126-8a4e7ba5d794","ios":"levelo://app?vid=da37514c-24bb-409f-b126-8a4e7ba5d794"},"vehicle_type_id":"4","last_reported":1720379172,"current_range_meters":10000,"station_id":"ce4bh012rcd13ifvqd00","pricing_plan_id":"cebpf4jnsgd1na2vs0mg"},{"bike_id":"95a285d3-c39d-4139-8427-d0a6c58fc2b6","system_id":"levelo_inurba_marseille","lat":43.29207,"lon":5.39318,"is_reserved":false,"is_disabled":false,"rental_uris":{"android":"levelo://app?vid=95a285d3-c39d-4139-8427-d0a6c58fc2b6","ios":"levelo://app?vid=95a285d3-c39d-4139-8427-d0a6c58fc2b6"},"vehicle_type_id":"4","last_reported":1720379172,"current_range_meters":6000,"station_id":"ce4bh192rcd13ifvqdd0","pricing_plan_id":"cebpf4jnsgd1na2vs0mg"},{"bike_id":"454eb7bd-ebed-4b55-a06b-1364fbe71878","system_id":"levelo_inurba_marseille","lat":43.31612,"lon":5.40535,"is_reserved":false,"is_disabled":false,"rental_uris":{"android":"levelo://app?vid=454eb7bd-ebed-4b55-a06b-1364fbe71878","ios":"levelo://app?vid=454eb7bd-ebed-4b55-a06b-1364fbe71878"},"vehicle_type_id":"4","last_reported":1720379172,"current_range_meters":2000,"station_id":"","pricing_plan_id":"cebpf4jnsgd1na2vs0mg"},{"bike_id":"04470492-d33d-4b9d-9d78-1c05229a8608","system_id":"levelo_inurba_marseille","lat":43.291994,"lon":5.392907,"is_reserved":false,"is_disabled":false,"rental_uris":{"android":"levelo://app?vid=04470492-d33d-4b9d-9d78-1c05229a8608","ios":"levelo://app?vid=04470492-d33d-4b9d-9d78-1c05229a8608"},"vehicle_type_id":"4","last_reported":1720379172,"current_range_meters":0,"station_id":"ce4bh192rcd13ifvqdd0","pricing_plan_id":"cebpf4jnsgd1na2vs0mg"},{"bike_id":"5ee215e5-70db-4b09-a64a-b10cd8c61e0d","system_id":"levelo_inurba_marseille","lat":43.291994,"lon":5.392907,"is_reserved":false,"is_disabled":false,"rental_uris":{"android":"levelo://app?vid=5ee215e5-70db-4b09-a64a-b10cd8c61e0d","ios":"levelo://app?vid=5ee215e5-70db-4b09-a64a-b10cd8c61e0d"},"vehicle_type_id":"4","last_reported":1720379172,"current_range_meters":2800,"station_id":"ce4bh192rcd13ifvqdd0","pricing_plan_id":"cebpf4jnsgd1na2vs0mg"},{"bike_id":"86077d9d-9758-4570-9bec-4620820bab4d","system_id":"levelo_inurba_marseille","lat":43.28458,"lon":5.35892,"is_reserved":false,"is_disabled":false,"rental_uris":{"android":"levelo://app?vid=86077d9d-9758-4570-9bec-4620820bab4d","ios":"levelo://app?vid=86077d9d-9758-4570-9bec-4620820bab4d"},"vehicle_type_id":"4","last_reported":1720379172,"current_range_meters":0,"station_id":"ce4bhah2rcd13ifvqei0","pricing_plan_id":"cebpf4jnsgd1na2vs0mg"},{"bike_id":"6935044f-b67f-4948-9488-463821e65b38","system_id":"levelo_inurba_marseille","lat":43.294314,"lon":5.397498,"is_reserved":false,"is_disabled":false,"rental_uris":{"android":"levelo://app?vid=6935044f-b67f-4948-9488-463821e65b38","ios":"levelo://app?vid=6935044f-b67f-4948-9488-463821e65b38"},"vehicle_type_id":"4","last_reported":1720379172,"current_range_meters":18400,"station_id":"ce4bh3h2rcd13ifvqdo0","pricing_plan_id":"cebpf4jnsgd1na2vs0mg"},{"bike_id":"ca3bdebe-f526-4300-bedd-1cd2744589ef","system_id":"levelo_inurba_marseille","lat":43.294314,"lon":5.397498,"is_reserved":false,"is_disabled":false,"rental_uris":{"android":"levelo://app?vid=ca3bdebe-f526-4300-bedd-1cd2744589ef","ios":"levelo://app?vid=ca3bdebe-f526-4300-bedd-1cd2744589ef"},"vehicle_type_id":"4","last_reported":1720379172,"current_range_meters":3200,"station_id":"ce4bh3h2rcd13ifvqdo0","pricing_plan_id":"cebpf4jnsgd1na2vs0mg"},{"bike_id":"0d05fca4-3535-4338-abab-fb6914a3a680","system_id":"levelo_inurba_marseille","lat":43.28454,"lon":5.35888,"is_reserved":false,"is_disabled":false,"rental_uris":{"android":"levelo://app?vid=0d05fca4-3535-4338-abab-fb6914a3a680","ios":"levelo://app?vid=0d05fca4-3535-4338-abab-fb6914a3a680"},"vehicle_type_id":"4","last_reported":1720379172,"current_range_meters":0,"station_id":"ce4bhah2rcd13ifvqei0","pricing_plan_id":"cebpf4jnsgd1na2vs0mg"},{"bike_id":"326e8412-015a-4d5e-860d-400478d90c43","system_id":"levelo_inurba_marseille","lat":43.28615,"lon":5.35102,"is_reserved":false,"is_disabled":false,"rental_uris":{"android":"levelo://app?vid=326e8412-015a-4d5e-860d-400478d90c43","ios":"levelo://app?vid=326e8412-015a-4d5e-860d-400478d90c43"},"vehicle_type_id":"4","last_reported":1720379172,"current_range_meters":0,"station_id":"ce4bhch2rcd13ifvqeug","pricing_plan_id":"cebpf4jnsgd1na2vs0mg"},{"bike_id":"197367df-2904-4049-ae6e-7fa8c253229c","system_id":"levelo_inurba_marseille","lat":43.2841,"lon":5.3751,"is_reserved":false,"is_disabled":false,"rental_uris":{"android":"levelo://app?vid=197367df-2904-4049-ae6e-7fa8c253229c","ios":"levelo://app?vid=197367df-2904-4049-ae6e-7fa8c253229c"},"vehicle_type_id":"4","last_reported":1720379172,"current_range_meters":0,"station_id":"ce4bh412rcd13ifvqds0","pricing_plan_id":"cebpf4jnsgd1na2vs0mg"},{"bike_id":"49bf0e96-1ed5-4b5c-92b5-f36d6c5f0868","system_id":"levelo_inurba_marseille","lat":43.283998,"lon":5.375062,"is_reserved":false,"is_disabled":false,"rental_uris":{"android":"levelo://app?vid=49bf0e96-1ed5-4b5c-92b5-f36d6c5f0868","ios":"levelo://app?vid=49bf0e96-1ed5-4b5c-92b5-f36d6c5f0868"},"vehicle_type_id":"4","last_reported":1720379172,"current_range_meters":27600,"station_id":"ce4bh412rcd13ifvqds0","pricing_plan_id":"cebpf4jnsgd1na2vs0mg"},{"bike_id":"906eb329-fb9c-4c3e-a450-e2212eed7285","system_id":"levelo_inurba_marseille","lat":43.29953,"lon":5.40327,"is_reserved":false,"is_disabled":false,"rental_uris":{"android":"levelo://app?vid=906eb329-fb9c-4c3e-a450-e2212eed7285","ios":"levelo://app?vid=906eb329-fb9c-4c3e-a450-e2212eed7285"},"vehicle_type_id":"4","last_reported":1720379172,"current_range_meters":16800,"station_id":"","pricing_plan_id":"cebpf4jnsgd1na2vs0mg"},{"bike_id":"75a6954c-5b0c-467c-a7db-31928d733daf","system_id":"levelo_inurba_marseille","lat":43.286595,"lon":5.386795,"is_reserved":false,"is_disabled":false,"rental_uris":{"android":"levelo://app?vid=75a6954c-5b0c-467c-a7db-31928d733daf","ios":"levelo://app?vid=75a6954c-5b0c-467c-a7db-31928d733daf"},"vehicle_type_id":"4","last_reported":1720379172,"current_range_meters":5600,"station_id":"ce4bh492rcd13ifvqdug","pricing_plan_id":"cebpf4jnsgd1na2vs0mg"},{"bike_id":"93f88a42-6603-4ee9-a56b-7b5bd4eac423","system_id":"levelo_inurba_marseille","lat":43.31876,"lon":5.40758,"is_reserved":false,"is_disabled":false,"rental_uris":{"android":"levelo://app?vid=93f88a42-6603-4ee9-a56b-7b5bd4eac423","ios":"levelo://app?vid=93f88a42-6603-4ee9-a56b-7b5bd4eac423"},"vehicle_type_id":"4","last_reported":1720379172,"current_range_meters":2400,"station_id":"ce4bhq12rcd13ifvqhig","pricing_plan_id":"cebpf4jnsgd1na2vs0mg"},{"bike_id":"5f79a5a1-51c1-4edd-80a7-7c9bef5071a5","system_id":"levelo_inurba_marseille","lat":43.337168,"lon":5.391825,"is_reserved":false,"is_disabled":false,"rental_uris":{"android":"levelo://app?vid=5f79a5a1-51c1-4edd-80a7-7c9bef5071a5","ios":"levelo://app?vid=5f79a5a1-51c1-4edd-80a7-7c9bef5071a5"},"vehicle_type_id":"4","last_reported":1720379172,"current_range_meters":1600,"station_id":"ce4bhr92rcd13ifvqhsg","pricing_plan_id":"cebpf4jnsgd1na2vs0mg"},{"bike_id":"8fc17a79-34cf-428d-9663-6e1aa858524a","system_id":"levelo_inurba_marseille","lat":43.323464,"lon":5.406297,"is_reserved":false,"is_disabled":false,"rental_uris":{"android":"levelo://app?vid=8fc17a79-34cf-428d-9663-6e1aa858524a","ios":"levelo://app?vid=8fc17a79-34cf-428d-9663-6e1aa858524a"},"vehicle_type_id":"4","last_reported":1720379172,"current_range_meters":30800,"station_id":"ce4bhq92rcd13ifvqhjg","pricing_plan_id":"cebpf4jnsgd1na2vs0mg"},{"bike_id":"37ed0f5b-3e7a-4d87-940b-979af2eb530f","system_id":"levelo_inurba_marseille","lat":43.323464,"lon":5.406297,"is_reserved":false,"is_disabled":false,"rental_uris":{"android":"levelo://app?vid=37ed0f5b-3e7a-4d87-940b-979af2eb530f","ios":"levelo://app?vid=37ed0f5b-3e7a-4d87-940b-979af2eb530f"},"vehicle_type_id":"4","last_reported":1720379172,"current_range_meters":0,"station_id":"ce4bhq92rcd13ifvqhjg","pricing_plan_id":"cebpf4jnsgd1na2vs0mg"},{"bike_id":"1e7b741e-fd2f-47ad-8713-12ed084b3090","system_id":"levelo_inurba_marseille","lat":43.33717,"lon":5.391857,"is_reserved":false,"is_disabled":false,"rental_uris":{"android":"levelo://app?vid=1e7b741e-fd2f-47ad-8713-12ed084b3090","ios":"levelo://app?vid=1e7b741e-fd2f-47ad-8713-12ed084b3090"},"vehicle_type_id":"4","last_reported":1720379172,"current_range_meters":4400,"station_id":"ce4bhr92rcd13ifvqhsg","pricing_plan_id":"cebpf4jnsgd1na2vs0mg"},{"bike_id":"a3017362-64c8-4b0a-a4dd-32157165519d","system_id":"levelo_inurba_marseille","lat":43.28474,"lon":5.38414,"is_reserved":false,"is_disabled":false,"rental_uris":{"android":"levelo://app?vid=a3017362-64c8-4b0a-a4dd-32157165519d","ios":"levelo://app?vid=a3017362-64c8-4b0a-a4dd-32157165519d"},"vehicle_type_id":"4","last_reported":1720379172,"current_range_meters":0,"station_id":"ce4bh512rcd13ifvqe3g","pricing_plan_id":"cebpf4jnsgd1na2vs0mg"},{"bike_id":"3eeb886f-02a5-4918-9b0b-f74030dcfbc5","system_id":"levelo_inurba_marseille","lat":43.288501,"lon":5.393087,"is_reserved":false,"is_disabled":false,"rental_uris":{"android":"levelo://app?vid=3eeb886f-02a5-4918-9b0b-f74030dcfbc5","ios":"levelo://app?vid=3eeb886f-02a5-4918-9b0b-f74030dcfbc5"},"vehicle_type_id":"4","last_reported":1720379172,"current_range_meters":0,"station_id":"ce4bh2p2rcd13ifvqdi0","pricing_plan_id":"cebpf4jnsgd1na2vs0mg"},{"bike_id":"5b3a4e89-3865-45e3-8ddb-1ce47c151b42","system_id":"levelo_inurba_marseille","lat":43.288501,"lon":5.393087,"is_reserved":false,"is_disabled":false,"rental_uris":{"android":"levelo://app?vid=5b3a4e89-3865-45e3-8ddb-1ce47c151b42","ios":"levelo://app?vid=5b3a4e89-3865-45e3-8ddb-1ce47c151b42"},"vehicle_type_id":"4","last_reported":1720379172,"current_range_meters":8000,"station_id":"ce4bh2p2rcd13ifvqdi0","pricing_plan_id":"cebpf4jnsgd1na2vs0mg"},{"bike_id":"de94a2b6-8921-404c-ac0b-9a10af550182","system_id":"levelo_inurba_marseille","lat":43.283494,"lon":5.380945,"is_reserved":false,"is_disabled":false,"rental_uris":{"android":"levelo://app?vid=de94a2b6-8921-404c-ac0b-9a10af550182","ios":"levelo://app?vid=de94a2b6-8921-404c-ac0b-9a10af550182"},"vehicle_type_id":"4","last_reported":1720379172,"current_range_meters":2400,"station_id":"ce4bh412rcd13ifvqdr0","pricing_plan_id":"cebpf4jnsgd1na2vs0mg"},{"bike_id":"10677c99-7bad-489e-bdd2-137d2b2e22d1","system_id":"levelo_inurba_marseille","lat":43.283494,"lon":5.380945,"is_reserved":false,"is_disabled":false,"rental_uris":{"android":"levelo://app?vid=10677c99-7bad-489e-bdd2-137d2b2e22d1","ios":"levelo://app?vid=10677c99-7bad-489e-bdd2-137d2b2e22d1"},"vehicle_type_id":"4","last_reported":1720379172,"current_range_meters":18400,"station_id":"ce4bh412rcd13ifvqdr0","pricing_plan_id":"cebpf4jnsgd1na2vs0mg"},{"bike_id":"048bef25-49d7-42a4-9268-145d4ca010ae","system_id":"levelo_inurba_marseille","lat":43.29041,"lon":5.399634,"is_reserved":false,"is_disabled":false,"rental_uris":{"android":"levelo://app?vid=048bef25-49d7-42a4-9268-145d4ca010ae","ios":"levelo://app?vid=048bef25-49d7-42a4-9268-145d4ca010ae"},"vehicle_type_id":"4","last_reported":1720379172,"current_range_meters":0,"station_id":"ce4bh392rcd13ifvqdm0","pricing_plan_id":"cebpf4jnsgd1na2vs0mg"},{"bike_id":"3d584f65-f2b3-45a7-bde1-a4abb1374d4d","system_id":"levelo_inurba_marseille","lat":43.290412,"lon":5.399633,"is_reserved":false,"is_disabled":false,"rental_uris":{"android":"levelo://app?vid=3d584f65-f2b3-45a7-bde1-a4abb1374d4d","ios":"levelo://app?vid=3d584f65-f2b3-45a7-bde1-a4abb1374d4d"},"vehicle_type_id":"4","last_reported":1720379172,"current_range_meters":1200,"station_id":"ce4bh392rcd13ifvqdm0","pricing_plan_id":"cebpf4jnsgd1na2vs0mg"},{"bike_id":"98dc7382-6be1-4b03-9576-d9e97d999d04","system_id":"levelo_inurba_marseille","lat":43.292644,"lon":5.384257,"is_reserved":false,"is_disabled":false,"rental_uris":{"android":"levelo://app?vid=98dc7382-6be1-4b03-9576-d9e97d999d04","ios":"levelo://app?vid=98dc7382-6be1-4b03-9576-d9e97d999d04"},"vehicle_type_id":"4","last_reported":1720379172,"current_range_meters":1200,"station_id":"ce4bh692rcd13ifvqea0","pricing_plan_id":"cebpf4jnsgd1na2vs0mg"},{"bike_id":"7919f9b0-343a-48bc-8352-f15f3c54e409","system_id":"levelo_inurba_marseille","lat":43.281044,"lon":5.378308,"is_reserved":false,"is_disabled":false,"rental_uris":{"android":"levelo://app?vid=7919f9b0-343a-48bc-8352-f15f3c54e409","ios":"levelo://app?vid=7919f9b0-343a-48bc-8352-f15f3c54e409"},"vehicle_type_id":"4","last_reported":1720379172,"current_range_meters":3600,"station_id":"ce4bha12rcd13ifvqee0","pricing_plan_id":"cebpf4jnsgd1na2vs0mg"},{"bike_id":"9cfcad0b-c20d-4f4e-b604-5d5d29a58719","system_id":"levelo_inurba_marseille","lat":43.28107,"lon":5.37838,"is_reserved":false,"is_disabled":false,"rental_uris":{"android":"levelo://app?vid=9cfcad0b-c20d-4f4e-b604-5d5d29a58719","ios":"levelo://app?vid=9cfcad0b-c20d-4f4e-b604-5d5d29a58719"},"vehicle_type_id":"4","last_reported":1720379172,"current_range_meters":0,"station_id":"ce4bha12rcd13ifvqee0","pricing_plan_id":"cebpf4jnsgd1na2vs0mg"},{"bike_id":"6f91cde2-cc82-4f95-9ebc-71f3b105aed8","system_id":"levelo_inurba_marseille","lat":43.28098,"lon":5.37845,"is_reserved":false,"is_disabled":false,"rental_uris":{"android":"levelo://app?vid=6f91cde2-cc82-4f95-9ebc-71f3b105aed8","ios":"levelo://app?vid=6f91cde2-cc82-4f95-9ebc-71f3b105aed8"},"vehicle_type_id":"4","last_reported":1720379172,"current_range_meters":0,"station_id":"ce4bha12rcd13ifvqee0","pricing_plan_id":"cebpf4jnsgd1na2vs0mg"},{"bike_id":"6d77e403-e2df-4107-8702-aee705a99759","system_id":"levelo_inurba_marseille","lat":43.29056,"lon":5.40028,"is_reserved":false,"is_disabled":false,"rental_uris":{"android":"levelo://app?vid=6d77e403-e2df-4107-8702-aee705a99759","ios":"levelo://app?vid=6d77e403-e2df-4107-8702-aee705a99759"},"vehicle_type_id":"4","last_reported":1720379172,"current_range_meters":21200,"station_id":"","pricing_plan_id":"cebpf4jnsgd1na2vs0mg"},{"bike_id":"7d2b88a4-37bf-42bd-bca8-97b59e59c8e7","system_id":"levelo_inurba_marseille","lat":43.284462,"lon":5.392121,"is_reserved":false,"is_disabled":false,"rental_uris":{"android":"levelo://app?vid=7d2b88a4-37bf-42bd-bca8-97b59e59c8e7","ios":"levelo://app?vid=7d2b88a4-37bf-42bd-bca8-97b59e59c8e7"},"vehicle_type_id":"4","last_reported":1720379172,"current_range_meters":3600,"station_id":"ce4bhoh2rcd13ifvqh5g","pricing_plan_id":"cebpf4jnsgd1na2vs0mg"},{"bike_id":"e6cd2958-a067-495d-9991-9190aaec3484","system_id":"levelo_inurba_marseille","lat":43.285747,"lon":5.394857,"is_reserved":false,"is_disabled":false,"rental_uris":{"android":"levelo://app?vid=e6cd2958-a067-495d-9991-9190aaec3484","ios":"levelo://app?vid=e6cd2958-a067-495d-9991-9190aaec3484"},"vehicle_type_id":"4","last_reported":1720379172,"current_range_meters":0,"station_id":"ce4bh292rcd13ifvqdg0","pricing_plan_id":"cebpf4jnsgd1na2vs0mg"},{"bike_id":"3b9ef36e-e444-4c56-a9f8-819b6a309744","system_id":"levelo_inurba_marseille","lat":43.326605,"lon":5.409903,"is_reserved":false,"is_disabled":false,"rental_uris":{"android":"levelo://app?vid=3b9ef36e-e444-4c56-a9f8-819b6a309744","ios":"levelo://app?vid=3b9ef36e-e444-4c56-a9f8-819b6a309744"},"vehicle_type_id":"4","last_reported":1720379172,"current_range_meters":1600,"station_id":"ce4bhpp2rcd13ifvqhgg","pricing_plan_id":"cebpf4jnsgd1na2vs0mg"},{"bike_id":"e3693902-47e3-49f5-b519-4bb44dd6eada","system_id":"levelo_inurba_marseille","lat":43.326605,"lon":5.409903,"is_reserved":false,"is_disabled":false,"rental_uris":{"android":"levelo://app?vid=e3693902-47e3-49f5-b519-4bb44dd6eada","ios":"levelo://app?vid=e3693902-47e3-49f5-b519-4bb44dd6eada"},"vehicle_type_id":"4","last_reported":1720379172,"current_range_meters":800,"station_id":"ce4bhpp2rcd13ifvqhgg","pricing_plan_id":"cebpf4jnsgd1na2vs0mg"},{"bike_id":"da856c4b-74f7-41ca-924a-c326222513cd","system_id":"levelo_inurba_marseille","lat":43.326605,"lon":5.409903,"is_reserved":false,"is_disabled":false,"rental_uris":{"android":"levelo://app?vid=da856c4b-74f7-41ca-924a-c326222513cd","ios":"levelo://app?vid=da856c4b-74f7-41ca-924a-c326222513cd"},"vehicle_type_id":"4","last_reported":1720379172,"current_range_meters":1200,"station_id":"ce4bhpp2rcd13ifvqhgg","pricing_plan_id":"cebpf4jnsgd1na2vs0mg"},{"bike_id":"36bcfd54-1eae-4ea7-8209-7c33bc7ed4cb","system_id":"levelo_inurba_marseille","lat":43.304188,"lon":5.412904,"is_reserved":false,"is_disabled":false,"rental_uris":{"android":"levelo://app?vid=36bcfd54-1eae-4ea7-8209-7c33bc7ed4cb","ios":"levelo://app?vid=36bcfd54-1eae-4ea7-8209-7c33bc7ed4cb"},"vehicle_type_id":"4","last_reported":1720379172,"current_range_meters":25600,"station_id":"ce4bhop2rcd13ifvqh8g","pricing_plan_id":"cebpf4jnsgd1na2vs0mg"},{"bike_id":"a74eb7e2-dc11-4023-a15e-b955c2ed3c35","system_id":"levelo_inurba_marseille","lat":43.304188,"lon":5.412904,"is_reserved":false,"is_disabled":false,"rental_uris":{"android":"levelo://app?vid=a74eb7e2-dc11-4023-a15e-b955c2ed3c35","ios":"levelo://app?vid=a74eb7e2-dc11-4023-a15e-b955c2ed3c35"},"vehicle_type_id":"4","last_reported":1720379172,"current_range_meters":2800,"station_id":"ce4bhop2rcd13ifvqh8g","pricing_plan_id":"cebpf4jnsgd1na2vs0mg"},{"bike_id":"c9fbe7de-7396-4b0a-bead-c95b207c407e","system_id":"levelo_inurba_marseille","lat":43.3043,"lon":5.41341,"is_reserved":false,"is_disabled":false,"rental_uris":{"android":"levelo://app?vid=c9fbe7de-7396-4b0a-bead-c95b207c407e","ios":"levelo://app?vid=c9fbe7de-7396-4b0a-bead-c95b207c407e"},"vehicle_type_id":"4","last_reported":1720379172,"current_range_meters":2800,"station_id":"ce4bhop2rcd13ifvqh8g","pricing_plan_id":"cebpf4jnsgd1na2vs0mg"},{"bike_id":"7e9c03f1-34ca-4c5b-a621-1e1537e4f735","system_id":"levelo_inurba_marseille","lat":43.279087,"lon":5.380114,"is_reserved":false,"is_disabled":false,"rental_uris":{"android":"levelo://app?vid=7e9c03f1-34ca-4c5b-a621-1e1537e4f735","ios":"levelo://app?vid=7e9c03f1-34ca-4c5b-a621-1e1537e4f735"},"vehicle_type_id":"4","last_reported":1720379172,"current_range_meters":5600,"station_id":"ce4bhf92rcd13ifvqf50","pricing_plan_id":"cebpf4jnsgd1na2vs0mg"},{"bike_id":"9c6f66ba-7fba-4f78-9ac7-25b7bacc7310","system_id":"levelo_inurba_marseille","lat":43.279087,"lon":5.380114,"is_reserved":false,"is_disabled":false,"rental_uris":{"android":"levelo://app?vid=9c6f66ba-7fba-4f78-9ac7-25b7bacc7310","ios":"levelo://app?vid=9c6f66ba-7fba-4f78-9ac7-25b7bacc7310"},"vehicle_type_id":"4","last_reported":1720379172,"current_range_meters":7600,"station_id":"ce4bhf92rcd13ifvqf50","pricing_plan_id":"cebpf4jnsgd1na2vs0mg"},{"bike_id":"dd086ee8-2ab8-498a-8aba-0e2ce742def1","system_id":"levelo_inurba_marseille","lat":43.279087,"lon":5.380114,"is_reserved":false,"is_disabled":false,"rental_uris":{"android":"levelo://app?vid=dd086ee8-2ab8-498a-8aba-0e2ce742def1","ios":"levelo://app?vid=dd086ee8-2ab8-498a-8aba-0e2ce742def1"},"vehicle_type_id":"4","last_reported":1720379172,"current_range_meters":0,"station_id":"ce4bhf92rcd13ifvqf50","pricing_plan_id":"cebpf4jnsgd1na2vs0mg"},{"bike_id":"65875d16-6718-4ba3-8be5-b135a7f38a79","system_id":"levelo_inurba_marseille","lat":43.287154,"lon":5.399979,"is_reserved":false,"is_disabled":false,"rental_uris":{"android":"levelo://app?vid=65875d16-6718-4ba3-8be5-b135a7f38a79","ios":"levelo://app?vid=65875d16-6718-4ba3-8be5-b135a7f38a79"},"vehicle_type_id":"4","last_reported":1720379172,"current_range_meters":27200,"station_id":"ce4bho92rcd13ifvqh3g","pricing_plan_id":"cebpf4jnsgd1na2vs0mg"},{"bike_id":"6f42e29a-dbc8-4c59-a5fc-87fdc1ee5795","system_id":"levelo_inurba_marseille","lat":43.287154,"lon":5.399979,"is_reserved":false,"is_disabled":false,"rental_uris":{"android":"levelo://app?vid=6f42e29a-dbc8-4c59-a5fc-87fdc1ee5795","ios":"levelo://app?vid=6f42e29a-dbc8-4c59-a5fc-87fdc1ee5795"},"vehicle_type_id":"4","last_reported":1720379172,"current_range_meters":400,"station_id":"ce4bho92rcd13ifvqh3g","pricing_plan_id":"cebpf4jnsgd1na2vs0mg"},{"bike_id":"7a6ee590-816c-4c53-a090-2423a834231f","system_id":"levelo_inurba_marseille","lat":43.27908,"lon":5.382823,"is_reserved":false,"is_disabled":false,"rental_uris":{"android":"levelo://app?vid=7a6ee590-816c-4c53-a090-2423a834231f","ios":"levelo://app?vid=7a6ee590-816c-4c53-a090-2423a834231f"},"vehicle_type_id":"4","last_reported":1720379172,"current_range_meters":7600,"station_id":"","pricing_plan_id":"cebpf4jnsgd1na2vs0mg"},{"bike_id":"1e5ca607-345f-4340-ad12-5164cdb507af","system_id":"levelo_inurba_marseille","lat":43.27847,"lon":5.38057,"is_reserved":false,"is_disabled":false,"rental_uris":{"android":"levelo://app?vid=1e5ca607-345f-4340-ad12-5164cdb507af","ios":"levelo://app?vid=1e5ca607-345f-4340-ad12-5164cdb507af"},"vehicle_type_id":"4","last_reported":1720379172,"current_range_meters":12800,"station_id":"","pricing_plan_id":"cebpf4jnsgd1na2vs0mg"},{"bike_id":"1c808ff0-8c75-4feb-95aa-205e629d6c8b","system_id":"levelo_inurba_marseille","lat":43.299577,"lon":5.413277,"is_reserved":false,"is_disabled":false,"rental_uris":{"android":"levelo://app?vid=1c808ff0-8c75-4feb-95aa-205e629d6c8b","ios":"levelo://app?vid=1c808ff0-8c75-4feb-95aa-205e629d6c8b"},"vehicle_type_id":"4","last_reported":1720379172,"current_range_meters":21200,"station_id":"ce4bhp12rcd13ifvqh9g","pricing_plan_id":"cebpf4jnsgd1na2vs0mg"},{"bike_id":"e4593f0b-ebe2-4e96-b47d-805c30b73462","system_id":"levelo_inurba_marseille","lat":43.279514,"lon":5.386932,"is_reserved":false,"is_disabled":false,"rental_uris":{"android":"levelo://app?vid=e4593f0b-ebe2-4e96-b47d-805c30b73462","ios":"levelo://app?vid=e4593f0b-ebe2-4e96-b47d-805c30b73462"},"vehicle_type_id":"4","last_reported":1720379172,"current_range_meters":0,"station_id":"ce4bhg12rcd13ifvqf80","pricing_plan_id":"cebpf4jnsgd1na2vs0mg"},{"bike_id":"a91166fd-97a8-4e11-9761-4f16e97f0358","system_id":"levelo_inurba_marseille","lat":43.279742,"lon":5.38744,"is_reserved":false,"is_disabled":false,"rental_uris":{"android":"levelo://app?vid=a91166fd-97a8-4e11-9761-4f16e97f0358","ios":"levelo://app?vid=a91166fd-97a8-4e11-9761-4f16e97f0358"},"vehicle_type_id":"4","last_reported":1720379172,"current_range_meters":20800,"station_id":"ce4bhg12rcd13ifvqf80","pricing_plan_id":"cebpf4jnsgd1na2vs0mg"},{"bike_id":"d8b17e21-fdad-414f-a563-c9eb18e1ed96","system_id":"levelo_inurba_marseille","lat":43.27931,"lon":5.38679,"is_reserved":false,"is_disabled":false,"rental_uris":{"android":"levelo://app?vid=d8b17e21-fdad-414f-a563-c9eb18e1ed96","ios":"levelo://app?vid=d8b17e21-fdad-414f-a563-c9eb18e1ed96"},"vehicle_type_id":"4","last_reported":1720379172,"current_range_meters":3600,"station_id":"","pricing_plan_id":"cebpf4jnsgd1na2vs0mg"},{"bike_id":"68686679-2d9d-4587-92df-9805b7d20f12","system_id":"levelo_inurba_marseille","lat":43.292569,"lon":5.409107,"is_reserved":false,"is_disabled":false,"rental_uris":{"android":"levelo://app?vid=68686679-2d9d-4587-92df-9805b7d20f12","ios":"levelo://app?vid=68686679-2d9d-4587-92df-9805b7d20f12"},"vehicle_type_id":"4","last_reported":1720379172,"current_range_meters":0,"station_id":"ce4bh192rcd13ifvqdc0","pricing_plan_id":"cebpf4jnsgd1na2vs0mg"},{"bike_id":"e28182f7-75d3-4119-94d6-7e1d2d0e127a","system_id":"levelo_inurba_marseille","lat":43.276179,"lon":5.361009,"is_reserved":false,"is_disabled":false,"rental_uris":{"android":"levelo://app?vid=e28182f7-75d3-4119-94d6-7e1d2d0e127a","ios":"levelo://app?vid=e28182f7-75d3-4119-94d6-7e1d2d0e127a"},"vehicle_type_id":"4","last_reported":1720379172,"current_range_meters":30000,"station_id":"ce4bgj92rcd13ifvqbe0","pricing_plan_id":"cebpf4jnsgd1na2vs0mg"},{"bike_id":"382a8291-49e8-486c-9c7d-ce244b6a3ff4","system_id":"levelo_inurba_marseille","lat":43.276155,"lon":5.36104,"is_reserved":false,"is_disabled":false,"rental_uris":{"android":"levelo://app?vid=382a8291-49e8-486c-9c7d-ce244b6a3ff4","ios":"levelo://app?vid=382a8291-49e8-486c-9c7d-ce244b6a3ff4"},"vehicle_type_id":"4","last_reported":1720379172,"current_range_meters":0,"station_id":"ce4bgj92rcd13ifvqbe0","pricing_plan_id":"cebpf4jnsgd1na2vs0mg"},{"bike_id":"ea9c163f-6ede-48eb-8497-5d623b8c86be","system_id":"levelo_inurba_marseille","lat":43.28084,"lon":5.39664,"is_reserved":false,"is_disabled":false,"rental_uris":{"android":"levelo://app?vid=ea9c163f-6ede-48eb-8497-5d623b8c86be","ios":"levelo://app?vid=ea9c163f-6ede-48eb-8497-5d623b8c86be"},"vehicle_type_id":"4","last_reported":1720379172,"current_range_meters":23200,"station_id":"ce4bho12rcd13ifvqh2g","pricing_plan_id":"cebpf4jnsgd1na2vs0mg"},{"bike_id":"030f9a75-f62e-409c-8d1d-60b40c299ffc","system_id":"levelo_inurba_marseille","lat":43.27381,"lon":5.3625,"is_reserved":false,"is_disabled":false,"rental_uris":{"android":"levelo://app?vid=030f9a75-f62e-409c-8d1d-60b40c299ffc","ios":"levelo://app?vid=030f9a75-f62e-409c-8d1d-60b40c299ffc"},"vehicle_type_id":"4","last_reported":1720379172,"current_range_meters":31200,"station_id":"ce4bhbh2rcd13ifvqeo0","pricing_plan_id":"cebpf4jnsgd1na2vs0mg"},{"bike_id":"5bee6d48-388c-440d-9bf4-8506876c494b","system_id":"levelo_inurba_marseille","lat":43.27379,"lon":5.36249,"is_reserved":false,"is_disabled":false,"rental_uris":{"android":"levelo://app?vid=5bee6d48-388c-440d-9bf4-8506876c494b","ios":"levelo://app?vid=5bee6d48-388c-440d-9bf4-8506876c494b"},"vehicle_type_id":"4","last_reported":1720379172,"current_range_meters":31200,"station_id":"ce4bhbh2rcd13ifvqeo0","pricing_plan_id":"cebpf4jnsgd1na2vs0mg"},{"bike_id":"6ba995d2-7b86-4089-b094-27a76eca155a","system_id":"levelo_inurba_marseille","lat":43.273613,"lon":5.362705,"is_reserved":false,"is_disabled":false,"rental_uris":{"android":"levelo://app?vid=6ba995d2-7b86-4089-b094-27a76eca155a","ios":"levelo://app?vid=6ba995d2-7b86-4089-b094-27a76eca155a"},"vehicle_type_id":"4","last_reported":1720379172,"current_range_meters":11200,"station_id":"ce4bhbh2rcd13ifvqeo0","pricing_plan_id":"cebpf4jnsgd1na2vs0mg"},{"bike_id":"aee6a518-670d-4dcb-94cd-4c8cb92fb38a","system_id":"levelo_inurba_marseille","lat":43.27377,"lon":5.36253,"is_reserved":false,"is_disabled":false,"rental_uris":{"android":"levelo://app?vid=aee6a518-670d-4dcb-94cd-4c8cb92fb38a","ios":"levelo://app?vid=aee6a518-670d-4dcb-94cd-4c8cb92fb38a"},"vehicle_type_id":"4","last_reported":1720379172,"current_range_meters":29600,"station_id":"ce4bhbh2rcd13ifvqeo0","pricing_plan_id":"cebpf4jnsgd1na2vs0mg"},{"bike_id":"5cefb57e-dec7-4ca5-b7ea-64a8faaf085c","system_id":"levelo_inurba_marseille","lat":43.27377,"lon":5.36252,"is_reserved":false,"is_disabled":false,"rental_uris":{"android":"levelo://app?vid=5cefb57e-dec7-4ca5-b7ea-64a8faaf085c","ios":"levelo://app?vid=5cefb57e-dec7-4ca5-b7ea-64a8faaf085c"},"vehicle_type_id":"4","last_reported":1720379172,"current_range_meters":27600,"station_id":"ce4bhbh2rcd13ifvqeo0","pricing_plan_id":"cebpf4jnsgd1na2vs0mg"},{"bike_id":"4e3c1ca5-22eb-476e-a5bb-65b05a06b3be","system_id":"levelo_inurba_marseille","lat":43.27377,"lon":5.36252,"is_reserved":false,"is_disabled":false,"rental_uris":{"android":"levelo://app?vid=4e3c1ca5-22eb-476e-a5bb-65b05a06b3be","ios":"levelo://app?vid=4e3c1ca5-22eb-476e-a5bb-65b05a06b3be"},"vehicle_type_id":"4","last_reported":1720379172,"current_range_meters":30800,"station_id":"ce4bhbh2rcd13ifvqeo0","pricing_plan_id":"cebpf4jnsgd1na2vs0mg"},{"bike_id":"b0f5c153-3247-4c15-94ce-929fda825380","system_id":"levelo_inurba_marseille","lat":43.27377,"lon":5.36245,"is_reserved":false,"is_disabled":false,"rental_uris":{"android":"levelo://app?vid=b0f5c153-3247-4c15-94ce-929fda825380","ios":"levelo://app?vid=b0f5c153-3247-4c15-94ce-929fda825380"},"vehicle_type_id":"4","last_reported":1720379172,"current_range_meters":26400,"station_id":"ce4bhbh2rcd13ifvqeo0","pricing_plan_id":"cebpf4jnsgd1na2vs0mg"},{"bike_id":"fe5d47b6-8b89-4804-be02-121b923ad35b","system_id":"levelo_inurba_marseille","lat":43.273752,"lon":5.362591,"is_reserved":false,"is_disabled":false,"rental_uris":{"android":"levelo://app?vid=fe5d47b6-8b89-4804-be02-121b923ad35b","ios":"levelo://app?vid=fe5d47b6-8b89-4804-be02-121b923ad35b"},"vehicle_type_id":"4","last_reported":1720379172,"current_range_meters":10400,"station_id":"ce4bhbh2rcd13ifvqeo0","pricing_plan_id":"cebpf4jnsgd1na2vs0mg"},{"bike_id":"372b631c-ec56-4517-a81b-df5b2bb2bea3","system_id":"levelo_inurba_marseille","lat":43.27375,"lon":5.36253,"is_reserved":false,"is_disabled":false,"rental_uris":{"android":"levelo://app?vid=372b631c-ec56-4517-a81b-df5b2bb2bea3","ios":"levelo://app?vid=372b631c-ec56-4517-a81b-df5b2bb2bea3"},"vehicle_type_id":"4","last_reported":1720379172,"current_range_meters":25600,"station_id":"ce4bhbh2rcd13ifvqeo0","pricing_plan_id":"cebpf4jnsgd1na2vs0mg"},{"bike_id":"b1d5bfd8-d3f6-471d-924f-924a318cae88","system_id":"levelo_inurba_marseille","lat":43.273739,"lon":5.362485,"is_reserved":false,"is_disabled":false,"rental_uris":{"android":"levelo://app?vid=b1d5bfd8-d3f6-471d-924f-924a318cae88","ios":"levelo://app?vid=b1d5bfd8-d3f6-471d-924f-924a318cae88"},"vehicle_type_id":"4","last_reported":1720379172,"current_range_meters":29600,"station_id":"ce4bhbh2rcd13ifvqeo0","pricing_plan_id":"cebpf4jnsgd1na2vs0mg"},{"bike_id":"a42125eb-813c-4768-9d76-ff019c69487b","system_id":"levelo_inurba_marseille","lat":43.27374,"lon":5.36235,"is_reserved":false,"is_disabled":false,"rental_uris":{"android":"levelo://app?vid=a42125eb-813c-4768-9d76-ff019c69487b","ios":"levelo://app?vid=a42125eb-813c-4768-9d76-ff019c69487b"},"vehicle_type_id":"4","last_reported":1720379172,"current_range_meters":31200,"station_id":"ce4bhbh2rcd13ifvqeo0","pricing_plan_id":"cebpf4jnsgd1na2vs0mg"},{"bike_id":"ff673b66-6d06-4bad-aff8-3fed648c5b68","system_id":"levelo_inurba_marseille","lat":43.275667,"lon":5.384193,"is_reserved":false,"is_disabled":false,"rental_uris":{"android":"levelo://app?vid=ff673b66-6d06-4bad-aff8-3fed648c5b68","ios":"levelo://app?vid=ff673b66-6d06-4bad-aff8-3fed648c5b68"},"vehicle_type_id":"4","last_reported":1720379172,"current_range_meters":0,"station_id":"ce4bhh92rcd13ifvqfi0","pricing_plan_id":"cebpf4jnsgd1na2vs0mg"},{"bike_id":"e05d4a1d-ccc9-4d2c-894b-0ca4b182975a","system_id":"levelo_inurba_marseille","lat":43.27373,"lon":5.36245,"is_reserved":false,"is_disabled":false,"rental_uris":{"android":"levelo://app?vid=e05d4a1d-ccc9-4d2c-894b-0ca4b182975a","ios":"levelo://app?vid=e05d4a1d-ccc9-4d2c-894b-0ca4b182975a"},"vehicle_type_id":"4","last_reported":1720379172,"current_range_meters":31200,"station_id":"ce4bhbh2rcd13ifvqeo0","pricing_plan_id":"cebpf4jnsgd1na2vs0mg"},{"bike_id":"4b7952e1-84d9-48ea-aab7-c9705244843f","system_id":"levelo_inurba_marseille","lat":43.273609,"lon":5.362708,"is_reserved":false,"is_disabled":false,"rental_uris":{"android":"levelo://app?vid=4b7952e1-84d9-48ea-aab7-c9705244843f","ios":"levelo://app?vid=4b7952e1-84d9-48ea-aab7-c9705244843f"},"vehicle_type_id":"4","last_reported":1720379172,"current_range_meters":31200,"station_id":"ce4bhbh2rcd13ifvqeo0","pricing_plan_id":"cebpf4jnsgd1na2vs0mg"},{"bike_id":"5fc41c2a-6444-49c0-86b6-535662aa99e5","system_id":"levelo_inurba_marseille","lat":43.27563,"lon":5.38413,"is_reserved":false,"is_disabled":false,"rental_uris":{"android":"levelo://app?vid=5fc41c2a-6444-49c0-86b6-535662aa99e5","ios":"levelo://app?vid=5fc41c2a-6444-49c0-86b6-535662aa99e5"},"vehicle_type_id":"4","last_reported":1720379172,"current_range_meters":0,"station_id":"ce4bhh92rcd13ifvqfi0","pricing_plan_id":"cebpf4jnsgd1na2vs0mg"},{"bike_id":"c46f2724-0c33-45b1-9492-8ff48798035f","system_id":"levelo_inurba_marseille","lat":43.2737,"lon":5.36257,"is_reserved":false,"is_disabled":false,"rental_uris":{"android":"levelo://app?vid=c46f2724-0c33-45b1-9492-8ff48798035f","ios":"levelo://app?vid=c46f2724-0c33-45b1-9492-8ff48798035f"},"vehicle_type_id":"4","last_reported":1720379172,"current_range_meters":29600,"station_id":"ce4bhbh2rcd13ifvqeo0","pricing_plan_id":"cebpf4jnsgd1na2vs0mg"},{"bike_id":"62a60110-c344-4e76-98bb-cd38db82b74c","system_id":"levelo_inurba_marseille","lat":43.273609,"lon":5.362708,"is_reserved":false,"is_disabled":false,"rental_uris":{"android":"levelo://app?vid=62a60110-c344-4e76-98bb-cd38db82b74c","ios":"levelo://app?vid=62a60110-c344-4e76-98bb-cd38db82b74c"},"vehicle_type_id":"4","last_reported":1720379172,"current_range_meters":24000,"station_id":"ce4bhbh2rcd13ifvqeo0","pricing_plan_id":"cebpf4jnsgd1na2vs0mg"},{"bike_id":"f5ecbd2a-bc5b-4941-baad-637d9a281a5d","system_id":"levelo_inurba_marseille","lat":43.27367,"lon":5.36252,"is_reserved":false,"is_disabled":false,"rental_uris":{"android":"levelo://app?vid=f5ecbd2a-bc5b-4941-baad-637d9a281a5d","ios":"levelo://app?vid=f5ecbd2a-bc5b-4941-baad-637d9a281a5d"},"vehicle_type_id":"4","last_reported":1720379172,"current_range_meters":31200,"station_id":"ce4bhbh2rcd13ifvqeo0","pricing_plan_id":"cebpf4jnsgd1na2vs0mg"},{"bike_id":"97ab271c-9f97-4b8f-b126-e4ac9a9bbcde","system_id":"levelo_inurba_marseille","lat":43.279185,"lon":5.395692,"is_reserved":false,"is_disabled":false,"rental_uris":{"android":"levelo://app?vid=97ab271c-9f97-4b8f-b126-e4ac9a9bbcde","ios":"levelo://app?vid=97ab271c-9f97-4b8f-b126-e4ac9a9bbcde"},"vehicle_type_id":"4","last_reported":1720379172,"current_range_meters":0,"station_id":"ce4bhf92rcd13ifvqf40","pricing_plan_id":"cebpf4jnsgd1na2vs0mg"},{"bike_id":"6794011d-688c-4c1c-a763-585ac4552f19","system_id":"levelo_inurba_marseille","lat":43.35235,"lon":5.366965,"is_reserved":false,"is_disabled":false,"rental_uris":{"android":"levelo://app?vid=6794011d-688c-4c1c-a763-585ac4552f19","ios":"levelo://app?vid=6794011d-688c-4c1c-a763-585ac4552f19"},"vehicle_type_id":"4","last_reported":1720379172,"current_range_meters":17200,"station_id":"","pricing_plan_id":"cebpf4jnsgd1na2vs0mg"},{"bike_id":"50af3ece-858f-4ed5-942b-6c4ee00fba1b","system_id":"levelo_inurba_marseille","lat":43.27503,"lon":5.38931,"is_reserved":false,"is_disabled":false,"rental_uris":{"android":"levelo://app?vid=50af3ece-858f-4ed5-942b-6c4ee00fba1b","ios":"levelo://app?vid=50af3ece-858f-4ed5-942b-6c4ee00fba1b"},"vehicle_type_id":"4","last_reported":1720379172,"current_range_meters":0,"station_id":"","pricing_plan_id":"cebpf4jnsgd1na2vs0mg"},{"bike_id":"a1c77f5e-f042-4d4b-b349-02e8505a8a1b","system_id":"levelo_inurba_marseille","lat":43.29808,"lon":5.41981,"is_reserved":false,"is_disabled":false,"rental_uris":{"android":"levelo://app?vid=a1c77f5e-f042-4d4b-b349-02e8505a8a1b","ios":"levelo://app?vid=a1c77f5e-f042-4d4b-b349-02e8505a8a1b"},"vehicle_type_id":"4","last_reported":1720379172,"current_range_meters":0,"station_id":"","pricing_plan_id":"cebpf4jnsgd1na2vs0mg"},{"bike_id":"bc278ea2-83c0-4991-aa95-6a0b71fe7d21","system_id":"levelo_inurba_marseille","lat":43.310785,"lon":5.424305,"is_reserved":false,"is_disabled":false,"rental_uris":{"android":"levelo://app?vid=bc278ea2-83c0-4991-aa95-6a0b71fe7d21","ios":"levelo://app?vid=bc278ea2-83c0-4991-aa95-6a0b71fe7d21"},"vehicle_type_id":"4","last_reported":1720379172,"current_range_meters":21200,"station_id":"ce4bhp92rcd13ifvqhag","pricing_plan_id":"cebpf4jnsgd1na2vs0mg"},{"bike_id":"96885a4f-c0a4-491d-a6e7-23d1f2d2b174","system_id":"levelo_inurba_marseille","lat":43.310785,"lon":5.424305,"is_reserved":false,"is_disabled":false,"rental_uris":{"android":"levelo://app?vid=96885a4f-c0a4-491d-a6e7-23d1f2d2b174","ios":"levelo://app?vid=96885a4f-c0a4-491d-a6e7-23d1f2d2b174"},"vehicle_type_id":"4","last_reported":1720379172,"current_range_meters":12400,"station_id":"ce4bhp92rcd13ifvqhag","pricing_plan_id":"cebpf4jnsgd1na2vs0mg"},{"bike_id":"ee104e94-ffd4-4ad5-8f2e-28311b8dcaff","system_id":"levelo_inurba_marseille","lat":43.295523,"lon":5.422926,"is_reserved":false,"is_disabled":false,"rental_uris":{"android":"levelo://app?vid=ee104e94-ffd4-4ad5-8f2e-28311b8dcaff","ios":"levelo://app?vid=ee104e94-ffd4-4ad5-8f2e-28311b8dcaff"},"vehicle_type_id":"4","last_reported":1720379172,"current_range_meters":24400,"station_id":"ce4bhph2rcd13ifvqhdg","pricing_plan_id":"cebpf4jnsgd1na2vs0mg"},{"bike_id":"eff67d35-6d7e-4bcf-9a66-657436f0b878","system_id":"levelo_inurba_marseille","lat":43.295523,"lon":5.422926,"is_reserved":false,"is_disabled":false,"rental_uris":{"android":"levelo://app?vid=eff67d35-6d7e-4bcf-9a66-657436f0b878","ios":"levelo://app?vid=eff67d35-6d7e-4bcf-9a66-657436f0b878"},"vehicle_type_id":"4","last_reported":1720379172,"current_range_meters":20000,"station_id":"ce4bhph2rcd13ifvqhdg","pricing_plan_id":"cebpf4jnsgd1na2vs0mg"},{"bike_id":"fda82aaa-02c0-429a-af48-97909677a8bb","system_id":"levelo_inurba_marseille","lat":43.295523,"lon":5.422926,"is_reserved":false,"is_disabled":false,"rental_uris":{"android":"levelo://app?vid=fda82aaa-02c0-429a-af48-97909677a8bb","ios":"levelo://app?vid=fda82aaa-02c0-429a-af48-97909677a8bb"},"vehicle_type_id":"4","last_reported":1720379172,"current_range_meters":0,"station_id":"ce4bhph2rcd13ifvqhdg","pricing_plan_id":"cebpf4jnsgd1na2vs0mg"},{"bike_id":"d2d95581-d89e-4061-b3f7-00f28ff52aa9","system_id":"levelo_inurba_marseille","lat":43.295511,"lon":5.422926,"is_reserved":false,"is_disabled":false,"rental_uris":{"android":"levelo://app?vid=d2d95581-d89e-4061-b3f7-00f28ff52aa9","ios":"levelo://app?vid=d2d95581-d89e-4061-b3f7-00f28ff52aa9"},"vehicle_type_id":"4","last_reported":1720379172,"current_range_meters":13600,"station_id":"ce4bhph2rcd13ifvqhdg","pricing_plan_id":"cebpf4jnsgd1na2vs0mg"},{"bike_id":"9510b143-c6e2-4320-bda0-ae35d0208296","system_id":"levelo_inurba_marseille","lat":43.295511,"lon":5.422926,"is_reserved":false,"is_disabled":false,"rental_uris":{"android":"levelo://app?vid=9510b143-c6e2-4320-bda0-ae35d0208296","ios":"levelo://app?vid=9510b143-c6e2-4320-bda0-ae35d0208296"},"vehicle_type_id":"4","last_reported":1720379172,"current_range_meters":0,"station_id":"ce4bhph2rcd13ifvqhdg","pricing_plan_id":"cebpf4jnsgd1na2vs0mg"},{"bike_id":"9a52678e-6bda-4421-92d1-93123c21719a","system_id":"levelo_inurba_marseille","lat":43.278128,"lon":5.407195,"is_reserved":false,"is_disabled":false,"rental_uris":{"android":"levelo://app?vid=9a52678e-6bda-4421-92d1-93123c21719a","ios":"levelo://app?vid=9a52678e-6bda-4421-92d1-93123c21719a"},"vehicle_type_id":"4","last_reported":1720379172,"current_range_meters":0,"station_id":"ce4bhnh2rcd13ifvqgtg","pricing_plan_id":"cebpf4jnsgd1na2vs0mg"},{"bike_id":"7ce31ca0-8149-4aa1-b23d-7a690d3c5557","system_id":"levelo_inurba_marseille","lat":43.278128,"lon":5.407195,"is_reserved":false,"is_disabled":false,"rental_uris":{"android":"levelo://app?vid=7ce31ca0-8149-4aa1-b23d-7a690d3c5557","ios":"levelo://app?vid=7ce31ca0-8149-4aa1-b23d-7a690d3c5557"},"vehicle_type_id":"4","last_reported":1720379172,"current_range_meters":13200,"station_id":"ce4bhnh2rcd13ifvqgtg","pricing_plan_id":"cebpf4jnsgd1na2vs0mg"},{"bike_id":"35bab625-52b0-42ee-a597-e9eca46091a4","system_id":"levelo_inurba_marseille","lat":43.27814,"lon":5.40711,"is_reserved":false,"is_disabled":false,"rental_uris":{"android":"levelo://app?vid=35bab625-52b0-42ee-a597-e9eca46091a4","ios":"levelo://app?vid=35bab625-52b0-42ee-a597-e9eca46091a4"},"vehicle_type_id":"4","last_reported":1720379172,"current_range_meters":0,"station_id":"ce4bhnh2rcd13ifvqgtg","pricing_plan_id":"cebpf4jnsgd1na2vs0mg"},{"bike_id":"b786d659-a783-4982-82bc-57ca2926ee52","system_id":"levelo_inurba_marseille","lat":43.278128,"lon":5.407195,"is_reserved":false,"is_disabled":false,"rental_uris":{"android":"levelo://app?vid=b786d659-a783-4982-82bc-57ca2926ee52","ios":"levelo://app?vid=b786d659-a783-4982-82bc-57ca2926ee52"},"vehicle_type_id":"4","last_reported":1720379172,"current_range_meters":0,"station_id":"ce4bhnh2rcd13ifvqgtg","pricing_plan_id":"cebpf4jnsgd1na2vs0mg"},{"bike_id":"b9a0c2f6-bdb3-400b-8168-09834608e3de","system_id":"levelo_inurba_marseille","lat":43.269467,"lon":5.386439,"is_reserved":false,"is_disabled":false,"rental_uris":{"android":"levelo://app?vid=b9a0c2f6-bdb3-400b-8168-09834608e3de","ios":"levelo://app?vid=b9a0c2f6-bdb3-400b-8168-09834608e3de"},"vehicle_type_id":"4","last_reported":1720379172,"current_range_meters":1200,"station_id":"ce4bhh92rcd13ifvqfh0","pricing_plan_id":"cebpf4jnsgd1na2vs0mg"},{"bike_id":"542d6fc2-9298-4c57-8c0c-296d3e8fb25c","system_id":"levelo_inurba_marseille","lat":43.27946,"lon":5.41042,"is_reserved":false,"is_disabled":false,"rental_uris":{"android":"levelo://app?vid=542d6fc2-9298-4c57-8c0c-296d3e8fb25c","ios":"levelo://app?vid=542d6fc2-9298-4c57-8c0c-296d3e8fb25c"},"vehicle_type_id":"4","last_reported":1720379172,"current_range_meters":0,"station_id":"ce4bhnp2rcd13ifvqh0g","pricing_plan_id":"cebpf4jnsgd1na2vs0mg"},{"bike_id":"1113ad85-f959-4ba7-8f44-ce32f04fa370","system_id":"levelo_inurba_marseille","lat":43.35393,"lon":5.33631,"is_reserved":false,"is_disabled":false,"rental_uris":{"android":"levelo://app?vid=1113ad85-f959-4ba7-8f44-ce32f04fa370","ios":"levelo://app?vid=1113ad85-f959-4ba7-8f44-ce32f04fa370"},"vehicle_type_id":"4","last_reported":1720379172,"current_range_meters":6800,"station_id":"","pricing_plan_id":"cebpf4jnsgd1na2vs0mg"},{"bike_id":"62db7c11-383d-4a54-9b01-9ef2675a2860","system_id":"levelo_inurba_marseille","lat":43.291449,"lon":5.425901,"is_reserved":false,"is_disabled":false,"rental_uris":{"android":"levelo://app?vid=62db7c11-383d-4a54-9b01-9ef2675a2860","ios":"levelo://app?vid=62db7c11-383d-4a54-9b01-9ef2675a2860"},"vehicle_type_id":"4","last_reported":1720379172,"current_range_meters":7200,"station_id":"","pricing_plan_id":"cebpf4jnsgd1na2vs0mg"},{"bike_id":"456f46dd-c95a-4c37-ad25-d81c10b0c3df","system_id":"levelo_inurba_marseille","lat":43.289735,"lon":5.425479,"is_reserved":false,"is_disabled":false,"rental_uris":{"android":"levelo://app?vid=456f46dd-c95a-4c37-ad25-d81c10b0c3df","ios":"levelo://app?vid=456f46dd-c95a-4c37-ad25-d81c10b0c3df"},"vehicle_type_id":"4","last_reported":1720379172,"current_range_meters":6800,"station_id":"","pricing_plan_id":"cebpf4jnsgd1na2vs0mg"},