{"last_updated":1758824170,"ttl":60,"version":"2.2","data":{"bikes":[{"bike_id":"9b2adb6c-a019-43a8-9fc5-cac99c15864e","system_id":"levelo_inurba_marseille","lat":43.30792,"lon":5.38165,"is_reserved":false,"is_disabled":false,"rental_uris":{"android":"levelo://app?vid=9b2adb6c-a019-43a8-9fc5-cac99c15864e","ios":"levelo://app?vid=9b2adb6c-a019-43a8-9fc5-cac99c15864e"},"vehicle_type_id":"4","last_reported":1758824170,"current_range_meters":2000,"station_id":"ce4bgt12rcd13ifvqce0","pricing_plan_id":"cebpf4jnsgd1na2vs0mg"},{"bike_id":"c5eceeb1-8179-4c60-9008-f317aa0f8101","system_id":"levelo_inurba_marseille","lat":43.29079,"lon":5.37122,"is_reserved":false,"is_disabled":true,"rental_uris":{"android":"levelo://app?vid=c5eceeb1-8179-4c60-9008-f317aa0f8101","ios":"levelo://app?vid=c5eceeb1-8179-4c60-9008-f317aa0f8101"},"vehicle_type_id":"4","last_reported":1758824170,"current_range_meters":2800,"station_id":"ce4bh5p2rcd13ifvqe4g","pricing_plan_id":"cebpf4jnsgd1na2vs0mg"},{"bike_id":"18493498-cc95-4feb-8e27-c70604ae336a","system_id":"levelo_inurba_marseille","lat":43.29029,"lon":5.38645,"is_reserved":false,"is_disabled":false,"rental_uris":{"android":"levelo://app?vid=18493498-cc95-4feb-8e27-c70604ae336a","ios":"levelo://app?vid=18493498-cc95-4feb-8e27-c70604ae336a"},"vehicle_type_id":"4","last_reported":1758824170,"current_range_meters":2800,"station_id":"ce4bh4p2rcd13ifvqe0g","pricing_plan_id":"cebpf4jnsgd1na2vs0mg"},{"bike_id":"dfa2e0eb-c01c-40f5-bdf0-94cf19dc56f0","system_id":"levelo_inurba_marseille","lat":43.25082,"lon":5.39549,"is_reserved":false,"is_disabled":true,"rental_uris":{"android":"levelo://app?vid=dfa2e0eb-c01c-40f5-bdf0-94cf19dc56f0","ios":"levelo://app?vid=dfa2e0eb-c01c-40f5-bdf0-94cf19dc56f0"},"vehicle_type_id":"4","last_reported":1758824170,"current_range_meters":2800,"station_id":"ce4bhm12rcd13ifvqgkg","pricing_plan_id":"cebpf4jnsgd1na2vs0mg"},{"bike_id":"ff00ea69-6fc0-44c9-92e4-c77e1c073134","system_id":"levelo_inurba_marseille","lat":43.29044,"lon":5.38683,"is_reserved":false,"is_disabled":false,"rental_uris":{"android":"levelo://app?vid=ff00ea69-6fc0-44c9-92e4-c77e1c073134","ios":"levelo://app?vid=ff00ea69-6fc0-44c9-92e4-c77e1c073134"},"vehicle_type_id":"4","last_reported":1758824170,"current_range_meters":2800,"station_id":"ce4bh4p2rcd13ifvqe0g","pricing_plan_id":"cebpf4jnsgd1na2vs0mg"},{"bike_id":"8a75e316-5575-4d4d-93f3-0d0218d12c60","system_id":"levelo_inurba_marseille","lat":43.31999,"lon":5.38153,"is_reserved":false,"is_disabled":false,"rental_uris":{"android":"levelo://app?vid=8a75e316-5575-4d4d-93f3-0d0218d12c60","ios":"levelo://app?vid=8a75e316-5575-4d4d-93f3-0d0218d12c60"},"vehicle_type_id":"4","last_reported":1758824170,"current_range_meters":2800,"station_id":"ce4bhr12rcd13ifvqhpg","pricing_plan_id":"cebpf4jnsgd1na2vs0mg"},{"bike_id":"a2f7569b-9474-403e-9474-d215112ab239","system_id":"levelo_inurba_marseille","lat":43.29516,"lon":5.39411,"is_reserved":false,"is_disabled":false,"rental_uris":{"android":"levelo://app?vid=a2f7569b-9474-403e-9474-d215112ab239","ios":"levelo://app?vid=a2f7569b-9474-403e-9474-d215112ab239"},"vehicle_type_id":"4","last_reported":1758824170,"current_range_meters":3200,"station_id":"","pricing_plan_id":"cebpf4jnsgd1na2vs0mg"},{"bike_id":"7a378bf3-d4bd-44ed-9dcb-52eb3e7d6a4e","system_id":"levelo_inurba_marseille","lat":43.29753,"lon":5.3889,"is_reserved":false,"is_disabled":false,"rental_uris":{"android":"levelo://app?vid=7a378bf3-d4bd-44ed-9dcb-52eb3e7d6a4e","ios":"levelo://app?vid=7a378bf3-d4bd-44ed-9dcb-52eb3e7d6a4e"},"vehicle_type_id":"4","last_reported":1758824170,"current_range_meters":3200,"station_id":"","pricing_plan_id":"cebpf4jnsgd1na2vs0mg"},{"bike_id":"1efddf8d-578f-4e4c-8c3f-e3a8bd592ba4","system_id":"levelo_inurba_marseille","lat":43.29953,"lon":5.37317,"is_reserved":false,"is_disabled":false,"rental_uris":{"android":"levelo://app?vid=1efddf8d-578f-4e4c-8c3f-e3a8bd592ba4","ios":"levelo://app?vid=1efddf8d-578f-4e4c-8c3f-e3a8bd592ba4"},"vehicle_type_id":"4","last_reported":1758824170,"current_range_meters":3600,"station_id":"","pricing_plan_id":"cebpf4jnsgd1na2vs0mg"},{"bike_id":"d2919144-0fec-459a-8b2f-1aa0cb7c3850","system_id":"levelo_inurba_marseille","lat":43.336,"lon":5.4102,"is_reserved":false,"is_disabled":false,"rental_uris":{"android":"levelo://app?vid=d2919144-0fec-459a-8b2f-1aa0cb7c3850","ios":"levelo://app?vid=d2919144-0fec-459a-8b2f-1aa0cb7c3850"},"vehicle_type_id":"4","last_reported":1758824170,"current_range_meters":3600,"station_id":"ce4bhqh2rcd13ifvqhmg","pricing_plan_id":"cebpf4jnsgd1na2vs0mg"},{"bike_id":"a08814bc-9a72-4ec8-9229-88c4360ab406","system_id":"levelo_inurba_marseille","lat":43.27434,"lon":5.39416,"is_reserved":false,"is_disabled":false,"rental_uris":{"android":"levelo://app?vid=a08814bc-9a72-4ec8-9229-88c4360ab406","ios":"levelo://app?vid=a08814bc-9a72-4ec8-9229-88c4360ab406"},"vehicle_type_id":"4","last_reported":1758824170,"current_range_meters":3600,"station_id":"ce4bhdp2rcd13ifvqf20","pricing_plan_id":"cebpf4jnsgd1na2vs0mg"},{"bike_id":"47007103-1d5f-4e7a-94b8-229920ace1cb","system_id":"levelo_inurba_marseille","lat":43.3176,"lon":5.39021,"is_reserved":false,"is_disabled":false,"rental_uris":{"android":"levelo://app?vid=47007103-1d5f-4e7a-94b8-229920ace1cb","ios":"levelo://app?vid=47007103-1d5f-4e7a-94b8-229920ace1cb"},"vehicle_type_id":"4","last_reported":1758824170,"current_range_meters":4000,"station_id":"ce4bhqp2rcd13ifvqhng","pricing_plan_id":"cebpf4jnsgd1na2vs0mg"},{"bike_id":"040a1898-0253-4a37-8ac4-5b5035637c30","system_id":"levelo_inurba_marseille","lat":43.26493,"lon":5.39552,"is_reserved":false,"is_disabled":false,"rental_uris":{"android":"levelo://app?vid=040a1898-0253-4a37-8ac4-5b5035637c30","ios":"levelo://app?vid=040a1898-0253-4a37-8ac4-5b5035637c30"},"vehicle_type_id":"4","last_reported":1758824170,"current_range_meters":4000,"station_id":"ce4bhi12rcd13ifvqfq0","pricing_plan_id":"cebpf4jnsgd1na2vs0mg"},{"bike_id":"c3068d0a-66d8-487a-b7c8-96cb4d73ffb3","system_id":"levelo_inurba_marseille","lat":43.3266,"lon":5.40999,"is_reserved":false,"is_disabled":false,"rental_uris":{"android":"levelo://app?vid=c3068d0a-66d8-487a-b7c8-96cb4d73ffb3","ios":"levelo://app?vid=c3068d0a-66d8-487a-b7c8-96cb4d73ffb3"},"vehicle_type_id":"4","last_reported":1758824170,"current_range_meters":4000,"station_id":"ce4bhpp2rcd13ifvqhgg","pricing_plan_id":"cebpf4jnsgd1na2vs0mg"},{"bike_id":"3d476d69-4af4-40a8-8ecd-153d3d338261","system_id":"levelo_inurba_marseille","lat":43.27198,"lon":5.42873,"is_reserved":false,"is_disabled":false,"rental_uris":{"android":"levelo://app?vid=3d476d69-4af4-40a8-8ecd-153d3d338261","ios":"levelo://app?vid=3d476d69-4af4-40a8-8ecd-153d3d338261"},"vehicle_type_id":"4","last_reported":1758824170,"current_range_meters":4400,"station_id":"","pricing_plan_id":"cebpf4jnsgd1na2vs0mg"},{"bike_id":"7c0482c3-9253-4d1b-b4f3-be55cdb7721d","system_id":"levelo_inurba_marseille","lat":43.33757,"lon":5.37466,"is_reserved":false,"is_disabled":false,"rental_uris":{"android":"levelo://app?vid=7c0482c3-9253-4d1b-b4f3-be55cdb7721d","ios":"levelo://app?vid=7c0482c3-9253-4d1b-b4f3-be55cdb7721d"},"vehicle_type_id":"4","last_reported":1758824170,"current_range_meters":4400,"station_id":"","pricing_plan_id":"cebpf4jnsgd1na2vs0mg"},{"bike_id":"63f9eda9-b18d-4b8e-bb03-4947dfe99a71","system_id":"levelo_inurba_marseille","lat":43.30106,"lon":5.39844,"is_reserved":false,"is_disabled":false,"rental_uris":{"android":"levelo://app?vid=63f9eda9-b18d-4b8e-bb03-4947dfe99a71","ios":"levelo://app?vid=63f9eda9-b18d-4b8e-bb03-4947dfe99a71"},"vehicle_type_id":"4","last_reported":1758824170,"current_range_meters":4400,"station_id":"ce4bh0h2rcd13ifvqd40","pricing_plan_id":"cebpf4jnsgd1na2vs0mg"},{"bike_id":"f15ae51e-e88f-4b45-9ed3-46e3b302b33d","system_id":"levelo_inurba_marseille","lat":43.284593,"lon":5.358802,"is_reserved":false,"is_disabled":false,"rental_uris":{"android":"levelo://app?vid=f15ae51e-e88f-4b45-9ed3-46e3b302b33d","ios":"levelo://app?vid=f15ae51e-e88f-4b45-9ed3-46e3b302b33d"},"vehicle_type_id":"4","last_reported":1758824170,"current_range_meters":4000,"station_id":"ce4bhah2rcd13ifvqei0","pricing_plan_id":"cebpf4jnsgd1na2vs0mg"},{"bike_id":"6dcf2073-aa26-4d99-978b-619f995e4287","system_id":"levelo_inurba_marseille","lat":43.24954,"lon":5.40493,"is_reserved":false,"is_disabled":false,"rental_uris":{"android":"levelo://app?vid=6dcf2073-aa26-4d99-978b-619f995e4287","ios":"levelo://app?vid=6dcf2073-aa26-4d99-978b-619f995e4287"},"vehicle_type_id":"4","last_reported":1758824170,"current_range_meters":4400,"station_id":"st_d2ngiaodas8pm72gd1h0","pricing_plan_id":"cebpf4jnsgd1na2vs0mg"},{"bike_id":"c80e1f6e-41df-47e3-91cd-de5847cd5136","system_id":"levelo_inurba_marseille","lat":43.32321,"lon":5.39306,"is_reserved":false,"is_disabled":false,"rental_uris":{"android":"levelo://app?vid=c80e1f6e-41df-47e3-91cd-de5847cd5136","ios":"levelo://app?vid=c80e1f6e-41df-47e3-91cd-de5847cd5136"},"vehicle_type_id":"4","last_reported":1758824170,"current_range_meters":4400,"station_id":"","pricing_plan_id":"cebpf4jnsgd1na2vs0mg"},{"bike_id":"9e7a0a50-9359-4b48-a2eb-6161a654e0bd","system_id":"levelo_inurba_marseille","lat":43.26056,"lon":5.39401,"is_reserved":false,"is_disabled":false,"rental_uris":{"android":"levelo://app?vid=9e7a0a50-9359-4b48-a2eb-6161a654e0bd","ios":"levelo://app?vid=9e7a0a50-9359-4b48-a2eb-6161a654e0bd"},"vehicle_type_id":"4","last_reported":1758824170,"current_range_meters":4800,"station_id":"ce4bhh92rcd13ifvqfj0","pricing_plan_id":"cebpf4jnsgd1na2vs0mg"},{"bike_id":"62053565-e4b3-4e00-90de-bc6adf68d242","system_id":"levelo_inurba_marseille","lat":43.29527,"lon":5.38547,"is_reserved":false,"is_disabled":false,"rental_uris":{"android":"levelo://app?vid=62053565-e4b3-4e00-90de-bc6adf68d242","ios":"levelo://app?vid=62053565-e4b3-4e00-90de-bc6adf68d242"},"vehicle_type_id":"4","last_reported":1758824170,"current_range_meters":9600,"station_id":"ce4bgih2rcd13ifvqba0","pricing_plan_id":"cebpf4jnsgd1na2vs0mg"},{"bike_id":"d455f08b-456e-491b-b002-15f09f16c0fb","system_id":"levelo_inurba_marseille","lat":43.25833,"lon":5.39429,"is_reserved":false,"is_disabled":false,"rental_uris":{"android":"levelo://app?vid=d455f08b-456e-491b-b002-15f09f16c0fb","ios":"levelo://app?vid=d455f08b-456e-491b-b002-15f09f16c0fb"},"vehicle_type_id":"4","last_reported":1758824170,"current_range_meters":4800,"station_id":"ce4bhip2rcd13ifvqft0","pricing_plan_id":"cebpf4jnsgd1na2vs0mg"},{"bike_id":"44a2d7f7-02d1-4155-ae99-0234699e0d1d","system_id":"levelo_inurba_marseille","lat":43.28153,"lon":5.42632,"is_reserved":false,"is_disabled":false,"rental_uris":{"android":"levelo://app?vid=44a2d7f7-02d1-4155-ae99-0234699e0d1d","ios":"levelo://app?vid=44a2d7f7-02d1-4155-ae99-0234699e0d1d"},"vehicle_type_id":"4","last_reported":1758824170,"current_range_meters":4800,"station_id":"ce4bhnh2rcd13ifvqgug","pricing_plan_id":"cebpf4jnsgd1na2vs0mg"},{"bike_id":"8a85ee6b-78b8-461d-b465-1e1e97c9656b","system_id":"levelo_inurba_marseille","lat":43.31353,"lon":5.38489,"is_reserved":false,"is_disabled":false,"rental_uris":{"android":"levelo://app?vid=8a85ee6b-78b8-461d-b465-1e1e97c9656b","ios":"levelo://app?vid=8a85ee6b-78b8-461d-b465-1e1e97c9656b"},"vehicle_type_id":"4","last_reported":1758824170,"current_range_meters":4800,"station_id":"ce4bgt92rcd13ifvqcf0","pricing_plan_id":"cebpf4jnsgd1na2vs0mg"},{"bike_id":"84d86991-6e19-4079-91be-85da4766f62b","system_id":"levelo_inurba_marseille","lat":43.27053,"lon":5.4027,"is_reserved":false,"is_disabled":false,"rental_uris":{"android":"levelo://app?vid=84d86991-6e19-4079-91be-85da4766f62b","ios":"levelo://app?vid=84d86991-6e19-4079-91be-85da4766f62b"},"vehicle_type_id":"4","last_reported":1758824170,"current_range_meters":4800,"station_id":"ce4bhk92rcd13ifvqgc0","pricing_plan_id":"cebpf4jnsgd1na2vs0mg"},{"bike_id":"8e46f1a9-01fb-4252-9e22-e9eb527bbba3","system_id":"levelo_inurba_marseille","lat":43.30325,"lon":5.40429,"is_reserved":false,"is_disabled":false,"rental_uris":{"android":"levelo://app?vid=8e46f1a9-01fb-4252-9e22-e9eb527bbba3","ios":"levelo://app?vid=8e46f1a9-01fb-4252-9e22-e9eb527bbba3"},"vehicle_type_id":"4","last_reported":1758824170,"current_range_meters":4400,"station_id":"ce4bh012rcd13ifvqd10","pricing_plan_id":"cebpf4jnsgd1na2vs0mg"},{"bike_id":"939538dc-20bd-4d94-8a10-8e1e0a179bc7","system_id":"levelo_inurba_marseille","lat":43.30473,"lon":5.36658,"is_reserved":false,"is_disabled":false,"rental_uris":{"android":"levelo://app?vid=939538dc-20bd-4d94-8a10-8e1e0a179bc7","ios":"levelo://app?vid=939538dc-20bd-4d94-8a10-8e1e0a179bc7"},"vehicle_type_id":"4","last_reported":1758824170,"current_range_meters":5600,"station_id":"","pricing_plan_id":"cebpf4jnsgd1na2vs0mg"},{"bike_id":"cb3d83dd-8277-415b-bc5d-a118e1200728","system_id":"levelo_inurba_marseille","lat":43.30083,"lon":5.41046,"is_reserved":false,"is_disabled":false,"rental_uris":{"android":"levelo://app?vid=cb3d83dd-8277-415b-bc5d-a118e1200728","ios":"levelo://app?vid=cb3d83dd-8277-415b-bc5d-a118e1200728"},"vehicle_type_id":"4","last_reported":1758824170,"current_range_meters":5600,"station_id":"","pricing_plan_id":"cebpf4jnsgd1na2vs0mg"},{"bike_id":"b6691aa5-7ab9-4ba2-8940-ea5158d4c065","system_id":"levelo_inurba_marseille","lat":43.29517,"lon":5.39047,"is_reserved":false,"is_disabled":false,"rental_uris":{"android":"levelo://app?vid=b6691aa5-7ab9-4ba2-8940-ea5158d4c065","ios":"levelo://app?vid=b6691aa5-7ab9-4ba2-8940-ea5158d4c065"},"vehicle_type_id":"4","last_reported":1758824170,"current_range_meters":5600,"station_id":"ce4bh3p2rcd13ifvqdp0","pricing_plan_id":"cebpf4jnsgd1na2vs0mg"},{"bike_id":"36fce021-90b4-4dc3-8ea3-d6024faf8f05","system_id":"levelo_inurba_marseille","lat":43.28415,"lon":5.34982,"is_reserved":false,"is_disabled":false,"rental_uris":{"android":"levelo://app?vid=36fce021-90b4-4dc3-8ea3-d6024faf8f05","ios":"levelo://app?vid=36fce021-90b4-4dc3-8ea3-d6024faf8f05"},"vehicle_type_id":"4","last_reported":1758824170,"current_range_meters":5600,"station_id":"ce4bhbh2rcd13ifvqepg","pricing_plan_id":"cebpf4jnsgd1na2vs0mg"},{"bike_id":"7fefda97-99a0-4e88-b6b0-30735d562e23","system_id":"levelo_inurba_marseille","lat":43.27562,"lon":5.38406,"is_reserved":false,"is_disabled":false,"rental_uris":{"android":"levelo://app?vid=7fefda97-99a0-4e88-b6b0-30735d562e23","ios":"levelo://app?vid=7fefda97-99a0-4e88-b6b0-30735d562e23"},"vehicle_type_id":"4","last_reported":1758824170,"current_range_meters":6000,"station_id":"ce4bhh92rcd13ifvqfi0","pricing_plan_id":"cebpf4jnsgd1na2vs0mg"},{"bike_id":"e77388af-d05b-4ee4-abd4-e457b66d7edc","system_id":"levelo_inurba_marseille","lat":43.28944,"lon":5.36393,"is_reserved":false,"is_disabled":false,"rental_uris":{"android":"levelo://app?vid=e77388af-d05b-4ee4-abd4-e457b66d7edc","ios":"levelo://app?vid=e77388af-d05b-4ee4-abd4-e457b66d7edc"},"vehicle_type_id":"4","last_reported":1758824170,"current_range_meters":6000,"station_id":"ce4bhc92rcd13ifvqetg","pricing_plan_id":"cebpf4jnsgd1na2vs0mg"},{"bike_id":"9c4a7bdb-c552-4dfd-8efb-40b9e0b0b147","system_id":"levelo_inurba_marseille","lat":43.30889,"lon":5.36734,"is_reserved":false,"is_disabled":false,"rental_uris":{"android":"levelo://app?vid=9c4a7bdb-c552-4dfd-8efb-40b9e0b0b147","ios":"levelo://app?vid=9c4a7bdb-c552-4dfd-8efb-40b9e0b0b147"},"vehicle_type_id":"4","last_reported":1758824170,"current_range_meters":6000,"station_id":"","pricing_plan_id":"cebpf4jnsgd1na2vs0mg"},{"bike_id":"136a707a-b224-4c44-8119-f846f7b7d0a7","system_id":"levelo_inurba_marseille","lat":43.29516,"lon":5.37375,"is_reserved":false,"is_disabled":false,"rental_uris":{"android":"levelo://app?vid=136a707a-b224-4c44-8119-f846f7b7d0a7","ios":"levelo://app?vid=136a707a-b224-4c44-8119-f846f7b7d0a7"},"vehicle_type_id":"4","last_reported":1758824170,"current_range_meters":6400,"station_id":"","pricing_plan_id":"cebpf4jnsgd1na2vs0mg"},{"bike_id":"aafd401b-59ef-43c4-bf78-790dd7aee9fe","system_id":"levelo_inurba_marseille","lat":43.29797,"lon":5.38099,"is_reserved":false,"is_disabled":false,"rental_uris":{"android":"levelo://app?vid=aafd401b-59ef-43c4-bf78-790dd7aee9fe","ios":"levelo://app?vid=aafd401b-59ef-43c4-bf78-790dd7aee9fe"},"vehicle_type_id":"4","last_reported":1758824170,"current_range_meters":6400,"station_id":"ce4bgip2rcd13ifvqbb0","pricing_plan_id":"cebpf4jnsgd1na2vs0mg"},{"bike_id":"6b60c023-1fb0-4081-b5d4-30bb110539af","system_id":"levelo_inurba_marseille","lat":43.30305,"lon":5.41926,"is_reserved":false,"is_disabled":false,"rental_uris":{"android":"levelo://app?vid=6b60c023-1fb0-4081-b5d4-30bb110539af","ios":"levelo://app?vid=6b60c023-1fb0-4081-b5d4-30bb110539af"},"vehicle_type_id":"4","last_reported":1758824170,"current_range_meters":6400,"station_id":"","pricing_plan_id":"cebpf4jnsgd1na2vs0mg"},{"bike_id":"dbc548f6-2ce8-4103-ba74-5b14f35eee2d","system_id":"levelo_inurba_marseille","lat":43.286987,"lon":5.373871,"is_reserved":false,"is_disabled":false,"rental_uris":{"android":"levelo://app?vid=dbc548f6-2ce8-4103-ba74-5b14f35eee2d","ios":"levelo://app?vid=dbc548f6-2ce8-4103-ba74-5b14f35eee2d"},"vehicle_type_id":"4","last_reported":1758824170,"current_range_meters":6400,"station_id":"ce4bh3p2rcd13ifvqdq0","pricing_plan_id":"cebpf4jnsgd1na2vs0mg"},{"bike_id":"fd925a49-b816-4c0f-b246-3024354b0a71","system_id":"levelo_inurba_marseille","lat":43.296255,"lon":5.377155,"is_reserved":false,"is_disabled":false,"rental_uris":{"android":"levelo://app?vid=fd925a49-b816-4c0f-b246-3024354b0a71","ios":"levelo://app?vid=fd925a49-b816-4c0f-b246-3024354b0a71"},"vehicle_type_id":"4","last_reported":1758824170,"current_range_meters":6400,"station_id":"ce4bgi92rcd13ifvqb90","pricing_plan_id":"cebpf4jnsgd1na2vs0mg"},{"bike_id":"4dd3c820-2b6e-44ba-8d31-9877c15f7e64","system_id":"levelo_inurba_marseille","lat":43.32331,"lon":5.40613,"is_reserved":false,"is_disabled":false,"rental_uris":{"android":"levelo://app?vid=4dd3c820-2b6e-44ba-8d31-9877c15f7e64","ios":"levelo://app?vid=4dd3c820-2b6e-44ba-8d31-9877c15f7e64"},"vehicle_type_id":"4","last_reported":1758824170,"current_range_meters":6400,"station_id":"ce4bhq92rcd13ifvqhjg","pricing_plan_id":"cebpf4jnsgd1na2vs0mg"},{"bike_id":"dbae5e34-5e4b-4e1b-bebb-af007d769484","system_id":"levelo_inurba_marseille","lat":43.296251,"lon":5.405907,"is_reserved":false,"is_disabled":false,"rental_uris":{"android":"levelo://app?vid=dbae5e34-5e4b-4e1b-bebb-af007d769484","ios":"levelo://app?vid=dbae5e34-5e4b-4e1b-bebb-af007d769484"},"vehicle_type_id":"4","last_reported":1758824170,"current_range_meters":6000,"station_id":"ce4bh0h2rcd13ifvqd60","pricing_plan_id":"cebpf4jnsgd1na2vs0mg"},{"bike_id":"f4a51f35-8a41-475f-b154-4c57e3dbd15c","system_id":"levelo_inurba_marseille","lat":43.249525,"lon":5.405115,"is_reserved":false,"is_disabled":false,"rental_uris":{"android":"levelo://app?vid=f4a51f35-8a41-475f-b154-4c57e3dbd15c","ios":"levelo://app?vid=f4a51f35-8a41-475f-b154-4c57e3dbd15c"},"vehicle_type_id":"4","last_reported":1758824170,"current_range_meters":6800,"station_id":"st_d2ngiaodas8pm72gd1h0","pricing_plan_id":"cebpf4jnsgd1na2vs0mg"},{"bike_id":"58bcb43d-c000-4e3e-b004-30450f57645b","system_id":"levelo_inurba_marseille","lat":43.29527,"lon":5.37448,"is_reserved":false,"is_disabled":false,"rental_uris":{"android":"levelo://app?vid=58bcb43d-c000-4e3e-b004-30450f57645b","ios":"levelo://app?vid=58bcb43d-c000-4e3e-b004-30450f57645b"},"vehicle_type_id":"4","last_reported":1758824170,"current_range_meters":6800,"station_id":"","pricing_plan_id":"cebpf4jnsgd1na2vs0mg"},{"bike_id":"6ed8e279-3bc9-4ca6-905d-d73afd04a77f","system_id":"levelo_inurba_marseille","lat":43.299818,"lon":5.371794,"is_reserved":false,"is_disabled":false,"rental_uris":{"android":"levelo://app?vid=6ed8e279-3bc9-4ca6-905d-d73afd04a77f","ios":"levelo://app?vid=6ed8e279-3bc9-4ca6-905d-d73afd04a77f"},"vehicle_type_id":"4","last_reported":1758824170,"current_range_meters":6800,"station_id":"ce4bgr92rcd13ifvqc7g","pricing_plan_id":"cebpf4jnsgd1na2vs0mg"},{"bike_id":"2272193a-73e4-4780-be8a-bebbbdb8af21","system_id":"levelo_inurba_marseille","lat":43.29438,"lon":5.39746,"is_reserved":false,"is_disabled":false,"rental_uris":{"android":"levelo://app?vid=2272193a-73e4-4780-be8a-bebbbdb8af21","ios":"levelo://app?vid=2272193a-73e4-4780-be8a-bebbbdb8af21"},"vehicle_type_id":"4","last_reported":1758824170,"current_range_meters":6400,"station_id":"ce4bh3h2rcd13ifvqdo0","pricing_plan_id":"cebpf4jnsgd1na2vs0mg"},{"bike_id":"21b80d47-54a4-4bfc-8b97-184b2ae41f0d","system_id":"levelo_inurba_marseille","lat":43.29199,"lon":5.35774,"is_reserved":false,"is_disabled":false,"rental_uris":{"android":"levelo://app?vid=21b80d47-54a4-4bfc-8b97-184b2ae41f0d","ios":"levelo://app?vid=21b80d47-54a4-4bfc-8b97-184b2ae41f0d"},"vehicle_type_id":"4","last_reported":1758824170,"current_range_meters":6800,"station_id":"ce4bhb12rcd13ifvqel0","pricing_plan_id":"cebpf4jnsgd1na2vs0mg"},{"bike_id":"46984a69-ac4b-4f78-9999-cf2dde2ae309","system_id":"levelo_inurba_marseille","lat":43.243904,"lon":5.370616,"is_reserved":false,"is_disabled":false,"rental_uris":{"android":"levelo://app?vid=46984a69-ac4b-4f78-9999-cf2dde2ae309","ios":"levelo://app?vid=46984a69-ac4b-4f78-9999-cf2dde2ae309"},"vehicle_type_id":"4","last_reported":1758824170,"current_range_meters":6800,"station_id":"ce4bhhh2rcd13ifvqfk0","pricing_plan_id":"cebpf4jnsgd1na2vs0mg"},{"bike_id":"4e737411-53ce-4bdf-9802-c3bc30d9bc94","system_id":"levelo_inurba_marseille","lat":43.29567,"lon":5.40698,"is_reserved":false,"is_disabled":false,"rental_uris":{"android":"levelo://app?vid=4e737411-53ce-4bdf-9802-c3bc30d9bc94","ios":"levelo://app?vid=4e737411-53ce-4bdf-9802-c3bc30d9bc94"},"vehicle_type_id":"4","last_reported":1758824170,"current_range_meters":7200,"station_id":"","pricing_plan_id":"cebpf4jnsgd1na2vs0mg"},{"bike_id":"8f3a088f-041b-4c4d-977f-896b4bbce4d6","system_id":"levelo_inurba_marseille","lat":43.3044,"lon":5.38894,"is_reserved":false,"is_disabled":false,"rental_uris":{"android":"levelo://app?vid=8f3a088f-041b-4c4d-977f-896b4bbce4d6","ios":"levelo://app?vid=8f3a088f-041b-4c4d-977f-896b4bbce4d6"},"vehicle_type_id":"4","last_reported":1758824170,"current_range_meters":6800,"station_id":"ce4bgk12rcd13ifvqbi0","pricing_plan_id":"cebpf4jnsgd1na2vs0mg"},{"bike_id":"d4cc3f6e-e333-4a15-a7be-f14c096c4765","system_id":"levelo_inurba_marseille","lat":43.28231,"lon":5.39068,"is_reserved":false,"is_disabled":false,"rental_uris":{"android":"levelo://app?vid=d4cc3f6e-e333-4a15-a7be-f14c096c4765","ios":"levelo://app?vid=d4cc3f6e-e333-4a15-a7be-f14c096c4765"},"vehicle_type_id":"4","last_reported":1758824170,"current_range_meters":7200,"station_id":"ce4bhn92rcd13ifvqgsg","pricing_plan_id":"cebpf4jnsgd1na2vs0mg"},{"bike_id":"8425bdcc-052b-4c44-af33-ed39b1d648d8","system_id":"levelo_inurba_marseille","lat":43.28708,"lon":5.40004,"is_reserved":false,"is_disabled":true,"rental_uris":{"android":"levelo://app?vid=8425bdcc-052b-4c44-af33-ed39b1d648d8","ios":"levelo://app?vid=8425bdcc-052b-4c44-af33-ed39b1d648d8"},"vehicle_type_id":"4","last_reported":1758824170,"current_range_meters":7200,"station_id":"ce4bho92rcd13ifvqh3g","pricing_plan_id":"cebpf4jnsgd1na2vs0mg"},{"bike_id":"438ead59-de14-4fa0-a61d-03a70a4122ae","system_id":"levelo_inurba_marseille","lat":43.97269,"lon":4.89111,"is_reserved":false,"is_disabled":true,"rental_uris":{"android":"levelo://app?vid=438ead59-de14-4fa0-a61d-03a70a4122ae","ios":"levelo://app?vid=438ead59-de14-4fa0-a61d-03a70a4122ae"},"vehicle_type_id":"4","last_reported":1758824170,"current_range_meters":7200,"station_id":"","pricing_plan_id":"cebpf4jnsgd1na2vs0mg"},{"bike_id":"ddd8c0a7-a7ac-4c34-b48b-0710c492a44c","system_id":"levelo_inurba_marseille","lat":43.32294,"lon":5.39371,"is_reserved":false,"is_disabled":false,"rental_uris":{"android":"levelo://app?vid=ddd8c0a7-a7ac-4c34-b48b-0710c492a44c","ios":"levelo://app?vid=ddd8c0a7-a7ac-4c34-b48b-0710c492a44c"},"vehicle_type_id":"4","last_reported":1758824170,"current_range_meters":7200,"station_id":"","pricing_plan_id":"cebpf4jnsgd1na2vs0mg"},{"bike_id":"e793b8a8-4611-4404-a8bd-2a019b0a204d","system_id":"levelo_inurba_marseille","lat":43.2959,"lon":5.38622,"is_reserved":false,"is_disabled":false,"rental_uris":{"android":"levelo://app?vid=e793b8a8-4611-4404-a8bd-2a019b0a204d","ios":"levelo://app?vid=e793b8a8-4611-4404-a8bd-2a019b0a204d"},"vehicle_type_id":"4","last_reported":1758824170,"current_range_meters":8000,"station_id":"","pricing_plan_id":"cebpf4jnsgd1na2vs0mg"},{"bike_id":"e3118e49-d55a-4a7e-8b62-e885c0de05e0","system_id":"levelo_inurba_marseille","lat":43.32716,"lon":5.39255,"is_reserved":false,"is_disabled":false,"rental_uris":{"android":"levelo://app?vid=e3118e49-d55a-4a7e-8b62-e885c0de05e0","ios":"levelo://app?vid=e3118e49-d55a-4a7e-8b62-e885c0de05e0"},"vehicle_type_id":"4","last_reported":1758824170,"current_range_meters":8000,"station_id":"","pricing_plan_id":"cebpf4jnsgd1na2vs0mg"},{"bike_id":"d354ec98-01d7-4b55-bec4-abd29718e136","system_id":"levelo_inurba_marseille","lat":43.28009,"lon":5.41583,"is_reserved":false,"is_disabled":false,"rental_uris":{"android":"levelo://app?vid=d354ec98-01d7-4b55-bec4-abd29718e136","ios":"levelo://app?vid=d354ec98-01d7-4b55-bec4-abd29718e136"},"vehicle_type_id":"4","last_reported":1758824170,"current_range_meters":8000,"station_id":"ce4bho12rcd13ifvqh1g","pricing_plan_id":"cebpf4jnsgd1na2vs0mg"},{"bike_id":"bdc9d8c4-705b-47d3-a291-e54fa5803499","system_id":"levelo_inurba_marseille","lat":43.29274,"lon":5.36842,"is_reserved":false,"is_disabled":false,"rental_uris":{"android":"levelo://app?vid=bdc9d8c4-705b-47d3-a291-e54fa5803499","ios":"levelo://app?vid=bdc9d8c4-705b-47d3-a291-e54fa5803499"},"vehicle_type_id":"4","last_reported":1758824170,"current_range_meters":8000,"station_id":"ce4bhbp2rcd13ifvqesg","pricing_plan_id":"cebpf4jnsgd1na2vs0mg"},{"bike_id":"11d8805a-fc76-4706-82da-6fb1a5becb89","system_id":"levelo_inurba_marseille","lat":43.28615,"lon":5.37062,"is_reserved":false,"is_disabled":false,"rental_uris":{"android":"levelo://app?vid=11d8805a-fc76-4706-82da-6fb1a5becb89","ios":"levelo://app?vid=11d8805a-fc76-4706-82da-6fb1a5becb89"},"vehicle_type_id":"4","last_reported":1758824170,"current_range_meters":7200,"station_id":"ce4bht12rcd13ifvqi60","pricing_plan_id":"cebpf4jnsgd1na2vs0mg"},{"bike_id":"83e7feca-07ae-400b-a85a-c6a81865d028","system_id":"levelo_inurba_marseille","lat":43.27819,"lon":5.40722,"is_reserved":false,"is_disabled":false,"rental_uris":{"android":"levelo://app?vid=83e7feca-07ae-400b-a85a-c6a81865d028","ios":"levelo://app?vid=83e7feca-07ae-400b-a85a-c6a81865d028"},"vehicle_type_id":"4","last_reported":1758824170,"current_range_meters":8000,"station_id":"ce4bhnh2rcd13ifvqgtg","pricing_plan_id":"cebpf4jnsgd1na2vs0mg"},{"bike_id":"b2c05481-917c-4c16-a8b5-4e43fb2b428c","system_id":"levelo_inurba_marseille","lat":43.299598,"lon":5.37164,"is_reserved":false,"is_disabled":false,"rental_uris":{"android":"levelo://app?vid=b2c05481-917c-4c16-a8b5-4e43fb2b428c","ios":"levelo://app?vid=b2c05481-917c-4c16-a8b5-4e43fb2b428c"},"vehicle_type_id":"4","last_reported":1758824170,"current_range_meters":8000,"station_id":"ce4bgh92rcd13ifvqb50","pricing_plan_id":"cebpf4jnsgd1na2vs0mg"},{"bike_id":"4d9f3560-a661-4fb6-9d20-8a172ce0213b","system_id":"levelo_inurba_marseille","lat":43.26956,"lon":5.38625,"is_reserved":false,"is_disabled":false,"rental_uris":{"android":"levelo://app?vid=4d9f3560-a661-4fb6-9d20-8a172ce0213b","ios":"levelo://app?vid=4d9f3560-a661-4fb6-9d20-8a172ce0213b"},"vehicle_type_id":"4","last_reported":1758824170,"current_range_meters":8000,"station_id":"ce4bhh92rcd13ifvqfh0","pricing_plan_id":"cebpf4jnsgd1na2vs0mg"},{"bike_id":"aa200d5b-4ba2-4c3f-9fd7-30e24b2cf02d","system_id":"levelo_inurba_marseille","lat":43.29224,"lon":5.36063,"is_reserved":false,"is_disabled":false,"rental_uris":{"android":"levelo://app?vid=aa200d5b-4ba2-4c3f-9fd7-30e24b2cf02d","ios":"levelo://app?vid=aa200d5b-4ba2-4c3f-9fd7-30e24b2cf02d"},"vehicle_type_id":"4","last_reported":1758824170,"current_range_meters":8400,"station_id":"ce4bhbh2rcd13ifvqeqg","pricing_plan_id":"cebpf4jnsgd1na2vs0mg"},{"bike_id":"2435c3d1-ca5b-4449-ac4f-2515c902e5cc","system_id":"levelo_inurba_marseille","lat":43.29278,"lon":5.36851,"is_reserved":false,"is_disabled":false,"rental_uris":{"android":"levelo://app?vid=2435c3d1-ca5b-4449-ac4f-2515c902e5cc","ios":"levelo://app?vid=2435c3d1-ca5b-4449-ac4f-2515c902e5cc"},"vehicle_type_id":"4","last_reported":1758824170,"current_range_meters":8400,"station_id":"ce4bhbp2rcd13ifvqesg","pricing_plan_id":"cebpf4jnsgd1na2vs0mg"},{"bike_id":"5a507b92-8e62-4ce5-a4f5-ebd26f18e8a9","system_id":"levelo_inurba_marseille","lat":43.28614,"lon":5.3511,"is_reserved":false,"is_disabled":false,"rental_uris":{"android":"levelo://app?vid=5a507b92-8e62-4ce5-a4f5-ebd26f18e8a9","ios":"levelo://app?vid=5a507b92-8e62-4ce5-a4f5-ebd26f18e8a9"},"vehicle_type_id":"4","last_reported":1758824170,"current_range_meters":8400,"station_id":"ce4bhch2rcd13ifvqeug","pricing_plan_id":"cebpf4jnsgd1na2vs0mg"},{"bike_id":"fc71c58a-0998-4ad7-adf3-f0dcb9e5585b","system_id":"levelo_inurba_marseille","lat":43.231845,"lon":5.399934,"is_reserved":false,"is_disabled":false,"rental_uris":{"android":"levelo://app?vid=fc71c58a-0998-4ad7-adf3-f0dcb9e5585b","ios":"levelo://app?vid=fc71c58a-0998-4ad7-adf3-f0dcb9e5585b"},"vehicle_type_id":"4","last_reported":1758824170,"current_range_meters":8400,"station_id":"","pricing_plan_id":"cebpf4jnsgd1na2vs0mg"},{"bike_id":"e92a1de8-6460-4998-83ab-69b0988e1613","system_id":"levelo_inurba_marseille","lat":43.25866,"lon":5.39897,"is_reserved":false,"is_disabled":false,"rental_uris":{"android":"levelo://app?vid=e92a1de8-6460-4998-83ab-69b0988e1613","ios":"levelo://app?vid=e92a1de8-6460-4998-83ab-69b0988e1613"},"vehicle_type_id":"4","last_reported":1758824170,"current_range_meters":8400,"station_id":"ce4bhl92rcd13ifvqghg","pricing_plan_id":"cebpf4jnsgd1na2vs0mg"},{"bike_id":"1ee62a5c-f237-41ec-bd59-b7158decb58f","system_id":"levelo_inurba_marseille","lat":43.29976,"lon":5.37176,"is_reserved":false,"is_disabled":false,"rental_uris":{"android":"levelo://app?vid=1ee62a5c-f237-41ec-bd59-b7158decb58f","ios":"levelo://app?vid=1ee62a5c-f237-41ec-bd59-b7158decb58f"},"vehicle_type_id":"4","last_reported":1758824170,"current_range_meters":8400,"station_id":"ce4bgr92rcd13ifvqc7g","pricing_plan_id":"cebpf4jnsgd1na2vs0mg"},{"bike_id":"68c54461-da31-4320-b814-8c305a12007d","system_id":"levelo_inurba_marseille","lat":43.29296,"lon":5.37178,"is_reserved":false,"is_disabled":false,"rental_uris":{"android":"levelo://app?vid=68c54461-da31-4320-b814-8c305a12007d","ios":"levelo://app?vid=68c54461-da31-4320-b814-8c305a12007d"},"vehicle_type_id":"4","last_reported":1758824170,"current_range_meters":8800,"station_id":"ce4bgh92rcd13ifvqb40","pricing_plan_id":"cebpf4jnsgd1na2vs0mg"},{"bike_id":"c55ab0fc-12dd-414a-b168-e8388de06ac1","system_id":"levelo_inurba_marseille","lat":43.29254,"lon":5.38428,"is_reserved":false,"is_disabled":false,"rental_uris":{"android":"levelo://app?vid=c55ab0fc-12dd-414a-b168-e8388de06ac1","ios":"levelo://app?vid=c55ab0fc-12dd-414a-b168-e8388de06ac1"},"vehicle_type_id":"4","last_reported":1758824170,"current_range_meters":8800,"station_id":"ce4bh692rcd13ifvqea0","pricing_plan_id":"cebpf4jnsgd1na2vs0mg"},{"bike_id":"94b2f036-4ca4-4693-89f2-72df2150ee98","system_id":"levelo_inurba_marseille","lat":43.258265,"lon":5.394374,"is_reserved":false,"is_disabled":true,"rental_uris":{"android":"levelo://app?vid=94b2f036-4ca4-4693-89f2-72df2150ee98","ios":"levelo://app?vid=94b2f036-4ca4-4693-89f2-72df2150ee98"},"vehicle_type_id":"4","last_reported":1758824170,"current_range_meters":8800,"station_id":"ce4bhip2rcd13ifvqft0","pricing_plan_id":"cebpf4jnsgd1na2vs0mg"},{"bike_id":"93a19b75-eeca-406c-bdea-a901183cb0b8","system_id":"levelo_inurba_marseille","lat":43.28924,"lon":5.36392,"is_reserved":false,"is_disabled":false,"rental_uris":{"android":"levelo://app?vid=93a19b75-eeca-406c-bdea-a901183cb0b8","ios":"levelo://app?vid=93a19b75-eeca-406c-bdea-a901183cb0b8"},"vehicle_type_id":"4","last_reported":1758824170,"current_range_meters":8400,"station_id":"ce4bhc92rcd13ifvqetg","pricing_plan_id":"cebpf4jnsgd1na2vs0mg"},{"bike_id":"d4ee24f5-dae7-4c03-88f9-713cf40970ad","system_id":"levelo_inurba_marseille","lat":43.293,"lon":5.37467,"is_reserved":false,"is_disabled":false,"rental_uris":{"android":"levelo://app?vid=d4ee24f5-dae7-4c03-88f9-713cf40970ad","ios":"levelo://app?vid=d4ee24f5-dae7-4c03-88f9-713cf40970ad"},"vehicle_type_id":"4","last_reported":1758824170,"current_range_meters":8800,"station_id":"ce4bgi12rcd13ifvqb70","pricing_plan_id":"cebpf4jnsgd1na2vs0mg"},{"bike_id":"450844ba-2fc2-47be-9959-8fee61f07fb6","system_id":"levelo_inurba_marseille","lat":43.31741,"lon":5.39024,"is_reserved":false,"is_disabled":false,"rental_uris":{"android":"levelo://app?vid=450844ba-2fc2-47be-9959-8fee61f07fb6","ios":"levelo://app?vid=450844ba-2fc2-47be-9959-8fee61f07fb6"},"vehicle_type_id":"4","last_reported":1758824170,"current_range_meters":9200,"station_id":"ce4bhqp2rcd13ifvqhng","pricing_plan_id":"cebpf4jnsgd1na2vs0mg"},{"bike_id":"f7431e31-4264-4dcf-85b6-26e50c54f625","system_id":"levelo_inurba_marseille","lat":43.26949,"lon":5.38635,"is_reserved":false,"is_disabled":false,"rental_uris":{"android":"levelo://app?vid=f7431e31-4264-4dcf-85b6-26e50c54f625","ios":"levelo://app?vid=f7431e31-4264-4dcf-85b6-26e50c54f625"},"vehicle_type_id":"4","last_reported":1758824170,"current_range_meters":9200,"station_id":"ce4bhh92rcd13ifvqfh0","pricing_plan_id":"cebpf4jnsgd1na2vs0mg"},{"bike_id":"423a416a-f349-44d2-99b0-792b3f6704ee","system_id":"levelo_inurba_marseille","lat":43.26547,"lon":5.39022,"is_reserved":false,"is_disabled":false,"rental_uris":{"android":"levelo://app?vid=423a416a-f349-44d2-99b0-792b3f6704ee","ios":"levelo://app?vid=423a416a-f349-44d2-99b0-792b3f6704ee"},"vehicle_type_id":"4","last_reported":1758824170,"current_range_meters":9200,"station_id":"ce4bhe12rcd13ifvqf30","pricing_plan_id":"cebpf4jnsgd1na2vs0mg"},{"bike_id":"be4aaac3-9f72-40c7-a68a-4079538972e6","system_id":"levelo_inurba_marseille","lat":43.30432,"lon":5.38888,"is_reserved":false,"is_disabled":false,"rental_uris":{"android":"levelo://app?vid=be4aaac3-9f72-40c7-a68a-4079538972e6","ios":"levelo://app?vid=be4aaac3-9f72-40c7-a68a-4079538972e6"},"vehicle_type_id":"4","last_reported":1758824170,"current_range_meters":9200,"station_id":"ce4bgk12rcd13ifvqbi0","pricing_plan_id":"cebpf4jnsgd1na2vs0mg"},{"bike_id":"c58521a4-7550-473c-a6b4-2c337f27155e","system_id":"levelo_inurba_marseille","lat":43.31562,"lon":5.3733,"is_reserved":false,"is_disabled":false,"rental_uris":{"android":"levelo://app?vid=c58521a4-7550-473c-a6b4-2c337f27155e","ios":"levelo://app?vid=c58521a4-7550-473c-a6b4-2c337f27155e"},"vehicle_type_id":"4","last_reported":1758824170,"current_range_meters":9200,"station_id":"","pricing_plan_id":"cebpf4jnsgd1na2vs0mg"},{"bike_id":"e179c07d-1d53-4e59-b4b0-bc24c7d45b69","system_id":"levelo_inurba_marseille","lat":43.29035,"lon":5.38646,"is_reserved":false,"is_disabled":false,"rental_uris":{"android":"levelo://app?vid=e179c07d-1d53-4e59-b4b0-bc24c7d45b69","ios":"levelo://app?vid=e179c07d-1d53-4e59-b4b0-bc24c7d45b69"},"vehicle_type_id":"4","last_reported":1758824170,"current_range_meters":8800,"station_id":"ce4bh4p2rcd13ifvqe0g","pricing_plan_id":"cebpf4jnsgd1na2vs0mg"},{"bike_id":"4035ffcf-62d8-4fb0-89da-8d7b6b41ef29","system_id":"levelo_inurba_marseille","lat":43.29434,"lon":5.39768,"is_reserved":false,"is_disabled":true,"rental_uris":{"android":"levelo://app?vid=4035ffcf-62d8-4fb0-89da-8d7b6b41ef29","ios":"levelo://app?vid=4035ffcf-62d8-4fb0-89da-8d7b6b41ef29"},"vehicle_type_id":"4","last_reported":1758824170,"current_range_meters":9200,"station_id":"ce4bh3h2rcd13ifvqdo0","pricing_plan_id":"cebpf4jnsgd1na2vs0mg"},{"bike_id":"3a83ddcd-ce03-4ed4-a7fa-b273c2464f02","system_id":"levelo_inurba_marseille","lat":43.27954,"lon":5.36331,"is_reserved":false,"is_disabled":false,"rental_uris":{"android":"levelo://app?vid=3a83ddcd-ce03-4ed4-a7fa-b273c2464f02","ios":"levelo://app?vid=3a83ddcd-ce03-4ed4-a7fa-b273c2464f02"},"vehicle_type_id":"4","last_reported":1758824170,"current_range_meters":9200,"station_id":"","pricing_plan_id":"cebpf4jnsgd1na2vs0mg"},{"bike_id":"36645db1-8f2c-49d5-b515-c00d30b71f29","system_id":"levelo_inurba_marseille","lat":43.2846,"lon":5.35891,"is_reserved":false,"is_disabled":false,"rental_uris":{"android":"levelo://app?vid=36645db1-8f2c-49d5-b515-c00d30b71f29","ios":"levelo://app?vid=36645db1-8f2c-49d5-b515-c00d30b71f29"},"vehicle_type_id":"4","last_reported":1758824170,"current_range_meters":9200,"station_id":"ce4bhah2rcd13ifvqei0","pricing_plan_id":"cebpf4jnsgd1na2vs0mg"},{"bike_id":"117acf13-6b03-4ee3-b4a5-edb1f47e11bc","system_id":"levelo_inurba_marseille","lat":43.26829,"lon":5.38722,"is_reserved":false,"is_disabled":false,"rental_uris":{"android":"levelo://app?vid=117acf13-6b03-4ee3-b4a5-edb1f47e11bc","ios":"levelo://app?vid=117acf13-6b03-4ee3-b4a5-edb1f47e11bc"},"vehicle_type_id":"4","last_reported":1758824170,"current_range_meters":9200,"station_id":"","pricing_plan_id":"cebpf4jnsgd1na2vs0mg"},{"bike_id":"85203bd6-f2f9-4b2f-9fd6-0c2d53f38ce1","system_id":"levelo_inurba_marseille","lat":43.29264,"lon":5.3685,"is_reserved":false,"is_disabled":false,"rental_uris":{"android":"levelo://app?vid=85203bd6-f2f9-4b2f-9fd6-0c2d53f38ce1","ios":"levelo://app?vid=85203bd6-f2f9-4b2f-9fd6-0c2d53f38ce1"},"vehicle_type_id":"4","last_reported":1758824170,"current_range_meters":9600,"station_id":"ce4bhbp2rcd13ifvqesg","pricing_plan_id":"cebpf4jnsgd1na2vs0mg"},{"bike_id":"d0117cc1-5687-42d8-bad4-5ef4920976a1","system_id":"levelo_inurba_marseille","lat":43.28444,"lon":5.39206,"is_reserved":false,"is_disabled":false,"rental_uris":{"android":"levelo://app?vid=d0117cc1-5687-42d8-bad4-5ef4920976a1","ios":"levelo://app?vid=d0117cc1-5687-42d8-bad4-5ef4920976a1"},"vehicle_type_id":"4","last_reported":1758824170,"current_range_meters":9600,"station_id":"ce4bhoh2rcd13ifvqh5g","pricing_plan_id":"cebpf4jnsgd1na2vs0mg"},{"bike_id":"379911e0-a8b9-4b05-96ac-c75be54d3c45","system_id":"levelo_inurba_marseille","lat":43.28857,"lon":5.42516,"is_reserved":false,"is_disabled":false,"rental_uris":{"android":"levelo://app?vid=379911e0-a8b9-4b05-96ac-c75be54d3c45","ios":"levelo://app?vid=379911e0-a8b9-4b05-96ac-c75be54d3c45"},"vehicle_type_id":"4","last_reported":1758824170,"current_range_meters":9600,"station_id":"","pricing_plan_id":"cebpf4jnsgd1na2vs0mg"},{"bike_id":"937ee5bb-c794-4393-a975-4ea453ba0655","system_id":"levelo_inurba_marseille","lat":43.28101,"lon":5.37834,"is_reserved":false,"is_disabled":false,"rental_uris":{"android":"levelo://app?vid=937ee5bb-c794-4393-a975-4ea453ba0655","ios":"levelo://app?vid=937ee5bb-c794-4393-a975-4ea453ba0655"},"vehicle_type_id":"4","last_reported":1758824170,"current_range_meters":9200,"station_id":"ce4bha12rcd13ifvqee0","pricing_plan_id":"cebpf4jnsgd1na2vs0mg"},{"bike_id":"0e9ca394-4351-4bf8-a641-f4e5215baf20","system_id":"levelo_inurba_marseille","lat":43.28261,"lon":5.35089,"is_reserved":false,"is_disabled":false,"rental_uris":{"android":"levelo://app?vid=0e9ca394-4351-4bf8-a641-f4e5215baf20","ios":"levelo://app?vid=0e9ca394-4351-4bf8-a641-f4e5215baf20"},"vehicle_type_id":"4","last_reported":1758824170,"current_range_meters":10000,"station_id":"ce4bhbp2rcd13ifvqerg","pricing_plan_id":"cebpf4jnsgd1na2vs0mg"},{"bike_id":"bde8949e-b3c7-411f-8d33-5a4b2444e7ca","system_id":"levelo_inurba_marseille","lat":43.290673,"lon":5.383256,"is_reserved":false,"is_disabled":false,"rental_uris":{"android":"levelo://app?vid=bde8949e-b3c7-411f-8d33-5a4b2444e7ca","ios":"levelo://app?vid=bde8949e-b3c7-411f-8d33-5a4b2444e7ca"},"vehicle_type_id":"4","last_reported":1758824170,"current_range_meters":10000,"station_id":"ce4bhdp2rcd13ifvqf20","pricing_plan_id":"cebpf4jnsgd1na2vs0mg"},{"bike_id":"0ef81889-2d7f-4e70-b480-0b08f55cbfba","system_id":"levelo_inurba_marseille","lat":43.30898,"lon":5.36865,"is_reserved":false,"is_disabled":false,"rental_uris":{"android":"levelo://app?vid=0ef81889-2d7f-4e70-b480-0b08f55cbfba","ios":"levelo://app?vid=0ef81889-2d7f-4e70-b480-0b08f55cbfba"},"vehicle_type_id":"4","last_reported":1758824170,"current_range_meters":10000,"station_id":"ce4bgn92rcd13ifvqbvg","pricing_plan_id":"cebpf4jnsgd1na2vs0mg"},{"bike_id":"8584eb3e-f7b4-4300-97fe-005a37d8d75b","system_id":"levelo_inurba_marseille","lat":43.36826,"lon":5.363137,"is_reserved":false,"is_disabled":false,"rental_uris":{"android":"levelo://app?vid=8584eb3e-f7b4-4300-97fe-005a37d8d75b","ios":"levelo://app?vid=8584eb3e-f7b4-4300-97fe-005a37d8d75b"},"vehicle_type_id":"4","last_reported":1758824170,"current_range_meters":10000,"station_id":"","pricing_plan_id":"cebpf4jnsgd1na2vs0mg"},{"bike_id":"d5632eaf-207f-4351-be9c-95c58bc9c538","system_id":"levelo_inurba_marseille","lat":43.29524,"lon":5.37509,"is_reserved":false,"is_disabled":true,"rental_uris":{"android":"levelo://app?vid=d5632eaf-207f-4351-be9c-95c58bc9c538","ios":"levelo://app?vid=d5632eaf-207f-4351-be9c-95c58bc9c538"},"vehicle_type_id":"4","last_reported":1758824170,"current_range_meters":10800,"station_id":"ce4bgkp2rcd13ifvqbmg","pricing_plan_id":"cebpf4jnsgd1na2vs0mg"},{"bike_id":"8eae954c-dab6-4303-94f5-569e1c483f62","system_id":"levelo_inurba_marseille","lat":43.29448,"lon":5.40751,"is_reserved":false,"is_disabled":false,"rental_uris":{"android":"levelo://app?vid=8eae954c-dab6-4303-94f5-569e1c483f62","ios":"levelo://app?vid=8eae954c-dab6-4303-94f5-569e1c483f62"},"vehicle_type_id":"4","last_reported":1758824170,"current_range_meters":10800,"station_id":"","pricing_plan_id":"cebpf4jnsgd1na2vs0mg"},{"bike_id":"237c6c1c-3b20-4dcb-82ea-76107a136d3e","system_id":"levelo_inurba_marseille","lat":43.29277,"lon":5.36849,"is_reserved":false,"is_disabled":true,"rental_uris":{"android":"levelo://app?vid=237c6c1c-3b20-4dcb-82ea-76107a136d3e","ios":"levelo://app?vid=237c6c1c-3b20-4dcb-82ea-76107a136d3e"},"vehicle_type_id":"4","last_reported":1758824170,"current_range_meters":10800,"station_id":"ce4bhbp2rcd13ifvqesg","pricing_plan_id":"cebpf4jnsgd1na2vs0mg"},{"bike_id":"c9be197c-2203-4c38-9c25-58f45ce75231","system_id":"levelo_inurba_marseille","lat":43.29581,"lon":5.37506,"is_reserved":false,"is_disabled":false,"rental_uris":{"android":"levelo://app?vid=c9be197c-2203-4c38-9c25-58f45ce75231","ios":"levelo://app?vid=c9be197c-2203-4c38-9c25-58f45ce75231"},"vehicle_type_id":"4","last_reported":1758824170,"current_range_meters":10800,"station_id":"ce4bgh92rcd13ifvqb50","pricing_plan_id":"cebpf4jnsgd1na2vs0mg"},{"bike_id":"20d517c3-f879-4dca-8ab8-ba5a9a083a8b","system_id":"levelo_inurba_marseille","lat":43.29001,"lon":5.35613,"is_reserved":false,"is_disabled":false,"rental_uris":{"android":"levelo://app?vid=20d517c3-f879-4dca-8ab8-ba5a9a083a8b","ios":"levelo://app?vid=20d517c3-f879-4dca-8ab8-ba5a9a083a8b"},"vehicle_type_id":"4","last_reported":1758824170,"current_range_meters":10800,"station_id":"ce4bhb92rcd13ifvqen0","pricing_plan_id":"cebpf4jnsgd1na2vs0mg"},{"bike_id":"642bdc2f-0ba4-4f2e-a139-b5cb59875330","system_id":"levelo_inurba_marseille","lat":43.28934,"lon":5.3839,"is_reserved":false,"is_disabled":false,"rental_uris":{"android":"levelo://app?vid=642bdc2f-0ba4-4f2e-a139-b5cb59875330","ios":"levelo://app?vid=642bdc2f-0ba4-4f2e-a139-b5cb59875330"},"vehicle_type_id":"4","last_reported":1758824170,"current_range_meters":10000,"station_id":"ce4bh612rcd13ifvqe6g","pricing_plan_id":"cebpf4jnsgd1na2vs0mg"},{"bike_id":"926ded7e-cce6-4eb1-bddf-681cf2945940","system_id":"levelo_inurba_marseille","lat":43.2893,"lon":5.36641,"is_reserved":false,"is_disabled":false,"rental_uris":{"android":"levelo://app?vid=926ded7e-cce6-4eb1-bddf-681cf2945940","ios":"levelo://app?vid=926ded7e-cce6-4eb1-bddf-681cf2945940"},"vehicle_type_id":"4","last_reported":1758824170,"current_range_meters":10800,"station_id":"ce4bhap2rcd13ifvqek0","pricing_plan_id":"cebpf4jnsgd1na2vs0mg"},{"bike_id":"54e3e8c4-ac40-47fd-acd3-4bcbdd9fb2f5","system_id":"levelo_inurba_marseille","lat":43.29299,"lon":5.37465,"is_reserved":false,"is_disabled":false,"rental_uris":{"android":"levelo://app?vid=54e3e8c4-ac40-47fd-acd3-4bcbdd9fb2f5","ios":"levelo://app?vid=54e3e8c4-ac40-47fd-acd3-4bcbdd9fb2f5"},"vehicle_type_id":"4","last_reported":1758824170,"current_range_meters":10800,"station_id":"ce4bgi12rcd13ifvqb70","pricing_plan_id":"cebpf4jnsgd1na2vs0mg"},{"bike_id":"003515e8-8117-44bb-979d-5f47e8d50fda","system_id":"levelo_inurba_marseille","lat":43.30616,"lon":5.37576,"is_reserved":false,"is_disabled":false,"rental_uris":{"android":"levelo://app?vid=003515e8-8117-44bb-979d-5f47e8d50fda","ios":"levelo://app?vid=003515e8-8117-44bb-979d-5f47e8d50fda"},"vehicle_type_id":"4","last_reported":1758824170,"current_range_meters":11200,"station_id":"","pricing_plan_id":"cebpf4jnsgd1na2vs0mg"},{"bike_id":"7dec0534-70b5-40a3-8bfb-b40cba144d36","system_id":"levelo_inurba_marseille","lat":43.2951,"lon":5.39412,"is_reserved":false,"is_disabled":false,"rental_uris":{"android":"levelo://app?vid=7dec0534-70b5-40a3-8bfb-b40cba144d36","ios":"levelo://app?vid=7dec0534-70b5-40a3-8bfb-b40cba144d36"},"vehicle_type_id":"4","last_reported":1758824170,"current_range_meters":11200,"station_id":"ce4bh292rcd13ifvqdf0","pricing_plan_id":"cebpf4jnsgd1na2vs0mg"},{"bike_id":"45f6a6bf-72ec-47b9-94b0-1505cd72e342","system_id":"levelo_inurba_marseille","lat":43.24391,"lon":5.37067,"is_reserved":false,"is_disabled":false,"rental_uris":{"android":"levelo://app?vid=45f6a6bf-72ec-47b9-94b0-1505cd72e342","ios":"levelo://app?vid=45f6a6bf-72ec-47b9-94b0-1505cd72e342"},"vehicle_type_id":"4","last_reported":1758824170,"current_range_meters":11200,"station_id":"ce4bhhh2rcd13ifvqfk0","pricing_plan_id":"cebpf4jnsgd1na2vs0mg"},{"bike_id":"bdec3261-de13-477f-818b-7af8ae1d1f6a","system_id":"levelo_inurba_marseille","lat":43.2396,"lon":5.37682,"is_reserved":false,"is_disabled":false,"rental_uris":{"android":"levelo://app?vid=bdec3261-de13-477f-818b-7af8ae1d1f6a","ios":"levelo://app?vid=bdec3261-de13-477f-818b-7af8ae1d1f6a"},"vehicle_type_id":"4","last_reported":1758824170,"current_range_meters":11200,"station_id":"","pricing_plan_id":"cebpf4jnsgd1na2vs0mg"},{"bike_id":"d9b8fa0e-57f1-4026-9be2-2d0e2e94a52b","system_id":"levelo_inurba_marseille","lat":43.2462,"lon":5.43144,"is_reserved":false,"is_disabled":false,"rental_uris":{"android":"levelo://app?vid=d9b8fa0e-57f1-4026-9be2-2d0e2e94a52b","ios":"levelo://app?vid=d9b8fa0e-57f1-4026-9be2-2d0e2e94a52b"},"vehicle_type_id":"4","last_reported":1758824170,"current_range_meters":11200,"station_id":"st_d2m6c4gdas8pm72e190g","pricing_plan_id":"cebpf4jnsgd1na2vs0mg"},{"bike_id":"6bd56790-8764-4520-9958-374b312e238e","system_id":"levelo_inurba_marseille","lat":43.30295,"lon":5.39225,"is_reserved":false,"is_disabled":false,"rental_uris":{"android":"levelo://app?vid=6bd56790-8764-4520-9958-374b312e238e","ios":"levelo://app?vid=6bd56790-8764-4520-9958-374b312e238e"},"vehicle_type_id":"4","last_reported":1758824170,"current_range_meters":11200,"station_id":"ce4bgkh2rcd13ifvqbk0","pricing_plan_id":"cebpf4jnsgd1na2vs0mg"},{"bike_id":"89b02c43-efb9-4096-bfc9-05c48f942f32","system_id":"levelo_inurba_marseille","lat":43.2901,"lon":5.35608,"is_reserved":false,"is_disabled":false,"rental_uris":{"android":"levelo://app?vid=89b02c43-efb9-4096-bfc9-05c48f942f32","ios":"levelo://app?vid=89b02c43-efb9-4096-bfc9-05c48f942f32"},"vehicle_type_id":"4","last_reported":1758824170,"current_range_meters":11200,"station_id":"ce4bhb92rcd13ifvqen0","pricing_plan_id":"cebpf4jnsgd1na2vs0mg"},{"bike_id":"38b16e1b-9b14-4848-80b4-8d0fc7d2025c","system_id":"levelo_inurba_marseille","lat":43.29001,"lon":5.35608,"is_reserved":false,"is_disabled":false,"rental_uris":{"android":"levelo://app?vid=38b16e1b-9b14-4848-80b4-8d0fc7d2025c","ios":"levelo://app?vid=38b16e1b-9b14-4848-80b4-8d0fc7d2025c"},"vehicle_type_id":"4","last_reported":1758824170,"current_range_meters":11200,"station_id":"ce4bhb92rcd13ifvqen0","pricing_plan_id":"cebpf4jnsgd1na2vs0mg"},{"bike_id":"1428ee2f-64a9-48b5-ab94-9fb79567ba90","system_id":"levelo_inurba_marseille","lat":43.29802,"lon":5.38097,"is_reserved":false,"is_disabled":false,"rental_uris":{"android":"levelo://app?vid=1428ee2f-64a9-48b5-ab94-9fb79567ba90","ios":"levelo://app?vid=1428ee2f-64a9-48b5-ab94-9fb79567ba90"},"vehicle_type_id":"4","last_reported":1758824170,"current_range_meters":11200,"station_id":"ce4bgip2rcd13ifvqbb0","pricing_plan_id":"cebpf4jnsgd1na2vs0mg"},{"bike_id":"67b8aaae-0d39-414d-ba59-1a62d33b4066","system_id":"levelo_inurba_marseille","lat":43.3052,"lon":5.40017,"is_reserved":false,"is_disabled":false,"rental_uris":{"android":"levelo://app?vid=67b8aaae-0d39-414d-ba59-1a62d33b4066","ios":"levelo://app?vid=67b8aaae-0d39-414d-ba59-1a62d33b4066"},"vehicle_type_id":"4","last_reported":1758824170,"current_range_meters":11200,"station_id":"","pricing_plan_id":"cebpf4jnsgd1na2vs0mg"},{"bike_id":"e7ff35e4-c4d7-4171-87a5-355f3771a20a","system_id":"levelo_inurba_marseille","lat":43.29262,"lon":5.38438,"is_reserved":false,"is_disabled":false,"rental_uris":{"android":"levelo://app?vid=e7ff35e4-c4d7-4171-87a5-355f3771a20a","ios":"levelo://app?vid=e7ff35e4-c4d7-4171-87a5-355f3771a20a"},"vehicle_type_id":"4","last_reported":1758824170,"current_range_meters":11600,"station_id":"ce4bh692rcd13ifvqea0","pricing_plan_id":"cebpf4jnsgd1na2vs0mg"},{"bike_id":"1d83c96d-d874-4e8c-bc91-af13c750bf6c","system_id":"levelo_inurba_marseille","lat":43.26554,"lon":5.40324,"is_reserved":false,"is_disabled":false,"rental_uris":{"android":"levelo://app?vid=1d83c96d-d874-4e8c-bc91-af13c750bf6c","ios":"levelo://app?vid=1d83c96d-d874-4e8c-bc91-af13c750bf6c"},"vehicle_type_id":"4","last_reported":1758824170,"current_range_meters":11600,"station_id":"ce4bhmp2rcd13ifvqgng","pricing_plan_id":"cebpf4jnsgd1na2vs0mg"},{"bike_id":"22d8f0b2-ccdf-4f53-a8ae-ea03424d27d3","system_id":"levelo_inurba_marseille","lat":43.23185,"lon":5.39981,"is_reserved":false,"is_disabled":false,"rental_uris":{"android":"levelo://app?vid=22d8f0b2-ccdf-4f53-a8ae-ea03424d27d3","ios":"levelo://app?vid=22d8f0b2-ccdf-4f53-a8ae-ea03424d27d3"},"vehicle_type_id":"4","last_reported":1758824170,"current_range_meters":11600,"station_id":"ce4bhn12rcd13ifvqgqg","pricing_plan_id":"cebpf4jnsgd1na2vs0mg"},{"bike_id":"07992b5f-3cb9-44a3-a1fa-3dd08bd04862","system_id":"levelo_inurba_marseille","lat":43.287006,"lon":5.399826,"is_reserved":false,"is_disabled":false,"rental_uris":{"android":"levelo://app?vid=07992b5f-3cb9-44a3-a1fa-3dd08bd04862","ios":"levelo://app?vid=07992b5f-3cb9-44a3-a1fa-3dd08bd04862"},"vehicle_type_id":"4","last_reported":1758824170,"current_range_meters":11200,"station_id":"ce4bho92rcd13ifvqh3g","pricing_plan_id":"cebpf4jnsgd1na2vs0mg"},{"bike_id":"91a7af58-e5b6-4061-9925-7ba6efc20e01","system_id":"levelo_inurba_marseille","lat":43.28158,"lon":5.42617,"is_reserved":false,"is_disabled":false,"rental_uris":{"android":"levelo://app?vid=91a7af58-e5b6-4061-9925-7ba6efc20e01","ios":"levelo://app?vid=91a7af58-e5b6-4061-9925-7ba6efc20e01"},"vehicle_type_id":"4","last_reported":1758824170,"current_range_meters":11600,"station_id":"ce4bhnh2rcd13ifvqgug","pricing_plan_id":"cebpf4jnsgd1na2vs0mg"},{"bike_id":"46923300-e0d3-40c1-8c76-7dadc761100f","system_id":"levelo_inurba_marseille","lat":43.28975,"lon":5.3559,"is_reserved":false,"is_disabled":false,"rental_uris":{"android":"levelo://app?vid=46923300-e0d3-40c1-8c76-7dadc761100f","ios":"levelo://app?vid=46923300-e0d3-40c1-8c76-7dadc761100f"},"vehicle_type_id":"4","last_reported":1758824170,"current_range_meters":11600,"station_id":"ce4bhb92rcd13ifvqen0","pricing_plan_id":"cebpf4jnsgd1na2vs0mg"},{"bike_id":"0f543efc-b649-42ec-8a3d-e07cf3d39ba4","system_id":"levelo_inurba_marseille","lat":43.29264,"lon":5.38439,"is_reserved":false,"is_disabled":false,"rental_uris":{"android":"levelo://app?vid=0f543efc-b649-42ec-8a3d-e07cf3d39ba4","ios":"levelo://app?vid=0f543efc-b649-42ec-8a3d-e07cf3d39ba4"},"vehicle_type_id":"4","last_reported":1758824170,"current_range_meters":11600,"station_id":"ce4bh692rcd13ifvqea0","pricing_plan_id":"cebpf4jnsgd1na2vs0mg"},{"bike_id":"212de2eb-8bbc-413c-b204-9fe1facd76e8","system_id":"levelo_inurba_marseille","lat":43.3131,"lon":5.37823,"is_reserved":false,"is_disabled":false,"rental_uris":{"android":"levelo://app?vid=212de2eb-8bbc-413c-b204-9fe1facd76e8","ios":"levelo://app?vid=212de2eb-8bbc-413c-b204-9fe1facd76e8"},"vehicle_type_id":"4","last_reported":1758824170,"current_range_meters":11600,"station_id":"","pricing_plan_id":"cebpf4jnsgd1na2vs0mg"},{"bike_id":"f9af076b-c426-46f0-97f6-f6a5a530c8e2","system_id":"levelo_inurba_marseille","lat":43.33049,"lon":5.39473,"is_reserved":false,"is_disabled":false,"rental_uris":{"android":"levelo://app?vid=f9af076b-c426-46f0-97f6-f6a5a530c8e2","ios":"levelo://app?vid=f9af076b-c426-46f0-97f6-f6a5a530c8e2"},"vehicle_type_id":"4","last_reported":1758824170,"current_range_meters":11600,"station_id":"","pricing_plan_id":"cebpf4jnsgd1na2vs0mg"},{"bike_id":"9957286a-78bd-4512-a2e9-c89373c449b0","system_id":"levelo_inurba_marseille","lat":43.231838,"lon":5.399861,"is_reserved":false,"is_disabled":false,"rental_uris":{"android":"levelo://app?vid=9957286a-78bd-4512-a2e9-c89373c449b0","ios":"levelo://app?vid=9957286a-78bd-4512-a2e9-c89373c449b0"},"vehicle_type_id":"4","last_reported":1758824170,"current_range_meters":11600,"station_id":"ce4bhn12rcd13ifvqgqg","pricing_plan_id":"cebpf4jnsgd1na2vs0mg"},{"bike_id":"2bd2a176-8590-4e06-8b8c-a96b49b7b36a","system_id":"levelo_inurba_marseille","lat":43.242409,"lon":5.41085,"is_reserved":false,"is_disabled":false,"rental_uris":{"android":"levelo://app?vid=2bd2a176-8590-4e06-8b8c-a96b49b7b36a","ios":"levelo://app?vid=2bd2a176-8590-4e06-8b8c-a96b49b7b36a"},"vehicle_type_id":"4","last_reported":1758824170,"current_range_meters":12000,"station_id":"","pricing_plan_id":"cebpf4jnsgd1na2vs0mg"},{"bike_id":"e80cbcb9-3a79-4096-8651-de00eb826c2d","system_id":"levelo_inurba_marseille","lat":43.29844,"lon":5.36261,"is_reserved":false,"is_disabled":false,"rental_uris":{"android":"levelo://app?vid=e80cbcb9-3a79-4096-8651-de00eb826c2d","ios":"levelo://app?vid=e80cbcb9-3a79-4096-8651-de00eb826c2d"},"vehicle_type_id":"4","last_reported":1758824170,"current_range_meters":12000,"station_id":"ce4bgpp2rcd13ifvqc3g","pricing_plan_id":"cebpf4jnsgd1na2vs0mg"},{"bike_id":"517868a9-5065-4a75-bb66-168829baf622","system_id":"levelo_inurba_marseille","lat":43.29518,"lon":5.39028,"is_reserved":false,"is_disabled":false,"rental_uris":{"android":"levelo://app?vid=517868a9-5065-4a75-bb66-168829baf622","ios":"levelo://app?vid=517868a9-5065-4a75-bb66-168829baf622"},"vehicle_type_id":"4","last_reported":1758824170,"current_range_meters":11600,"station_id":"ce4bh3p2rcd13ifvqdp0","pricing_plan_id":"cebpf4jnsgd1na2vs0mg"},{"bike_id":"02212ec5-e517-4a4c-bf69-5117e317eb1a","system_id":"levelo_inurba_marseille","lat":43.32099,"lon":5.36799,"is_reserved":false,"is_disabled":false,"rental_uris":{"android":"levelo://app?vid=02212ec5-e517-4a4c-bf69-5117e317eb1a","ios":"levelo://app?vid=02212ec5-e517-4a4c-bf69-5117e317eb1a"},"vehicle_type_id":"4","last_reported":1758824170,"current_range_meters":12400,"station_id":"ce4bhrh2rcd13ifvqhug","pricing_plan_id":"cebpf4jnsgd1na2vs0mg"},{"bike_id":"cee3c36d-9304-42e6-a4ef-d96f70adb757","system_id":"levelo_inurba_marseille","lat":43.24947,"lon":5.40485,"is_reserved":false,"is_disabled":false,"rental_uris":{"android":"levelo://app?vid=cee3c36d-9304-42e6-a4ef-d96f70adb757","ios":"levelo://app?vid=cee3c36d-9304-42e6-a4ef-d96f70adb757"},"vehicle_type_id":"4","last_reported":1758824170,"current_range_meters":12400,"station_id":"st_d2ngiaodas8pm72gd1h0","pricing_plan_id":"cebpf4jnsgd1na2vs0mg"},{"bike_id":"c110996d-22e7-4035-9eef-b37954d27511","system_id":"levelo_inurba_marseille","lat":43.23199,"lon":5.35564,"is_reserved":false,"is_disabled":false,"rental_uris":{"android":"levelo://app?vid=c110996d-22e7-4035-9eef-b37954d27511","ios":"levelo://app?vid=c110996d-22e7-4035-9eef-b37954d27511"},"vehicle_type_id":"4","last_reported":1758824170,"current_range_meters":12400,"station_id":"ce4bhu92rcd13ifvqi70","pricing_plan_id":"cebpf4jnsgd1na2vs0mg"},{"bike_id":"d31d856a-933d-49cf-948f-ce03657dfc74","system_id":"levelo_inurba_marseille","lat":43.2843,"lon":5.34996,"is_reserved":false,"is_disabled":false,"rental_uris":{"android":"levelo://app?vid=d31d856a-933d-49cf-948f-ce03657dfc74","ios":"levelo://app?vid=d31d856a-933d-49cf-948f-ce03657dfc74"},"vehicle_type_id":"4","last_reported":1758824170,"current_range_meters":12400,"station_id":"ce4bhbh2rcd13ifvqepg","pricing_plan_id":"cebpf4jnsgd1na2vs0mg"},{"bike_id":"402b573d-229b-4b0e-977a-075c271e85c6","system_id":"levelo_inurba_marseille","lat":43.28862,"lon":5.4252,"is_reserved":false,"is_disabled":false,"rental_uris":{"android":"levelo://app?vid=402b573d-229b-4b0e-977a-075c271e85c6","ios":"levelo://app?vid=402b573d-229b-4b0e-977a-075c271e85c6"},"vehicle_type_id":"4","last_reported":1758824170,"current_range_meters":12800,"station_id":"","pricing_plan_id":"cebpf4jnsgd1na2vs0mg"},{"bike_id":"9ea54dfd-b023-49a1-bf07-f1f0b9ee7b6e","system_id":"levelo_inurba_marseille","lat":43.302495,"lon":5.400738,"is_reserved":false,"is_disabled":false,"rental_uris":{"android":"levelo://app?vid=9ea54dfd-b023-49a1-bf07-f1f0b9ee7b6e","ios":"levelo://app?vid=9ea54dfd-b023-49a1-bf07-f1f0b9ee7b6e"},"vehicle_type_id":"4","last_reported":1758824170,"current_range_meters":12400,"station_id":"ce4bgvh2rcd13ifvqcs0","pricing_plan_id":"cebpf4jnsgd1na2vs0mg"},{"bike_id":"f897d300-643c-4c7a-951b-f56d70ef23ca","system_id":"levelo_inurba_marseille","lat":43.30329,"lon":5.39095,"is_reserved":false,"is_disabled":false,"rental_uris":{"android":"levelo://app?vid=f897d300-643c-4c7a-951b-f56d70ef23ca","ios":"levelo://app?vid=f897d300-643c-4c7a-951b-f56d70ef23ca"},"vehicle_type_id":"4","last_reported":1758824170,"current_range_meters":12800,"station_id":"","pricing_plan_id":"cebpf4jnsgd1na2vs0mg"},{"bike_id":"1c27f7d4-507d-43e2-b324-44f5e35dee72","system_id":"levelo_inurba_marseille","lat":43.32339,"lon":5.39289,"is_reserved":false,"is_disabled":false,"rental_uris":{"android":"levelo://app?vid=1c27f7d4-507d-43e2-b324-44f5e35dee72","ios":"levelo://app?vid=1c27f7d4-507d-43e2-b324-44f5e35dee72"},"vehicle_type_id":"4","last_reported":1758824170,"current_range_meters":12800,"station_id":"","pricing_plan_id":"cebpf4jnsgd1na2vs0mg"},{"bike_id":"c5ab64bf-78c4-42cd-8ad8-d5c54f85cca0","system_id":"levelo_inurba_marseille","lat":43.29248,"lon":5.38447,"is_reserved":false,"is_disabled":true,"rental_uris":{"android":"levelo://app?vid=c5ab64bf-78c4-42cd-8ad8-d5c54f85cca0","ios":"levelo://app?vid=c5ab64bf-78c4-42cd-8ad8-d5c54f85cca0"},"vehicle_type_id":"4","last_reported":1758824170,"current_range_meters":12800,"station_id":"ce4bh692rcd13ifvqea0","pricing_plan_id":"cebpf4jnsgd1na2vs0mg"},{"bike_id":"3731e4b4-e57b-4ad8-affe-801decac42ca","system_id":"levelo_inurba_marseille","lat":43.249476,"lon":5.404875,"is_reserved":false,"is_disabled":false,"rental_uris":{"android":"levelo://app?vid=3731e4b4-e57b-4ad8-affe-801decac42ca","ios":"levelo://app?vid=3731e4b4-e57b-4ad8-affe-801decac42ca"},"vehicle_type_id":"4","last_reported":1758824170,"current_range_meters":12800,"station_id":"st_d2ngiaodas8pm72gd1h0","pricing_plan_id":"cebpf4jnsgd1na2vs0mg"},{"bike_id":"623865ec-2214-4964-848c-9f7d06a9251a","system_id":"levelo_inurba_marseille","lat":43.32705,"lon":5.39235,"is_reserved":false,"is_disabled":false,"rental_uris":{"android":"levelo://app?vid=623865ec-2214-4964-848c-9f7d06a9251a","ios":"levelo://app?vid=623865ec-2214-4964-848c-9f7d06a9251a"},"vehicle_type_id":"4","last_reported":1758824170,"current_range_meters":12800,"station_id":"","pricing_plan_id":"cebpf4jnsgd1na2vs0mg"},{"bike_id":"2e22e098-1e6e-4376-9dcc-d2faf4d95e30","system_id":"levelo_inurba_marseille","lat":43.29543,"lon":5.3783,"is_reserved":false,"is_disabled":false,"rental_uris":{"android":"levelo://app?vid=2e22e098-1e6e-4376-9dcc-d2faf4d95e30","ios":"levelo://app?vid=2e22e098-1e6e-4376-9dcc-d2faf4d95e30"},"vehicle_type_id":"4","last_reported":1758824170,"current_range_meters":12800,"station_id":"","pricing_plan_id":"cebpf4jnsgd1na2vs0mg"},{"bike_id":"1c35bf83-ebdb-4c44-ba8d-eb30d817a599","system_id":"levelo_inurba_marseille","lat":43.304251,"lon":5.39741,"is_reserved":false,"is_disabled":true,"rental_uris":{"android":"levelo://app?vid=1c35bf83-ebdb-4c44-ba8d-eb30d817a599","ios":"levelo://app?vid=1c35bf83-ebdb-4c44-ba8d-eb30d817a599"},"vehicle_type_id":"4","last_reported":1758824170,"current_range_meters":12800,"station_id":"","pricing_plan_id":"cebpf4jnsgd1na2vs0mg"},{"bike_id":"f302ba5e-3fac-4bd9-9081-194d5ee2f951","system_id":"levelo_inurba_marseille","lat":43.29007,"lon":5.35602,"is_reserved":false,"is_disabled":false,"rental_uris":{"android":"levelo://app?vid=f302ba5e-3fac-4bd9-9081-194d5ee2f951","ios":"levelo://app?vid=f302ba5e-3fac-4bd9-9081-194d5ee2f951"},"vehicle_type_id":"4","last_reported":1758824170,"current_range_meters":12800,"station_id":"ce4bhb92rcd13ifvqen0","pricing_plan_id":"cebpf4jnsgd1na2vs0mg"},{"bike_id":"dadc0898-efde-4089-8bc7-7ccff31e18e5","system_id":"levelo_inurba_marseille","lat":43.28931,"lon":5.3663,"is_reserved":false,"is_disabled":false,"rental_uris":{"android":"levelo://app?vid=dadc0898-efde-4089-8bc7-7ccff31e18e5","ios":"levelo://app?vid=dadc0898-efde-4089-8bc7-7ccff31e18e5"},"vehicle_type_id":"4","last_reported":1758824170,"current_range_meters":12800,"station_id":"ce4bhap2rcd13ifvqek0","pricing_plan_id":"cebpf4jnsgd1na2vs0mg"},{"bike_id":"e25d4bf5-d6b4-4825-9ae0-e18cf0d299d7","system_id":"levelo_inurba_marseille","lat":43.29977,"lon":5.37177,"is_reserved":false,"is_disabled":false,"rental_uris":{"android":"levelo://app?vid=e25d4bf5-d6b4-4825-9ae0-e18cf0d299d7","ios":"levelo://app?vid=e25d4bf5-d6b4-4825-9ae0-e18cf0d299d7"},"vehicle_type_id":"4","last_reported":1758824170,"current_range_meters":10000,"station_id":"ce4bgr92rcd13ifvqc7g","pricing_plan_id":"cebpf4jnsgd1na2vs0mg"},{"bike_id":"ba231b6a-3914-43c9-8ee3-0dd7f95e3545","system_id":"levelo_inurba_marseille","lat":43.31887,"lon":5.40744,"is_reserved":false,"is_disabled":false,"rental_uris":{"android":"levelo://app?vid=ba231b6a-3914-43c9-8ee3-0dd7f95e3545","ios":"levelo://app?vid=ba231b6a-3914-43c9-8ee3-0dd7f95e3545"},"vehicle_type_id":"4","last_reported":1758824170,"current_range_meters":12800,"station_id":"ce4bhq12rcd13ifvqhig","pricing_plan_id":"cebpf4jnsgd1na2vs0mg"},{"bike_id":"1416a2c2-44b9-4d80-a06f-153b298d8fa5","system_id":"levelo_inurba_marseille","lat":43.286636,"lon":5.386511,"is_reserved":false,"is_disabled":false,"rental_uris":{"android":"levelo://app?vid=1416a2c2-44b9-4d80-a06f-153b298d8fa5","ios":"levelo://app?vid=1416a2c2-44b9-4d80-a06f-153b298d8fa5"},"vehicle_type_id":"4","last_reported":1758824170,"current_range_meters":13600,"station_id":"ce4bh492rcd13ifvqdug","pricing_plan_id":"cebpf4jnsgd1na2vs0mg"},{"bike_id":"e5303607-da03-4ac7-b81e-b332ede84cf7","system_id":"levelo_inurba_marseille","lat":43.31295,"lon":5.37823,"is_reserved":false,"is_disabled":false,"rental_uris":{"android":"levelo://app?vid=e5303607-da03-4ac7-b81e-b332ede84cf7","ios":"levelo://app?vid=e5303607-da03-4ac7-b81e-b332ede84cf7"},"vehicle_type_id":"4","last_reported":1758824170,"current_range_meters":13600,"station_id":"","pricing_plan_id":"cebpf4jnsgd1na2vs0mg"},{"bike_id":"358b5bd0-bd1a-4b9c-b0d1-08dbb5ab85b3","system_id":"levelo_inurba_marseille","lat":43.27055,"lon":5.40266,"is_reserved":false,"is_disabled":false,"rental_uris":{"android":"levelo://app?vid=358b5bd0-bd1a-4b9c-b0d1-08dbb5ab85b3","ios":"levelo://app?vid=358b5bd0-bd1a-4b9c-b0d1-08dbb5ab85b3"},"vehicle_type_id":"4","last_reported":1758824170,"current_range_meters":14000,"station_id":"ce4bhk92rcd13ifvqgc0","pricing_plan_id":"cebpf4jnsgd1na2vs0mg"},{"bike_id":"b01b5bc6-6834-41fb-be97-f5b6fb7e9ec8","system_id":"levelo_inurba_marseille","lat":43.26318,"lon":5.39884,"is_reserved":false,"is_disabled":false,"rental_uris":{"android":"levelo://app?vid=b01b5bc6-6834-41fb-be97-f5b6fb7e9ec8","ios":"levelo://app?vid=b01b5bc6-6834-41fb-be97-f5b6fb7e9ec8"},"vehicle_type_id":"4","last_reported":1758824170,"current_range_meters":14000,"station_id":"","pricing_plan_id":"cebpf4jnsgd1na2vs0mg"},{"bike_id":"a2e0624f-d13c-4ca4-b803-eb42731914aa","system_id":"levelo_inurba_marseille","lat":43.30136,"lon":5.38785,"is_reserved":false,"is_disabled":false,"rental_uris":{"android":"levelo://app?vid=a2e0624f-d13c-4ca4-b803-eb42731914aa","ios":"levelo://app?vid=a2e0624f-d13c-4ca4-b803-eb42731914aa"},"vehicle_type_id":"4","last_reported":1758824170,"current_range_meters":14000,"station_id":"ce4bghh2rcd13ifvqb60","pricing_plan_id":"cebpf4jnsgd1na2vs0mg"},{"bike_id":"11a160ff-b883-4187-aac8-caac1341135a","system_id":"levelo_inurba_marseille","lat":43.24942,"lon":5.40504,"is_reserved":false,"is_disabled":false,"rental_uris":{"android":"levelo://app?vid=11a160ff-b883-4187-aac8-caac1341135a","ios":"levelo://app?vid=11a160ff-b883-4187-aac8-caac1341135a"},"vehicle_type_id":"4","last_reported":1758824170,"current_range_meters":14000,"station_id":"st_d2ngiaodas8pm72gd1h0","pricing_plan_id":"cebpf4jnsgd1na2vs0mg"},{"bike_id":"c7f6a08b-c655-4213-b2ba-7d02e7f382fe","system_id":"levelo_inurba_marseille","lat":43.27988,"lon":5.39483,"is_reserved":false,"is_disabled":false,"rental_uris":{"android":"levelo://app?vid=c7f6a08b-c655-4213-b2ba-7d02e7f382fe","ios":"levelo://app?vid=c7f6a08b-c655-4213-b2ba-7d02e7f382fe"},"vehicle_type_id":"4","last_reported":1758824170,"current_range_meters":14000,"station_id":"","pricing_plan_id":"cebpf4jnsgd1na2vs0mg"},{"bike_id":"7a6e4798-b167-492a-bf21-02e3f93b724f","system_id":"levelo_inurba_marseille","lat":43.28077,"lon":5.39664,"is_reserved":false,"is_disabled":false,"rental_uris":{"android":"levelo://app?vid=7a6e4798-b167-492a-bf21-02e3f93b724f","ios":"levelo://app?vid=7a6e4798-b167-492a-bf21-02e3f93b724f"},"vehicle_type_id":"4","last_reported":1758824170,"current_range_meters":13600,"station_id":"ce4bho12rcd13ifvqh2g","pricing_plan_id":"cebpf4jnsgd1na2vs0mg"},{"bike_id":"0272395f-98d6-4625-bbd7-6d7428a8ef31","system_id":"levelo_inurba_marseille","lat":43.27211,"lon":5.3918,"is_reserved":false,"is_disabled":false,"rental_uris":{"android":"levelo://app?vid=0272395f-98d6-4625-bbd7-6d7428a8ef31","ios":"levelo://app?vid=0272395f-98d6-4625-bbd7-6d7428a8ef31"},"vehicle_type_id":"4","last_reported":1758824170,"current_range_meters":14000,"station_id":"ce4bhhp2rcd13ifvqfm0","pricing_plan_id":"cebpf4jnsgd1na2vs0mg"},{"bike_id":"6381dda9-926a-4690-8d6c-4480adec707c","system_id":"levelo_inurba_marseille","lat":43.28463,"lon":5.35892,"is_reserved":false,"is_disabled":false,"rental_uris":{"android":"levelo://app?vid=6381dda9-926a-4690-8d6c-4480adec707c","ios":"levelo://app?vid=6381dda9-926a-4690-8d6c-4480adec707c"},"vehicle_type_id":"4","last_reported":1758824170,"current_range_meters":14000,"station_id":"ce4bhah2rcd13ifvqei0","pricing_plan_id":"cebpf4jnsgd1na2vs0mg"},{"bike_id":"0d54f249-b891-4504-a5ff-687b2a4870e6","system_id":"levelo_inurba_marseille","lat":43.28604,"lon":5.35104,"is_reserved":false,"is_disabled":false,"rental_uris":{"android":"levelo://app?vid=0d54f249-b891-4504-a5ff-687b2a4870e6","ios":"levelo://app?vid=0d54f249-b891-4504-a5ff-687b2a4870e6"},"vehicle_type_id":"4","last_reported":1758824170,"current_range_meters":14400,"station_id":"ce4bhch2rcd13ifvqeug","pricing_plan_id":"cebpf4jnsgd1na2vs0mg"},{"bike_id":"d734f0f7-bb82-4cbc-9571-824c32d91d22","system_id":"levelo_inurba_marseille","lat":43.24167,"lon":5.36389,"is_reserved":false,"is_disabled":false,"rental_uris":{"android":"levelo://app?vid=d734f0f7-bb82-4cbc-9571-824c32d91d22","ios":"levelo://app?vid=d734f0f7-bb82-4cbc-9571-824c32d91d22"},"vehicle_type_id":"4","last_reported":1758824170,"current_range_meters":14400,"station_id":"cpo36qri1sfpv3e86is0","pricing_plan_id":"cebpf4jnsgd1na2vs0mg"},{"bike_id":"01d0137b-9354-409f-8652-db7124807501","system_id":"levelo_inurba_marseille","lat":43.30246,"lon":5.4009,"is_reserved":false,"is_disabled":false,"rental_uris":{"android":"levelo://app?vid=01d0137b-9354-409f-8652-db7124807501","ios":"levelo://app?vid=01d0137b-9354-409f-8652-db7124807501"},"vehicle_type_id":"4","last_reported":1758824170,"current_range_meters":14400,"station_id":"ce4bgvh2rcd13ifvqcs0","pricing_plan_id":"cebpf4jnsgd1na2vs0mg"},{"bike_id":"21ae791e-55ed-463d-9bf2-862ce4bcab15","system_id":"levelo_inurba_marseille","lat":43.28474,"lon":5.38418,"is_reserved":false,"is_disabled":false,"rental_uris":{"android":"levelo://app?vid=21ae791e-55ed-463d-9bf2-862ce4bcab15","ios":"levelo://app?vid=21ae791e-55ed-463d-9bf2-862ce4bcab15"},"vehicle_type_id":"4","last_reported":1758824170,"current_range_meters":14400,"station_id":"ce4bh512rcd13ifvqe3g","pricing_plan_id":"cebpf4jnsgd1na2vs0mg"},{"bike_id":"041cd397-24ab-4e04-af23-07b961e161f4","system_id":"levelo_inurba_marseille","lat":43.337444,"lon":5.374475,"is_reserved":false,"is_disabled":false,"rental_uris":{"android":"levelo://app?vid=041cd397-24ab-4e04-af23-07b961e161f4","ios":"levelo://app?vid=041cd397-24ab-4e04-af23-07b961e161f4"},"vehicle_type_id":"4","last_reported":1758824170,"current_range_meters":14400,"station_id":"","pricing_plan_id":"cebpf4jnsgd1na2vs0mg"},{"bike_id":"6730e1a2-3dd4-4c98-96f6-fb07e00826cf","system_id":"levelo_inurba_marseille","lat":43.24073,"lon":5.37763,"is_reserved":false,"is_disabled":false,"rental_uris":{"android":"levelo://app?vid=6730e1a2-3dd4-4c98-96f6-fb07e00826cf","ios":"levelo://app?vid=6730e1a2-3dd4-4c98-96f6-fb07e00826cf"},"vehicle_type_id":"4","last_reported":1758824170,"current_range_meters":14400,"station_id":"ce4bhnp2rcd13ifvqgvg","pricing_plan_id":"cebpf4jnsgd1na2vs0mg"},{"bike_id":"8357d2f7-a278-474c-a811-78d8906062ed","system_id":"levelo_inurba_marseille","lat":43.26504,"lon":5.39537,"is_reserved":false,"is_disabled":false,"rental_uris":{"android":"levelo://app?vid=8357d2f7-a278-474c-a811-78d8906062ed","ios":"levelo://app?vid=8357d2f7-a278-474c-a811-78d8906062ed"},"vehicle_type_id":"4","last_reported":1758824170,"current_range_meters":14400,"station_id":"ce4bhi12rcd13ifvqfq0","pricing_plan_id":"cebpf4jnsgd1na2vs0mg"},{"bike_id":"df649d25-1f44-4471-8cdd-9566da8ef9b9","system_id":"levelo_inurba_marseille","lat":43.32153,"lon":5.38757,"is_reserved":false,"is_disabled":false,"rental_uris":{"android":"levelo://app?vid=df649d25-1f44-4471-8cdd-9566da8ef9b9","ios":"levelo://app?vid=df649d25-1f44-4471-8cdd-9566da8ef9b9"},"vehicle_type_id":"4","last_reported":1758824170,"current_range_meters":14800,"station_id":"","pricing_plan_id":"cebpf4jnsgd1na2vs0mg"},{"bike_id":"e8df2064-4082-44d6-920d-9c27644a796e","system_id":"levelo_inurba_marseille","lat":43.27068,"lon":5.42282,"is_reserved":false,"is_disabled":false,"rental_uris":{"android":"levelo://app?vid=e8df2064-4082-44d6-920d-9c27644a796e","ios":"levelo://app?vid=e8df2064-4082-44d6-920d-9c27644a796e"},"vehicle_type_id":"4","last_reported":1758824170,"current_range_meters":14400,"station_id":"ce4bhk92rcd13ifvqgb0","pricing_plan_id":"cebpf4jnsgd1na2vs0mg"},{"bike_id":"f5ed8a80-fa50-41c7-af2c-1d0772550a93","system_id":"levelo_inurba_marseille","lat":43.25577,"lon":5.3824,"is_reserved":false,"is_disabled":false,"rental_uris":{"android":"levelo://app?vid=f5ed8a80-fa50-41c7-af2c-1d0772550a93","ios":"levelo://app?vid=f5ed8a80-fa50-41c7-af2c-1d0772550a93"},"vehicle_type_id":"4","last_reported":1758824170,"current_range_meters":14800,"station_id":"ce4bhih2rcd13ifvqfs0","pricing_plan_id":"cebpf4jnsgd1na2vs0mg"},{"bike_id":"c24f5fcb-099a-4886-b0d2-a1711a9992de","system_id":"levelo_inurba_marseille","lat":43.28929,"lon":5.36645,"is_reserved":false,"is_disabled":false,"rental_uris":{"android":"levelo://app?vid=c24f5fcb-099a-4886-b0d2-a1711a9992de","ios":"levelo://app?vid=c24f5fcb-099a-4886-b0d2-a1711a9992de"},"vehicle_type_id":"4","last_reported":1758824170,"current_range_meters":14800,"station_id":"ce4bhap2rcd13ifvqek0","pricing_plan_id":"cebpf4jnsgd1na2vs0mg"},{"bike_id":"20335b9a-b9ff-4cf7-8da6-d71306fdd3e6","system_id":"levelo_inurba_marseille","lat":43.32496,"lon":5.36572,"is_reserved":false,"is_disabled":false,"rental_uris":{"android":"levelo://app?vid=20335b9a-b9ff-4cf7-8da6-d71306fdd3e6","ios":"levelo://app?vid=20335b9a-b9ff-4cf7-8da6-d71306fdd3e6"},"vehicle_type_id":"4","last_reported":1758824170,"current_range_meters":14400,"station_id":"ce4bhs12rcd13ifvqhvg","pricing_plan_id":"cebpf4jnsgd1na2vs0mg"},{"bike_id":"36a5e0f5-8b9f-47db-9c57-a5ba8d15cf49","system_id":"levelo_inurba_marseille","lat":43.299847,"lon":5.366344,"is_reserved":false,"is_disabled":false,"rental_uris":{"android":"levelo://app?vid=36a5e0f5-8b9f-47db-9c57-a5ba8d15cf49","ios":"levelo://app?vid=36a5e0f5-8b9f-47db-9c57-a5ba8d15cf49"},"vehicle_type_id":"4","last_reported":1758824170,"current_range_meters":14800,"station_id":"ce4bgm92rcd13ifvqbr0","pricing_plan_id":"cebpf4jnsgd1na2vs0mg"},{"bike_id":"82681877-2398-4814-baf7-8de5d4bb8db8","system_id":"levelo_inurba_marseille","lat":43.28143,"lon":5.42672,"is_reserved":false,"is_disabled":false,"rental_uris":{"android":"levelo://app?vid=82681877-2398-4814-baf7-8de5d4bb8db8","ios":"levelo://app?vid=82681877-2398-4814-baf7-8de5d4bb8db8"},"vehicle_type_id":"4","last_reported":1758824170,"current_range_meters":15200,"station_id":"ce4bhnh2rcd13ifvqgug","pricing_plan_id":"cebpf4jnsgd1na2vs0mg"},{"bike_id":"97a5ee76-2e0a-479d-a727-d5a9ad8fecb2","system_id":"levelo_inurba_marseille","lat":43.22936,"lon":5.35405,"is_reserved":false,"is_disabled":false,"rental_uris":{"android":"levelo://app?vid=97a5ee76-2e0a-479d-a727-d5a9ad8fecb2","ios":"levelo://app?vid=97a5ee76-2e0a-479d-a727-d5a9ad8fecb2"},"vehicle_type_id":"4","last_reported":1758824170,"current_range_meters":15200,"station_id":"cpo3532slgdg3j2ikp40","pricing_plan_id":"cebpf4jnsgd1na2vs0mg"},{"bike_id":"c6b3e536-9745-4760-93b7-a9b7697329d8","system_id":"levelo_inurba_marseille","lat":43.28407,"lon":5.34997,"is_reserved":false,"is_disabled":false,"rental_uris":{"android":"levelo://app?vid=c6b3e536-9745-4760-93b7-a9b7697329d8","ios":"levelo://app?vid=c6b3e536-9745-4760-93b7-a9b7697329d8"},"vehicle_type_id":"4","last_reported":1758824170,"current_range_meters":15200,"station_id":"ce4bhbh2rcd13ifvqepg","pricing_plan_id":"cebpf4jnsgd1na2vs0mg"},{"bike_id":"88a9c256-5df7-4d2f-871d-64a4a69529ea","system_id":"levelo_inurba_marseille","lat":43.29024,"lon":5.38651,"is_reserved":false,"is_disabled":false,"rental_uris":{"android":"levelo://app?vid=88a9c256-5df7-4d2f-871d-64a4a69529ea","ios":"levelo://app?vid=88a9c256-5df7-4d2f-871d-64a4a69529ea"},"vehicle_type_id":"4","last_reported":1758824170,"current_range_meters":15200,"station_id":"ce4bh4p2rcd13ifvqe0g","pricing_plan_id":"cebpf4jnsgd1na2vs0mg"},{"bike_id":"39e6b2d7-e7bc-4366-8a01-87bc46855564","system_id":"levelo_inurba_marseille","lat":43.3209,"lon":5.36861,"is_reserved":false,"is_disabled":false,"rental_uris":{"android":"levelo://app?vid=39e6b2d7-e7bc-4366-8a01-87bc46855564","ios":"levelo://app?vid=39e6b2d7-e7bc-4366-8a01-87bc46855564"},"vehicle_type_id":"4","last_reported":1758824170,"current_range_meters":15200,"station_id":"","pricing_plan_id":"cebpf4jnsgd1na2vs0mg"},{"bike_id":"b6ff3672-4e7c-404c-ab2a-bd902cf95e14","system_id":"levelo_inurba_marseille","lat":43.26836,"lon":5.4068,"is_reserved":false,"is_disabled":false,"rental_uris":{"android":"levelo://app?vid=b6ff3672-4e7c-404c-ab2a-bd902cf95e14","ios":"levelo://app?vid=b6ff3672-4e7c-404c-ab2a-bd902cf95e14"},"vehicle_type_id":"4","last_reported":1758824170,"current_range_meters":15200,"station_id":"","pricing_plan_id":"cebpf4jnsgd1na2vs0mg"},{"bike_id":"81513c38-4122-42c9-a5eb-4cb5b1dc4508","system_id":"levelo_inurba_marseille","lat":43.29558,"lon":5.38549,"is_reserved":false,"is_disabled":false,"rental_uris":{"android":"levelo://app?vid=81513c38-4122-42c9-a5eb-4cb5b1dc4508","ios":"levelo://app?vid=81513c38-4122-42c9-a5eb-4cb5b1dc4508"},"vehicle_type_id":"4","last_reported":1758824170,"current_range_meters":16000,"station_id":"ce4bgih2rcd13ifvqba0","pricing_plan_id":"cebpf4jnsgd1na2vs0mg"},{"bike_id":"417774c2-879e-43c6-9f27-b4552f09243c","system_id":"levelo_inurba_marseille","lat":43.28996,"lon":5.35618,"is_reserved":false,"is_disabled":false,"rental_uris":{"android":"levelo://app?vid=417774c2-879e-43c6-9f27-b4552f09243c","ios":"levelo://app?vid=417774c2-879e-43c6-9f27-b4552f09243c"},"vehicle_type_id":"4","last_reported":1758824170,"current_range_meters":16000,"station_id":"ce4bhb92rcd13ifvqen0","pricing_plan_id":"cebpf4jnsgd1na2vs0mg"},{"bike_id":"97bfabe2-678f-4469-8156-b2c689b4137d","system_id":"levelo_inurba_marseille","lat":43.32007,"lon":5.38159,"is_reserved":false,"is_disabled":false,"rental_uris":{"android":"levelo://app?vid=97bfabe2-678f-4469-8156-b2c689b4137d","ios":"levelo://app?vid=97bfabe2-678f-4469-8156-b2c689b4137d"},"vehicle_type_id":"4","last_reported":1758824170,"current_range_meters":16000,"station_id":"ce4bhr12rcd13ifvqhpg","pricing_plan_id":"cebpf4jnsgd1na2vs0mg"},{"bike_id":"232f7f05-11b0-4e83-87a0-d64195604901","system_id":"levelo_inurba_marseille","lat":43.27987,"lon":5.41663,"is_reserved":false,"is_disabled":false,"rental_uris":{"android":"levelo://app?vid=232f7f05-11b0-4e83-87a0-d64195604901","ios":"levelo://app?vid=232f7f05-11b0-4e83-87a0-d64195604901"},"vehicle_type_id":"4","last_reported":1758824170,"current_range_meters":16000,"station_id":"ce4bho12rcd13ifvqh1g","pricing_plan_id":"cebpf4jnsgd1na2vs0mg"},{"bike_id":"9b60f32b-f965-4366-b2f7-6a0d1f9f47cb","system_id":"levelo_inurba_marseille","lat":43.26062,"lon":5.39421,"is_reserved":false,"is_disabled":false,"rental_uris":{"android":"levelo://app?vid=9b60f32b-f965-4366-b2f7-6a0d1f9f47cb","ios":"levelo://app?vid=9b60f32b-f965-4366-b2f7-6a0d1f9f47cb"},"vehicle_type_id":"4","last_reported":1758824170,"current_range_meters":16000,"station_id":"ce4bhh92rcd13ifvqfj0","pricing_plan_id":"cebpf4jnsgd1na2vs0mg"},{"bike_id":"b2c2d7a9-f43e-4dfa-b097-6da79d8a57ca","system_id":"levelo_inurba_marseille","lat":43.32338,"lon":5.4062,"is_reserved":false,"is_disabled":false,"rental_uris":{"android":"levelo://app?vid=b2c2d7a9-f43e-4dfa-b097-6da79d8a57ca","ios":"levelo://app?vid=b2c2d7a9-f43e-4dfa-b097-6da79d8a57ca"},"vehicle_type_id":"4","last_reported":1758824170,"current_range_meters":16000,"station_id":"ce4bhq92rcd13ifvqhjg","pricing_plan_id":"cebpf4jnsgd1na2vs0mg"},{"bike_id":"9811e1f7-6003-4f66-9587-6fdbbe85e0ed","system_id":"levelo_inurba_marseille","lat":43.29557,"lon":5.4228,"is_reserved":false,"is_disabled":false,"rental_uris":{"android":"levelo://app?vid=9811e1f7-6003-4f66-9587-6fdbbe85e0ed","ios":"levelo://app?vid=9811e1f7-6003-4f66-9587-6fdbbe85e0ed"},"vehicle_type_id":"4","last_reported":1758824170,"current_range_meters":16000,"station_id":"ce4bhph2rcd13ifvqhdg","pricing_plan_id":"cebpf4jnsgd1na2vs0mg"},{"bike_id":"c31c58ee-4e29-4ce3-bf0a-25ae5cf57cfc","system_id":"levelo_inurba_marseille","lat":43.24953,"lon":5.40495,"is_reserved":false,"is_disabled":false,"rental_uris":{"android":"levelo://app?vid=c31c58ee-4e29-4ce3-bf0a-25ae5cf57cfc","ios":"levelo://app?vid=c31c58ee-4e29-4ce3-bf0a-25ae5cf57cfc"},"vehicle_type_id":"4","last_reported":1758824170,"current_range_meters":16000,"station_id":"st_d2ngiaodas8pm72gd1h0","pricing_plan_id":"cebpf4jnsgd1na2vs0mg"},{"bike_id":"93221205-1cb1-4deb-9601-712513d2fe2b","system_id":"levelo_inurba_marseille","lat":43.2405,"lon":5.37751,"is_reserved":false,"is_disabled":false,"rental_uris":{"android":"levelo://app?vid=93221205-1cb1-4deb-9601-712513d2fe2b","ios":"levelo://app?vid=93221205-1cb1-4deb-9601-712513d2fe2b"},"vehicle_type_id":"4","last_reported":1758824170,"current_range_meters":16000,"station_id":"ce4bhnp2rcd13ifvqgvg","pricing_plan_id":"cebpf4jnsgd1na2vs0mg"},{"bike_id":"a57b3feb-2354-42fe-87fd-e8fcee3a0260","system_id":"levelo_inurba_marseille","lat":43.26953,"lon":5.40241,"is_reserved":false,"is_disabled":false,"rental_uris":{"android":"levelo://app?vid=a57b3feb-2354-42fe-87fd-e8fcee3a0260","ios":"levelo://app?vid=a57b3feb-2354-42fe-87fd-e8fcee3a0260"},"vehicle_type_id":"4","last_reported":1758824170,"current_range_meters":16000,"station_id":"","pricing_plan_id":"cebpf4jnsgd1na2vs0mg"},{"bike_id":"97be8e1b-8e50-4131-b4ce-8a578ed1e157","system_id":"levelo_inurba_marseille","lat":43.29271,"lon":5.3685,"is_reserved":false,"is_disabled":false,"rental_uris":{"android":"levelo://app?vid=97be8e1b-8e50-4131-b4ce-8a578ed1e157","ios":"levelo://app?vid=97be8e1b-8e50-4131-b4ce-8a578ed1e157"},"vehicle_type_id":"4","last_reported":1758824170,"current_range_meters":16400,"station_id":"ce4bhbp2rcd13ifvqesg","pricing_plan_id":"cebpf4jnsgd1na2vs0mg"},{"bike_id":"67f58060-376b-4aa6-b6af-75cf3296d6d8","system_id":"levelo_inurba_marseille","lat":43.24177,"lon":5.39728,"is_reserved":false,"is_disabled":false,"rental_uris":{"android":"levelo://app?vid=67f58060-376b-4aa6-b6af-75cf3296d6d8","ios":"levelo://app?vid=67f58060-376b-4aa6-b6af-75cf3296d6d8"},"vehicle_type_id":"4","last_reported":1758824170,"current_range_meters":16400,"station_id":"ce4bhn12rcd13ifvqgpg","pricing_plan_id":"cebpf4jnsgd1na2vs0mg"},{"bike_id":"7e848ad8-3b46-4990-8791-073379270774","system_id":"levelo_inurba_marseille","lat":43.27315,"lon":5.39103,"is_reserved":false,"is_disabled":true,"rental_uris":{"android":"levelo://app?vid=7e848ad8-3b46-4990-8791-073379270774","ios":"levelo://app?vid=7e848ad8-3b46-4990-8791-073379270774"},"vehicle_type_id":"4","last_reported":1758824170,"current_range_meters":16400,"station_id":"ce4bhgp2rcd13ifvqfe0","pricing_plan_id":"cebpf4jnsgd1na2vs0mg"},{"bike_id":"5d3df889-eebb-40dc-8732-8dd40cb2d6af","system_id":"levelo_inurba_marseille","lat":43.26792,"lon":5.40273,"is_reserved":false,"is_disabled":false,"rental_uris":{"android":"levelo://app?vid=5d3df889-eebb-40dc-8732-8dd40cb2d6af","ios":"levelo://app?vid=5d3df889-eebb-40dc-8732-8dd40cb2d6af"},"vehicle_type_id":"4","last_reported":1758824170,"current_range_meters":16400,"station_id":"ce501612rcd8frsf0b60","pricing_plan_id":"cebpf4jnsgd1na2vs0mg"},{"bike_id":"b4f47bc1-4d12-4541-a757-a859819c9d1c","system_id":"levelo_inurba_marseille","lat":43.276802,"lon":5.388803,"is_reserved":false,"is_disabled":true,"rental_uris":{"android":"levelo://app?vid=b4f47bc1-4d12-4541-a757-a859819c9d1c","ios":"levelo://app?vid=b4f47bc1-4d12-4541-a757-a859819c9d1c"},"vehicle_type_id":"4","last_reported":1758824170,"current_range_meters":16400,"station_id":"","pricing_plan_id":"cebpf4jnsgd1na2vs0mg"},{"bike_id":"f5a888db-229a-4246-81ee-0ff2a1bcfdfa","system_id":"levelo_inurba_marseille","lat":43.22958,"lon":5.35349,"is_reserved":false,"is_disabled":false,"rental_uris":{"android":"levelo://app?vid=f5a888db-229a-4246-81ee-0ff2a1bcfdfa","ios":"levelo://app?vid=f5a888db-229a-4246-81ee-0ff2a1bcfdfa"},"vehicle_type_id":"4","last_reported":1758824170,"current_range_meters":16400,"station_id":"cpo3532slgdg3j2ikp40","pricing_plan_id":"cebpf4jnsgd1na2vs0mg"},{"bike_id":"2cd51364-502a-41a4-bc3b-55c477f7c7cb","system_id":"levelo_inurba_marseille","lat":43.30528,"lon":5.38438,"is_reserved":false,"is_disabled":false,"rental_uris":{"android":"levelo://app?vid=2cd51364-502a-41a4-bc3b-55c477f7c7cb","ios":"levelo://app?vid=2cd51364-502a-41a4-bc3b-55c477f7c7cb"},"vehicle_type_id":"4","last_reported":1758824170,"current_range_meters":16400,"station_id":"ce4bgg92rcd13ifvqb30","pricing_plan_id":"cebpf4jnsgd1na2vs0mg"},{"bike_id":"6ff62d79-81a4-487f-8694-4fb22f54a494","system_id":"levelo_inurba_marseille","lat":43.32479,"lon":5.39177,"is_reserved":false,"is_disabled":false,"rental_uris":{"android":"levelo://app?vid=6ff62d79-81a4-487f-8694-4fb22f54a494","ios":"levelo://app?vid=6ff62d79-81a4-487f-8694-4fb22f54a494"},"vehicle_type_id":"4","last_reported":1758824170,"current_range_meters":16400,"station_id":"","pricing_plan_id":"cebpf4jnsgd1na2vs0mg"},{"bike_id":"7984d69b-e4e3-4aa7-9904-7b9d506c24f5","system_id":"levelo_inurba_marseille","lat":43.30346,"lon":5.41887,"is_reserved":false,"is_disabled":false,"rental_uris":{"android":"levelo://app?vid=7984d69b-e4e3-4aa7-9904-7b9d506c24f5","ios":"levelo://app?vid=7984d69b-e4e3-4aa7-9904-7b9d506c24f5"},"vehicle_type_id":"4","last_reported":1758824170,"current_range_meters":16400,"station_id":"ce4bhop2rcd13ifvqh7g","pricing_plan_id":"cebpf4jnsgd1na2vs0mg"},{"bike_id":"6f97756d-103a-472e-9ee0-e1b6357d8727","system_id":"levelo_inurba_marseille","lat":43.30858,"lon":5.39678,"is_reserved":false,"is_disabled":false,"rental_uris":{"android":"levelo://app?vid=6f97756d-103a-472e-9ee0-e1b6357d8727","ios":"levelo://app?vid=6f97756d-103a-472e-9ee0-e1b6357d8727"},"vehicle_type_id":"4","last_reported":1758824170,"current_range_meters":16800,"station_id":"","pricing_plan_id":"cebpf4jnsgd1na2vs0mg"},{"bike_id":"13be0879-670b-43f4-8fc1-8fbc1c4ccf9c","system_id":"levelo_inurba_marseille","lat":43.28425,"lon":5.34992,"is_reserved":false,"is_disabled":false,"rental_uris":{"android":"levelo://app?vid=13be0879-670b-43f4-8fc1-8fbc1c4ccf9c","ios":"levelo://app?vid=13be0879-670b-43f4-8fc1-8fbc1c4ccf9c"},"vehicle_type_id":"4","last_reported":1758824170,"current_range_meters":16800,"station_id":"ce4bhbh2rcd13ifvqepg","pricing_plan_id":"cebpf4jnsgd1na2vs0mg"},{"bike_id":"37fc5338-fbbe-4cac-85f5-874f18b61471","system_id":"levelo_inurba_marseille","lat":43.29712,"lon":5.36612,"is_reserved":false,"is_disabled":false,"rental_uris":{"android":"levelo://app?vid=37fc5338-fbbe-4cac-85f5-874f18b61471","ios":"levelo://app?vid=37fc5338-fbbe-4cac-85f5-874f18b61471"},"vehicle_type_id":"4","last_reported":1758824170,"current_range_meters":16800,"station_id":"ce4bgn12rcd13ifvqbt0","pricing_plan_id":"cebpf4jnsgd1na2vs0mg"},{"bike_id":"5d99be99-4711-4b38-9a7b-169727be80ee","system_id":"levelo_inurba_marseille","lat":43.27809,"lon":5.40709,"is_reserved":false,"is_disabled":false,"rental_uris":{"android":"levelo://app?vid=5d99be99-4711-4b38-9a7b-169727be80ee","ios":"levelo://app?vid=5d99be99-4711-4b38-9a7b-169727be80ee"},"vehicle_type_id":"4","last_reported":1758824170,"current_range_meters":16400,"station_id":"ce4bhnh2rcd13ifvqgtg","pricing_plan_id":"cebpf4jnsgd1na2vs0mg"},{"bike_id":"241ec867-5955-4cd4-b600-79c3c62082db","system_id":"levelo_inurba_marseille","lat":43.28729,"lon":5.36085,"is_reserved":false,"is_disabled":false,"rental_uris":{"android":"levelo://app?vid=241ec867-5955-4cd4-b600-79c3c62082db","ios":"levelo://app?vid=241ec867-5955-4cd4-b600-79c3c62082db"},"vehicle_type_id":"4","last_reported":1758824170,"current_range_meters":16800,"station_id":"cki0cbj6b192h4jlfktg","pricing_plan_id":"cebpf4jnsgd1na2vs0mg"},{"bike_id":"20066006-0391-4839-a57f-37d68b9c070a","system_id":"levelo_inurba_marseille","lat":43.30715,"lon":5.42431,"is_reserved":false,"is_disabled":false,"rental_uris":{"android":"levelo://app?vid=20066006-0391-4839-a57f-37d68b9c070a","ios":"levelo://app?vid=20066006-0391-4839-a57f-37d68b9c070a"},"vehicle_type_id":"4","last_reported":1758824170,"current_range_meters":17200,"station_id":"st_cvj6ca6bvosntc0bfgr0","pricing_plan_id":"cebpf4jnsgd1na2vs0mg"},{"bike_id":"327c041e-5c9e-4b0d-a97c-a2dbaab036ae","system_id":"levelo_inurba_marseille","lat":43.32808,"lon":5.41156,"is_reserved":false,"is_disabled":false,"rental_uris":{"android":"levelo://app?vid=327c041e-5c9e-4b0d-a97c-a2dbaab036ae","ios":"levelo://app?vid=327c041e-5c9e-4b0d-a97c-a2dbaab036ae"},"vehicle_type_id":"4","last_reported":1758824170,"current_range_meters":17200,"station_id":"","pricing_plan_id":"cebpf4jnsgd1na2vs0mg"},{"bike_id":"c7d588b9-c1d0-4b5c-a2d6-22e3733e9198","system_id":"levelo_inurba_marseille","lat":43.28994,"lon":5.35604,"is_reserved":false,"is_disabled":false,"rental_uris":{"android":"levelo://app?vid=c7d588b9-c1d0-4b5c-a2d6-22e3733e9198","ios":"levelo://app?vid=c7d588b9-c1d0-4b5c-a2d6-22e3733e9198"},"vehicle_type_id":"4","last_reported":1758824170,"current_range_meters":17200,"station_id":"ce4bhb92rcd13ifvqen0","pricing_plan_id":"cebpf4jnsgd1na2vs0mg"},{"bike_id":"75611fb7-df45-4d9f-9db0-a181136cc424","system_id":"levelo_inurba_marseille","lat":43.21754,"lon":5.34624,"is_reserved":false,"is_disabled":true,"rental_uris":{"android":"levelo://app?vid=75611fb7-df45-4d9f-9db0-a181136cc424","ios":"levelo://app?vid=75611fb7-df45-4d9f-9db0-a181136cc424"},"vehicle_type_id":"4","last_reported":1758824170,"current_range_meters":17200,"station_id":"st_cvj6r9ubvosntc0bgbag","pricing_plan_id":"cebpf4jnsgd1na2vs0mg"},{"bike_id":"280349c2-7d75-4732-844a-272770d12d07","system_id":"levelo_inurba_marseille","lat":43.24949,"lon":5.40493,"is_reserved":false,"is_disabled":false,"rental_uris":{"android":"levelo://app?vid=280349c2-7d75-4732-844a-272770d12d07","ios":"levelo://app?vid=280349c2-7d75-4732-844a-272770d12d07"},"vehicle_type_id":"4","last_reported":1758824170,"current_range_meters":17200,"station_id":"st_d2ngiaodas8pm72gd1h0","pricing_plan_id":"cebpf4jnsgd1na2vs0mg"},{"bike_id":"ccabd35a-a691-4eed-acd2-dce907f56433","system_id":"levelo_inurba_marseille","lat":43.3234,"lon":5.4066,"is_reserved":false,"is_disabled":false,"rental_uris":{"android":"levelo://app?vid=ccabd35a-a691-4eed-acd2-dce907f56433","ios":"levelo://app?vid=ccabd35a-a691-4eed-acd2-dce907f56433"},"vehicle_type_id":"4","last_reported":1758824170,"current_range_meters":17200,"station_id":"ce4bhq92rcd13ifvqhjg","pricing_plan_id":"cebpf4jnsgd1na2vs0mg"},{"bike_id":"377142cb-267c-494b-99d9-6fe238c4e676","system_id":"levelo_inurba_marseille","lat":43.30989,"lon":5.40786,"is_reserved":false,"is_disabled":false,"rental_uris":{"android":"levelo://app?vid=377142cb-267c-494b-99d9-6fe238c4e676","ios":"levelo://app?vid=377142cb-267c-494b-99d9-6fe238c4e676"},"vehicle_type_id":"4","last_reported":1758824170,"current_range_meters":17200,"station_id":"","pricing_plan_id":"cebpf4jnsgd1na2vs0mg"},{"bike_id":"2dbaf8fc-80aa-42cf-b351-4a95b8a0256c","system_id":"levelo_inurba_marseille","lat":43.295849,"lon":5.367484,"is_reserved":false,"is_disabled":false,"rental_uris":{"android":"levelo://app?vid=2dbaf8fc-80aa-42cf-b351-4a95b8a0256c","ios":"levelo://app?vid=2dbaf8fc-80aa-42cf-b351-4a95b8a0256c"},"vehicle_type_id":"4","last_reported":1758824170,"current_range_meters":16800,"station_id":"ce4bgph2rcd13ifvqc2g","pricing_plan_id":"cebpf4jnsgd1na2vs0mg"},{"bike_id":"08fe2b08-b3fa-43f8-ae73-04061f76318d","system_id":"levelo_inurba_marseille","lat":43.305552,"lon":5.365395,"is_reserved":false,"is_disabled":false,"rental_uris":{"android":"levelo://app?vid=08fe2b08-b3fa-43f8-ae73-04061f76318d","ios":"levelo://app?vid=08fe2b08-b3fa-43f8-ae73-04061f76318d"},"vehicle_type_id":"4","last_reported":1758824170,"current_range_meters":17200,"station_id":"","pricing_plan_id":"cebpf4jnsgd1na2vs0mg"},{"bike_id":"e9929d0b-c889-46fe-a3cb-4d6587dfd40e","system_id":"levelo_inurba_marseille","lat":43.30548,"lon":5.38409,"is_reserved":false,"is_disabled":false,"rental_uris":{"android":"levelo://app?vid=e9929d0b-c889-46fe-a3cb-4d6587dfd40e","ios":"levelo://app?vid=e9929d0b-c889-46fe-a3cb-4d6587dfd40e"},"vehicle_type_id":"4","last_reported":1758824170,"current_range_meters":17200,"station_id":"ce4bgg92rcd13ifvqb30","pricing_plan_id":"cebpf4jnsgd1na2vs0mg"},{"bike_id":"10b8d871-07e9-4114-9eb9-6bcce40e7beb","system_id":"levelo_inurba_marseille","lat":43.27045,"lon":5.392226,"is_reserved":false,"is_disabled":false,"rental_uris":{"android":"levelo://app?vid=10b8d871-07e9-4114-9eb9-6bcce40e7beb","ios":"levelo://app?vid=10b8d871-07e9-4114-9eb9-6bcce40e7beb"},"vehicle_type_id":"4","last_reported":1758824170,"current_range_meters":17200,"station_id":"ce4bhe12rcd13ifvqf30","pricing_plan_id":"cebpf4jnsgd1na2vs0mg"},{"bike_id":"467b4306-5fd8-484e-9a4b-cf8eb50151ba","system_id":"levelo_inurba_marseille","lat":43.3228,"lon":5.3828,"is_reserved":false,"is_disabled":false,"rental_uris":{"android":"levelo://app?vid=467b4306-5fd8-484e-9a4b-cf8eb50151ba","ios":"levelo://app?vid=467b4306-5fd8-484e-9a4b-cf8eb50151ba"},"vehicle_type_id":"4","last_reported":1758824170,"current_range_meters":17600,"station_id":"ce4bhr12rcd13ifvqhqg","pricing_plan_id":"cebpf4jnsgd1na2vs0mg"},{"bike_id":"7d386e92-0637-4894-be92-264d6a72c11e","system_id":"levelo_inurba_marseille","lat":43.28413,"lon":5.34991,"is_reserved":false,"is_disabled":false,"rental_uris":{"android":"levelo://app?vid=7d386e92-0637-4894-be92-264d6a72c11e","ios":"levelo://app?vid=7d386e92-0637-4894-be92-264d6a72c11e"},"vehicle_type_id":"4","last_reported":1758824170,"current_range_meters":17600,"station_id":"ce4bhbh2rcd13ifvqepg","pricing_plan_id":"cebpf4jnsgd1na2vs0mg"},{"bike_id":"b2219950-bb22-4648-9ba4-18cd9cf365ce","system_id":"levelo_inurba_marseille","lat":43.25089,"lon":5.39519,"is_reserved":false,"is_disabled":false,"rental_uris":{"android":"levelo://app?vid=b2219950-bb22-4648-9ba4-18cd9cf365ce","ios":"levelo://app?vid=b2219950-bb22-4648-9ba4-18cd9cf365ce"},"vehicle_type_id":"4","last_reported":1758824170,"current_range_meters":17600,"station_id":"ce4bhm12rcd13ifvqgkg","pricing_plan_id":"cebpf4jnsgd1na2vs0mg"},{"bike_id":"330b2c47-f746-44c7-9f13-5ee538bbcad2","system_id":"levelo_inurba_marseille","lat":43.2833,"lon":5.38112,"is_reserved":false,"is_disabled":false,"rental_uris":{"android":"levelo://app?vid=330b2c47-f746-44c7-9f13-5ee538bbcad2","ios":"levelo://app?vid=330b2c47-f746-44c7-9f13-5ee538bbcad2"},"vehicle_type_id":"4","last_reported":1758824170,"current_range_meters":17600,"station_id":"ce4bh412rcd13ifvqdr0","pricing_plan_id":"cebpf4jnsgd1na2vs0mg"},{"bike_id":"6924e35a-6e1a-4cc2-994f-51d06ed75695","system_id":"levelo_inurba_marseille","lat":43.24992,"lon":5.38935,"is_reserved":false,"is_disabled":false,"rental_uris":{"android":"levelo://app?vid=6924e35a-6e1a-4cc2-994f-51d06ed75695","ios":"levelo://app?vid=6924e35a-6e1a-4cc2-994f-51d06ed75695"},"vehicle_type_id":"4","last_reported":1758824170,"current_range_meters":17600,"station_id":"ce4bhgp2rcd13ifvqfd0","pricing_plan_id":"cebpf4jnsgd1na2vs0mg"},{"bike_id":"7f09bc43-02a6-468a-9182-731c83281b4a","system_id":"levelo_inurba_marseille","lat":43.26362,"lon":5.37503,"is_reserved":false,"is_disabled":false,"rental_uris":{"android":"levelo://app?vid=7f09bc43-02a6-468a-9182-731c83281b4a","ios":"levelo://app?vid=7f09bc43-02a6-468a-9182-731c83281b4a"},"vehicle_type_id":"4","last_reported":1758824170,"current_range_meters":17600,"station_id":"","pricing_plan_id":"cebpf4jnsgd1na2vs0mg"},{"bike_id":"6eb6bfc8-b6f6-4b63-8c32-a93d390996d8","system_id":"levelo_inurba_marseille","lat":43.28104,"lon":5.37826,"is_reserved":false,"is_disabled":false,"rental_uris":{"android":"levelo://app?vid=6eb6bfc8-b6f6-4b63-8c32-a93d390996d8","ios":"levelo://app?vid=6eb6bfc8-b6f6-4b63-8c32-a93d390996d8"},"vehicle_type_id":"4","last_reported":1758824170,"current_range_meters":17200,"station_id":"ce4bha12rcd13ifvqee0","pricing_plan_id":"cebpf4jnsgd1na2vs0mg"},{"bike_id":"d4306170-df62-4df8-8b25-28b58762b6c8","system_id":"levelo_inurba_marseille","lat":43.28852,"lon":5.39325,"is_reserved":false,"is_disabled":false,"rental_uris":{"android":"levelo://app?vid=d4306170-df62-4df8-8b25-28b58762b6c8","ios":"levelo://app?vid=d4306170-df62-4df8-8b25-28b58762b6c8"},"vehicle_type_id":"4","last_reported":1758824170,"current_range_meters":17600,"station_id":"ce4bh2p2rcd13ifvqdi0","pricing_plan_id":"cebpf4jnsgd1na2vs0mg"},{"bike_id":"4d5ec42a-b050-4df7-9592-d965b5624545","system_id":"levelo_inurba_marseille","lat":43.2953,"lon":5.3854,"is_reserved":false,"is_disabled":false,"rental_uris":{"android":"levelo://app?vid=4d5ec42a-b050-4df7-9592-d965b5624545","ios":"levelo://app?vid=4d5ec42a-b050-4df7-9592-d965b5624545"},"vehicle_type_id":"4","last_reported":1758824170,"current_range_meters":17600,"station_id":"ce4bgih2rcd13ifvqba0","pricing_plan_id":"cebpf4jnsgd1na2vs0mg"},{"bike_id":"1d5d14cf-15e7-4470-bff9-613bb9abe120","system_id":"levelo_inurba_marseille","lat":43.33481,"lon":5.42065,"is_reserved":false,"is_disabled":false,"rental_uris":{"android":"levelo://app?vid=1d5d14cf-15e7-4470-bff9-613bb9abe120","ios":"levelo://app?vid=1d5d14cf-15e7-4470-bff9-613bb9abe120"},"vehicle_type_id":"4","last_reported":1758824170,"current_range_meters":17600,"station_id":"","pricing_plan_id":"cebpf4jnsgd1na2vs0mg"},{"bike_id":"208d8654-3228-40c7-b9c8-8618c2e5fa52","system_id":"levelo_inurba_marseille","lat":43.28639,"lon":5.3827,"is_reserved":false,"is_disabled":false,"rental_uris":{"android":"levelo://app?vid=208d8654-3228-40c7-b9c8-8618c2e5fa52","ios":"levelo://app?vid=208d8654-3228-40c7-b9c8-8618c2e5fa52"},"vehicle_type_id":"4","last_reported":1758824170,"current_range_meters":17600,"station_id":"","pricing_plan_id":"cebpf4jnsgd1na2vs0mg"},{"bike_id":"11691f1d-e624-4821-af5b-86cd6f6d081a","system_id":"levelo_inurba_marseille","lat":43.27942,"lon":5.41051,"is_reserved":false,"is_disabled":false,"rental_uris":{"android":"levelo://app?vid=11691f1d-e624-4821-af5b-86cd6f6d081a","ios":"levelo://app?vid=11691f1d-e624-4821-af5b-86cd6f6d081a"},"vehicle_type_id":"4","last_reported":1758824170,"current_range_meters":17600,"station_id":"ce4bhnp2rcd13ifvqh0g","pricing_plan_id":"cebpf4jnsgd1na2vs0mg"},{"bike_id":"678dfee3-e974-4d08-9b21-893cd6abbf73","system_id":"levelo_inurba_marseille","lat":43.26564,"lon":5.39017,"is_reserved":false,"is_disabled":false,"rental_uris":{"android":"levelo://app?vid=678dfee3-e974-4d08-9b21-893cd6abbf73","ios":"levelo://app?vid=678dfee3-e974-4d08-9b21-893cd6abbf73"},"vehicle_type_id":"4","last_reported":1758824170,"current_range_meters":17600,"station_id":"ce4bhe12rcd13ifvqf30","pricing_plan_id":"cebpf4jnsgd1na2vs0mg"},{"bike_id":"08292ac0-f4a0-4778-9703-5ac015ee1e3a","system_id":"levelo_inurba_marseille","lat":43.246376,"lon":5.431322,"is_reserved":false,"is_disabled":false,"rental_uris":{"android":"levelo://app?vid=08292ac0-f4a0-4778-9703-5ac015ee1e3a","ios":"levelo://app?vid=08292ac0-f4a0-4778-9703-5ac015ee1e3a"},"vehicle_type_id":"4","last_reported":1758824170,"current_range_meters":18000,"station_id":"st_d2m6c4gdas8pm72e190g","pricing_plan_id":"cebpf4jnsgd1na2vs0mg"},{"bike_id":"e4d01aa9-5d3f-4233-9922-5f658be9ab60","system_id":"levelo_inurba_marseille","lat":43.2781,"lon":5.40705,"is_reserved":false,"is_disabled":false,"rental_uris":{"android":"levelo://app?vid=e4d01aa9-5d3f-4233-9922-5f658be9ab60","ios":"levelo://app?vid=e4d01aa9-5d3f-4233-9922-5f658be9ab60"},"vehicle_type_id":"4","last_reported":1758824170,"current_range_meters":18000,"station_id":"ce4bhnh2rcd13ifvqgtg","pricing_plan_id":"cebpf4jnsgd1na2vs0mg"},{"bike_id":"15a1e3f5-2b37-47d9-9d77-cf4b6336a5ea","system_id":"levelo_inurba_marseille","lat":43.30465,"lon":5.37908,"is_reserved":false,"is_disabled":false,"rental_uris":{"android":"levelo://app?vid=15a1e3f5-2b37-47d9-9d77-cf4b6336a5ea","ios":"levelo://app?vid=15a1e3f5-2b37-47d9-9d77-cf4b6336a5ea"},"vehicle_type_id":"4","last_reported":1758824170,"current_range_meters":17600,"station_id":"ce4bgup2rcd13ifvqcn0","pricing_plan_id":"cebpf4jnsgd1na2vs0mg"},{"bike_id":"9a4f92ed-e086-4038-a651-bbe0613f80bd","system_id":"levelo_inurba_marseille","lat":43.22562,"lon":5.4163,"is_reserved":false,"is_disabled":false,"rental_uris":{"android":"levelo://app?vid=9a4f92ed-e086-4038-a651-bbe0613f80bd","ios":"levelo://app?vid=9a4f92ed-e086-4038-a651-bbe0613f80bd"},"vehicle_type_id":"4","last_reported":1758824170,"current_range_meters":18000,"station_id":"st_d2o4gvlbi1j2169b742g","pricing_plan_id":"cebpf4jnsgd1na2vs0mg"},{"bike_id":"37ecf219-142b-424d-a540-aaddf3ba94ba","system_id":"levelo_inurba_marseille","lat":43.28413,"lon":5.37509,"is_reserved":false,"is_disabled":false,"rental_uris":{"android":"levelo://app?vid=37ecf219-142b-424d-a540-aaddf3ba94ba","ios":"levelo://app?vid=37ecf219-142b-424d-a540-aaddf3ba94ba"},"vehicle_type_id":"4","last_reported":1758824170,"current_range_meters":18000,"station_id":"ce4bh412rcd13ifvqds0","pricing_plan_id":"cebpf4jnsgd1na2vs0mg"},{"bike_id":"a320289e-a147-4822-ad19-47c3787bf14c","system_id":"levelo_inurba_marseille","lat":43.29008,"lon":5.35615,"is_reserved":false,"is_disabled":false,"rental_uris":{"android":"levelo://app?vid=a320289e-a147-4822-ad19-47c3787bf14c","ios":"levelo://app?vid=a320289e-a147-4822-ad19-47c3787bf14c"},"vehicle_type_id":"4","last_reported":1758824170,"current_range_meters":18000,"station_id":"ce4bhb92rcd13ifvqen0","pricing_plan_id":"cebpf4jnsgd1na2vs0mg"},