{"last_updated":1733217052,"ttl":60,"version":"2.2","data":{"bikes":[{"bike_id":"c6fcab72-3b24-4c75-b975-ad816d9a147b","system_id":"levelo_inurba_marseille","lat":43.24074,"lon":5.37755,"is_reserved":false,"is_disabled":true,"rental_uris":{"android":"levelo://app?vid=c6fcab72-3b24-4c75-b975-ad816d9a147b","ios":"levelo://app?vid=c6fcab72-3b24-4c75-b975-ad816d9a147b"},"vehicle_type_id":"4","last_reported":1733217053,"current_range_meters":0,"station_id":"ce4bhnp2rcd13ifvqgvg","pricing_plan_id":"cebpf4jnsgd1na2vs0mg"},{"bike_id":"54de3303-c6e0-4800-ad4e-22c247ab2926","system_id":"levelo_inurba_marseille","lat":43.30281,"lon":5.37704,"is_reserved":false,"is_disabled":false,"rental_uris":{"android":"levelo://app?vid=54de3303-c6e0-4800-ad4e-22c247ab2926","ios":"levelo://app?vid=54de3303-c6e0-4800-ad4e-22c247ab2926"},"vehicle_type_id":"4","last_reported":1733217053,"current_range_meters":37600,"station_id":"ce4bguh2rcd13ifvqcj0","pricing_plan_id":"cebpf4jnsgd1na2vs0mg"},{"bike_id":"df479c2c-35ac-44ad-b9d6-81c89ed769ce","system_id":"levelo_inurba_marseille","lat":43.2969,"lon":5.3706,"is_reserved":false,"is_disabled":true,"rental_uris":{"android":"levelo://app?vid=df479c2c-35ac-44ad-b9d6-81c89ed769ce","ios":"levelo://app?vid=df479c2c-35ac-44ad-b9d6-81c89ed769ce"},"vehicle_type_id":"4","last_reported":1733217053,"current_range_meters":0,"station_id":"","pricing_plan_id":"cebpf4jnsgd1na2vs0mg"},{"bike_id":"8e029eaf-e104-4c5d-858d-6cd39de73d09","system_id":"levelo_inurba_marseille","lat":43.24168,"lon":5.36399,"is_reserved":false,"is_disabled":false,"rental_uris":{"android":"levelo://app?vid=8e029eaf-e104-4c5d-858d-6cd39de73d09","ios":"levelo://app?vid=8e029eaf-e104-4c5d-858d-6cd39de73d09"},"vehicle_type_id":"4","last_reported":1733217053,"current_range_meters":16000,"station_id":"cpo36qri1sfpv3e86is0","pricing_plan_id":"cebpf4jnsgd1na2vs0mg"},{"bike_id":"bd8cd1c7-abef-42cd-bb74-c23362a9f370","system_id":"levelo_inurba_marseille","lat":43.29411,"lon":5.38619,"is_reserved":false,"is_disabled":true,"rental_uris":{"android":"levelo://app?vid=bd8cd1c7-abef-42cd-bb74-c23362a9f370","ios":"levelo://app?vid=bd8cd1c7-abef-42cd-bb74-c23362a9f370"},"vehicle_type_id":"4","last_reported":1733217053,"current_range_meters":17600,"station_id":"ce4bh2h2rcd13ifvqdh0","pricing_plan_id":"cebpf4jnsgd1na2vs0mg"},{"bike_id":"fd85f247-bc9f-4512-8957-89e7641ccdee","system_id":"levelo_inurba_marseille","lat":43.32481,"lon":5.36572,"is_reserved":false,"is_disabled":false,"rental_uris":{"android":"levelo://app?vid=fd85f247-bc9f-4512-8957-89e7641ccdee","ios":"levelo://app?vid=fd85f247-bc9f-4512-8957-89e7641ccdee"},"vehicle_type_id":"4","last_reported":1733217053,"current_range_meters":38800,"station_id":"ce4bhs12rcd13ifvqhvg","pricing_plan_id":"cebpf4jnsgd1na2vs0mg"},{"bike_id":"3d4f3e6d-e673-4ae5-9630-cf4eb59955a3","system_id":"levelo_inurba_marseille","lat":43.26951,"lon":5.38632,"is_reserved":false,"is_disabled":false,"rental_uris":{"android":"levelo://app?vid=3d4f3e6d-e673-4ae5-9630-cf4eb59955a3","ios":"levelo://app?vid=3d4f3e6d-e673-4ae5-9630-cf4eb59955a3"},"vehicle_type_id":"4","last_reported":1733217053,"current_range_meters":29600,"station_id":"ce4bhh92rcd13ifvqfh0","pricing_plan_id":"cebpf4jnsgd1na2vs0mg"},{"bike_id":"12652c73-7b25-4805-92ca-4c9bb1159096","system_id":"levelo_inurba_marseille","lat":43.27582,"lon":5.36148,"is_reserved":false,"is_disabled":true,"rental_uris":{"android":"levelo://app?vid=12652c73-7b25-4805-92ca-4c9bb1159096","ios":"levelo://app?vid=12652c73-7b25-4805-92ca-4c9bb1159096"},"vehicle_type_id":"4","last_reported":1733217053,"current_range_meters":38800,"station_id":"","pricing_plan_id":"cebpf4jnsgd1na2vs0mg"},{"bike_id":"4c49a6ec-87f1-469b-b46c-51fa3d37c9d3","system_id":"levelo_inurba_marseille","lat":43.31595,"lon":5.38124,"is_reserved":false,"is_disabled":false,"rental_uris":{"android":"levelo://app?vid=4c49a6ec-87f1-469b-b46c-51fa3d37c9d3","ios":"levelo://app?vid=4c49a6ec-87f1-469b-b46c-51fa3d37c9d3"},"vehicle_type_id":"4","last_reported":1733217053,"current_range_meters":38800,"station_id":"","pricing_plan_id":"cebpf4jnsgd1na2vs0mg"},{"bike_id":"95100176-7ead-4230-932c-4b0bbddddb86","system_id":"levelo_inurba_marseille","lat":43.32491,"lon":5.365681,"is_reserved":false,"is_disabled":false,"rental_uris":{"android":"levelo://app?vid=95100176-7ead-4230-932c-4b0bbddddb86","ios":"levelo://app?vid=95100176-7ead-4230-932c-4b0bbddddb86"},"vehicle_type_id":"4","last_reported":1733217053,"current_range_meters":5600,"station_id":"ce4bhs12rcd13ifvqhvg","pricing_plan_id":"cebpf4jnsgd1na2vs0mg"},{"bike_id":"02f5618e-66bf-4911-a327-d72d361f58c9","system_id":"levelo_inurba_marseille","lat":43.30177,"lon":5.366152,"is_reserved":false,"is_disabled":false,"rental_uris":{"android":"levelo://app?vid=02f5618e-66bf-4911-a327-d72d361f58c9","ios":"levelo://app?vid=02f5618e-66bf-4911-a327-d72d361f58c9"},"vehicle_type_id":"4","last_reported":1733217053,"current_range_meters":39200,"station_id":"ce4bgrh2rcd13ifvqc8g","pricing_plan_id":"cebpf4jnsgd1na2vs0mg"},{"bike_id":"3357162c-8511-4f27-8889-2e2ea15fcd6e","system_id":"levelo_inurba_marseille","lat":43.26568,"lon":5.39008,"is_reserved":false,"is_disabled":false,"rental_uris":{"android":"levelo://app?vid=3357162c-8511-4f27-8889-2e2ea15fcd6e","ios":"levelo://app?vid=3357162c-8511-4f27-8889-2e2ea15fcd6e"},"vehicle_type_id":"4","last_reported":1733217053,"current_range_meters":20000,"station_id":"ce4bhe12rcd13ifvqf30","pricing_plan_id":"cebpf4jnsgd1na2vs0mg"},{"bike_id":"8bd642b2-0279-44c7-9ee2-fc3b57332c83","system_id":"levelo_inurba_marseille","lat":43.27455,"lon":5.40073,"is_reserved":false,"is_disabled":true,"rental_uris":{"android":"levelo://app?vid=8bd642b2-0279-44c7-9ee2-fc3b57332c83","ios":"levelo://app?vid=8bd642b2-0279-44c7-9ee2-fc3b57332c83"},"vehicle_type_id":"4","last_reported":1733217053,"current_range_meters":0,"station_id":"","pricing_plan_id":"cebpf4jnsgd1na2vs0mg"},{"bike_id":"83437d36-78d2-42fa-99fb-a4a968b35ce8","system_id":"levelo_inurba_marseille","lat":43.28151,"lon":5.42644,"is_reserved":false,"is_disabled":false,"rental_uris":{"android":"levelo://app?vid=83437d36-78d2-42fa-99fb-a4a968b35ce8","ios":"levelo://app?vid=83437d36-78d2-42fa-99fb-a4a968b35ce8"},"vehicle_type_id":"4","last_reported":1733217053,"current_range_meters":38800,"station_id":"ce4bhnh2rcd13ifvqgug","pricing_plan_id":"cebpf4jnsgd1na2vs0mg"},{"bike_id":"6450ee6a-f283-4027-878c-a49d7da239d1","system_id":"levelo_inurba_marseille","lat":43.24076,"lon":5.37763,"is_reserved":false,"is_disabled":false,"rental_uris":{"android":"levelo://app?vid=6450ee6a-f283-4027-878c-a49d7da239d1","ios":"levelo://app?vid=6450ee6a-f283-4027-878c-a49d7da239d1"},"vehicle_type_id":"4","last_reported":1733217053,"current_range_meters":24800,"station_id":"ce4bhnp2rcd13ifvqgvg","pricing_plan_id":"cebpf4jnsgd1na2vs0mg"},{"bike_id":"f4cc507a-ccac-409f-bfee-46a316df316f","system_id":"levelo_inurba_marseille","lat":43.29265,"lon":5.36847,"is_reserved":false,"is_disabled":false,"rental_uris":{"android":"levelo://app?vid=f4cc507a-ccac-409f-bfee-46a316df316f","ios":"levelo://app?vid=f4cc507a-ccac-409f-bfee-46a316df316f"},"vehicle_type_id":"4","last_reported":1733217053,"current_range_meters":21600,"station_id":"ce4bhbp2rcd13ifvqesg","pricing_plan_id":"cebpf4jnsgd1na2vs0mg"},{"bike_id":"6fbc2816-a0f9-48a3-bb75-5053a9cf04da","system_id":"levelo_inurba_marseille","lat":43.29279,"lon":5.36851,"is_reserved":false,"is_disabled":false,"rental_uris":{"android":"levelo://app?vid=6fbc2816-a0f9-48a3-bb75-5053a9cf04da","ios":"levelo://app?vid=6fbc2816-a0f9-48a3-bb75-5053a9cf04da"},"vehicle_type_id":"4","last_reported":1733217053,"current_range_meters":9600,"station_id":"ce4bhbp2rcd13ifvqesg","pricing_plan_id":"cebpf4jnsgd1na2vs0mg"},{"bike_id":"c0bec7ea-31af-49de-8a97-a7d6bf5d8bb8","system_id":"levelo_inurba_marseille","lat":43.29045,"lon":5.35909,"is_reserved":false,"is_disabled":true,"rental_uris":{"android":"levelo://app?vid=c0bec7ea-31af-49de-8a97-a7d6bf5d8bb8","ios":"levelo://app?vid=c0bec7ea-31af-49de-8a97-a7d6bf5d8bb8"},"vehicle_type_id":"4","last_reported":1733217053,"current_range_meters":38800,"station_id":"ce4bha92rcd13ifvqeg0","pricing_plan_id":"cebpf4jnsgd1na2vs0mg"},{"bike_id":"6bb72144-ae81-4147-8990-dcfa4f7af830","system_id":"levelo_inurba_marseille","lat":43.30462,"lon":5.37897,"is_reserved":false,"is_disabled":false,"rental_uris":{"android":"levelo://app?vid=6bb72144-ae81-4147-8990-dcfa4f7af830","ios":"levelo://app?vid=6bb72144-ae81-4147-8990-dcfa4f7af830"},"vehicle_type_id":"4","last_reported":1733217053,"current_range_meters":38000,"station_id":"ce4bgup2rcd13ifvqcn0","pricing_plan_id":"cebpf4jnsgd1na2vs0mg"},{"bike_id":"a705c847-00e0-4371-9439-cd7bb591162e","system_id":"levelo_inurba_marseille","lat":43.24641,"lon":5.3889,"is_reserved":false,"is_disabled":true,"rental_uris":{"android":"levelo://app?vid=a705c847-00e0-4371-9439-cd7bb591162e","ios":"levelo://app?vid=a705c847-00e0-4371-9439-cd7bb591162e"},"vehicle_type_id":"4","last_reported":1733217053,"current_range_meters":0,"station_id":"ce4bhg12rcd13ifvqf60","pricing_plan_id":"cebpf4jnsgd1na2vs0mg"},{"bike_id":"5945b40e-6cb4-4d47-a5ed-db0cdcd2a556","system_id":"levelo_inurba_marseille","lat":43.25934,"lon":5.40905,"is_reserved":false,"is_disabled":false,"rental_uris":{"android":"levelo://app?vid=5945b40e-6cb4-4d47-a5ed-db0cdcd2a556","ios":"levelo://app?vid=5945b40e-6cb4-4d47-a5ed-db0cdcd2a556"},"vehicle_type_id":"4","last_reported":1733217053,"current_range_meters":26800,"station_id":"ce4bhm92rcd13ifvqglg","pricing_plan_id":"cebpf4jnsgd1na2vs0mg"},{"bike_id":"b3f478ac-3b05-4edf-bdbf-76399090f8e9","system_id":"levelo_inurba_marseille","lat":43.30002,"lon":5.37647,"is_reserved":false,"is_disabled":true,"rental_uris":{"android":"levelo://app?vid=b3f478ac-3b05-4edf-bdbf-76399090f8e9","ios":"levelo://app?vid=b3f478ac-3b05-4edf-bdbf-76399090f8e9"},"vehicle_type_id":"4","last_reported":1733217053,"current_range_meters":0,"station_id":"","pricing_plan_id":"cebpf4jnsgd1na2vs0mg"},{"bike_id":"c3587c28-5435-41c6-a9b7-aa468e6b19aa","system_id":"levelo_inurba_marseille","lat":43.29746,"lon":5.37916,"is_reserved":false,"is_disabled":true,"rental_uris":{"android":"levelo://app?vid=c3587c28-5435-41c6-a9b7-aa468e6b19aa","ios":"levelo://app?vid=c3587c28-5435-41c6-a9b7-aa468e6b19aa"},"vehicle_type_id":"4","last_reported":1733217053,"current_range_meters":0,"station_id":"","pricing_plan_id":"cebpf4jnsgd1na2vs0mg"},{"bike_id":"4dd4e57a-22bb-4bd8-94dc-dd683308d373","system_id":"levelo_inurba_marseille","lat":43.31084,"lon":5.42427,"is_reserved":false,"is_disabled":false,"rental_uris":{"android":"levelo://app?vid=4dd4e57a-22bb-4bd8-94dc-dd683308d373","ios":"levelo://app?vid=4dd4e57a-22bb-4bd8-94dc-dd683308d373"},"vehicle_type_id":"4","last_reported":1733217053,"current_range_meters":36400,"station_id":"ce4bhp92rcd13ifvqhag","pricing_plan_id":"cebpf4jnsgd1na2vs0mg"},{"bike_id":"fd30964c-7b67-4e87-9cf3-20dccc1e1a48","system_id":"levelo_inurba_marseille","lat":43.31345,"lon":5.3671,"is_reserved":false,"is_disabled":false,"rental_uris":{"android":"levelo://app?vid=fd30964c-7b67-4e87-9cf3-20dccc1e1a48","ios":"levelo://app?vid=fd30964c-7b67-4e87-9cf3-20dccc1e1a48"},"vehicle_type_id":"4","last_reported":1733217053,"current_range_meters":9200,"station_id":"ce4bgr92rcd13ifvqc6g","pricing_plan_id":"cebpf4jnsgd1na2vs0mg"},{"bike_id":"e8d9fcd3-6c4c-4c2e-a87e-41c5e4dfa6d0","system_id":"levelo_inurba_marseille","lat":43.25438,"lon":5.38158,"is_reserved":false,"is_disabled":true,"rental_uris":{"android":"levelo://app?vid=e8d9fcd3-6c4c-4c2e-a87e-41c5e4dfa6d0","ios":"levelo://app?vid=e8d9fcd3-6c4c-4c2e-a87e-41c5e4dfa6d0"},"vehicle_type_id":"4","last_reported":1733217053,"current_range_meters":0,"station_id":"","pricing_plan_id":"cebpf4jnsgd1na2vs0mg"},{"bike_id":"e7c2b082-ef91-42b1-9ef0-9e4329cee9cb","system_id":"levelo_inurba_marseille","lat":43.29925,"lon":5.40376,"is_reserved":false,"is_disabled":true,"rental_uris":{"android":"levelo://app?vid=e7c2b082-ef91-42b1-9ef0-9e4329cee9cb","ios":"levelo://app?vid=e7c2b082-ef91-42b1-9ef0-9e4329cee9cb"},"vehicle_type_id":"4","last_reported":1733217053,"current_range_meters":0,"station_id":"","pricing_plan_id":"cebpf4jnsgd1na2vs0mg"},{"bike_id":"d63ae662-361f-4c2a-9157-d417e43286f8","system_id":"levelo_inurba_marseille","lat":43.33752,"lon":5.37456,"is_reserved":false,"is_disabled":false,"rental_uris":{"android":"levelo://app?vid=d63ae662-361f-4c2a-9157-d417e43286f8","ios":"levelo://app?vid=d63ae662-361f-4c2a-9157-d417e43286f8"},"vehicle_type_id":"4","last_reported":1733217053,"current_range_meters":28400,"station_id":"","pricing_plan_id":"cebpf4jnsgd1na2vs0mg"},{"bike_id":"101e72cb-5bc1-49ec-be2d-1e8628e565f6","system_id":"levelo_inurba_marseille","lat":43.31502,"lon":5.3731,"is_reserved":false,"is_disabled":true,"rental_uris":{"android":"levelo://app?vid=101e72cb-5bc1-49ec-be2d-1e8628e565f6","ios":"levelo://app?vid=101e72cb-5bc1-49ec-be2d-1e8628e565f6"},"vehicle_type_id":"4","last_reported":1733217053,"current_range_meters":33200,"station_id":"ce4bgt12rcd13ifvqcd0","pricing_plan_id":"cebpf4jnsgd1na2vs0mg"},{"bike_id":"4673f8d8-8295-437d-8f1d-a884bed9d1e4","system_id":"levelo_inurba_marseille","lat":43.23147,"lon":5.43733,"is_reserved":false,"is_disabled":false,"rental_uris":{"android":"levelo://app?vid=4673f8d8-8295-437d-8f1d-a884bed9d1e4","ios":"levelo://app?vid=4673f8d8-8295-437d-8f1d-a884bed9d1e4"},"vehicle_type_id":"4","last_reported":1733217053,"current_range_meters":38800,"station_id":"ce4bhmp2rcd13ifvqgog","pricing_plan_id":"cebpf4jnsgd1na2vs0mg"},{"bike_id":"2c72c098-30be-41a7-b757-57da4dff24e1","system_id":"levelo_inurba_marseille","lat":43.24177,"lon":5.39733,"is_reserved":false,"is_disabled":false,"rental_uris":{"android":"levelo://app?vid=2c72c098-30be-41a7-b757-57da4dff24e1","ios":"levelo://app?vid=2c72c098-30be-41a7-b757-57da4dff24e1"},"vehicle_type_id":"4","last_reported":1733217053,"current_range_meters":26000,"station_id":"ce4bhn12rcd13ifvqgpg","pricing_plan_id":"cebpf4jnsgd1na2vs0mg"},{"bike_id":"525e387d-f53d-4c13-8e33-a48ec09c1aef","system_id":"levelo_inurba_marseille","lat":43.3054,"lon":5.36543,"is_reserved":false,"is_disabled":true,"rental_uris":{"android":"levelo://app?vid=525e387d-f53d-4c13-8e33-a48ec09c1aef","ios":"levelo://app?vid=525e387d-f53d-4c13-8e33-a48ec09c1aef"},"vehicle_type_id":"4","last_reported":1733217053,"current_range_meters":28000,"station_id":"ce4bgs12rcd13ifvqcag","pricing_plan_id":"cebpf4jnsgd1na2vs0mg"},{"bike_id":"c8434105-f78e-4aab-af16-9f7de171fa08","system_id":"levelo_inurba_marseille","lat":43.32481,"lon":5.36578,"is_reserved":false,"is_disabled":false,"rental_uris":{"android":"levelo://app?vid=c8434105-f78e-4aab-af16-9f7de171fa08","ios":"levelo://app?vid=c8434105-f78e-4aab-af16-9f7de171fa08"},"vehicle_type_id":"4","last_reported":1733217053,"current_range_meters":35600,"station_id":"ce4bhs12rcd13ifvqhvg","pricing_plan_id":"cebpf4jnsgd1na2vs0mg"},{"bike_id":"c37b13b6-f931-4e52-a1c5-efb1d44dc733","system_id":"levelo_inurba_marseille","lat":43.275832,"lon":5.360912,"is_reserved":false,"is_disabled":false,"rental_uris":{"android":"levelo://app?vid=c37b13b6-f931-4e52-a1c5-efb1d44dc733","ios":"levelo://app?vid=c37b13b6-f931-4e52-a1c5-efb1d44dc733"},"vehicle_type_id":"4","last_reported":1733217053,"current_range_meters":38800,"station_id":"ce4bgj92rcd13ifvqbe0","pricing_plan_id":"cebpf4jnsgd1na2vs0mg"},{"bike_id":"96693db7-b597-448a-8bfe-613a90735916","system_id":"levelo_inurba_marseille","lat":43.28001,"lon":5.40013,"is_reserved":false,"is_disabled":false,"rental_uris":{"android":"levelo://app?vid=96693db7-b597-448a-8bfe-613a90735916","ios":"levelo://app?vid=96693db7-b597-448a-8bfe-613a90735916"},"vehicle_type_id":"4","last_reported":1733217053,"current_range_meters":36800,"station_id":"ce4bho92rcd13ifvqh4g","pricing_plan_id":"cebpf4jnsgd1na2vs0mg"},{"bike_id":"7f9f3d2e-2c33-4e9f-af7d-e28e797af1e6","system_id":"levelo_inurba_marseille","lat":43.28154,"lon":5.42643,"is_reserved":false,"is_disabled":false,"rental_uris":{"android":"levelo://app?vid=7f9f3d2e-2c33-4e9f-af7d-e28e797af1e6","ios":"levelo://app?vid=7f9f3d2e-2c33-4e9f-af7d-e28e797af1e6"},"vehicle_type_id":"4","last_reported":1733217053,"current_range_meters":38800,"station_id":"ce4bhnh2rcd13ifvqgug","pricing_plan_id":"cebpf4jnsgd1na2vs0mg"},{"bike_id":"66be51ea-e4b0-4ae8-91ab-649c9fc82df9","system_id":"levelo_inurba_marseille","lat":43.2815,"lon":5.42629,"is_reserved":false,"is_disabled":false,"rental_uris":{"android":"levelo://app?vid=66be51ea-e4b0-4ae8-91ab-649c9fc82df9","ios":"levelo://app?vid=66be51ea-e4b0-4ae8-91ab-649c9fc82df9"},"vehicle_type_id":"4","last_reported":1733217053,"current_range_meters":13600,"station_id":"ce4bhnh2rcd13ifvqgug","pricing_plan_id":"cebpf4jnsgd1na2vs0mg"},{"bike_id":"460edbbc-7a55-43f3-bf55-b9fec7ea3a39","system_id":"levelo_inurba_marseille","lat":43.31322,"lon":5.36647,"is_reserved":false,"is_disabled":false,"rental_uris":{"android":"levelo://app?vid=460edbbc-7a55-43f3-bf55-b9fec7ea3a39","ios":"levelo://app?vid=460edbbc-7a55-43f3-bf55-b9fec7ea3a39"},"vehicle_type_id":"4","last_reported":1733217053,"current_range_meters":8400,"station_id":"","pricing_plan_id":"cebpf4jnsgd1na2vs0mg"},{"bike_id":"0f14652d-084e-4c19-8586-135ef442e46f","system_id":"levelo_inurba_marseille","lat":43.2695,"lon":5.38623,"is_reserved":false,"is_disabled":false,"rental_uris":{"android":"levelo://app?vid=0f14652d-084e-4c19-8586-135ef442e46f","ios":"levelo://app?vid=0f14652d-084e-4c19-8586-135ef442e46f"},"vehicle_type_id":"4","last_reported":1733217053,"current_range_meters":36800,"station_id":"ce4bhh92rcd13ifvqfh0","pricing_plan_id":"cebpf4jnsgd1na2vs0mg"},{"bike_id":"16bea42d-3248-41fd-8b51-39fb3d7ec2c4","system_id":"levelo_inurba_marseille","lat":43.26469,"lon":5.38529,"is_reserved":false,"is_disabled":true,"rental_uris":{"android":"levelo://app?vid=16bea42d-3248-41fd-8b51-39fb3d7ec2c4","ios":"levelo://app?vid=16bea42d-3248-41fd-8b51-39fb3d7ec2c4"},"vehicle_type_id":"4","last_reported":1733217053,"current_range_meters":0,"station_id":"","pricing_plan_id":"cebpf4jnsgd1na2vs0mg"},{"bike_id":"21d0c3c4-d980-4f5f-b80b-ac5ea02d4220","system_id":"levelo_inurba_marseille","lat":43.24067,"lon":5.3776,"is_reserved":false,"is_disabled":false,"rental_uris":{"android":"levelo://app?vid=21d0c3c4-d980-4f5f-b80b-ac5ea02d4220","ios":"levelo://app?vid=21d0c3c4-d980-4f5f-b80b-ac5ea02d4220"},"vehicle_type_id":"4","last_reported":1733217053,"current_range_meters":38800,"station_id":"ce4bhnp2rcd13ifvqgvg","pricing_plan_id":"cebpf4jnsgd1na2vs0mg"},{"bike_id":"2b54ddc5-0583-4fc9-accb-0a4c7f0b096a","system_id":"levelo_inurba_marseille","lat":43.26686,"lon":5.38272,"is_reserved":false,"is_disabled":false,"rental_uris":{"android":"levelo://app?vid=2b54ddc5-0583-4fc9-accb-0a4c7f0b096a","ios":"levelo://app?vid=2b54ddc5-0583-4fc9-accb-0a4c7f0b096a"},"vehicle_type_id":"4","last_reported":1733217053,"current_range_meters":26800,"station_id":"ce4bhg92rcd13ifvqf90","pricing_plan_id":"cebpf4jnsgd1na2vs0mg"},{"bike_id":"eaa73896-04a8-4ef6-a4c7-4d4e56920b82","system_id":"levelo_inurba_marseille","lat":43.29291,"lon":5.37446,"is_reserved":false,"is_disabled":true,"rental_uris":{"android":"levelo://app?vid=eaa73896-04a8-4ef6-a4c7-4d4e56920b82","ios":"levelo://app?vid=eaa73896-04a8-4ef6-a4c7-4d4e56920b82"},"vehicle_type_id":"4","last_reported":1733217053,"current_range_meters":0,"station_id":"ce4bgi12rcd13ifvqb70","pricing_plan_id":"cebpf4jnsgd1na2vs0mg"},{"bike_id":"81f7c4a0-e84b-4069-ba26-dc8cad716909","system_id":"levelo_inurba_marseille","lat":43.27673,"lon":5.38871,"is_reserved":false,"is_disabled":false,"rental_uris":{"android":"levelo://app?vid=81f7c4a0-e84b-4069-ba26-dc8cad716909","ios":"levelo://app?vid=81f7c4a0-e84b-4069-ba26-dc8cad716909"},"vehicle_type_id":"4","last_reported":1733217053,"current_range_meters":9200,"station_id":"ce4bhi12rcd13ifvqfo0","pricing_plan_id":"cebpf4jnsgd1na2vs0mg"},{"bike_id":"f343a832-b6b0-4a03-b073-92a5c4223d7e","system_id":"levelo_inurba_marseille","lat":43.31351,"lon":5.3672,"is_reserved":false,"is_disabled":false,"rental_uris":{"android":"levelo://app?vid=f343a832-b6b0-4a03-b073-92a5c4223d7e","ios":"levelo://app?vid=f343a832-b6b0-4a03-b073-92a5c4223d7e"},"vehicle_type_id":"4","last_reported":1733217053,"current_range_meters":32800,"station_id":"ce4bgr92rcd13ifvqc6g","pricing_plan_id":"cebpf4jnsgd1na2vs0mg"},{"bike_id":"aa28536e-aba2-490d-afe9-7c03d2b95263","system_id":"levelo_inurba_marseille","lat":43.3042,"lon":5.41275,"is_reserved":false,"is_disabled":false,"rental_uris":{"android":"levelo://app?vid=aa28536e-aba2-490d-afe9-7c03d2b95263","ios":"levelo://app?vid=aa28536e-aba2-490d-afe9-7c03d2b95263"},"vehicle_type_id":"4","last_reported":1733217053,"current_range_meters":32400,"station_id":"ce4bhop2rcd13ifvqh8g","pricing_plan_id":"cebpf4jnsgd1na2vs0mg"},{"bike_id":"f6cc9804-8427-412d-b1e6-763226da6ed7","system_id":"levelo_inurba_marseille","lat":43.31265,"lon":5.40165,"is_reserved":false,"is_disabled":true,"rental_uris":{"android":"levelo://app?vid=f6cc9804-8427-412d-b1e6-763226da6ed7","ios":"levelo://app?vid=f6cc9804-8427-412d-b1e6-763226da6ed7"},"vehicle_type_id":"4","last_reported":1733217053,"current_range_meters":0,"station_id":"ce4bh092rcd13ifvqd30","pricing_plan_id":"cebpf4jnsgd1na2vs0mg"},{"bike_id":"7d268741-131b-4ee9-a430-2183fd1e6fbc","system_id":"levelo_inurba_marseille","lat":43.26931,"lon":5.38921,"is_reserved":false,"is_disabled":false,"rental_uris":{"android":"levelo://app?vid=7d268741-131b-4ee9-a430-2183fd1e6fbc","ios":"levelo://app?vid=7d268741-131b-4ee9-a430-2183fd1e6fbc"},"vehicle_type_id":"4","last_reported":1733217053,"current_range_meters":18000,"station_id":"ce4bhhh2rcd13ifvqfl0","pricing_plan_id":"cebpf4jnsgd1na2vs0mg"},{"bike_id":"d1635867-d647-434e-b017-c94e961e2357","system_id":"levelo_inurba_marseille","lat":43.24075,"lon":5.3776,"is_reserved":false,"is_disabled":false,"rental_uris":{"android":"levelo://app?vid=d1635867-d647-434e-b017-c94e961e2357","ios":"levelo://app?vid=d1635867-d647-434e-b017-c94e961e2357"},"vehicle_type_id":"4","last_reported":1733217053,"current_range_meters":10800,"station_id":"ce4bhnp2rcd13ifvqgvg","pricing_plan_id":"cebpf4jnsgd1na2vs0mg"},{"bike_id":"933fffb5-f90f-4eb1-8729-0bbb0d4e76f5","system_id":"levelo_inurba_marseille","lat":43.3136,"lon":5.36698,"is_reserved":false,"is_disabled":false,"rental_uris":{"android":"levelo://app?vid=933fffb5-f90f-4eb1-8729-0bbb0d4e76f5","ios":"levelo://app?vid=933fffb5-f90f-4eb1-8729-0bbb0d4e76f5"},"vehicle_type_id":"4","last_reported":1733217053,"current_range_meters":29600,"station_id":"ce4bgr92rcd13ifvqc6g","pricing_plan_id":"cebpf4jnsgd1na2vs0mg"},{"bike_id":"c30a7751-51da-4928-9b3c-3a4813d84714","system_id":"levelo_inurba_marseille","lat":43.28945,"lon":5.36628,"is_reserved":false,"is_disabled":true,"rental_uris":{"android":"levelo://app?vid=c30a7751-51da-4928-9b3c-3a4813d84714","ios":"levelo://app?vid=c30a7751-51da-4928-9b3c-3a4813d84714"},"vehicle_type_id":"4","last_reported":1733217053,"current_range_meters":11600,"station_id":"ce4bhap2rcd13ifvqek0","pricing_plan_id":"cebpf4jnsgd1na2vs0mg"},{"bike_id":"8a44faba-a7bd-47f9-a430-f9c718142c22","system_id":"levelo_inurba_marseille","lat":43.30529,"lon":5.36697,"is_reserved":false,"is_disabled":false,"rental_uris":{"android":"levelo://app?vid=8a44faba-a7bd-47f9-a430-f9c718142c22","ios":"levelo://app?vid=8a44faba-a7bd-47f9-a430-f9c718142c22"},"vehicle_type_id":"4","last_reported":1733217053,"current_range_meters":39200,"station_id":"ce4bgrp2rcd13ifvqc9g","pricing_plan_id":"cebpf4jnsgd1na2vs0mg"},{"bike_id":"7932e894-60e4-4259-ad2b-e25a6bbb7ae7","system_id":"levelo_inurba_marseille","lat":43.2841,"lon":5.37512,"is_reserved":false,"is_disabled":true,"rental_uris":{"android":"levelo://app?vid=7932e894-60e4-4259-ad2b-e25a6bbb7ae7","ios":"levelo://app?vid=7932e894-60e4-4259-ad2b-e25a6bbb7ae7"},"vehicle_type_id":"4","last_reported":1733217053,"current_range_meters":24800,"station_id":"ce4bh412rcd13ifvqds0","pricing_plan_id":"cebpf4jnsgd1na2vs0mg"},{"bike_id":"44d07a3c-77b5-4e3c-ae93-9787d1c6b926","system_id":"levelo_inurba_marseille","lat":43.30159,"lon":5.374,"is_reserved":false,"is_disabled":true,"rental_uris":{"android":"levelo://app?vid=44d07a3c-77b5-4e3c-ae93-9787d1c6b926","ios":"levelo://app?vid=44d07a3c-77b5-4e3c-ae93-9787d1c6b926"},"vehicle_type_id":"4","last_reported":1733217053,"current_range_meters":2800,"station_id":"ce4bgs92rcd13ifvqcc0","pricing_plan_id":"cebpf4jnsgd1na2vs0mg"},{"bike_id":"32de5c00-decc-40d9-893a-c317572d599d","system_id":"levelo_inurba_marseille","lat":43.2992,"lon":5.37471,"is_reserved":false,"is_disabled":true,"rental_uris":{"android":"levelo://app?vid=32de5c00-decc-40d9-893a-c317572d599d","ios":"levelo://app?vid=32de5c00-decc-40d9-893a-c317572d599d"},"vehicle_type_id":"4","last_reported":1733217053,"current_range_meters":8000,"station_id":"ce4bgjh2rcd13ifvqbg0","pricing_plan_id":"cebpf4jnsgd1na2vs0mg"},{"bike_id":"7b91d361-1f9c-49d5-bcdb-e3a272751157","system_id":"levelo_inurba_marseille","lat":43.32036,"lon":5.41525,"is_reserved":false,"is_disabled":false,"rental_uris":{"android":"levelo://app?vid=7b91d361-1f9c-49d5-bcdb-e3a272751157","ios":"levelo://app?vid=7b91d361-1f9c-49d5-bcdb-e3a272751157"},"vehicle_type_id":"4","last_reported":1733217053,"current_range_meters":23200,"station_id":"ce4bhq92rcd13ifvqhkg","pricing_plan_id":"cebpf4jnsgd1na2vs0mg"},{"bike_id":"f4ffb03a-ccc8-44c2-8e42-9eea35a61a49","system_id":"levelo_inurba_marseille","lat":43.29343,"lon":5.38871,"is_reserved":false,"is_disabled":true,"rental_uris":{"android":"levelo://app?vid=f4ffb03a-ccc8-44c2-8e42-9eea35a61a49","ios":"levelo://app?vid=f4ffb03a-ccc8-44c2-8e42-9eea35a61a49"},"vehicle_type_id":"4","last_reported":1733217053,"current_range_meters":11600,"station_id":"","pricing_plan_id":"cebpf4jnsgd1na2vs0mg"},{"bike_id":"763a15e5-5c0c-4db3-84a6-87cc9fff8ea4","system_id":"levelo_inurba_marseille","lat":43.27973,"lon":5.4421,"is_reserved":false,"is_disabled":false,"rental_uris":{"android":"levelo://app?vid=763a15e5-5c0c-4db3-84a6-87cc9fff8ea4","ios":"levelo://app?vid=763a15e5-5c0c-4db3-84a6-87cc9fff8ea4"},"vehicle_type_id":"4","last_reported":1733217053,"current_range_meters":18800,"station_id":"","pricing_plan_id":"cebpf4jnsgd1na2vs0mg"},{"bike_id":"20597529-c5b4-4b06-8e49-bd0c0851632d","system_id":"levelo_inurba_marseille","lat":43.30947,"lon":5.39037,"is_reserved":false,"is_disabled":true,"rental_uris":{"android":"levelo://app?vid=20597529-c5b4-4b06-8e49-bd0c0851632d","ios":"levelo://app?vid=20597529-c5b4-4b06-8e49-bd0c0851632d"},"vehicle_type_id":"4","last_reported":1733217053,"current_range_meters":0,"station_id":"ce4bgup2rcd13ifvqco0","pricing_plan_id":"cebpf4jnsgd1na2vs0mg"},{"bike_id":"3b774bd9-166a-490d-a0d3-ee14aebb6292","system_id":"levelo_inurba_marseille","lat":43.2957,"lon":5.37502,"is_reserved":false,"is_disabled":false,"rental_uris":{"android":"levelo://app?vid=3b774bd9-166a-490d-a0d3-ee14aebb6292","ios":"levelo://app?vid=3b774bd9-166a-490d-a0d3-ee14aebb6292"},"vehicle_type_id":"4","last_reported":1733217053,"current_range_meters":38800,"station_id":"ce4bgh92rcd13ifvqb50","pricing_plan_id":"cebpf4jnsgd1na2vs0mg"},{"bike_id":"90c1965f-3375-4b66-9a38-3f2b5e631bb2","system_id":"levelo_inurba_marseille","lat":43.26941,"lon":5.40242,"is_reserved":false,"is_disabled":false,"rental_uris":{"android":"levelo://app?vid=90c1965f-3375-4b66-9a38-3f2b5e631bb2","ios":"levelo://app?vid=90c1965f-3375-4b66-9a38-3f2b5e631bb2"},"vehicle_type_id":"4","last_reported":1733217053,"current_range_meters":38000,"station_id":"cjm6bp8fraef2m0cb0m0","pricing_plan_id":"cebpf4jnsgd1na2vs0mg"},{"bike_id":"9fc7187a-fbd0-44eb-9824-faaee8ceed59","system_id":"levelo_inurba_marseille","lat":43.30436,"lon":5.39745,"is_reserved":false,"is_disabled":false,"rental_uris":{"android":"levelo://app?vid=9fc7187a-fbd0-44eb-9824-faaee8ceed59","ios":"levelo://app?vid=9fc7187a-fbd0-44eb-9824-faaee8ceed59"},"vehicle_type_id":"4","last_reported":1733217053,"current_range_meters":36000,"station_id":"ce4bh092rcd13ifvqd20","pricing_plan_id":"cebpf4jnsgd1na2vs0mg"},{"bike_id":"24fdc168-ebb3-455e-9a84-fc7b79cc9f1c","system_id":"levelo_inurba_marseille","lat":43.29275,"lon":5.36853,"is_reserved":false,"is_disabled":true,"rental_uris":{"android":"levelo://app?vid=24fdc168-ebb3-455e-9a84-fc7b79cc9f1c","ios":"levelo://app?vid=24fdc168-ebb3-455e-9a84-fc7b79cc9f1c"},"vehicle_type_id":"4","last_reported":1733217053,"current_range_meters":23200,"station_id":"","pricing_plan_id":"cebpf4jnsgd1na2vs0mg"},{"bike_id":"45ff3798-a743-4ffc-962c-fbce8ce4e073","system_id":"levelo_inurba_marseille","lat":43.23152,"lon":5.43713,"is_reserved":false,"is_disabled":false,"rental_uris":{"android":"levelo://app?vid=45ff3798-a743-4ffc-962c-fbce8ce4e073","ios":"levelo://app?vid=45ff3798-a743-4ffc-962c-fbce8ce4e073"},"vehicle_type_id":"4","last_reported":1733217053,"current_range_meters":13600,"station_id":"ce4bhmp2rcd13ifvqgog","pricing_plan_id":"cebpf4jnsgd1na2vs0mg"},{"bike_id":"b6bf0fc6-e8dd-4244-b189-4fd4fe6327fb","system_id":"levelo_inurba_marseille","lat":43.30547,"lon":5.36532,"is_reserved":false,"is_disabled":false,"rental_uris":{"android":"levelo://app?vid=b6bf0fc6-e8dd-4244-b189-4fd4fe6327fb","ios":"levelo://app?vid=b6bf0fc6-e8dd-4244-b189-4fd4fe6327fb"},"vehicle_type_id":"4","last_reported":1733217053,"current_range_meters":38800,"station_id":"ce4bgs12rcd13ifvqcag","pricing_plan_id":"cebpf4jnsgd1na2vs0mg"},{"bike_id":"3b4ae265-af54-4456-acc9-646b709b6927","system_id":"levelo_inurba_marseille","lat":43.29847,"lon":5.36276,"is_reserved":false,"is_disabled":false,"rental_uris":{"android":"levelo://app?vid=3b4ae265-af54-4456-acc9-646b709b6927","ios":"levelo://app?vid=3b4ae265-af54-4456-acc9-646b709b6927"},"vehicle_type_id":"4","last_reported":1733217053,"current_range_meters":38800,"station_id":"ce4bgpp2rcd13ifvqc3g","pricing_plan_id":"cebpf4jnsgd1na2vs0mg"},{"bike_id":"95f60bf8-91e0-4861-ba40-220672d1a64a","system_id":"levelo_inurba_marseille","lat":43.31341,"lon":5.37536,"is_reserved":false,"is_disabled":false,"rental_uris":{"android":"levelo://app?vid=95f60bf8-91e0-4861-ba40-220672d1a64a","ios":"levelo://app?vid=95f60bf8-91e0-4861-ba40-220672d1a64a"},"vehicle_type_id":"4","last_reported":1733217053,"current_range_meters":9600,"station_id":"","pricing_plan_id":"cebpf4jnsgd1na2vs0mg"},{"bike_id":"cdfe6590-4984-4014-86c8-6dd70747c27a","system_id":"levelo_inurba_marseille","lat":43.29737,"lon":5.37434,"is_reserved":false,"is_disabled":true,"rental_uris":{"android":"levelo://app?vid=cdfe6590-4984-4014-86c8-6dd70747c27a","ios":"levelo://app?vid=cdfe6590-4984-4014-86c8-6dd70747c27a"},"vehicle_type_id":"4","last_reported":1733217053,"current_range_meters":0,"station_id":"","pricing_plan_id":"cebpf4jnsgd1na2vs0mg"},{"bike_id":"cf8df58c-e115-4cf3-af8d-09e9aabde49d","system_id":"levelo_inurba_marseille","lat":43.26202,"lon":5.37921,"is_reserved":false,"is_disabled":false,"rental_uris":{"android":"levelo://app?vid=cf8df58c-e115-4cf3-af8d-09e9aabde49d","ios":"levelo://app?vid=cf8df58c-e115-4cf3-af8d-09e9aabde49d"},"vehicle_type_id":"4","last_reported":1733217053,"current_range_meters":31200,"station_id":"ce4bhjp2rcd13ifvqg90","pricing_plan_id":"cebpf4jnsgd1na2vs0mg"},{"bike_id":"6d49e805-8267-45a3-b0b5-e36c45a11b74","system_id":"levelo_inurba_marseille","lat":43.3136,"lon":5.36723,"is_reserved":false,"is_disabled":false,"rental_uris":{"android":"levelo://app?vid=6d49e805-8267-45a3-b0b5-e36c45a11b74","ios":"levelo://app?vid=6d49e805-8267-45a3-b0b5-e36c45a11b74"},"vehicle_type_id":"4","last_reported":1733217053,"current_range_meters":12400,"station_id":"ce4bgr92rcd13ifvqc6g","pricing_plan_id":"cebpf4jnsgd1na2vs0mg"},{"bike_id":"2d223975-18c1-4337-9b66-de44fe6788f3","system_id":"levelo_inurba_marseille","lat":43.30779,"lon":5.37658,"is_reserved":false,"is_disabled":false,"rental_uris":{"android":"levelo://app?vid=2d223975-18c1-4337-9b66-de44fe6788f3","ios":"levelo://app?vid=2d223975-18c1-4337-9b66-de44fe6788f3"},"vehicle_type_id":"4","last_reported":1733217053,"current_range_meters":37600,"station_id":"ce4bgv92rcd13ifvqcq0","pricing_plan_id":"cebpf4jnsgd1na2vs0mg"},{"bike_id":"36142e23-8ff6-4096-ad19-b039c8156b69","system_id":"levelo_inurba_marseille","lat":43.28659,"lon":5.36349,"is_reserved":false,"is_disabled":true,"rental_uris":{"android":"levelo://app?vid=36142e23-8ff6-4096-ad19-b039c8156b69","ios":"levelo://app?vid=36142e23-8ff6-4096-ad19-b039c8156b69"},"vehicle_type_id":"4","last_reported":1733217053,"current_range_meters":32000,"station_id":"ce4bhah2rcd13ifvqej0","pricing_plan_id":"cebpf4jnsgd1na2vs0mg"},{"bike_id":"3e762295-e52d-483f-8654-ca00b8495b74","system_id":"levelo_inurba_marseille","lat":43.27438,"lon":5.40716,"is_reserved":false,"is_disabled":false,"rental_uris":{"android":"levelo://app?vid=3e762295-e52d-483f-8654-ca00b8495b74","ios":"levelo://app?vid=3e762295-e52d-483f-8654-ca00b8495b74"},"vehicle_type_id":"4","last_reported":1733217053,"current_range_meters":8800,"station_id":"","pricing_plan_id":"cebpf4jnsgd1na2vs0mg"},{"bike_id":"e0449ad3-6fa0-4664-b0f3-6ea1dced967e","system_id":"levelo_inurba_marseille","lat":43.28153,"lon":5.42625,"is_reserved":false,"is_disabled":true,"rental_uris":{"android":"levelo://app?vid=e0449ad3-6fa0-4664-b0f3-6ea1dced967e","ios":"levelo://app?vid=e0449ad3-6fa0-4664-b0f3-6ea1dced967e"},"vehicle_type_id":"4","last_reported":1733217053,"current_range_meters":21600,"station_id":"ce4bhnh2rcd13ifvqgug","pricing_plan_id":"cebpf4jnsgd1na2vs0mg"},{"bike_id":"0ce8a78c-d371-45b9-bc38-9ab549452aa4","system_id":"levelo_inurba_marseille","lat":43.25724,"lon":5.41107,"is_reserved":false,"is_disabled":true,"rental_uris":{"android":"levelo://app?vid=0ce8a78c-d371-45b9-bc38-9ab549452aa4","ios":"levelo://app?vid=0ce8a78c-d371-45b9-bc38-9ab549452aa4"},"vehicle_type_id":"4","last_reported":1733217053,"current_range_meters":800,"station_id":"ce4bhkp2rcd13ifvqgd0","pricing_plan_id":"cebpf4jnsgd1na2vs0mg"},{"bike_id":"4c3fb316-febe-4764-b0a1-d58fd67e3e9a","system_id":"levelo_inurba_marseille","lat":43.281878,"lon":5.382919,"is_reserved":false,"is_disabled":true,"rental_uris":{"android":"levelo://app?vid=4c3fb316-febe-4764-b0a1-d58fd67e3e9a","ios":"levelo://app?vid=4c3fb316-febe-4764-b0a1-d58fd67e3e9a"},"vehicle_type_id":"4","last_reported":1733217053,"current_range_meters":27200,"station_id":"","pricing_plan_id":"cebpf4jnsgd1na2vs0mg"},{"bike_id":"987a5ab4-d60c-480c-94b6-7cab38975402","system_id":"levelo_inurba_marseille","lat":43.29748,"lon":5.37971,"is_reserved":false,"is_disabled":true,"rental_uris":{"android":"levelo://app?vid=987a5ab4-d60c-480c-94b6-7cab38975402","ios":"levelo://app?vid=987a5ab4-d60c-480c-94b6-7cab38975402"},"vehicle_type_id":"4","last_reported":1733217053,"current_range_meters":0,"station_id":"","pricing_plan_id":"cebpf4jnsgd1na2vs0mg"},{"bike_id":"6877f033-d09d-44d8-8868-c02f5054dd5f","system_id":"levelo_inurba_marseille","lat":43.31484,"lon":5.37258,"is_reserved":false,"is_disabled":false,"rental_uris":{"android":"levelo://app?vid=6877f033-d09d-44d8-8868-c02f5054dd5f","ios":"levelo://app?vid=6877f033-d09d-44d8-8868-c02f5054dd5f"},"vehicle_type_id":"4","last_reported":1733217053,"current_range_meters":12400,"station_id":"ce4bgt12rcd13ifvqcd0","pricing_plan_id":"cebpf4jnsgd1na2vs0mg"},{"bike_id":"2c4596ad-0ad9-4016-b92b-0093349de2b4","system_id":"levelo_inurba_marseille","lat":43.307153,"lon":5.382423,"is_reserved":false,"is_disabled":true,"rental_uris":{"android":"levelo://app?vid=2c4596ad-0ad9-4016-b92b-0093349de2b4","ios":"levelo://app?vid=2c4596ad-0ad9-4016-b92b-0093349de2b4"},"vehicle_type_id":"4","last_reported":1733217053,"current_range_meters":0,"station_id":"","pricing_plan_id":"cebpf4jnsgd1na2vs0mg"},{"bike_id":"7d983c55-9658-4810-b4fd-d68e94d0e0d8","system_id":"levelo_inurba_marseille","lat":43.30531,"lon":5.36536,"is_reserved":false,"is_disabled":false,"rental_uris":{"android":"levelo://app?vid=7d983c55-9658-4810-b4fd-d68e94d0e0d8","ios":"levelo://app?vid=7d983c55-9658-4810-b4fd-d68e94d0e0d8"},"vehicle_type_id":"4","last_reported":1733217053,"current_range_meters":32400,"station_id":"ce4bgs12rcd13ifvqcag","pricing_plan_id":"cebpf4jnsgd1na2vs0mg"},{"bike_id":"1f28300c-d8be-4d08-b5ea-d3aadf1e301d","system_id":"levelo_inurba_marseille","lat":43.262486,"lon":5.4212,"is_reserved":false,"is_disabled":false,"rental_uris":{"android":"levelo://app?vid=1f28300c-d8be-4d08-b5ea-d3aadf1e301d","ios":"levelo://app?vid=1f28300c-d8be-4d08-b5ea-d3aadf1e301d"},"vehicle_type_id":"4","last_reported":1733217053,"current_range_meters":19200,"station_id":"","pricing_plan_id":"cebpf4jnsgd1na2vs0mg"},{"bike_id":"b7ab8c01-033f-4395-8276-23c850ad3d02","system_id":"levelo_inurba_marseille","lat":43.30338,"lon":5.36603,"is_reserved":false,"is_disabled":true,"rental_uris":{"android":"levelo://app?vid=b7ab8c01-033f-4395-8276-23c850ad3d02","ios":"levelo://app?vid=b7ab8c01-033f-4395-8276-23c850ad3d02"},"vehicle_type_id":"4","last_reported":1733217053,"current_range_meters":0,"station_id":"","pricing_plan_id":"cebpf4jnsgd1na2vs0mg"},{"bike_id":"25b3dc4b-bbb9-47a9-993a-4df85675a16d","system_id":"levelo_inurba_marseille","lat":43.26937,"lon":5.38922,"is_reserved":false,"is_disabled":false,"rental_uris":{"android":"levelo://app?vid=25b3dc4b-bbb9-47a9-993a-4df85675a16d","ios":"levelo://app?vid=25b3dc4b-bbb9-47a9-993a-4df85675a16d"},"vehicle_type_id":"4","last_reported":1733217053,"current_range_meters":6000,"station_id":"ce4bhhh2rcd13ifvqfl0","pricing_plan_id":"cebpf4jnsgd1na2vs0mg"},{"bike_id":"2fcd54fb-c52c-46de-ac05-edb7e4f2ebfa","system_id":"levelo_inurba_marseille","lat":43.29042,"lon":5.37572,"is_reserved":false,"is_disabled":false,"rental_uris":{"android":"levelo://app?vid=2fcd54fb-c52c-46de-ac05-edb7e4f2ebfa","ios":"levelo://app?vid=2fcd54fb-c52c-46de-ac05-edb7e4f2ebfa"},"vehicle_type_id":"4","last_reported":1733217053,"current_range_meters":10800,"station_id":"ce4bh692rcd13ifvqe90","pricing_plan_id":"cebpf4jnsgd1na2vs0mg"},{"bike_id":"2c9752f7-9b1f-424c-a573-51273bff502e","system_id":"levelo_inurba_marseille","lat":43.29033,"lon":5.39969,"is_reserved":false,"is_disabled":true,"rental_uris":{"android":"levelo://app?vid=2c9752f7-9b1f-424c-a573-51273bff502e","ios":"levelo://app?vid=2c9752f7-9b1f-424c-a573-51273bff502e"},"vehicle_type_id":"4","last_reported":1733217053,"current_range_meters":0,"station_id":"ce4bh392rcd13ifvqdm0","pricing_plan_id":"cebpf4jnsgd1na2vs0mg"},{"bike_id":"7a8ee5d9-4808-4769-a02b-2b45186e80b5","system_id":"levelo_inurba_marseille","lat":43.337444,"lon":5.374475,"is_reserved":false,"is_disabled":true,"rental_uris":{"android":"levelo://app?vid=7a8ee5d9-4808-4769-a02b-2b45186e80b5","ios":"levelo://app?vid=7a8ee5d9-4808-4769-a02b-2b45186e80b5"},"vehicle_type_id":"4","last_reported":1733217053,"current_range_meters":0,"station_id":"","pricing_plan_id":"cebpf4jnsgd1na2vs0mg"},{"bike_id":"d0306b8f-09ef-4946-ae6a-20a75744100e","system_id":"levelo_inurba_marseille","lat":43.27498,"lon":5.42419,"is_reserved":false,"is_disabled":false,"rental_uris":{"android":"levelo://app?vid=d0306b8f-09ef-4946-ae6a-20a75744100e","ios":"levelo://app?vid=d0306b8f-09ef-4946-ae6a-20a75744100e"},"vehicle_type_id":"4","last_reported":1733217053,"current_range_meters":19600,"station_id":"ce4bhn92rcd13ifvqgrg","pricing_plan_id":"cebpf4jnsgd1na2vs0mg"},{"bike_id":"6cc6805f-c0ca-4585-bdf1-b5a0339762b0","system_id":"levelo_inurba_marseille","lat":43.29011,"lon":5.42799,"is_reserved":false,"is_disabled":false,"rental_uris":{"android":"levelo://app?vid=6cc6805f-c0ca-4585-bdf1-b5a0339762b0","ios":"levelo://app?vid=6cc6805f-c0ca-4585-bdf1-b5a0339762b0"},"vehicle_type_id":"4","last_reported":1733217053,"current_range_meters":4800,"station_id":"","pricing_plan_id":"cebpf4jnsgd1na2vs0mg"},{"bike_id":"bf2dddfd-fcac-4ab9-9900-0783b7dfc160","system_id":"levelo_inurba_marseille","lat":43.28615,"lon":5.35104,"is_reserved":false,"is_disabled":false,"rental_uris":{"android":"levelo://app?vid=bf2dddfd-fcac-4ab9-9900-0783b7dfc160","ios":"levelo://app?vid=bf2dddfd-fcac-4ab9-9900-0783b7dfc160"},"vehicle_type_id":"4","last_reported":1733217053,"current_range_meters":14400,"station_id":"ce4bhch2rcd13ifvqeug","pricing_plan_id":"cebpf4jnsgd1na2vs0mg"},{"bike_id":"8d1c8b92-79bb-4181-b0d2-5e94db1a14d0","system_id":"levelo_inurba_marseille","lat":43.30003,"lon":5.38264,"is_reserved":false,"is_disabled":true,"rental_uris":{"android":"levelo://app?vid=8d1c8b92-79bb-4181-b0d2-5e94db1a14d0","ios":"levelo://app?vid=8d1c8b92-79bb-4181-b0d2-5e94db1a14d0"},"vehicle_type_id":"4","last_reported":1733217053,"current_range_meters":0,"station_id":"","pricing_plan_id":"cebpf4jnsgd1na2vs0mg"},{"bike_id":"b393e343-ccc2-4e09-a3d5-b33fb6d87dbf","system_id":"levelo_inurba_marseille","lat":43.30134,"lon":5.38772,"is_reserved":false,"is_disabled":true,"rental_uris":{"android":"levelo://app?vid=b393e343-ccc2-4e09-a3d5-b33fb6d87dbf","ios":"levelo://app?vid=b393e343-ccc2-4e09-a3d5-b33fb6d87dbf"},"vehicle_type_id":"4","last_reported":1733217053,"current_range_meters":29600,"station_id":"ce4bghh2rcd13ifvqb60","pricing_plan_id":"cebpf4jnsgd1na2vs0mg"},{"bike_id":"80265f62-f148-484a-9a78-db0ff37fec19","system_id":"levelo_inurba_marseille","lat":43.30151,"lon":5.38082,"is_reserved":false,"is_disabled":false,"rental_uris":{"android":"levelo://app?vid=80265f62-f148-484a-9a78-db0ff37fec19","ios":"levelo://app?vid=80265f62-f148-484a-9a78-db0ff37fec19"},"vehicle_type_id":"4","last_reported":1733217053,"current_range_meters":25200,"station_id":"ce4bgjp2rcd13ifvqbh0","pricing_plan_id":"cebpf4jnsgd1na2vs0mg"},{"bike_id":"d692109b-ad98-49bc-9d0b-2573b84dfc5e","system_id":"levelo_inurba_marseille","lat":43.2315,"lon":5.43721,"is_reserved":false,"is_disabled":false,"rental_uris":{"android":"levelo://app?vid=d692109b-ad98-49bc-9d0b-2573b84dfc5e","ios":"levelo://app?vid=d692109b-ad98-49bc-9d0b-2573b84dfc5e"},"vehicle_type_id":"4","last_reported":1733217053,"current_range_meters":9200,"station_id":"ce4bhmp2rcd13ifvqgog","pricing_plan_id":"cebpf4jnsgd1na2vs0mg"},{"bike_id":"a617e044-2beb-44d6-a1b9-0d089a160289","system_id":"levelo_inurba_marseille","lat":43.298513,"lon":5.362731,"is_reserved":false,"is_disabled":true,"rental_uris":{"android":"levelo://app?vid=a617e044-2beb-44d6-a1b9-0d089a160289","ios":"levelo://app?vid=a617e044-2beb-44d6-a1b9-0d089a160289"},"vehicle_type_id":"4","last_reported":1733217053,"current_range_meters":36000,"station_id":"ce4bgpp2rcd13ifvqc3g","pricing_plan_id":"cebpf4jnsgd1na2vs0mg"},{"bike_id":"3ef40d5d-ae60-4919-a60f-c93a84da1612","system_id":"levelo_inurba_marseille","lat":43.30176,"lon":5.3662,"is_reserved":false,"is_disabled":false,"rental_uris":{"android":"levelo://app?vid=3ef40d5d-ae60-4919-a60f-c93a84da1612","ios":"levelo://app?vid=3ef40d5d-ae60-4919-a60f-c93a84da1612"},"vehicle_type_id":"4","last_reported":1733217053,"current_range_meters":31200,"station_id":"ce4bgrh2rcd13ifvqc8g","pricing_plan_id":"cebpf4jnsgd1na2vs0mg"},{"bike_id":"8c6ae27f-3733-439a-943c-f088570574ea","system_id":"levelo_inurba_marseille","lat":43.24803,"lon":5.37454,"is_reserved":false,"is_disabled":false,"rental_uris":{"android":"levelo://app?vid=8c6ae27f-3733-439a-943c-f088570574ea","ios":"levelo://app?vid=8c6ae27f-3733-439a-943c-f088570574ea"},"vehicle_type_id":"4","last_reported":1733217053,"current_range_meters":22000,"station_id":"ce4bhgh2rcd13ifvqfb0","pricing_plan_id":"cebpf4jnsgd1na2vs0mg"},{"bike_id":"8933ae40-7d11-4f85-bbf4-6a6429e9e816","system_id":"levelo_inurba_marseille","lat":43.31759,"lon":5.38764,"is_reserved":false,"is_disabled":false,"rental_uris":{"android":"levelo://app?vid=8933ae40-7d11-4f85-bbf4-6a6429e9e816","ios":"levelo://app?vid=8933ae40-7d11-4f85-bbf4-6a6429e9e816"},"vehicle_type_id":"4","last_reported":1733217053,"current_range_meters":6400,"station_id":"","pricing_plan_id":"cebpf4jnsgd1na2vs0mg"},{"bike_id":"01ac64e6-1f1f-4196-a4f5-2ab0b372a75f","system_id":"levelo_inurba_marseille","lat":43.28708,"lon":5.37928,"is_reserved":false,"is_disabled":true,"rental_uris":{"android":"levelo://app?vid=01ac64e6-1f1f-4196-a4f5-2ab0b372a75f","ios":"levelo://app?vid=01ac64e6-1f1f-4196-a4f5-2ab0b372a75f"},"vehicle_type_id":"4","last_reported":1733217053,"current_range_meters":38800,"station_id":"ce4bh9p2rcd13ifvqec0","pricing_plan_id":"cebpf4jnsgd1na2vs0mg"},{"bike_id":"0cdee7dc-dd22-417d-8c7e-b457315b361f","system_id":"levelo_inurba_marseille","lat":43.28246,"lon":5.39937,"is_reserved":false,"is_disabled":true,"rental_uris":{"android":"levelo://app?vid=0cdee7dc-dd22-417d-8c7e-b457315b361f","ios":"levelo://app?vid=0cdee7dc-dd22-417d-8c7e-b457315b361f"},"vehicle_type_id":"4","last_reported":1733217053,"current_range_meters":36400,"station_id":"","pricing_plan_id":"cebpf4jnsgd1na2vs0mg"},{"bike_id":"64b321cb-c55c-40ab-9985-479d45091f3f","system_id":"levelo_inurba_marseille","lat":43.31692,"lon":5.40473,"is_reserved":false,"is_disabled":false,"rental_uris":{"android":"levelo://app?vid=64b321cb-c55c-40ab-9985-479d45091f3f","ios":"levelo://app?vid=64b321cb-c55c-40ab-9985-479d45091f3f"},"vehicle_type_id":"4","last_reported":1733217053,"current_range_meters":37600,"station_id":"ce4bh012rcd13ifvqd00","pricing_plan_id":"cebpf4jnsgd1na2vs0mg"},{"bike_id":"16af1b15-50a2-43f6-8577-4df460f88a37","system_id":"levelo_inurba_marseille","lat":43.30532,"lon":5.36693,"is_reserved":false,"is_disabled":false,"rental_uris":{"android":"levelo://app?vid=16af1b15-50a2-43f6-8577-4df460f88a37","ios":"levelo://app?vid=16af1b15-50a2-43f6-8577-4df460f88a37"},"vehicle_type_id":"4","last_reported":1733217053,"current_range_meters":12400,"station_id":"ce4bgrp2rcd13ifvqc9g","pricing_plan_id":"cebpf4jnsgd1na2vs0mg"},{"bike_id":"ea6ff3ff-defb-4fbc-bfed-39455400231d","system_id":"levelo_inurba_marseille","lat":43.26496,"lon":5.39542,"is_reserved":false,"is_disabled":false,"rental_uris":{"android":"levelo://app?vid=ea6ff3ff-defb-4fbc-bfed-39455400231d","ios":"levelo://app?vid=ea6ff3ff-defb-4fbc-bfed-39455400231d"},"vehicle_type_id":"4","last_reported":1733217053,"current_range_meters":36400,"station_id":"ce4bhi12rcd13ifvqfq0","pricing_plan_id":"cebpf4jnsgd1na2vs0mg"},{"bike_id":"570c5a31-9e18-464d-8264-39a2e3667705","system_id":"levelo_inurba_marseille","lat":43.27937,"lon":5.41041,"is_reserved":false,"is_disabled":true,"rental_uris":{"android":"levelo://app?vid=570c5a31-9e18-464d-8264-39a2e3667705","ios":"levelo://app?vid=570c5a31-9e18-464d-8264-39a2e3667705"},"vehicle_type_id":"4","last_reported":1733217053,"current_range_meters":38000,"station_id":"ce4bhnp2rcd13ifvqh0g","pricing_plan_id":"cebpf4jnsgd1na2vs0mg"},{"bike_id":"8b941c00-4e3f-4c03-93d3-15390d39d3a5","system_id":"levelo_inurba_marseille","lat":43.28661,"lon":5.38665,"is_reserved":false,"is_disabled":true,"rental_uris":{"android":"levelo://app?vid=8b941c00-4e3f-4c03-93d3-15390d39d3a5","ios":"levelo://app?vid=8b941c00-4e3f-4c03-93d3-15390d39d3a5"},"vehicle_type_id":"4","last_reported":1733217053,"current_range_meters":36800,"station_id":"ce4bh492rcd13ifvqdug","pricing_plan_id":"cebpf4jnsgd1na2vs0mg"},{"bike_id":"a68d7a81-b093-4b83-abc2-a4f1054dabc5","system_id":"levelo_inurba_marseille","lat":43.27479,"lon":5.42462,"is_reserved":false,"is_disabled":false,"rental_uris":{"android":"levelo://app?vid=a68d7a81-b093-4b83-abc2-a4f1054dabc5","ios":"levelo://app?vid=a68d7a81-b093-4b83-abc2-a4f1054dabc5"},"vehicle_type_id":"4","last_reported":1733217053,"current_range_meters":32800,"station_id":"ce4bhn92rcd13ifvqgrg","pricing_plan_id":"cebpf4jnsgd1na2vs0mg"},{"bike_id":"9f4deee7-7f31-4c2e-82c6-46a38d5aa3cf","system_id":"levelo_inurba_marseille","lat":43.29842,"lon":5.36267,"is_reserved":false,"is_disabled":false,"rental_uris":{"android":"levelo://app?vid=9f4deee7-7f31-4c2e-82c6-46a38d5aa3cf","ios":"levelo://app?vid=9f4deee7-7f31-4c2e-82c6-46a38d5aa3cf"},"vehicle_type_id":"4","last_reported":1733217053,"current_range_meters":36000,"station_id":"ce4bgpp2rcd13ifvqc3g","pricing_plan_id":"cebpf4jnsgd1na2vs0mg"},{"bike_id":"9c77a68d-2e99-44e9-b903-950fb6644d35","system_id":"levelo_inurba_marseille","lat":43.25268,"lon":5.39464,"is_reserved":false,"is_disabled":true,"rental_uris":{"android":"levelo://app?vid=9c77a68d-2e99-44e9-b903-950fb6644d35","ios":"levelo://app?vid=9c77a68d-2e99-44e9-b903-950fb6644d35"},"vehicle_type_id":"4","last_reported":1733217053,"current_range_meters":0,"station_id":"","pricing_plan_id":"cebpf4jnsgd1na2vs0mg"},{"bike_id":"7f97fcd2-117f-458c-a261-845c336c5904","system_id":"levelo_inurba_marseille","lat":43.25,"lon":5.38927,"is_reserved":false,"is_disabled":false,"rental_uris":{"android":"levelo://app?vid=7f97fcd2-117f-458c-a261-845c336c5904","ios":"levelo://app?vid=7f97fcd2-117f-458c-a261-845c336c5904"},"vehicle_type_id":"4","last_reported":1733217053,"current_range_meters":36400,"station_id":"ce4bhgp2rcd13ifvqfd0","pricing_plan_id":"cebpf4jnsgd1na2vs0mg"},{"bike_id":"18a04b91-15af-4548-bc85-5162a9b37938","system_id":"levelo_inurba_marseille","lat":43.32022,"lon":5.4142,"is_reserved":false,"is_disabled":false,"rental_uris":{"android":"levelo://app?vid=18a04b91-15af-4548-bc85-5162a9b37938","ios":"levelo://app?vid=18a04b91-15af-4548-bc85-5162a9b37938"},"vehicle_type_id":"4","last_reported":1733217053,"current_range_meters":4000,"station_id":"ce4bhqh2rcd13ifvqhmg","pricing_plan_id":"cebpf4jnsgd1na2vs0mg"},{"bike_id":"d343be82-d45b-4580-9267-ab2a574eac02","system_id":"levelo_inurba_marseille","lat":43.30798,"lon":5.43526,"is_reserved":false,"is_disabled":true,"rental_uris":{"android":"levelo://app?vid=d343be82-d45b-4580-9267-ab2a574eac02","ios":"levelo://app?vid=d343be82-d45b-4580-9267-ab2a574eac02"},"vehicle_type_id":"4","last_reported":1733217053,"current_range_meters":0,"station_id":"ce4bhph2rcd13ifvqheg","pricing_plan_id":"cebpf4jnsgd1na2vs0mg"},{"bike_id":"ce631c26-6e09-4ece-9c16-701bf3a6ddbf","system_id":"levelo_inurba_marseille","lat":43.34146,"lon":5.40907,"is_reserved":false,"is_disabled":false,"rental_uris":{"android":"levelo://app?vid=ce631c26-6e09-4ece-9c16-701bf3a6ddbf","ios":"levelo://app?vid=ce631c26-6e09-4ece-9c16-701bf3a6ddbf"},"vehicle_type_id":"4","last_reported":1733217053,"current_range_meters":24400,"station_id":"ce4bhqh2rcd13ifvqhlg","pricing_plan_id":"cebpf4jnsgd1na2vs0mg"},{"bike_id":"c17531e3-2798-489b-8b1b-7c5687fee335","system_id":"levelo_inurba_marseille","lat":43.31484,"lon":5.3731,"is_reserved":false,"is_disabled":false,"rental_uris":{"android":"levelo://app?vid=c17531e3-2798-489b-8b1b-7c5687fee335","ios":"levelo://app?vid=c17531e3-2798-489b-8b1b-7c5687fee335"},"vehicle_type_id":"4","last_reported":1733217053,"current_range_meters":18000,"station_id":"ce4bgt12rcd13ifvqcd0","pricing_plan_id":"cebpf4jnsgd1na2vs0mg"},{"bike_id":"4ea402f6-45b0-4846-84f5-29270e62c818","system_id":"levelo_inurba_marseille","lat":43.30835,"lon":5.37398,"is_reserved":false,"is_disabled":true,"rental_uris":{"android":"levelo://app?vid=4ea402f6-45b0-4846-84f5-29270e62c818","ios":"levelo://app?vid=4ea402f6-45b0-4846-84f5-29270e62c818"},"vehicle_type_id":"4","last_reported":1733217053,"current_range_meters":0,"station_id":"","pricing_plan_id":"cebpf4jnsgd1na2vs0mg"},{"bike_id":"83985555-c848-4b28-808f-8a7e7cf8519e","system_id":"levelo_inurba_marseille","lat":43.28115,"lon":5.44168,"is_reserved":false,"is_disabled":true,"rental_uris":{"android":"levelo://app?vid=83985555-c848-4b28-808f-8a7e7cf8519e","ios":"levelo://app?vid=83985555-c848-4b28-808f-8a7e7cf8519e"},"vehicle_type_id":"4","last_reported":1733217053,"current_range_meters":0,"station_id":"","pricing_plan_id":"cebpf4jnsgd1na2vs0mg"},{"bike_id":"2efae194-dc94-42b9-a7db-f31b2881d0ed","system_id":"levelo_inurba_marseille","lat":43.29515,"lon":5.37501,"is_reserved":false,"is_disabled":false,"rental_uris":{"android":"levelo://app?vid=2efae194-dc94-42b9-a7db-f31b2881d0ed","ios":"levelo://app?vid=2efae194-dc94-42b9-a7db-f31b2881d0ed"},"vehicle_type_id":"4","last_reported":1733217053,"current_range_meters":8400,"station_id":"ce4bgkp2rcd13ifvqbmg","pricing_plan_id":"cebpf4jnsgd1na2vs0mg"},{"bike_id":"e4c7316d-1819-497d-a185-15db6d5ebe9e","system_id":"levelo_inurba_marseille","lat":43.29579,"lon":5.36731,"is_reserved":false,"is_disabled":false,"rental_uris":{"android":"levelo://app?vid=e4c7316d-1819-497d-a185-15db6d5ebe9e","ios":"levelo://app?vid=e4c7316d-1819-497d-a185-15db6d5ebe9e"},"vehicle_type_id":"4","last_reported":1733217053,"current_range_meters":22000,"station_id":"ce4bgph2rcd13ifvqc2g","pricing_plan_id":"cebpf4jnsgd1na2vs0mg"},{"bike_id":"9358be79-5896-4930-bace-855b71c250b3","system_id":"levelo_inurba_marseille","lat":43.32276,"lon":5.38282,"is_reserved":false,"is_disabled":true,"rental_uris":{"android":"levelo://app?vid=9358be79-5896-4930-bace-855b71c250b3","ios":"levelo://app?vid=9358be79-5896-4930-bace-855b71c250b3"},"vehicle_type_id":"4","last_reported":1733217053,"current_range_meters":38800,"station_id":"ce4bhr12rcd13ifvqhqg","pricing_plan_id":"cebpf4jnsgd1na2vs0mg"},{"bike_id":"af1fd391-0bbf-48d3-9ade-588f0a2d2bf3","system_id":"levelo_inurba_marseille","lat":43.2407,"lon":5.37762,"is_reserved":false,"is_disabled":false,"rental_uris":{"android":"levelo://app?vid=af1fd391-0bbf-48d3-9ade-588f0a2d2bf3","ios":"levelo://app?vid=af1fd391-0bbf-48d3-9ade-588f0a2d2bf3"},"vehicle_type_id":"4","last_reported":1733217053,"current_range_meters":27200,"station_id":"ce4bhnp2rcd13ifvqgvg","pricing_plan_id":"cebpf4jnsgd1na2vs0mg"},{"bike_id":"941eeae1-8936-4a86-b31a-ea87d84b2048","system_id":"levelo_inurba_marseille","lat":43.28063,"lon":5.35634,"is_reserved":false,"is_disabled":false,"rental_uris":{"android":"levelo://app?vid=941eeae1-8936-4a86-b31a-ea87d84b2048","ios":"levelo://app?vid=941eeae1-8936-4a86-b31a-ea87d84b2048"},"vehicle_type_id":"4","last_reported":1733217053,"current_range_meters":8000,"station_id":"","pricing_plan_id":"cebpf4jnsgd1na2vs0mg"},{"bike_id":"9e09ddbd-39a3-4372-b7da-f160badf22e5","system_id":"levelo_inurba_marseille","lat":43.2797,"lon":5.38735,"is_reserved":false,"is_disabled":false,"rental_uris":{"android":"levelo://app?vid=9e09ddbd-39a3-4372-b7da-f160badf22e5","ios":"levelo://app?vid=9e09ddbd-39a3-4372-b7da-f160badf22e5"},"vehicle_type_id":"4","last_reported":1733217053,"current_range_meters":20800,"station_id":"ce4bhg12rcd13ifvqf80","pricing_plan_id":"cebpf4jnsgd1na2vs0mg"},{"bike_id":"1176e033-efc4-474e-af61-8d3a0d5f5ccf","system_id":"levelo_inurba_marseille","lat":43.25886,"lon":5.39954,"is_reserved":false,"is_disabled":true,"rental_uris":{"android":"levelo://app?vid=1176e033-efc4-474e-af61-8d3a0d5f5ccf","ios":"levelo://app?vid=1176e033-efc4-474e-af61-8d3a0d5f5ccf"},"vehicle_type_id":"4","last_reported":1733217053,"current_range_meters":0,"station_id":"","pricing_plan_id":"cebpf4jnsgd1na2vs0mg"},{"bike_id":"355f9b9d-f767-4c7c-b2c2-99f45fb7404f","system_id":"levelo_inurba_marseille","lat":43.30773,"lon":5.3765,"is_reserved":false,"is_disabled":true,"rental_uris":{"android":"levelo://app?vid=355f9b9d-f767-4c7c-b2c2-99f45fb7404f","ios":"levelo://app?vid=355f9b9d-f767-4c7c-b2c2-99f45fb7404f"},"vehicle_type_id":"4","last_reported":1733217053,"current_range_meters":32400,"station_id":"ce4bgv92rcd13ifvqcq0","pricing_plan_id":"cebpf4jnsgd1na2vs0mg"},{"bike_id":"d1a8240c-6717-4129-b791-865274eca2a9","system_id":"levelo_inurba_marseille","lat":43.30538,"lon":5.36536,"is_reserved":false,"is_disabled":false,"rental_uris":{"android":"levelo://app?vid=d1a8240c-6717-4129-b791-865274eca2a9","ios":"levelo://app?vid=d1a8240c-6717-4129-b791-865274eca2a9"},"vehicle_type_id":"4","last_reported":1733217053,"current_range_meters":36400,"station_id":"ce4bgs12rcd13ifvqcag","pricing_plan_id":"cebpf4jnsgd1na2vs0mg"},{"bike_id":"d5dc8b48-0564-4629-a65c-97bbfeb5bca1","system_id":"levelo_inurba_marseille","lat":43.26195,"lon":5.37443,"is_reserved":false,"is_disabled":false,"rental_uris":{"android":"levelo://app?vid=d5dc8b48-0564-4629-a65c-97bbfeb5bca1","ios":"levelo://app?vid=d5dc8b48-0564-4629-a65c-97bbfeb5bca1"},"vehicle_type_id":"4","last_reported":1733217053,"current_range_meters":37600,"station_id":"ce4bhgp2rcd13ifvqfc0","pricing_plan_id":"cebpf4jnsgd1na2vs0mg"},{"bike_id":"daa05a65-c05a-4068-9833-3010d61dc489","system_id":"levelo_inurba_marseille","lat":43.28482,"lon":5.38414,"is_reserved":false,"is_disabled":true,"rental_uris":{"android":"levelo://app?vid=daa05a65-c05a-4068-9833-3010d61dc489","ios":"levelo://app?vid=daa05a65-c05a-4068-9833-3010d61dc489"},"vehicle_type_id":"4","last_reported":1733217053,"current_range_meters":25600,"station_id":"ce4bh512rcd13ifvqe3g","pricing_plan_id":"cebpf4jnsgd1na2vs0mg"},{"bike_id":"d968385f-de2b-44eb-96a8-54efc707caa9","system_id":"levelo_inurba_marseille","lat":43.2319,"lon":5.35538,"is_reserved":false,"is_disabled":false,"rental_uris":{"android":"levelo://app?vid=d968385f-de2b-44eb-96a8-54efc707caa9","ios":"levelo://app?vid=d968385f-de2b-44eb-96a8-54efc707caa9"},"vehicle_type_id":"4","last_reported":1733217053,"current_range_meters":38800,"station_id":"ce4bhu92rcd13ifvqi70","pricing_plan_id":"cebpf4jnsgd1na2vs0mg"},{"bike_id":"e218f52a-3c8a-490a-99d9-5af7196625b0","system_id":"levelo_inurba_marseille","lat":43.23192,"lon":5.3555,"is_reserved":false,"is_disabled":false,"rental_uris":{"android":"levelo://app?vid=e218f52a-3c8a-490a-99d9-5af7196625b0","ios":"levelo://app?vid=e218f52a-3c8a-490a-99d9-5af7196625b0"},"vehicle_type_id":"4","last_reported":1733217053,"current_range_meters":37600,"station_id":"ce4bhu92rcd13ifvqi70","pricing_plan_id":"cebpf4jnsgd1na2vs0mg"},{"bike_id":"307ca336-3f57-4d5b-849b-5b9df48faeaf","system_id":"levelo_inurba_marseille","lat":43.300256,"lon":5.38881,"is_reserved":false,"is_disabled":true,"rental_uris":{"android":"levelo://app?vid=307ca336-3f57-4d5b-849b-5b9df48faeaf","ios":"levelo://app?vid=307ca336-3f57-4d5b-849b-5b9df48faeaf"},"vehicle_type_id":"4","last_reported":1733217053,"current_range_meters":0,"station_id":"","pricing_plan_id":"cebpf4jnsgd1na2vs0mg"},{"bike_id":"506c09f4-6c9b-4fb3-996c-4c7f86dd75a8","system_id":"levelo_inurba_marseille","lat":43.24557,"lon":5.37351,"is_reserved":false,"is_disabled":true,"rental_uris":{"android":"levelo://app?vid=506c09f4-6c9b-4fb3-996c-4c7f86dd75a8","ios":"levelo://app?vid=506c09f4-6c9b-4fb3-996c-4c7f86dd75a8"},"vehicle_type_id":"4","last_reported":1733217053,"current_range_meters":0,"station_id":"","pricing_plan_id":"cebpf4jnsgd1na2vs0mg"},{"bike_id":"0648d7f3-0115-4674-a631-4af963b6bc53","system_id":"levelo_inurba_marseille","lat":43.29423,"lon":5.38611,"is_reserved":false,"is_disabled":true,"rental_uris":{"android":"levelo://app?vid=0648d7f3-0115-4674-a631-4af963b6bc53","ios":"levelo://app?vid=0648d7f3-0115-4674-a631-4af963b6bc53"},"vehicle_type_id":"4","last_reported":1733217053,"current_range_meters":28800,"station_id":"ce4bh2h2rcd13ifvqdh0","pricing_plan_id":"cebpf4jnsgd1na2vs0mg"},{"bike_id":"9202c63e-372c-4469-a5c1-8e35757d1940","system_id":"levelo_inurba_marseille","lat":43.30053,"lon":5.38832,"is_reserved":false,"is_disabled":true,"rental_uris":{"android":"levelo://app?vid=9202c63e-372c-4469-a5c1-8e35757d1940","ios":"levelo://app?vid=9202c63e-372c-4469-a5c1-8e35757d1940"},"vehicle_type_id":"4","last_reported":1733217053,"current_range_meters":0,"station_id":"","pricing_plan_id":"cebpf4jnsgd1na2vs0mg"},{"bike_id":"7ce87540-068e-40a8-8b73-bc4713996526","system_id":"levelo_inurba_marseille","lat":43.30288,"lon":5.37686,"is_reserved":false,"is_disabled":true,"rental_uris":{"android":"levelo://app?vid=7ce87540-068e-40a8-8b73-bc4713996526","ios":"levelo://app?vid=7ce87540-068e-40a8-8b73-bc4713996526"},"vehicle_type_id":"4","last_reported":1733217053,"current_range_meters":0,"station_id":"ce4bguh2rcd13ifvqcj0","pricing_plan_id":"cebpf4jnsgd1na2vs0mg"},{"bike_id":"16e13872-2a5d-4ac5-a68a-0147e9b4c0f2","system_id":"levelo_inurba_marseille","lat":43.33588,"lon":5.40972,"is_reserved":false,"is_disabled":false,"rental_uris":{"android":"levelo://app?vid=16e13872-2a5d-4ac5-a68a-0147e9b4c0f2","ios":"levelo://app?vid=16e13872-2a5d-4ac5-a68a-0147e9b4c0f2"},"vehicle_type_id":"4","last_reported":1733217053,"current_range_meters":35200,"station_id":"ce4bhqh2rcd13ifvqhmg","pricing_plan_id":"cebpf4jnsgd1na2vs0mg"},{"bike_id":"1d65471b-f176-4b0b-b41d-d9591f88d0e8","system_id":"levelo_inurba_marseille","lat":43.24078,"lon":5.37743,"is_reserved":false,"is_disabled":true,"rental_uris":{"android":"levelo://app?vid=1d65471b-f176-4b0b-b41d-d9591f88d0e8","ios":"levelo://app?vid=1d65471b-f176-4b0b-b41d-d9591f88d0e8"},"vehicle_type_id":"4","last_reported":1733217053,"current_range_meters":2000,"station_id":"ce4bhnp2rcd13ifvqgvg","pricing_plan_id":"cebpf4jnsgd1na2vs0mg"},{"bike_id":"6e49b6f3-be34-4041-b571-4c2e12dbac4f","system_id":"levelo_inurba_marseille","lat":43.26918,"lon":5.38647,"is_reserved":false,"is_disabled":false,"rental_uris":{"android":"levelo://app?vid=6e49b6f3-be34-4041-b571-4c2e12dbac4f","ios":"levelo://app?vid=6e49b6f3-be34-4041-b571-4c2e12dbac4f"},"vehicle_type_id":"4","last_reported":1733217053,"current_range_meters":39200,"station_id":"ce4bhh92rcd13ifvqfh0","pricing_plan_id":"cebpf4jnsgd1na2vs0mg"},{"bike_id":"72401246-0d93-497b-82fa-c0de71a5c822","system_id":"levelo_inurba_marseille","lat":43.30602,"lon":5.37234,"is_reserved":false,"is_disabled":false,"rental_uris":{"android":"levelo://app?vid=72401246-0d93-497b-82fa-c0de71a5c822","ios":"levelo://app?vid=72401246-0d93-497b-82fa-c0de71a5c822"},"vehicle_type_id":"4","last_reported":1733217053,"current_range_meters":27600,"station_id":"ce4bgqh2rcd13ifvqc4g","pricing_plan_id":"cebpf4jnsgd1na2vs0mg"},{"bike_id":"8cbb1876-809e-4922-953b-40d493b437d4","system_id":"levelo_inurba_marseille","lat":43.32339,"lon":5.4062,"is_reserved":false,"is_disabled":false,"rental_uris":{"android":"levelo://app?vid=8cbb1876-809e-4922-953b-40d493b437d4","ios":"levelo://app?vid=8cbb1876-809e-4922-953b-40d493b437d4"},"vehicle_type_id":"4","last_reported":1733217053,"current_range_meters":24400,"station_id":"ce4bhq92rcd13ifvqhjg","pricing_plan_id":"cebpf4jnsgd1na2vs0mg"},{"bike_id":"29e5a72a-1f12-4815-9cbd-7b8f7c59d95d","system_id":"levelo_inurba_marseille","lat":43.23148,"lon":5.43721,"is_reserved":false,"is_disabled":false,"rental_uris":{"android":"levelo://app?vid=29e5a72a-1f12-4815-9cbd-7b8f7c59d95d","ios":"levelo://app?vid=29e5a72a-1f12-4815-9cbd-7b8f7c59d95d"},"vehicle_type_id":"4","last_reported":1733217053,"current_range_meters":28800,"station_id":"ce4bhmp2rcd13ifvqgog","pricing_plan_id":"cebpf4jnsgd1na2vs0mg"},{"bike_id":"14aa00cd-9ded-48be-bfaf-f00f1d8a5b3c","system_id":"levelo_inurba_marseille","lat":43.28107,"lon":5.37818,"is_reserved":false,"is_disabled":false,"rental_uris":{"android":"levelo://app?vid=14aa00cd-9ded-48be-bfaf-f00f1d8a5b3c","ios":"levelo://app?vid=14aa00cd-9ded-48be-bfaf-f00f1d8a5b3c"},"vehicle_type_id":"4","last_reported":1733217053,"current_range_meters":28400,"station_id":"ce4bha12rcd13ifvqee0","pricing_plan_id":"cebpf4jnsgd1na2vs0mg"},{"bike_id":"719e509a-25e4-4b1b-9830-f708d85d7593","system_id":"levelo_inurba_marseille","lat":43.29569,"lon":5.37512,"is_reserved":false,"is_disabled":true,"rental_uris":{"android":"levelo://app?vid=719e509a-25e4-4b1b-9830-f708d85d7593","ios":"levelo://app?vid=719e509a-25e4-4b1b-9830-f708d85d7593"},"vehicle_type_id":"4","last_reported":1733217053,"current_range_meters":0,"station_id":"ce4bgh92rcd13ifvqb50","pricing_plan_id":"cebpf4jnsgd1na2vs0mg"},{"bike_id":"0bf26240-ea4a-4fb0-a3eb-5657a82a1aac","system_id":"levelo_inurba_marseille","lat":43.30535,"lon":5.36716,"is_reserved":false,"is_disabled":false,"rental_uris":{"android":"levelo://app?vid=0bf26240-ea4a-4fb0-a3eb-5657a82a1aac","ios":"levelo://app?vid=0bf26240-ea4a-4fb0-a3eb-5657a82a1aac"},"vehicle_type_id":"4","last_reported":1733217053,"current_range_meters":10000,"station_id":"ce4bgrp2rcd13ifvqc9g","pricing_plan_id":"cebpf4jnsgd1na2vs0mg"},{"bike_id":"b8c4c32e-75d5-42c2-ae07-2a3da3c2053b","system_id":"levelo_inurba_marseille","lat":43.27491,"lon":5.42457,"is_reserved":false,"is_disabled":true,"rental_uris":{"android":"levelo://app?vid=b8c4c32e-75d5-42c2-ae07-2a3da3c2053b","ios":"levelo://app?vid=b8c4c32e-75d5-42c2-ae07-2a3da3c2053b"},"vehicle_type_id":"4","last_reported":1733217053,"current_range_meters":30000,"station_id":"ce4bhn92rcd13ifvqgrg","pricing_plan_id":"cebpf4jnsgd1na2vs0mg"},{"bike_id":"5d7c9e24-fecf-49f1-afd0-481a24a26cee","system_id":"levelo_inurba_marseille","lat":43.24075,"lon":5.3775,"is_reserved":false,"is_disabled":false,"rental_uris":{"android":"levelo://app?vid=5d7c9e24-fecf-49f1-afd0-481a24a26cee","ios":"levelo://app?vid=5d7c9e24-fecf-49f1-afd0-481a24a26cee"},"vehicle_type_id":"4","last_reported":1733217053,"current_range_meters":37600,"station_id":"ce4bhnp2rcd13ifvqgvg","pricing_plan_id":"cebpf4jnsgd1na2vs0mg"},{"bike_id":"2cf65095-36e5-4949-abae-c54c2895d97b","system_id":"levelo_inurba_marseille","lat":43.32596,"lon":5.41369,"is_reserved":false,"is_disabled":true,"rental_uris":{"android":"levelo://app?vid=2cf65095-36e5-4949-abae-c54c2895d97b","ios":"levelo://app?vid=2cf65095-36e5-4949-abae-c54c2895d97b"},"vehicle_type_id":"4","last_reported":1733217053,"current_range_meters":0,"station_id":"","pricing_plan_id":"cebpf4jnsgd1na2vs0mg"},{"bike_id":"7eeb5ac6-a3ab-4724-a0d1-17bed7e385e6","system_id":"levelo_inurba_marseille","lat":43.27993,"lon":5.41659,"is_reserved":false,"is_disabled":true,"rental_uris":{"android":"levelo://app?vid=7eeb5ac6-a3ab-4724-a0d1-17bed7e385e6","ios":"levelo://app?vid=7eeb5ac6-a3ab-4724-a0d1-17bed7e385e6"},"vehicle_type_id":"4","last_reported":1733217053,"current_range_meters":32000,"station_id":"ce4bho12rcd13ifvqh1g","pricing_plan_id":"cebpf4jnsgd1na2vs0mg"},{"bike_id":"98e643fc-0687-4a50-94d4-d3ff6d62eea9","system_id":"levelo_inurba_marseille","lat":43.271811,"lon":5.422229,"is_reserved":false,"is_disabled":false,"rental_uris":{"android":"levelo://app?vid=98e643fc-0687-4a50-94d4-d3ff6d62eea9","ios":"levelo://app?vid=98e643fc-0687-4a50-94d4-d3ff6d62eea9"},"vehicle_type_id":"4","last_reported":1733217053,"current_range_meters":38000,"station_id":"ce4bhk92rcd13ifvqgb0","pricing_plan_id":"cebpf4jnsgd1na2vs0mg"},{"bike_id":"1765576d-ad21-4bb0-85a8-4c7cde4f5294","system_id":"levelo_inurba_marseille","lat":43.29626,"lon":5.37149,"is_reserved":false,"is_disabled":true,"rental_uris":{"android":"levelo://app?vid=1765576d-ad21-4bb0-85a8-4c7cde4f5294","ios":"levelo://app?vid=1765576d-ad21-4bb0-85a8-4c7cde4f5294"},"vehicle_type_id":"4","last_reported":1733217053,"current_range_meters":6800,"station_id":"ce4bgnh2rcd13ifvqc0g","pricing_plan_id":"cebpf4jnsgd1na2vs0mg"},{"bike_id":"181485bd-454c-4288-8e2d-646a6d3d755e","system_id":"levelo_inurba_marseille","lat":43.28265,"lon":5.35064,"is_reserved":false,"is_disabled":false,"rental_uris":{"android":"levelo://app?vid=181485bd-454c-4288-8e2d-646a6d3d755e","ios":"levelo://app?vid=181485bd-454c-4288-8e2d-646a6d3d755e"},"vehicle_type_id":"4","last_reported":1733217053,"current_range_meters":24400,"station_id":"ce4bhbp2rcd13ifvqerg","pricing_plan_id":"cebpf4jnsgd1na2vs0mg"},{"bike_id":"c61bd30f-c391-4568-81c3-2f90d121afda","system_id":"levelo_inurba_marseille","lat":43.23188,"lon":5.39974,"is_reserved":false,"is_disabled":false,"rental_uris":{"android":"levelo://app?vid=c61bd30f-c391-4568-81c3-2f90d121afda","ios":"levelo://app?vid=c61bd30f-c391-4568-81c3-2f90d121afda"},"vehicle_type_id":"4","last_reported":1733217053,"current_range_meters":22000,"station_id":"ce4bhn12rcd13ifvqgqg","pricing_plan_id":"cebpf4jnsgd1na2vs0mg"},{"bike_id":"66b1eb52-58a6-4de9-a47c-c45493ee9a08","system_id":"levelo_inurba_marseille","lat":43.30146,"lon":5.38086,"is_reserved":false,"is_disabled":false,"rental_uris":{"android":"levelo://app?vid=66b1eb52-58a6-4de9-a47c-c45493ee9a08","ios":"levelo://app?vid=66b1eb52-58a6-4de9-a47c-c45493ee9a08"},"vehicle_type_id":"4","last_reported":1733217053,"current_range_meters":33200,"station_id":"ce4bgjp2rcd13ifvqbh0","pricing_plan_id":"cebpf4jnsgd1na2vs0mg"},{"bike_id":"d295c728-7f23-4f02-adbd-d7afb218c0a3","system_id":"levelo_inurba_marseille","lat":43.30102,"lon":5.39072,"is_reserved":false,"is_disabled":false,"rental_uris":{"android":"levelo://app?vid=d295c728-7f23-4f02-adbd-d7afb218c0a3","ios":"levelo://app?vid=d295c728-7f23-4f02-adbd-d7afb218c0a3"},"vehicle_type_id":"4","last_reported":1733217053,"current_range_meters":38800,"station_id":"ce4bh192rcd13ifvqdb0","pricing_plan_id":"cebpf4jnsgd1na2vs0mg"},{"bike_id":"5724e1b4-c04a-46ef-a0e3-b0bdd6a3f488","system_id":"levelo_inurba_marseille","lat":43.29164,"lon":5.37166,"is_reserved":false,"is_disabled":false,"rental_uris":{"android":"levelo://app?vid=5724e1b4-c04a-46ef-a0e3-b0bdd6a3f488","ios":"levelo://app?vid=5724e1b4-c04a-46ef-a0e3-b0bdd6a3f488"},"vehicle_type_id":"4","last_reported":1733217053,"current_range_meters":26000,"station_id":"ce4bha92rcd13ifvqeh0","pricing_plan_id":"cebpf4jnsgd1na2vs0mg"},{"bike_id":"493af9ec-780a-44a3-be54-8ea9bc9b1958","system_id":"levelo_inurba_marseille","lat":43.30139,"lon":5.37416,"is_reserved":false,"is_disabled":false,"rental_uris":{"android":"levelo://app?vid=493af9ec-780a-44a3-be54-8ea9bc9b1958","ios":"levelo://app?vid=493af9ec-780a-44a3-be54-8ea9bc9b1958"},"vehicle_type_id":"4","last_reported":1733217053,"current_range_meters":33200,"station_id":"ce4bgs92rcd13ifvqcc0","pricing_plan_id":"cebpf4jnsgd1na2vs0mg"},{"bike_id":"00f24adf-e904-4879-a295-07bd2f907933","system_id":"levelo_inurba_marseille","lat":43.24075,"lon":5.3776,"is_reserved":false,"is_disabled":false,"rental_uris":{"android":"levelo://app?vid=00f24adf-e904-4879-a295-07bd2f907933","ios":"levelo://app?vid=00f24adf-e904-4879-a295-07bd2f907933"},"vehicle_type_id":"4","last_reported":1733217053,"current_range_meters":28000,"station_id":"ce4bhnp2rcd13ifvqgvg","pricing_plan_id":"cebpf4jnsgd1na2vs0mg"},{"bike_id":"a8470222-8fc2-465c-8f1d-616d899efbab","system_id":"levelo_inurba_marseille","lat":43.25926,"lon":5.40908,"is_reserved":false,"is_disabled":false,"rental_uris":{"android":"levelo://app?vid=a8470222-8fc2-465c-8f1d-616d899efbab","ios":"levelo://app?vid=a8470222-8fc2-465c-8f1d-616d899efbab"},"vehicle_type_id":"4","last_reported":1733217053,"current_range_meters":28800,"station_id":"ce4bhm92rcd13ifvqglg","pricing_plan_id":"cebpf4jnsgd1na2vs0mg"},{"bike_id":"ebdcd2a0-d47c-4ff7-8f11-d514986e5e6d","system_id":"levelo_inurba_marseille","lat":43.3237,"lon":5.38884,"is_reserved":false,"is_disabled":false,"rental_uris":{"android":"levelo://app?vid=ebdcd2a0-d47c-4ff7-8f11-d514986e5e6d","ios":"levelo://app?vid=ebdcd2a0-d47c-4ff7-8f11-d514986e5e6d"},"vehicle_type_id":"4","last_reported":1733217053,"current_range_meters":14400,"station_id":"ce4bhqp2rcd13ifvqhog","pricing_plan_id":"cebpf4jnsgd1na2vs0mg"},{"bike_id":"79c8ea6d-5102-4a1e-b941-afdabc095945","system_id":"levelo_inurba_marseille","lat":43.29065,"lon":5.38344,"is_reserved":false,"is_disabled":true,"rental_uris":{"android":"levelo://app?vid=79c8ea6d-5102-4a1e-b941-afdabc095945","ios":"levelo://app?vid=79c8ea6d-5102-4a1e-b941-afdabc095945"},"vehicle_type_id":"4","last_reported":1733217053,"current_range_meters":26000,"station_id":"","pricing_plan_id":"cebpf4jnsgd1na2vs0mg"},{"bike_id":"8e927bbb-5066-42b7-8164-6ebe56ea8ad0","system_id":"levelo_inurba_marseille","lat":43.33578,"lon":5.40936,"is_reserved":false,"is_disabled":false,"rental_uris":{"android":"levelo://app?vid=8e927bbb-5066-42b7-8164-6ebe56ea8ad0","ios":"levelo://app?vid=8e927bbb-5066-42b7-8164-6ebe56ea8ad0"},"vehicle_type_id":"4","last_reported":1733217053,"current_range_meters":38800,"station_id":"","pricing_plan_id":"cebpf4jnsgd1na2vs0mg"},{"bike_id":"54e1df1e-eb53-4ca4-9a74-35214272b09a","system_id":"levelo_inurba_marseille","lat":43.27919,"lon":5.3958,"is_reserved":false,"is_disabled":false,"rental_uris":{"android":"levelo://app?vid=54e1df1e-eb53-4ca4-9a74-35214272b09a","ios":"levelo://app?vid=54e1df1e-eb53-4ca4-9a74-35214272b09a"},"vehicle_type_id":"4","last_reported":1733217053,"current_range_meters":35200,"station_id":"ce4bhf92rcd13ifvqf40","pricing_plan_id":"cebpf4jnsgd1na2vs0mg"},{"bike_id":"52466af8-be26-4528-be5e-df98d7c8297e","system_id":"levelo_inurba_marseille","lat":43.27999,"lon":5.40013,"is_reserved":false,"is_disabled":false,"rental_uris":{"android":"levelo://app?vid=52466af8-be26-4528-be5e-df98d7c8297e","ios":"levelo://app?vid=52466af8-be26-4528-be5e-df98d7c8297e"},"vehicle_type_id":"4","last_reported":1733217053,"current_range_meters":17600,"station_id":"ce4bho92rcd13ifvqh4g","pricing_plan_id":"cebpf4jnsgd1na2vs0mg"},{"bike_id":"75f41dcf-35c1-42fc-bc9a-9da53776c30f","system_id":"levelo_inurba_marseille","lat":43.25583,"lon":5.38239,"is_reserved":false,"is_disabled":true,"rental_uris":{"android":"levelo://app?vid=75f41dcf-35c1-42fc-bc9a-9da53776c30f","ios":"levelo://app?vid=75f41dcf-35c1-42fc-bc9a-9da53776c30f"},"vehicle_type_id":"4","last_reported":1733217053,"current_range_meters":38800,"station_id":"ce4bhih2rcd13ifvqfs0","pricing_plan_id":"cebpf4jnsgd1na2vs0mg"},{"bike_id":"d337693b-82b2-4f65-ad74-9a2472a5f9cd","system_id":"levelo_inurba_marseille","lat":43.29791,"lon":5.38107,"is_reserved":false,"is_disabled":true,"rental_uris":{"android":"levelo://app?vid=d337693b-82b2-4f65-ad74-9a2472a5f9cd","ios":"levelo://app?vid=d337693b-82b2-4f65-ad74-9a2472a5f9cd"},"vehicle_type_id":"4","last_reported":1733217053,"current_range_meters":36800,"station_id":"ce4bgip2rcd13ifvqbb0","pricing_plan_id":"cebpf4jnsgd1na2vs0mg"},{"bike_id":"3da7e59f-75a6-4eb3-bd92-7cee9fdc8eda","system_id":"levelo_inurba_marseille","lat":43.29784,"lon":5.3935,"is_reserved":false,"is_disabled":false,"rental_uris":{"android":"levelo://app?vid=3da7e59f-75a6-4eb3-bd92-7cee9fdc8eda","ios":"levelo://app?vid=3da7e59f-75a6-4eb3-bd92-7cee9fdc8eda"},"vehicle_type_id":"4","last_reported":1733217053,"current_range_meters":26000,"station_id":"chh1huq6cuj3fo74tm60","pricing_plan_id":"cebpf4jnsgd1na2vs0mg"},{"bike_id":"427d7497-fe79-4531-b7d6-69d2614ceec1","system_id":"levelo_inurba_marseille","lat":43.29166,"lon":5.38459,"is_reserved":false,"is_disabled":true,"rental_uris":{"android":"levelo://app?vid=427d7497-fe79-4531-b7d6-69d2614ceec1","ios":"levelo://app?vid=427d7497-fe79-4531-b7d6-69d2614ceec1"},"vehicle_type_id":"4","last_reported":1733217053,"current_range_meters":9600,"station_id":"","pricing_plan_id":"cebpf4jnsgd1na2vs0mg"},{"bike_id":"58745024-055b-4c1b-b90f-3161671a49a0","system_id":"levelo_inurba_marseille","lat":43.25723,"lon":5.41106,"is_reserved":false,"is_disabled":false,"rental_uris":{"android":"levelo://app?vid=58745024-055b-4c1b-b90f-3161671a49a0","ios":"levelo://app?vid=58745024-055b-4c1b-b90f-3161671a49a0"},"vehicle_type_id":"4","last_reported":1733217053,"current_range_meters":38800,"station_id":"ce4bhkp2rcd13ifvqgd0","pricing_plan_id":"cebpf4jnsgd1na2vs0mg"},{"bike_id":"8fe55c2d-7384-438a-a0b6-fefb37ed3c90","system_id":"levelo_inurba_marseille","lat":43.28463,"lon":5.35893,"is_reserved":false,"is_disabled":true,"rental_uris":{"android":"levelo://app?vid=8fe55c2d-7384-438a-a0b6-fefb37ed3c90","ios":"levelo://app?vid=8fe55c2d-7384-438a-a0b6-fefb37ed3c90"},"vehicle_type_id":"4","last_reported":1733217053,"current_range_meters":400,"station_id":"ce4bhah2rcd13ifvqei0","pricing_plan_id":"cebpf4jnsgd1na2vs0mg"},{"bike_id":"daa64a8d-65e1-48f3-89e8-4d94f47a6133","system_id":"levelo_inurba_marseille","lat":43.30535,"lon":5.3654,"is_reserved":false,"is_disabled":false,"rental_uris":{"android":"levelo://app?vid=daa64a8d-65e1-48f3-89e8-4d94f47a6133","ios":"levelo://app?vid=daa64a8d-65e1-48f3-89e8-4d94f47a6133"},"vehicle_type_id":"4","last_reported":1733217053,"current_range_meters":26000,"station_id":"ce4bgs12rcd13ifvqcag","pricing_plan_id":"cebpf4jnsgd1na2vs0mg"},{"bike_id":"a4b9e425-64b8-4ce2-a5ab-5fcc5d1230a4","system_id":"levelo_inurba_marseille","lat":43.32109,"lon":5.36767,"is_reserved":false,"is_disabled":false,"rental_uris":{"android":"levelo://app?vid=a4b9e425-64b8-4ce2-a5ab-5fcc5d1230a4","ios":"levelo://app?vid=a4b9e425-64b8-4ce2-a5ab-5fcc5d1230a4"},"vehicle_type_id":"4","last_reported":1733217053,"current_range_meters":11600,"station_id":"ce4bhrh2rcd13ifvqhug","pricing_plan_id":"cebpf4jnsgd1na2vs0mg"},{"bike_id":"a8005521-d149-41fb-b596-fd5add52f64b","system_id":"levelo_inurba_marseille","lat":43.30463,"lon":5.37908,"is_reserved":false,"is_disabled":false,"rental_uris":{"android":"levelo://app?vid=a8005521-d149-41fb-b596-fd5add52f64b","ios":"levelo://app?vid=a8005521-d149-41fb-b596-fd5add52f64b"},"vehicle_type_id":"4","last_reported":1733217053,"current_range_meters":30400,"station_id":"ce4bgup2rcd13ifvqcn0","pricing_plan_id":"cebpf4jnsgd1na2vs0mg"},{"bike_id":"e7593ea2-ec58-4888-b050-c3efd4c6660c","system_id":"levelo_inurba_marseille","lat":43.24082,"lon":5.37747,"is_reserved":false,"is_disabled":false,"rental_uris":{"android":"levelo://app?vid=e7593ea2-ec58-4888-b050-c3efd4c6660c","ios":"levelo://app?vid=e7593ea2-ec58-4888-b050-c3efd4c6660c"},"vehicle_type_id":"4","last_reported":1733217053,"current_range_meters":9600,"station_id":"ce4bhnp2rcd13ifvqgvg","pricing_plan_id":"cebpf4jnsgd1na2vs0mg"},{"bike_id":"b1e6b49b-359d-4791-b1ed-8e1b7d5c7a6e","system_id":"levelo_inurba_marseille","lat":43.27991,"lon":5.40018,"is_reserved":false,"is_disabled":false,"rental_uris":{"android":"levelo://app?vid=b1e6b49b-359d-4791-b1ed-8e1b7d5c7a6e","ios":"levelo://app?vid=b1e6b49b-359d-4791-b1ed-8e1b7d5c7a6e"},"vehicle_type_id":"4","last_reported":1733217053,"current_range_meters":11200,"station_id":"ce4bho92rcd13ifvqh4g","pricing_plan_id":"cebpf4jnsgd1na2vs0mg"},{"bike_id":"ea4a063a-aaf0-4786-badd-db5183dc0fbc","system_id":"levelo_inurba_marseille","lat":43.24079,"lon":5.37754,"is_reserved":false,"is_disabled":false,"rental_uris":{"android":"levelo://app?vid=ea4a063a-aaf0-4786-badd-db5183dc0fbc","ios":"levelo://app?vid=ea4a063a-aaf0-4786-badd-db5183dc0fbc"},"vehicle_type_id":"4","last_reported":1733217053,"current_range_meters":4400,"station_id":"ce4bhnp2rcd13ifvqgvg","pricing_plan_id":"cebpf4jnsgd1na2vs0mg"},{"bike_id":"216616ff-f59a-4303-9300-a50b08bc08b0","system_id":"levelo_inurba_marseille","lat":43.30305,"lon":5.39207,"is_reserved":false,"is_disabled":true,"rental_uris":{"android":"levelo://app?vid=216616ff-f59a-4303-9300-a50b08bc08b0","ios":"levelo://app?vid=216616ff-f59a-4303-9300-a50b08bc08b0"},"vehicle_type_id":"4","last_reported":1733217053,"current_range_meters":6000,"station_id":"ce4bgkh2rcd13ifvqbk0","pricing_plan_id":"cebpf4jnsgd1na2vs0mg"},{"bike_id":"cf411c2a-cc80-4aeb-9c99-a3d88fef5d8f","system_id":"levelo_inurba_marseille","lat":43.295817,"lon":5.37733,"is_reserved":false,"is_disabled":true,"rental_uris":{"android":"levelo://app?vid=cf411c2a-cc80-4aeb-9c99-a3d88fef5d8f","ios":"levelo://app?vid=cf411c2a-cc80-4aeb-9c99-a3d88fef5d8f"},"vehicle_type_id":"4","last_reported":1733217053,"current_range_meters":9600,"station_id":"","pricing_plan_id":"cebpf4jnsgd1na2vs0mg"},{"bike_id":"185605e4-bd28-4a9e-9875-c0331c263d67","system_id":"levelo_inurba_marseille","lat":43.31355,"lon":5.36681,"is_reserved":false,"is_disabled":false,"rental_uris":{"android":"levelo://app?vid=185605e4-bd28-4a9e-9875-c0331c263d67","ios":"levelo://app?vid=185605e4-bd28-4a9e-9875-c0331c263d67"},"vehicle_type_id":"4","last_reported":1733217053,"current_range_meters":11200,"station_id":"ce4bgr92rcd13ifvqc6g","pricing_plan_id":"cebpf4jnsgd1na2vs0mg"},{"bike_id":"ef3dceec-9d5d-4e64-b00a-e2763e8ff0c3","system_id":"levelo_inurba_marseille","lat":43.25429,"lon":5.39435,"is_reserved":false,"is_disabled":false,"rental_uris":{"android":"levelo://app?vid=ef3dceec-9d5d-4e64-b00a-e2763e8ff0c3","ios":"levelo://app?vid=ef3dceec-9d5d-4e64-b00a-e2763e8ff0c3"},"vehicle_type_id":"4","last_reported":1733217053,"current_range_meters":11600,"station_id":"ce4bhh92rcd13ifvqfj0","pricing_plan_id":"cebpf4jnsgd1na2vs0mg"},{"bike_id":"0ad42b68-970c-402c-986b-47af129383e2","system_id":"levelo_inurba_marseille","lat":43.26063,"lon":5.39399,"is_reserved":false,"is_disabled":false,"rental_uris":{"android":"levelo://app?vid=0ad42b68-970c-402c-986b-47af129383e2","ios":"levelo://app?vid=0ad42b68-970c-402c-986b-47af129383e2"},"vehicle_type_id":"4","last_reported":1733217053,"current_range_meters":26000,"station_id":"ce4bhh92rcd13ifvqfj0","pricing_plan_id":"cebpf4jnsgd1na2vs0mg"},{"bike_id":"4a5dc23a-914a-483a-9fd9-11c316d3acb1","system_id":"levelo_inurba_marseille","lat":43.25932,"lon":5.40911,"is_reserved":false,"is_disabled":false,"rental_uris":{"android":"levelo://app?vid=4a5dc23a-914a-483a-9fd9-11c316d3acb1","ios":"levelo://app?vid=4a5dc23a-914a-483a-9fd9-11c316d3acb1"},"vehicle_type_id":"4","last_reported":1733217053,"current_range_meters":32000,"station_id":"ce4bhm92rcd13ifvqglg","pricing_plan_id":"cebpf4jnsgd1na2vs0mg"},{"bike_id":"f5f7c826-9b1c-4793-a392-48697daff5a2","system_id":"levelo_inurba_marseille","lat":43.29914,"lon":5.37467,"is_reserved":false,"is_disabled":true,"rental_uris":{"android":"levelo://app?vid=f5f7c826-9b1c-4793-a392-48697daff5a2","ios":"levelo://app?vid=f5f7c826-9b1c-4793-a392-48697daff5a2"},"vehicle_type_id":"4","last_reported":1733217053,"current_range_meters":20400,"station_id":"ce4bgjh2rcd13ifvqbg0","pricing_plan_id":"cebpf4jnsgd1na2vs0mg"},{"bike_id":"d33b3ddf-b09d-4dbd-9628-7b5f20cfd4f8","system_id":"levelo_inurba_marseille","lat":43.27904,"lon":5.38796,"is_reserved":false,"is_disabled":false,"rental_uris":{"android":"levelo://app?vid=d33b3ddf-b09d-4dbd-9628-7b5f20cfd4f8","ios":"levelo://app?vid=d33b3ddf-b09d-4dbd-9628-7b5f20cfd4f8"},"vehicle_type_id":"4","last_reported":1733217053,"current_range_meters":11200,"station_id":"ce4bh492rcd13ifvqdvg","pricing_plan_id":"cebpf4jnsgd1na2vs0mg"},{"bike_id":"7caca3ca-4ad5-4e41-ba66-df02bee491aa","system_id":"levelo_inurba_marseille","lat":43.29934,"lon":5.36533,"is_reserved":false,"is_disabled":true,"rental_uris":{"android":"levelo://app?vid=7caca3ca-4ad5-4e41-ba66-df02bee491aa","ios":"levelo://app?vid=7caca3ca-4ad5-4e41-ba66-df02bee491aa"},"vehicle_type_id":"4","last_reported":1733217053,"current_range_meters":6400,"station_id":"","pricing_plan_id":"cebpf4jnsgd1na2vs0mg"},{"bike_id":"b5a03233-d31f-4598-84c4-07d6d6043f52","system_id":"levelo_inurba_marseille","lat":43.28159,"lon":5.42638,"is_reserved":false,"is_disabled":false,"rental_uris":{"android":"levelo://app?vid=b5a03233-d31f-4598-84c4-07d6d6043f52","ios":"levelo://app?vid=b5a03233-d31f-4598-84c4-07d6d6043f52"},"vehicle_type_id":"4","last_reported":1733217053,"current_range_meters":36800,"station_id":"ce4bhnh2rcd13ifvqgug","pricing_plan_id":"cebpf4jnsgd1na2vs0mg"},{"bike_id":"b5aecf4d-8f03-4c41-a394-676685d9a453","system_id":"levelo_inurba_marseille","lat":43.33603,"lon":5.41031,"is_reserved":false,"is_disabled":false,"rental_uris":{"android":"levelo://app?vid=b5aecf4d-8f03-4c41-a394-676685d9a453","ios":"levelo://app?vid=b5aecf4d-8f03-4c41-a394-676685d9a453"},"vehicle_type_id":"4","last_reported":1733217053,"current_range_meters":17200,"station_id":"ce4bhqh2rcd13ifvqhmg","pricing_plan_id":"cebpf4jnsgd1na2vs0mg"},{"bike_id":"5e160b8e-5c83-4423-b051-bd2cf577003d","system_id":"levelo_inurba_marseille","lat":43.23197,"lon":5.355426,"is_reserved":false,"is_disabled":false,"rental_uris":{"android":"levelo://app?vid=5e160b8e-5c83-4423-b051-bd2cf577003d","ios":"levelo://app?vid=5e160b8e-5c83-4423-b051-bd2cf577003d"},"vehicle_type_id":"4","last_reported":1733217053,"current_range_meters":38800,"station_id":"ce4bhu92rcd13ifvqi70","pricing_plan_id":"cebpf4jnsgd1na2vs0mg"},{"bike_id":"322cf6fe-0822-422b-95a4-35c4bd952f62","system_id":"levelo_inurba_marseille","lat":43.27178,"lon":5.4099,"is_reserved":false,"is_disabled":false,"rental_uris":{"android":"levelo://app?vid=322cf6fe-0822-422b-95a4-35c4bd952f62","ios":"levelo://app?vid=322cf6fe-0822-422b-95a4-35c4bd952f62"},"vehicle_type_id":"4","last_reported":1733217053,"current_range_meters":25200,"station_id":"ce4bhl12rcd13ifvqgf0","pricing_plan_id":"cebpf4jnsgd1na2vs0mg"},{"bike_id":"4fe01c68-e63d-4c1f-9999-9a60626db30d","system_id":"levelo_inurba_marseille","lat":43.29021,"lon":5.38126,"is_reserved":false,"is_disabled":true,"rental_uris":{"android":"levelo://app?vid=4fe01c68-e63d-4c1f-9999-9a60626db30d","ios":"levelo://app?vid=4fe01c68-e63d-4c1f-9999-9a60626db30d"},"vehicle_type_id":"4","last_reported":1733217053,"current_range_meters":38800,"station_id":"ce4bh4p2rcd13ifvqe1g","pricing_plan_id":"cebpf4jnsgd1na2vs0mg"},{"bike_id":"0ecfd779-5539-47af-aacd-2f9643bc2006","system_id":"levelo_inurba_marseille","lat":43.30133,"lon":5.38075,"is_reserved":false,"is_disabled":false,"rental_uris":{"android":"levelo://app?vid=0ecfd779-5539-47af-aacd-2f9643bc2006","ios":"levelo://app?vid=0ecfd779-5539-47af-aacd-2f9643bc2006"},"vehicle_type_id":"4","last_reported":1733217053,"current_range_meters":30000,"station_id":"ce4bgjp2rcd13ifvqbh0","pricing_plan_id":"cebpf4jnsgd1na2vs0mg"},{"bike_id":"f3e2368d-79ea-486f-986c-7db80e046db9","system_id":"levelo_inurba_marseille","lat":43.32537,"lon":5.41447,"is_reserved":false,"is_disabled":false,"rental_uris":{"android":"levelo://app?vid=f3e2368d-79ea-486f-986c-7db80e046db9","ios":"levelo://app?vid=f3e2368d-79ea-486f-986c-7db80e046db9"},"vehicle_type_id":"4","last_reported":1733217053,"current_range_meters":26000,"station_id":"ce4bhq12rcd13ifvqhhg","pricing_plan_id":"cebpf4jnsgd1na2vs0mg"},{"bike_id":"dff91f48-f591-4ce0-8568-ae20c53ff6d4","system_id":"levelo_inurba_marseille","lat":43.30532,"lon":5.36693,"is_reserved":false,"is_disabled":false,"rental_uris":{"android":"levelo://app?vid=dff91f48-f591-4ce0-8568-ae20c53ff6d4","ios":"levelo://app?vid=dff91f48-f591-4ce0-8568-ae20c53ff6d4"},"vehicle_type_id":"4","last_reported":1733217053,"current_range_meters":39200,"station_id":"ce4bgrp2rcd13ifvqc9g","pricing_plan_id":"cebpf4jnsgd1na2vs0mg"},{"bike_id":"aac537f6-11ba-4961-887b-0169e6d8c3bf","system_id":"levelo_inurba_marseille","lat":43.32286,"lon":5.38285,"is_reserved":false,"is_disabled":true,"rental_uris":{"android":"levelo://app?vid=aac537f6-11ba-4961-887b-0169e6d8c3bf","ios":"levelo://app?vid=aac537f6-11ba-4961-887b-0169e6d8c3bf"},"vehicle_type_id":"4","last_reported":1733217053,"current_range_meters":37600,"station_id":"ce4bhr12rcd13ifvqhqg","pricing_plan_id":"cebpf4jnsgd1na2vs0mg"},{"bike_id":"364ca233-6c10-4419-a704-fd9ff87e21f0","system_id":"levelo_inurba_marseille","lat":43.24074,"lon":5.37757,"is_reserved":false,"is_disabled":false,"rental_uris":{"android":"levelo://app?vid=364ca233-6c10-4419-a704-fd9ff87e21f0","ios":"levelo://app?vid=364ca233-6c10-4419-a704-fd9ff87e21f0"},"vehicle_type_id":"4","last_reported":1733217053,"current_range_meters":34800,"station_id":"ce4bhnp2rcd13ifvqgvg","pricing_plan_id":"cebpf4jnsgd1na2vs0mg"},{"bike_id":"e63aa962-a242-44bd-8328-31cf6c0d9d3d","system_id":"levelo_inurba_marseille","lat":43.29299,"lon":5.37165,"is_reserved":false,"is_disabled":true,"rental_uris":{"android":"levelo://app?vid=e63aa962-a242-44bd-8328-31cf6c0d9d3d","ios":"levelo://app?vid=e63aa962-a242-44bd-8328-31cf6c0d9d3d"},"vehicle_type_id":"4","last_reported":1733217053,"current_range_meters":0,"station_id":"ce4bgh92rcd13ifvqb40","pricing_plan_id":"cebpf4jnsgd1na2vs0mg"},{"bike_id":"f8bcc820-9a1c-492a-9f26-6a6b26934b17","system_id":"levelo_inurba_marseille","lat":43.28611,"lon":5.37056,"is_reserved":false,"is_disabled":true,"rental_uris":{"android":"levelo://app?vid=f8bcc820-9a1c-492a-9f26-6a6b26934b17","ios":"levelo://app?vid=f8bcc820-9a1c-492a-9f26-6a6b26934b17"},"vehicle_type_id":"4","last_reported":1733217053,"current_range_meters":0,"station_id":"ce4bht12rcd13ifvqi60","pricing_plan_id":"cebpf4jnsgd1na2vs0mg"},{"bike_id":"5233cd09-080b-4b61-aa83-8e6a8910a770","system_id":"levelo_inurba_marseille","lat":43.29164,"lon":5.37163,"is_reserved":false,"is_disabled":false,"rental_uris":{"android":"levelo://app?vid=5233cd09-080b-4b61-aa83-8e6a8910a770","ios":"levelo://app?vid=5233cd09-080b-4b61-aa83-8e6a8910a770"},"vehicle_type_id":"4","last_reported":1733217053,"current_range_meters":8800,"station_id":"ce4bha92rcd13ifvqeh0","pricing_plan_id":"cebpf4jnsgd1na2vs0mg"},{"bike_id":"aa598945-95fb-41cc-bce7-c5d2db9ce741","system_id":"levelo_inurba_marseille","lat":43.27497,"lon":5.42443,"is_reserved":false,"is_disabled":false,"rental_uris":{"android":"levelo://app?vid=aa598945-95fb-41cc-bce7-c5d2db9ce741","ios":"levelo://app?vid=aa598945-95fb-41cc-bce7-c5d2db9ce741"},"vehicle_type_id":"4","last_reported":1733217053,"current_range_meters":38400,"station_id":"ce4bhn92rcd13ifvqgrg","pricing_plan_id":"cebpf4jnsgd1na2vs0mg"},{"bike_id":"262c1b85-a6e0-4f4c-aeee-1f7460279db2","system_id":"levelo_inurba_marseille","lat":43.31219,"lon":5.36856,"is_reserved":false,"is_disabled":false,"rental_uris":{"android":"levelo://app?vid=262c1b85-a6e0-4f4c-aeee-1f7460279db2","ios":"levelo://app?vid=262c1b85-a6e0-4f4c-aeee-1f7460279db2"},"vehicle_type_id":"4","last_reported":1733217053,"current_range_meters":11200,"station_id":"ce4bgl92rcd13ifvqbq0","pricing_plan_id":"cebpf4jnsgd1na2vs0mg"},{"bike_id":"3a9149f3-357c-4d0a-859b-18382ef024a5","system_id":"levelo_inurba_marseille","lat":43.32112,"lon":5.36775,"is_reserved":false,"is_disabled":false,"rental_uris":{"android":"levelo://app?vid=3a9149f3-357c-4d0a-859b-18382ef024a5","ios":"levelo://app?vid=3a9149f3-357c-4d0a-859b-18382ef024a5"},"vehicle_type_id":"4","last_reported":1733217053,"current_range_meters":33200,"station_id":"ce4bhrh2rcd13ifvqhug","pricing_plan_id":"cebpf4jnsgd1na2vs0mg"},{"bike_id":"3883d39b-783e-4570-b9b4-d396e91d2356","system_id":"levelo_inurba_marseille","lat":43.28344,"lon":5.38096,"is_reserved":false,"is_disabled":false,"rental_uris":{"android":"levelo://app?vid=3883d39b-783e-4570-b9b4-d396e91d2356","ios":"levelo://app?vid=3883d39b-783e-4570-b9b4-d396e91d2356"},"vehicle_type_id":"4","last_reported":1733217053,"current_range_meters":33600,"station_id":"ce4bh412rcd13ifvqdr0","pricing_plan_id":"cebpf4jnsgd1na2vs0mg"},{"bike_id":"7162aa44-86d7-4628-93e4-c9d3f5365eb9","system_id":"levelo_inurba_marseille","lat":43.30246,"lon":5.40068,"is_reserved":false,"is_disabled":true,"rental_uris":{"android":"levelo://app?vid=7162aa44-86d7-4628-93e4-c9d3f5365eb9","ios":"levelo://app?vid=7162aa44-86d7-4628-93e4-c9d3f5365eb9"},"vehicle_type_id":"4","last_reported":1733217053,"current_range_meters":38800,"station_id":"ce4bgvh2rcd13ifvqcs0","pricing_plan_id":"cebpf4jnsgd1na2vs0mg"},{"bike_id":"8564107b-4c5f-48f9-a8fe-2cf2332c218d","system_id":"levelo_inurba_marseille","lat":43.28414,"lon":5.34989,"is_reserved":false,"is_disabled":false,"rental_uris":{"android":"levelo://app?vid=8564107b-4c5f-48f9-a8fe-2cf2332c218d","ios":"levelo://app?vid=8564107b-4c5f-48f9-a8fe-2cf2332c218d"},"vehicle_type_id":"4","last_reported":1733217053,"current_range_meters":38800,"station_id":"ce4bhbh2rcd13ifvqepg","pricing_plan_id":"cebpf4jnsgd1na2vs0mg"},{"bike_id":"284516f3-1d20-45be-a6cc-533671ed0124","system_id":"levelo_inurba_marseille","lat":43.26688,"lon":5.38272,"is_reserved":false,"is_disabled":false,"rental_uris":{"android":"levelo://app?vid=284516f3-1d20-45be-a6cc-533671ed0124","ios":"levelo://app?vid=284516f3-1d20-45be-a6cc-533671ed0124"},"vehicle_type_id":"4","last_reported":1733217053,"current_range_meters":14000,"station_id":"ce4bhg92rcd13ifvqf90","pricing_plan_id":"cebpf4jnsgd1na2vs0mg"},{"bike_id":"da6a7a1d-e653-4950-af8c-8137b06f7d40","system_id":"levelo_inurba_marseille","lat":43.3004,"lon":5.37551,"is_reserved":false,"is_disabled":true,"rental_uris":{"android":"levelo://app?vid=da6a7a1d-e653-4950-af8c-8137b06f7d40","ios":"levelo://app?vid=da6a7a1d-e653-4950-af8c-8137b06f7d40"},"vehicle_type_id":"4","last_reported":1733217053,"current_range_meters":0,"station_id":"","pricing_plan_id":"cebpf4jnsgd1na2vs0mg"},{"bike_id":"8fb78ab9-adec-42f1-a37c-300eca6d20f7","system_id":"levelo_inurba_marseille","lat":43.30603,"lon":5.37227,"is_reserved":false,"is_disabled":false,"rental_uris":{"android":"levelo://app?vid=8fb78ab9-adec-42f1-a37c-300eca6d20f7","ios":"levelo://app?vid=8fb78ab9-adec-42f1-a37c-300eca6d20f7"},"vehicle_type_id":"4","last_reported":1733217053,"current_range_meters":28000,"station_id":"ce4bgqh2rcd13ifvqc4g","pricing_plan_id":"cebpf4jnsgd1na2vs0mg"},{"bike_id":"480697eb-1aee-4c83-beae-e4b1b3489b1c","system_id":"levelo_inurba_marseille","lat":43.31361,"lon":5.38488,"is_reserved":false,"is_disabled":false,"rental_uris":{"android":"levelo://app?vid=480697eb-1aee-4c83-beae-e4b1b3489b1c","ios":"levelo://app?vid=480697eb-1aee-4c83-beae-e4b1b3489b1c"},"vehicle_type_id":"4","last_reported":1733217053,"current_range_meters":8800,"station_id":"ce4bgt92rcd13ifvqcf0","pricing_plan_id":"cebpf4jnsgd1na2vs0mg"},{"bike_id":"7982171f-dfeb-4dbc-aca9-52b177f8cff0","system_id":"levelo_inurba_marseille","lat":43.31365,"lon":5.36697,"is_reserved":false,"is_disabled":false,"rental_uris":{"android":"levelo://app?vid=7982171f-dfeb-4dbc-aca9-52b177f8cff0","ios":"levelo://app?vid=7982171f-dfeb-4dbc-aca9-52b177f8cff0"},"vehicle_type_id":"4","last_reported":1733217053,"current_range_meters":10000,"station_id":"ce4bgr92rcd13ifvqc6g","pricing_plan_id":"cebpf4jnsgd1na2vs0mg"},{"bike_id":"e6bbbf53-985a-487e-a0c4-ee284d44b44d","system_id":"levelo_inurba_marseille","lat":43.28835,"lon":5.39357,"is_reserved":false,"is_disabled":true,"rental_uris":{"android":"levelo://app?vid=e6bbbf53-985a-487e-a0c4-ee284d44b44d","ios":"levelo://app?vid=e6bbbf53-985a-487e-a0c4-ee284d44b44d"},"vehicle_type_id":"4","last_reported":1733217053,"current_range_meters":30800,"station_id":"ce4bh2p2rcd13ifvqdi0","pricing_plan_id":"cebpf4jnsgd1na2vs0mg"},{"bike_id":"8339f000-2251-47e2-ad76-11edf2327cbb","system_id":"levelo_inurba_marseille","lat":43.26195,"lon":5.37445,"is_reserved":false,"is_disabled":false,"rental_uris":{"android":"levelo://app?vid=8339f000-2251-47e2-ad76-11edf2327cbb","ios":"levelo://app?vid=8339f000-2251-47e2-ad76-11edf2327cbb"},"vehicle_type_id":"4","last_reported":1733217053,"current_range_meters":38000,"station_id":"ce4bhgp2rcd13ifvqfc0","pricing_plan_id":"cebpf4jnsgd1na2vs0mg"},{"bike_id":"a106a0b0-79d5-496e-b441-949801f890d0","system_id":"levelo_inurba_marseille","lat":43.29577,"lon":5.37524,"is_reserved":false,"is_disabled":false,"rental_uris":{"android":"levelo://app?vid=a106a0b0-79d5-496e-b441-949801f890d0","ios":"levelo://app?vid=a106a0b0-79d5-496e-b441-949801f890d0"},"vehicle_type_id":"4","last_reported":1733217053,"current_range_meters":38000,"station_id":"ce4bgh92rcd13ifvqb50","pricing_plan_id":"cebpf4jnsgd1na2vs0mg"},{"bike_id":"776b382d-575b-4ad7-8214-1678f34da237","system_id":"levelo_inurba_marseille","lat":43.24545,"lon":5.39519,"is_reserved":false,"is_disabled":false,"rental_uris":{"android":"levelo://app?vid=776b382d-575b-4ad7-8214-1678f34da237","ios":"levelo://app?vid=776b382d-575b-4ad7-8214-1678f34da237"},"vehicle_type_id":"4","last_reported":1733217053,"current_range_meters":8400,"station_id":"ce4bhlp2rcd13ifvqgjg","pricing_plan_id":"cebpf4jnsgd1na2vs0mg"},{"bike_id":"9f182489-b5c1-4400-91e1-858ac18cbfca","system_id":"levelo_inurba_marseille","lat":43.29579,"lon":5.36734,"is_reserved":false,"is_disabled":false,"rental_uris":{"android":"levelo://app?vid=9f182489-b5c1-4400-91e1-858ac18cbfca","ios":"levelo://app?vid=9f182489-b5c1-4400-91e1-858ac18cbfca"},"vehicle_type_id":"4","last_reported":1733217053,"current_range_meters":28400,"station_id":"ce4bgph2rcd13ifvqc2g","pricing_plan_id":"cebpf4jnsgd1na2vs0mg"},{"bike_id":"c2db69d9-cbdf-4b27-9a18-d0b4de37f6d9","system_id":"levelo_inurba_marseille","lat":43.31495,"lon":5.37308,"is_reserved":false,"is_disabled":false,"rental_uris":{"android":"levelo://app?vid=c2db69d9-cbdf-4b27-9a18-d0b4de37f6d9","ios":"levelo://app?vid=c2db69d9-cbdf-4b27-9a18-d0b4de37f6d9"},"vehicle_type_id":"4","last_reported":1733217053,"current_range_meters":36800,"station_id":"ce4bgt12rcd13ifvqcd0","pricing_plan_id":"cebpf4jnsgd1na2vs0mg"},{"bike_id":"79607b96-7d67-47a9-b169-dbc880b598e8","system_id":"levelo_inurba_marseille","lat":43.293,"lon":5.37171,"is_reserved":false,"is_disabled":true,"rental_uris":{"android":"levelo://app?vid=79607b96-7d67-47a9-b169-dbc880b598e8","ios":"levelo://app?vid=79607b96-7d67-47a9-b169-dbc880b598e8"},"vehicle_type_id":"4","last_reported":1733217053,"current_range_meters":36000,"station_id":"ce4bgh92rcd13ifvqb40","pricing_plan_id":"cebpf4jnsgd1na2vs0mg"},{"bike_id":"c707ecf5-e590-498e-936e-fff767f3e144","system_id":"levelo_inurba_marseille","lat":43.28616,"lon":5.35106,"is_reserved":false,"is_disabled":true,"rental_uris":{"android":"levelo://app?vid=c707ecf5-e590-498e-936e-fff767f3e144","ios":"levelo://app?vid=c707ecf5-e590-498e-936e-fff767f3e144"},"vehicle_type_id":"4","last_reported":1733217053,"current_range_meters":0,"station_id":"ce4bhch2rcd13ifvqeug","pricing_plan_id":"cebpf4jnsgd1na2vs0mg"},{"bike_id":"70c61673-8159-49b2-b6ed-4b8c3dd127e4","system_id":"levelo_inurba_marseille","lat":43.25086,"lon":5.3951,"is_reserved":false,"is_disabled":false,"rental_uris":{"android":"levelo://app?vid=70c61673-8159-49b2-b6ed-4b8c3dd127e4","ios":"levelo://app?vid=70c61673-8159-49b2-b6ed-4b8c3dd127e4"},"vehicle_type_id":"4","last_reported":1733217053,"current_range_meters":37600,"station_id":"ce4bhm12rcd13ifvqgkg","pricing_plan_id":"cebpf4jnsgd1na2vs0mg"},{"bike_id":"6760c6db-2a78-413a-9db3-f12091b30bbf","system_id":"levelo_inurba_marseille","lat":43.29848,"lon":5.36275,"is_reserved":false,"is_disabled":false,"rental_uris":{"android":"levelo://app?vid=6760c6db-2a78-413a-9db3-f12091b30bbf","ios":"levelo://app?vid=6760c6db-2a78-413a-9db3-f12091b30bbf"},"vehicle_type_id":"4","last_reported":1733217053,"current_range_meters":15200,"station_id":"ce4bgpp2rcd13ifvqc3g","pricing_plan_id":"cebpf4jnsgd1na2vs0mg"},{"bike_id":"63eceb6a-977e-4787-b70a-088eb33ccc3a","system_id":"levelo_inurba_marseille","lat":43.28415,"lon":5.34976,"is_reserved":false,"is_disabled":false,"rental_uris":{"android":"levelo://app?vid=63eceb6a-977e-4787-b70a-088eb33ccc3a","ios":"levelo://app?vid=63eceb6a-977e-4787-b70a-088eb33ccc3a"},"vehicle_type_id":"4","last_reported":1733217053,"current_range_meters":28000,"station_id":"ce4bhbh2rcd13ifvqepg","pricing_plan_id":"cebpf4jnsgd1na2vs0mg"},{"bike_id":"1c4cf966-a890-4f2b-af51-586fc74ff649","system_id":"levelo_inurba_marseille","lat":43.24667,"lon":5.38166,"is_reserved":false,"is_disabled":true,"rental_uris":{"android":"levelo://app?vid=1c4cf966-a890-4f2b-af51-586fc74ff649","ios":"levelo://app?vid=1c4cf966-a890-4f2b-af51-586fc74ff649"},"vehicle_type_id":"4","last_reported":1733217053,"current_range_meters":0,"station_id":"ce4bhih2rcd13ifvqfr0","pricing_plan_id":"cebpf4jnsgd1na2vs0mg"},{"bike_id":"53c49f91-b461-492e-a085-09cd1efdb30c","system_id":"levelo_inurba_marseille","lat":43.27172,"lon":5.40991,"is_reserved":false,"is_disabled":false,"rental_uris":{"android":"levelo://app?vid=53c49f91-b461-492e-a085-09cd1efdb30c","ios":"levelo://app?vid=53c49f91-b461-492e-a085-09cd1efdb30c"},"vehicle_type_id":"4","last_reported":1733217053,"current_range_meters":36800,"station_id":"ce4bhl12rcd13ifvqgf0","pricing_plan_id":"cebpf4jnsgd1na2vs0mg"},{"bike_id":"d9594733-6e50-4ddc-8ecb-4d3854d84bf6","system_id":"levelo_inurba_marseille","lat":43.26222,"lon":5.37435,"is_reserved":false,"is_disabled":false,"rental_uris":{"android":"levelo://app?vid=d9594733-6e50-4ddc-8ecb-4d3854d84bf6","ios":"levelo://app?vid=d9594733-6e50-4ddc-8ecb-4d3854d84bf6"},"vehicle_type_id":"4","last_reported":1733217053,"current_range_meters":38800,"station_id":"ce4bhgp2rcd13ifvqfc0","pricing_plan_id":"cebpf4jnsgd1na2vs0mg"},{"bike_id":"d9600396-5d38-4428-bbf6-dcf2c609d4d4","system_id":"levelo_inurba_marseille","lat":43.23957,"lon":5.36635,"is_reserved":false,"is_disabled":false,"rental_uris":{"android":"levelo://app?vid=d9600396-5d38-4428-bbf6-dcf2c609d4d4","ios":"levelo://app?vid=d9600396-5d38-4428-bbf6-dcf2c609d4d4"},"vehicle_type_id":"4","last_reported":1733217053,"current_range_meters":38000,"station_id":"ce4bhi12rcd13ifvqfp0","pricing_plan_id":"cebpf4jnsgd1na2vs0mg"},{"bike_id":"88f5b6e0-f391-4b09-93c4-ed2d66b3b2cf","system_id":"levelo_inurba_marseille","lat":43.24079,"lon":5.37759,"is_reserved":false,"is_disabled":false,"rental_uris":{"android":"levelo://app?vid=88f5b6e0-f391-4b09-93c4-ed2d66b3b2cf","ios":"levelo://app?vid=88f5b6e0-f391-4b09-93c4-ed2d66b3b2cf"},"vehicle_type_id":"4","last_reported":1733217053,"current_range_meters":6400,"station_id":"ce4bhnp2rcd13ifvqgvg","pricing_plan_id":"cebpf4jnsgd1na2vs0mg"},