{"last_updated":1762863730,"ttl":60,"version":"2.2","data":{"bikes":[{"bike_id":"d7db12ce-11cc-4c98-8751-ac59baa5d7aa","system_id":"levelo_inurba_marseille","lat":43.337444,"lon":5.374475,"is_reserved":false,"is_disabled":false,"rental_uris":{"android":"levelo://app?vid=d7db12ce-11cc-4c98-8751-ac59baa5d7aa","ios":"levelo://app?vid=d7db12ce-11cc-4c98-8751-ac59baa5d7aa"},"vehicle_type_id":"4","last_reported":1762863730,"current_range_meters":0,"station_id":"","pricing_plan_id":"cebpf4jnsgd1na2vs0mg"},{"bike_id":"3026ecee-696b-4e7c-8562-28ecc90dccb1","system_id":"levelo_inurba_marseille","lat":43.23186,"lon":5.39989,"is_reserved":false,"is_disabled":false,"rental_uris":{"android":"levelo://app?vid=3026ecee-696b-4e7c-8562-28ecc90dccb1","ios":"levelo://app?vid=3026ecee-696b-4e7c-8562-28ecc90dccb1"},"vehicle_type_id":"4","last_reported":1762863730,"current_range_meters":2800,"station_id":"ce4bhn12rcd13ifvqgqg","pricing_plan_id":"cebpf4jnsgd1na2vs0mg"},{"bike_id":"6dfbe8ff-d53d-4414-9981-bf577e3ec465","system_id":"levelo_inurba_marseille","lat":43.23154,"lon":5.43715,"is_reserved":false,"is_disabled":false,"rental_uris":{"android":"levelo://app?vid=6dfbe8ff-d53d-4414-9981-bf577e3ec465","ios":"levelo://app?vid=6dfbe8ff-d53d-4414-9981-bf577e3ec465"},"vehicle_type_id":"4","last_reported":1762863730,"current_range_meters":2800,"station_id":"ce4bhmp2rcd13ifvqgog","pricing_plan_id":"cebpf4jnsgd1na2vs0mg"},{"bike_id":"549e82a2-03bf-4418-b6e2-722f36da73e7","system_id":"levelo_inurba_marseille","lat":43.27214,"lon":5.39181,"is_reserved":false,"is_disabled":false,"rental_uris":{"android":"levelo://app?vid=549e82a2-03bf-4418-b6e2-722f36da73e7","ios":"levelo://app?vid=549e82a2-03bf-4418-b6e2-722f36da73e7"},"vehicle_type_id":"4","last_reported":1762863730,"current_range_meters":2800,"station_id":"ce4bhhp2rcd13ifvqfm0","pricing_plan_id":"cebpf4jnsgd1na2vs0mg"},{"bike_id":"5a521dce-39fb-47d7-a16c-08bfdf204268","system_id":"levelo_inurba_marseille","lat":43.28669,"lon":5.38674,"is_reserved":false,"is_disabled":false,"rental_uris":{"android":"levelo://app?vid=5a521dce-39fb-47d7-a16c-08bfdf204268","ios":"levelo://app?vid=5a521dce-39fb-47d7-a16c-08bfdf204268"},"vehicle_type_id":"4","last_reported":1762863730,"current_range_meters":3200,"station_id":"ce4bh492rcd13ifvqdug","pricing_plan_id":"cebpf4jnsgd1na2vs0mg"},{"bike_id":"3ac55e8f-0d41-4491-bdbd-48cc94f76f54","system_id":"levelo_inurba_marseille","lat":43.211985,"lon":5.35052,"is_reserved":false,"is_disabled":true,"rental_uris":{"android":"levelo://app?vid=3ac55e8f-0d41-4491-bdbd-48cc94f76f54","ios":"levelo://app?vid=3ac55e8f-0d41-4491-bdbd-48cc94f76f54"},"vehicle_type_id":"4","last_reported":1762863730,"current_range_meters":3200,"station_id":"st_cvj6sg6p6f1abm77japg","pricing_plan_id":"cebpf4jnsgd1na2vs0mg"},{"bike_id":"9c93b921-7716-4d70-a013-c283e796d2b5","system_id":"levelo_inurba_marseille","lat":43.28616,"lon":5.35108,"is_reserved":false,"is_disabled":false,"rental_uris":{"android":"levelo://app?vid=9c93b921-7716-4d70-a013-c283e796d2b5","ios":"levelo://app?vid=9c93b921-7716-4d70-a013-c283e796d2b5"},"vehicle_type_id":"4","last_reported":1762863730,"current_range_meters":3600,"station_id":"ce4bhch2rcd13ifvqeug","pricing_plan_id":"cebpf4jnsgd1na2vs0mg"},{"bike_id":"45f5e542-3b24-44a7-a174-2ef01813e891","system_id":"levelo_inurba_marseille","lat":43.27338,"lon":5.39037,"is_reserved":false,"is_disabled":false,"rental_uris":{"android":"levelo://app?vid=45f5e542-3b24-44a7-a174-2ef01813e891","ios":"levelo://app?vid=45f5e542-3b24-44a7-a174-2ef01813e891"},"vehicle_type_id":"4","last_reported":1762863730,"current_range_meters":3600,"station_id":"ce4bhgp2rcd13ifvqfe0","pricing_plan_id":"cebpf4jnsgd1na2vs0mg"},{"bike_id":"6c4306e4-74fe-46bb-8a0d-b66cd38c2741","system_id":"levelo_inurba_marseille","lat":43.23191,"lon":5.35553,"is_reserved":false,"is_disabled":false,"rental_uris":{"android":"levelo://app?vid=6c4306e4-74fe-46bb-8a0d-b66cd38c2741","ios":"levelo://app?vid=6c4306e4-74fe-46bb-8a0d-b66cd38c2741"},"vehicle_type_id":"4","last_reported":1762863730,"current_range_meters":3600,"station_id":"ce4bhu92rcd13ifvqi70","pricing_plan_id":"cebpf4jnsgd1na2vs0mg"},{"bike_id":"ed289b90-fe65-459e-b0ba-2cc1b26c2eeb","system_id":"levelo_inurba_marseille","lat":43.292,"lon":5.39322,"is_reserved":false,"is_disabled":false,"rental_uris":{"android":"levelo://app?vid=ed289b90-fe65-459e-b0ba-2cc1b26c2eeb","ios":"levelo://app?vid=ed289b90-fe65-459e-b0ba-2cc1b26c2eeb"},"vehicle_type_id":"4","last_reported":1762863730,"current_range_meters":3600,"station_id":"ce4bh192rcd13ifvqdd0","pricing_plan_id":"cebpf4jnsgd1na2vs0mg"},{"bike_id":"2ef0988c-b0a1-4074-b85b-4089fd36c92a","system_id":"levelo_inurba_marseille","lat":43.21751,"lon":5.346,"is_reserved":false,"is_disabled":false,"rental_uris":{"android":"levelo://app?vid=2ef0988c-b0a1-4074-b85b-4089fd36c92a","ios":"levelo://app?vid=2ef0988c-b0a1-4074-b85b-4089fd36c92a"},"vehicle_type_id":"4","last_reported":1762863730,"current_range_meters":3600,"station_id":"st_cvj6r9ubvosntc0bgbag","pricing_plan_id":"cebpf4jnsgd1na2vs0mg"},{"bike_id":"cf89d162-dcc8-4c8c-8d9d-49c038cc71ab","system_id":"levelo_inurba_marseille","lat":43.232,"lon":5.35545,"is_reserved":false,"is_disabled":false,"rental_uris":{"android":"levelo://app?vid=cf89d162-dcc8-4c8c-8d9d-49c038cc71ab","ios":"levelo://app?vid=cf89d162-dcc8-4c8c-8d9d-49c038cc71ab"},"vehicle_type_id":"4","last_reported":1762863730,"current_range_meters":3600,"station_id":"ce4bhu92rcd13ifvqi70","pricing_plan_id":"cebpf4jnsgd1na2vs0mg"},{"bike_id":"9ea6e356-ab17-4af7-a9a7-2e5995c40613","system_id":"levelo_inurba_marseille","lat":43.284164,"lon":5.384536,"is_reserved":false,"is_disabled":false,"rental_uris":{"android":"levelo://app?vid=9ea6e356-ab17-4af7-a9a7-2e5995c40613","ios":"levelo://app?vid=9ea6e356-ab17-4af7-a9a7-2e5995c40613"},"vehicle_type_id":"4","last_reported":1762863730,"current_range_meters":3600,"station_id":"ce4bh512rcd13ifvqe3g","pricing_plan_id":"cebpf4jnsgd1na2vs0mg"},{"bike_id":"ac0be0b0-60a9-4cb7-bd08-19b488685017","system_id":"levelo_inurba_marseille","lat":43.257261,"lon":5.418551,"is_reserved":false,"is_disabled":false,"rental_uris":{"android":"levelo://app?vid=ac0be0b0-60a9-4cb7-bd08-19b488685017","ios":"levelo://app?vid=ac0be0b0-60a9-4cb7-bd08-19b488685017"},"vehicle_type_id":"4","last_reported":1762863730,"current_range_meters":3600,"station_id":"","pricing_plan_id":"cebpf4jnsgd1na2vs0mg"},{"bike_id":"f2c4bbc0-1e88-4efd-9bcf-d7c7c29969b9","system_id":"levelo_inurba_marseille","lat":43.2961,"lon":5.37725,"is_reserved":false,"is_disabled":false,"rental_uris":{"android":"levelo://app?vid=f2c4bbc0-1e88-4efd-9bcf-d7c7c29969b9","ios":"levelo://app?vid=f2c4bbc0-1e88-4efd-9bcf-d7c7c29969b9"},"vehicle_type_id":"4","last_reported":1762863730,"current_range_meters":4000,"station_id":"ce4bgi92rcd13ifvqb90","pricing_plan_id":"cebpf4jnsgd1na2vs0mg"},{"bike_id":"280d4052-555b-4e12-b01b-05ae781c6408","system_id":"levelo_inurba_marseille","lat":43.28685,"lon":5.38671,"is_reserved":false,"is_disabled":false,"rental_uris":{"android":"levelo://app?vid=280d4052-555b-4e12-b01b-05ae781c6408","ios":"levelo://app?vid=280d4052-555b-4e12-b01b-05ae781c6408"},"vehicle_type_id":"4","last_reported":1762863730,"current_range_meters":4000,"station_id":"ce4bh492rcd13ifvqdug","pricing_plan_id":"cebpf4jnsgd1na2vs0mg"},{"bike_id":"b090abb0-cb2d-4979-af75-88fa388e9fb1","system_id":"levelo_inurba_marseille","lat":43.2119,"lon":5.35071,"is_reserved":false,"is_disabled":false,"rental_uris":{"android":"levelo://app?vid=b090abb0-cb2d-4979-af75-88fa388e9fb1","ios":"levelo://app?vid=b090abb0-cb2d-4979-af75-88fa388e9fb1"},"vehicle_type_id":"4","last_reported":1762863730,"current_range_meters":4000,"station_id":"st_cvj6sg6p6f1abm77japg","pricing_plan_id":"cebpf4jnsgd1na2vs0mg"},{"bike_id":"ad1c8150-f69d-4cc2-bcbf-e328de393a66","system_id":"levelo_inurba_marseille","lat":43.33942,"lon":5.4151,"is_reserved":false,"is_disabled":false,"rental_uris":{"android":"levelo://app?vid=ad1c8150-f69d-4cc2-bcbf-e328de393a66","ios":"levelo://app?vid=ad1c8150-f69d-4cc2-bcbf-e328de393a66"},"vehicle_type_id":"4","last_reported":1762863730,"current_range_meters":4000,"station_id":"","pricing_plan_id":"cebpf4jnsgd1na2vs0mg"},{"bike_id":"75d51a70-fba8-4320-bd0b-255572c6bbac","system_id":"levelo_inurba_marseille","lat":43.28265,"lon":5.35064,"is_reserved":false,"is_disabled":false,"rental_uris":{"android":"levelo://app?vid=75d51a70-fba8-4320-bd0b-255572c6bbac","ios":"levelo://app?vid=75d51a70-fba8-4320-bd0b-255572c6bbac"},"vehicle_type_id":"4","last_reported":1762863730,"current_range_meters":4400,"station_id":"ce4bhbp2rcd13ifvqerg","pricing_plan_id":"cebpf4jnsgd1na2vs0mg"},{"bike_id":"6b6f0504-a302-4060-bc64-476d54654567","system_id":"levelo_inurba_marseille","lat":43.24076,"lon":5.3776,"is_reserved":false,"is_disabled":false,"rental_uris":{"android":"levelo://app?vid=6b6f0504-a302-4060-bc64-476d54654567","ios":"levelo://app?vid=6b6f0504-a302-4060-bc64-476d54654567"},"vehicle_type_id":"4","last_reported":1762863730,"current_range_meters":4400,"station_id":"ce4bhnp2rcd13ifvqgvg","pricing_plan_id":"cebpf4jnsgd1na2vs0mg"},{"bike_id":"bbad1523-4b84-4600-ba85-be6098a1365e","system_id":"levelo_inurba_marseille","lat":43.30605,"lon":5.37218,"is_reserved":false,"is_disabled":false,"rental_uris":{"android":"levelo://app?vid=bbad1523-4b84-4600-ba85-be6098a1365e","ios":"levelo://app?vid=bbad1523-4b84-4600-ba85-be6098a1365e"},"vehicle_type_id":"4","last_reported":1762863730,"current_range_meters":4800,"station_id":"ce4bgqh2rcd13ifvqc4g","pricing_plan_id":"cebpf4jnsgd1na2vs0mg"},{"bike_id":"09162a88-1fa8-48f1-b6f6-496d7ff6114b","system_id":"levelo_inurba_marseille","lat":43.28038,"lon":5.36944,"is_reserved":false,"is_disabled":false,"rental_uris":{"android":"levelo://app?vid=09162a88-1fa8-48f1-b6f6-496d7ff6114b","ios":"levelo://app?vid=09162a88-1fa8-48f1-b6f6-496d7ff6114b"},"vehicle_type_id":"4","last_reported":1762863730,"current_range_meters":4800,"station_id":"ce4bha12rcd13ifvqef0","pricing_plan_id":"cebpf4jnsgd1na2vs0mg"},{"bike_id":"729e0d3f-b893-45a4-8e86-f350e8d46087","system_id":"levelo_inurba_marseille","lat":43.231509,"lon":5.437181,"is_reserved":false,"is_disabled":false,"rental_uris":{"android":"levelo://app?vid=729e0d3f-b893-45a4-8e86-f350e8d46087","ios":"levelo://app?vid=729e0d3f-b893-45a4-8e86-f350e8d46087"},"vehicle_type_id":"4","last_reported":1762863730,"current_range_meters":5600,"station_id":"ce4bhmp2rcd13ifvqgog","pricing_plan_id":"cebpf4jnsgd1na2vs0mg"},{"bike_id":"85ed4701-5433-4797-8255-bb385bb4e0cf","system_id":"levelo_inurba_marseille","lat":43.31354,"lon":5.37932,"is_reserved":false,"is_disabled":false,"rental_uris":{"android":"levelo://app?vid=85ed4701-5433-4797-8255-bb385bb4e0cf","ios":"levelo://app?vid=85ed4701-5433-4797-8255-bb385bb4e0cf"},"vehicle_type_id":"4","last_reported":1762863730,"current_range_meters":5600,"station_id":"","pricing_plan_id":"cebpf4jnsgd1na2vs0mg"},{"bike_id":"92d48458-1547-4eea-852b-bbfa414692e6","system_id":"levelo_inurba_marseille","lat":43.23967,"lon":5.36626,"is_reserved":false,"is_disabled":false,"rental_uris":{"android":"levelo://app?vid=92d48458-1547-4eea-852b-bbfa414692e6","ios":"levelo://app?vid=92d48458-1547-4eea-852b-bbfa414692e6"},"vehicle_type_id":"4","last_reported":1762863730,"current_range_meters":6000,"station_id":"ce4bhi12rcd13ifvqfp0","pricing_plan_id":"cebpf4jnsgd1na2vs0mg"},{"bike_id":"54965217-11dc-4498-84f7-9a27189da4da","system_id":"levelo_inurba_marseille","lat":43.26547,"lon":5.37291,"is_reserved":false,"is_disabled":false,"rental_uris":{"android":"levelo://app?vid=54965217-11dc-4498-84f7-9a27189da4da","ios":"levelo://app?vid=54965217-11dc-4498-84f7-9a27189da4da"},"vehicle_type_id":"4","last_reported":1762863730,"current_range_meters":6000,"station_id":"ce4bhg12rcd13ifvqf70","pricing_plan_id":"cebpf4jnsgd1na2vs0mg"},{"bike_id":"3f3d7c4f-607b-4d5b-b1d5-074c3b7ed8f7","system_id":"levelo_inurba_marseille","lat":43.29917,"lon":5.37477,"is_reserved":false,"is_disabled":false,"rental_uris":{"android":"levelo://app?vid=3f3d7c4f-607b-4d5b-b1d5-074c3b7ed8f7","ios":"levelo://app?vid=3f3d7c4f-607b-4d5b-b1d5-074c3b7ed8f7"},"vehicle_type_id":"4","last_reported":1762863730,"current_range_meters":6000,"station_id":"ce4bgjh2rcd13ifvqbg0","pricing_plan_id":"cebpf4jnsgd1na2vs0mg"},{"bike_id":"e154f026-aee3-4f6f-9162-c9e8c5d87936","system_id":"levelo_inurba_marseille","lat":43.31987,"lon":5.38166,"is_reserved":false,"is_disabled":false,"rental_uris":{"android":"levelo://app?vid=e154f026-aee3-4f6f-9162-c9e8c5d87936","ios":"levelo://app?vid=e154f026-aee3-4f6f-9162-c9e8c5d87936"},"vehicle_type_id":"4","last_reported":1762863730,"current_range_meters":6000,"station_id":"ce4bhr12rcd13ifvqhpg","pricing_plan_id":"cebpf4jnsgd1na2vs0mg"},{"bike_id":"a8642961-107c-4a44-b1db-0800b60695a2","system_id":"levelo_inurba_marseille","lat":43.23777,"lon":5.36629,"is_reserved":false,"is_disabled":false,"rental_uris":{"android":"levelo://app?vid=a8642961-107c-4a44-b1db-0800b60695a2","ios":"levelo://app?vid=a8642961-107c-4a44-b1db-0800b60695a2"},"vehicle_type_id":"4","last_reported":1762863730,"current_range_meters":6400,"station_id":"st_d3nk18o9ro0c73en2l3g","pricing_plan_id":"cebpf4jnsgd1na2vs0mg"},{"bike_id":"b8f2fb87-858e-4116-8f9c-31bccabe79e4","system_id":"levelo_inurba_marseille","lat":43.264843,"lon":5.395387,"is_reserved":false,"is_disabled":false,"rental_uris":{"android":"levelo://app?vid=b8f2fb87-858e-4116-8f9c-31bccabe79e4","ios":"levelo://app?vid=b8f2fb87-858e-4116-8f9c-31bccabe79e4"},"vehicle_type_id":"4","last_reported":1762863730,"current_range_meters":6400,"station_id":"ce4bhi12rcd13ifvqfq0","pricing_plan_id":"cebpf4jnsgd1na2vs0mg"},{"bike_id":"b0ee8fc2-da69-4d74-a43d-f1864e13f019","system_id":"levelo_inurba_marseille","lat":43.297169,"lon":5.376968,"is_reserved":false,"is_disabled":true,"rental_uris":{"android":"levelo://app?vid=b0ee8fc2-da69-4d74-a43d-f1864e13f019","ios":"levelo://app?vid=b0ee8fc2-da69-4d74-a43d-f1864e13f019"},"vehicle_type_id":"4","last_reported":1762863730,"current_range_meters":6400,"station_id":"ce4bgkh2rcd13ifvqbl0","pricing_plan_id":"cebpf4jnsgd1na2vs0mg"},{"bike_id":"68fbd58b-ded7-4a90-8844-70e9a828e5e8","system_id":"levelo_inurba_marseille","lat":43.24548,"lon":5.39521,"is_reserved":false,"is_disabled":false,"rental_uris":{"android":"levelo://app?vid=68fbd58b-ded7-4a90-8844-70e9a828e5e8","ios":"levelo://app?vid=68fbd58b-ded7-4a90-8844-70e9a828e5e8"},"vehicle_type_id":"4","last_reported":1762863730,"current_range_meters":6400,"station_id":"ce4bhlp2rcd13ifvqgjg","pricing_plan_id":"cebpf4jnsgd1na2vs0mg"},{"bike_id":"25e1bb0a-a578-4473-a4a2-9b210cb9c960","system_id":"levelo_inurba_marseille","lat":43.27423,"lon":5.39418,"is_reserved":false,"is_disabled":false,"rental_uris":{"android":"levelo://app?vid=25e1bb0a-a578-4473-a4a2-9b210cb9c960","ios":"levelo://app?vid=25e1bb0a-a578-4473-a4a2-9b210cb9c960"},"vehicle_type_id":"4","last_reported":1762863730,"current_range_meters":6800,"station_id":"ce4bhdp2rcd13ifvqf20","pricing_plan_id":"cebpf4jnsgd1na2vs0mg"},{"bike_id":"c8a5b540-b405-43e8-9191-d51496c82f62","system_id":"levelo_inurba_marseille","lat":43.30144,"lon":5.37408,"is_reserved":false,"is_disabled":false,"rental_uris":{"android":"levelo://app?vid=c8a5b540-b405-43e8-9191-d51496c82f62","ios":"levelo://app?vid=c8a5b540-b405-43e8-9191-d51496c82f62"},"vehicle_type_id":"4","last_reported":1762863730,"current_range_meters":6800,"station_id":"ce4bgs92rcd13ifvqcc0","pricing_plan_id":"cebpf4jnsgd1na2vs0mg"},{"bike_id":"3b413aa7-3e7a-4f94-97d3-3d86ebe8a3ee","system_id":"levelo_inurba_marseille","lat":43.25865,"lon":5.39916,"is_reserved":false,"is_disabled":false,"rental_uris":{"android":"levelo://app?vid=3b413aa7-3e7a-4f94-97d3-3d86ebe8a3ee","ios":"levelo://app?vid=3b413aa7-3e7a-4f94-97d3-3d86ebe8a3ee"},"vehicle_type_id":"4","last_reported":1762863730,"current_range_meters":6800,"station_id":"ce4bhl92rcd13ifvqghg","pricing_plan_id":"cebpf4jnsgd1na2vs0mg"},{"bike_id":"d38085d7-dc4f-4f41-9147-e54a8e0ecf81","system_id":"levelo_inurba_marseille","lat":43.3081,"lon":5.38151,"is_reserved":false,"is_disabled":false,"rental_uris":{"android":"levelo://app?vid=d38085d7-dc4f-4f41-9147-e54a8e0ecf81","ios":"levelo://app?vid=d38085d7-dc4f-4f41-9147-e54a8e0ecf81"},"vehicle_type_id":"4","last_reported":1762863730,"current_range_meters":6800,"station_id":"ce4bgt12rcd13ifvqce0","pricing_plan_id":"cebpf4jnsgd1na2vs0mg"},{"bike_id":"ac389ee1-0a89-4e9a-8087-f48a2a9a3501","system_id":"levelo_inurba_marseille","lat":43.28037,"lon":5.36944,"is_reserved":false,"is_disabled":false,"rental_uris":{"android":"levelo://app?vid=ac389ee1-0a89-4e9a-8087-f48a2a9a3501","ios":"levelo://app?vid=ac389ee1-0a89-4e9a-8087-f48a2a9a3501"},"vehicle_type_id":"4","last_reported":1762863730,"current_range_meters":6800,"station_id":"ce4bha12rcd13ifvqef0","pricing_plan_id":"cebpf4jnsgd1na2vs0mg"},{"bike_id":"1f5a8b7a-4f85-432e-8a2e-1320e8301faa","system_id":"levelo_inurba_marseille","lat":43.33159,"lon":5.37704,"is_reserved":false,"is_disabled":false,"rental_uris":{"android":"levelo://app?vid=1f5a8b7a-4f85-432e-8a2e-1320e8301faa","ios":"levelo://app?vid=1f5a8b7a-4f85-432e-8a2e-1320e8301faa"},"vehicle_type_id":"4","last_reported":1762863730,"current_range_meters":6800,"station_id":"st_d46cu089ee8s73dldbu0","pricing_plan_id":"cebpf4jnsgd1na2vs0mg"},{"bike_id":"58aed508-8b52-4a5a-a071-b911b9e661de","system_id":"levelo_inurba_marseille","lat":43.29979,"lon":5.38497,"is_reserved":false,"is_disabled":false,"rental_uris":{"android":"levelo://app?vid=58aed508-8b52-4a5a-a071-b911b9e661de","ios":"levelo://app?vid=58aed508-8b52-4a5a-a071-b911b9e661de"},"vehicle_type_id":"4","last_reported":1762863730,"current_range_meters":6800,"station_id":"ce4bgj92rcd13ifvqbd0","pricing_plan_id":"cebpf4jnsgd1na2vs0mg"},{"bike_id":"e3ed2072-af03-49f0-b93e-fe82ecafea19","system_id":"levelo_inurba_marseille","lat":43.2762,"lon":5.36117,"is_reserved":false,"is_disabled":false,"rental_uris":{"android":"levelo://app?vid=e3ed2072-af03-49f0-b93e-fe82ecafea19","ios":"levelo://app?vid=e3ed2072-af03-49f0-b93e-fe82ecafea19"},"vehicle_type_id":"4","last_reported":1762863730,"current_range_meters":6800,"station_id":"ce4bgj92rcd13ifvqbe0","pricing_plan_id":"cebpf4jnsgd1na2vs0mg"},{"bike_id":"355d0a72-63a4-43ac-addc-15604eb0aa69","system_id":"levelo_inurba_marseille","lat":43.29927,"lon":5.3639,"is_reserved":false,"is_disabled":false,"rental_uris":{"android":"levelo://app?vid=355d0a72-63a4-43ac-addc-15604eb0aa69","ios":"levelo://app?vid=355d0a72-63a4-43ac-addc-15604eb0aa69"},"vehicle_type_id":"4","last_reported":1762863730,"current_range_meters":6800,"station_id":"","pricing_plan_id":"cebpf4jnsgd1na2vs0mg"},{"bike_id":"e466b549-bcc8-4e24-8b45-8c6deaf0f772","system_id":"levelo_inurba_marseille","lat":43.282693,"lon":5.350599,"is_reserved":false,"is_disabled":false,"rental_uris":{"android":"levelo://app?vid=e466b549-bcc8-4e24-8b45-8c6deaf0f772","ios":"levelo://app?vid=e466b549-bcc8-4e24-8b45-8c6deaf0f772"},"vehicle_type_id":"4","last_reported":1762863730,"current_range_meters":7200,"station_id":"ce4bhbp2rcd13ifvqerg","pricing_plan_id":"cebpf4jnsgd1na2vs0mg"},{"bike_id":"96629816-b2f6-4983-a906-ca8a9ef69d1b","system_id":"levelo_inurba_marseille","lat":43.24613,"lon":5.43249,"is_reserved":false,"is_disabled":false,"rental_uris":{"android":"levelo://app?vid=96629816-b2f6-4983-a906-ca8a9ef69d1b","ios":"levelo://app?vid=96629816-b2f6-4983-a906-ca8a9ef69d1b"},"vehicle_type_id":"4","last_reported":1762863730,"current_range_meters":7200,"station_id":"st_d2m6c4gdas8pm72e190g","pricing_plan_id":"cebpf4jnsgd1na2vs0mg"},{"bike_id":"a153bb7a-facf-4d89-8fb0-01e6272ba505","system_id":"levelo_inurba_marseille","lat":43.26977,"lon":5.3881,"is_reserved":false,"is_disabled":false,"rental_uris":{"android":"levelo://app?vid=a153bb7a-facf-4d89-8fb0-01e6272ba505","ios":"levelo://app?vid=a153bb7a-facf-4d89-8fb0-01e6272ba505"},"vehicle_type_id":"4","last_reported":1762863730,"current_range_meters":7200,"station_id":"","pricing_plan_id":"cebpf4jnsgd1na2vs0mg"},{"bike_id":"5c4c716a-838a-4b05-a5aa-0d596dc48da7","system_id":"levelo_inurba_marseille","lat":43.279383,"lon":5.410549,"is_reserved":false,"is_disabled":false,"rental_uris":{"android":"levelo://app?vid=5c4c716a-838a-4b05-a5aa-0d596dc48da7","ios":"levelo://app?vid=5c4c716a-838a-4b05-a5aa-0d596dc48da7"},"vehicle_type_id":"4","last_reported":1762863730,"current_range_meters":7200,"station_id":"","pricing_plan_id":"cebpf4jnsgd1na2vs0mg"},{"bike_id":"c620c9fc-398f-4dca-8fdd-2b652311235d","system_id":"levelo_inurba_marseille","lat":43.21193,"lon":5.35074,"is_reserved":false,"is_disabled":true,"rental_uris":{"android":"levelo://app?vid=c620c9fc-398f-4dca-8fdd-2b652311235d","ios":"levelo://app?vid=c620c9fc-398f-4dca-8fdd-2b652311235d"},"vehicle_type_id":"4","last_reported":1762863730,"current_range_meters":7200,"station_id":"st_cvj6sg6p6f1abm77japg","pricing_plan_id":"cebpf4jnsgd1na2vs0mg"},{"bike_id":"a3596bad-feb2-44a4-bcc4-377c30607a23","system_id":"levelo_inurba_marseille","lat":43.30123,"lon":5.4312,"is_reserved":false,"is_disabled":false,"rental_uris":{"android":"levelo://app?vid=a3596bad-feb2-44a4-bcc4-377c30607a23","ios":"levelo://app?vid=a3596bad-feb2-44a4-bcc4-377c30607a23"},"vehicle_type_id":"4","last_reported":1762863730,"current_range_meters":7200,"station_id":"st_d3js3co5814s73ftftug","pricing_plan_id":"cebpf4jnsgd1na2vs0mg"},{"bike_id":"d045cc96-28c3-4ce5-b170-9a1b65f34ca8","system_id":"levelo_inurba_marseille","lat":43.21748,"lon":5.34599,"is_reserved":false,"is_disabled":false,"rental_uris":{"android":"levelo://app?vid=d045cc96-28c3-4ce5-b170-9a1b65f34ca8","ios":"levelo://app?vid=d045cc96-28c3-4ce5-b170-9a1b65f34ca8"},"vehicle_type_id":"4","last_reported":1762863730,"current_range_meters":7200,"station_id":"st_cvj6r9ubvosntc0bgbag","pricing_plan_id":"cebpf4jnsgd1na2vs0mg"},{"bike_id":"ba78b357-b972-43f5-ab84-f320aea98d68","system_id":"levelo_inurba_marseille","lat":43.288544,"lon":5.3931,"is_reserved":false,"is_disabled":false,"rental_uris":{"android":"levelo://app?vid=ba78b357-b972-43f5-ab84-f320aea98d68","ios":"levelo://app?vid=ba78b357-b972-43f5-ab84-f320aea98d68"},"vehicle_type_id":"4","last_reported":1762863730,"current_range_meters":7200,"station_id":"ce4bh2p2rcd13ifvqdi0","pricing_plan_id":"cebpf4jnsgd1na2vs0mg"},{"bike_id":"bc76e60a-e697-49fa-abfb-c0d16e652acc","system_id":"levelo_inurba_marseille","lat":43.2257,"lon":5.41634,"is_reserved":false,"is_disabled":false,"rental_uris":{"android":"levelo://app?vid=bc76e60a-e697-49fa-abfb-c0d16e652acc","ios":"levelo://app?vid=bc76e60a-e697-49fa-abfb-c0d16e652acc"},"vehicle_type_id":"4","last_reported":1762863730,"current_range_meters":8000,"station_id":"st_d2o4gvlbi1j2169b742g","pricing_plan_id":"cebpf4jnsgd1na2vs0mg"},{"bike_id":"d315980f-e55c-4a2b-8743-e45ce3622e8d","system_id":"levelo_inurba_marseille","lat":43.28476,"lon":5.484,"is_reserved":false,"is_disabled":false,"rental_uris":{"android":"levelo://app?vid=d315980f-e55c-4a2b-8743-e45ce3622e8d","ios":"levelo://app?vid=d315980f-e55c-4a2b-8743-e45ce3622e8d"},"vehicle_type_id":"4","last_reported":1762863730,"current_range_meters":8000,"station_id":"st_d3svhcjqgbts73a3dn0g","pricing_plan_id":"cebpf4jnsgd1na2vs0mg"},{"bike_id":"3a99adea-ea9e-4318-b411-9740e461dbd3","system_id":"levelo_inurba_marseille","lat":43.21749,"lon":5.34602,"is_reserved":false,"is_disabled":false,"rental_uris":{"android":"levelo://app?vid=3a99adea-ea9e-4318-b411-9740e461dbd3","ios":"levelo://app?vid=3a99adea-ea9e-4318-b411-9740e461dbd3"},"vehicle_type_id":"4","last_reported":1762863730,"current_range_meters":8000,"station_id":"st_cvj6r9ubvosntc0bgbag","pricing_plan_id":"cebpf4jnsgd1na2vs0mg"},{"bike_id":"6a8aa9dc-5092-4470-aae2-8f1c3671d287","system_id":"levelo_inurba_marseille","lat":43.29097,"lon":5.38136,"is_reserved":false,"is_disabled":false,"rental_uris":{"android":"levelo://app?vid=6a8aa9dc-5092-4470-aae2-8f1c3671d287","ios":"levelo://app?vid=6a8aa9dc-5092-4470-aae2-8f1c3671d287"},"vehicle_type_id":"4","last_reported":1762863730,"current_range_meters":8000,"station_id":"ce4bh512rcd13ifvqe2g","pricing_plan_id":"cebpf4jnsgd1na2vs0mg"},{"bike_id":"99f555dd-b87a-4899-bc4d-afec626c1e28","system_id":"levelo_inurba_marseille","lat":43.28476,"lon":5.48397,"is_reserved":false,"is_disabled":false,"rental_uris":{"android":"levelo://app?vid=99f555dd-b87a-4899-bc4d-afec626c1e28","ios":"levelo://app?vid=99f555dd-b87a-4899-bc4d-afec626c1e28"},"vehicle_type_id":"4","last_reported":1762863730,"current_range_meters":8000,"station_id":"","pricing_plan_id":"cebpf4jnsgd1na2vs0mg"},{"bike_id":"64b63aef-7c8c-48e6-8d97-7db7ee139095","system_id":"levelo_inurba_marseille","lat":43.21189,"lon":5.3507,"is_reserved":false,"is_disabled":false,"rental_uris":{"android":"levelo://app?vid=64b63aef-7c8c-48e6-8d97-7db7ee139095","ios":"levelo://app?vid=64b63aef-7c8c-48e6-8d97-7db7ee139095"},"vehicle_type_id":"4","last_reported":1762863730,"current_range_meters":8400,"station_id":"st_cvj6sg6p6f1abm77japg","pricing_plan_id":"cebpf4jnsgd1na2vs0mg"},{"bike_id":"6550129e-f133-4433-b693-aaf83c8c5eea","system_id":"levelo_inurba_marseille","lat":43.24807,"lon":5.37452,"is_reserved":false,"is_disabled":false,"rental_uris":{"android":"levelo://app?vid=6550129e-f133-4433-b693-aaf83c8c5eea","ios":"levelo://app?vid=6550129e-f133-4433-b693-aaf83c8c5eea"},"vehicle_type_id":"4","last_reported":1762863730,"current_range_meters":8400,"station_id":"ce4bhgh2rcd13ifvqfb0","pricing_plan_id":"cebpf4jnsgd1na2vs0mg"},{"bike_id":"e952a1c1-d18f-44a8-86b7-8c8e99d63451","system_id":"levelo_inurba_marseille","lat":43.28843,"lon":5.39558,"is_reserved":false,"is_disabled":false,"rental_uris":{"android":"levelo://app?vid=e952a1c1-d18f-44a8-86b7-8c8e99d63451","ios":"levelo://app?vid=e952a1c1-d18f-44a8-86b7-8c8e99d63451"},"vehicle_type_id":"4","last_reported":1762863730,"current_range_meters":8400,"station_id":"","pricing_plan_id":"cebpf4jnsgd1na2vs0mg"},{"bike_id":"8fa8b230-f66f-45ca-a74c-526505f75156","system_id":"levelo_inurba_marseille","lat":43.217438,"lon":5.346056,"is_reserved":false,"is_disabled":false,"rental_uris":{"android":"levelo://app?vid=8fa8b230-f66f-45ca-a74c-526505f75156","ios":"levelo://app?vid=8fa8b230-f66f-45ca-a74c-526505f75156"},"vehicle_type_id":"4","last_reported":1762863730,"current_range_meters":8400,"station_id":"st_cvj6r9ubvosntc0bgbag","pricing_plan_id":"cebpf4jnsgd1na2vs0mg"},{"bike_id":"c0f9fd85-43f7-4dad-9679-7593581a1294","system_id":"levelo_inurba_marseille","lat":43.23202,"lon":5.35565,"is_reserved":false,"is_disabled":false,"rental_uris":{"android":"levelo://app?vid=c0f9fd85-43f7-4dad-9679-7593581a1294","ios":"levelo://app?vid=c0f9fd85-43f7-4dad-9679-7593581a1294"},"vehicle_type_id":"4","last_reported":1762863730,"current_range_meters":8400,"station_id":"ce4bhu92rcd13ifvqi70","pricing_plan_id":"cebpf4jnsgd1na2vs0mg"},{"bike_id":"b2be4fa2-44ee-40dc-acc7-1755c74f1c5d","system_id":"levelo_inurba_marseille","lat":43.29753,"lon":5.41113,"is_reserved":false,"is_disabled":false,"rental_uris":{"android":"levelo://app?vid=b2be4fa2-44ee-40dc-acc7-1755c74f1c5d","ios":"levelo://app?vid=b2be4fa2-44ee-40dc-acc7-1755c74f1c5d"},"vehicle_type_id":"4","last_reported":1762863730,"current_range_meters":8400,"station_id":"","pricing_plan_id":"cebpf4jnsgd1na2vs0mg"},{"bike_id":"ea187fb9-9613-40b3-a6df-efcda4986caf","system_id":"levelo_inurba_marseille","lat":43.25515,"lon":5.37654,"is_reserved":false,"is_disabled":false,"rental_uris":{"android":"levelo://app?vid=ea187fb9-9613-40b3-a6df-efcda4986caf","ios":"levelo://app?vid=ea187fb9-9613-40b3-a6df-efcda4986caf"},"vehicle_type_id":"4","last_reported":1762863730,"current_range_meters":8400,"station_id":"ce4bhh12rcd13ifvqff0","pricing_plan_id":"cebpf4jnsgd1na2vs0mg"},{"bike_id":"550ebdd1-1580-4c42-8443-a5565d0e8088","system_id":"levelo_inurba_marseille","lat":43.21753,"lon":5.3461,"is_reserved":false,"is_disabled":true,"rental_uris":{"android":"levelo://app?vid=550ebdd1-1580-4c42-8443-a5565d0e8088","ios":"levelo://app?vid=550ebdd1-1580-4c42-8443-a5565d0e8088"},"vehicle_type_id":"4","last_reported":1762863730,"current_range_meters":8800,"station_id":"st_cvj6r9ubvosntc0bgbag","pricing_plan_id":"cebpf4jnsgd1na2vs0mg"},{"bike_id":"587ff331-265e-4d22-9cae-596f6b1440ed","system_id":"levelo_inurba_marseille","lat":43.29582,"lon":5.37526,"is_reserved":false,"is_disabled":false,"rental_uris":{"android":"levelo://app?vid=587ff331-265e-4d22-9cae-596f6b1440ed","ios":"levelo://app?vid=587ff331-265e-4d22-9cae-596f6b1440ed"},"vehicle_type_id":"4","last_reported":1762863730,"current_range_meters":8800,"station_id":"ce4bgh92rcd13ifvqb50","pricing_plan_id":"cebpf4jnsgd1na2vs0mg"},{"bike_id":"1648104b-81bc-4751-ace2-e97e844cd43d","system_id":"levelo_inurba_marseille","lat":43.28461,"lon":5.48404,"is_reserved":false,"is_disabled":false,"rental_uris":{"android":"levelo://app?vid=1648104b-81bc-4751-ace2-e97e844cd43d","ios":"levelo://app?vid=1648104b-81bc-4751-ace2-e97e844cd43d"},"vehicle_type_id":"4","last_reported":1762863730,"current_range_meters":8800,"station_id":"st_d3svhcjqgbts73a3dn0g","pricing_plan_id":"cebpf4jnsgd1na2vs0mg"},{"bike_id":"e73342d4-75e3-4562-8829-caa63cea5708","system_id":"levelo_inurba_marseille","lat":43.27621,"lon":5.36115,"is_reserved":false,"is_disabled":false,"rental_uris":{"android":"levelo://app?vid=e73342d4-75e3-4562-8829-caa63cea5708","ios":"levelo://app?vid=e73342d4-75e3-4562-8829-caa63cea5708"},"vehicle_type_id":"4","last_reported":1762863730,"current_range_meters":9200,"station_id":"ce4bgj92rcd13ifvqbe0","pricing_plan_id":"cebpf4jnsgd1na2vs0mg"},{"bike_id":"349b2ad9-adea-4dd9-9ac9-fffb121b5424","system_id":"levelo_inurba_marseille","lat":43.29892,"lon":5.37537,"is_reserved":false,"is_disabled":false,"rental_uris":{"android":"levelo://app?vid=349b2ad9-adea-4dd9-9ac9-fffb121b5424","ios":"levelo://app?vid=349b2ad9-adea-4dd9-9ac9-fffb121b5424"},"vehicle_type_id":"4","last_reported":1762863730,"current_range_meters":9200,"station_id":"","pricing_plan_id":"cebpf4jnsgd1na2vs0mg"},{"bike_id":"a67be477-51ba-4e25-b10a-eee4d1b7dda9","system_id":"levelo_inurba_marseille","lat":43.30734,"lon":5.36899,"is_reserved":false,"is_disabled":false,"rental_uris":{"android":"levelo://app?vid=a67be477-51ba-4e25-b10a-eee4d1b7dda9","ios":"levelo://app?vid=a67be477-51ba-4e25-b10a-eee4d1b7dda9"},"vehicle_type_id":"4","last_reported":1762863730,"current_range_meters":9200,"station_id":"","pricing_plan_id":"cebpf4jnsgd1na2vs0mg"},{"bike_id":"faf69266-31c1-445b-a96a-4f59093a22b8","system_id":"levelo_inurba_marseille","lat":43.21195,"lon":5.35075,"is_reserved":false,"is_disabled":false,"rental_uris":{"android":"levelo://app?vid=faf69266-31c1-445b-a96a-4f59093a22b8","ios":"levelo://app?vid=faf69266-31c1-445b-a96a-4f59093a22b8"},"vehicle_type_id":"4","last_reported":1762863730,"current_range_meters":9200,"station_id":"st_cvj6sg6p6f1abm77japg","pricing_plan_id":"cebpf4jnsgd1na2vs0mg"},{"bike_id":"fdd17636-566c-4e2f-89aa-55bbe17fdeff","system_id":"levelo_inurba_marseille","lat":43.246513,"lon":5.388936,"is_reserved":false,"is_disabled":false,"rental_uris":{"android":"levelo://app?vid=fdd17636-566c-4e2f-89aa-55bbe17fdeff","ios":"levelo://app?vid=fdd17636-566c-4e2f-89aa-55bbe17fdeff"},"vehicle_type_id":"4","last_reported":1762863730,"current_range_meters":9200,"station_id":"ce4bhg12rcd13ifvqf60","pricing_plan_id":"cebpf4jnsgd1na2vs0mg"},{"bike_id":"a6bdf21f-a1d2-4def-a11f-b6f07d15f833","system_id":"levelo_inurba_marseille","lat":43.30085,"lon":5.38284,"is_reserved":false,"is_disabled":false,"rental_uris":{"android":"levelo://app?vid=a6bdf21f-a1d2-4def-a11f-b6f07d15f833","ios":"levelo://app?vid=a6bdf21f-a1d2-4def-a11f-b6f07d15f833"},"vehicle_type_id":"4","last_reported":1762863730,"current_range_meters":9200,"station_id":"","pricing_plan_id":"cebpf4jnsgd1na2vs0mg"},{"bike_id":"52a7a93b-9b9a-40b7-829a-e855a9c48b9f","system_id":"levelo_inurba_marseille","lat":43.225763,"lon":5.416168,"is_reserved":false,"is_disabled":false,"rental_uris":{"android":"levelo://app?vid=52a7a93b-9b9a-40b7-829a-e855a9c48b9f","ios":"levelo://app?vid=52a7a93b-9b9a-40b7-829a-e855a9c48b9f"},"vehicle_type_id":"4","last_reported":1762863730,"current_range_meters":9200,"station_id":"st_d2o4gvlbi1j2169b742g","pricing_plan_id":"cebpf4jnsgd1na2vs0mg"},{"bike_id":"88c73795-aba4-4e42-9dd4-be7914b96bba","system_id":"levelo_inurba_marseille","lat":43.29772,"lon":5.42784,"is_reserved":false,"is_disabled":false,"rental_uris":{"android":"levelo://app?vid=88c73795-aba4-4e42-9dd4-be7914b96bba","ios":"levelo://app?vid=88c73795-aba4-4e42-9dd4-be7914b96bba"},"vehicle_type_id":"4","last_reported":1762863730,"current_range_meters":9200,"station_id":"st_d3md5207bmas73dh9klg","pricing_plan_id":"cebpf4jnsgd1na2vs0mg"},{"bike_id":"1994e0cb-92a7-44f2-9b60-e315e362a7af","system_id":"levelo_inurba_marseille","lat":43.30892,"lon":5.39661,"is_reserved":false,"is_disabled":false,"rental_uris":{"android":"levelo://app?vid=1994e0cb-92a7-44f2-9b60-e315e362a7af","ios":"levelo://app?vid=1994e0cb-92a7-44f2-9b60-e315e362a7af"},"vehicle_type_id":"4","last_reported":1762863730,"current_range_meters":9200,"station_id":"ce4bh012rcd13ifvqcv0","pricing_plan_id":"cebpf4jnsgd1na2vs0mg"},{"bike_id":"6e6913ab-5565-44c2-bf61-26805575b411","system_id":"levelo_inurba_marseille","lat":43.29875,"lon":5.44057,"is_reserved":false,"is_disabled":false,"rental_uris":{"android":"levelo://app?vid=6e6913ab-5565-44c2-bf61-26805575b411","ios":"levelo://app?vid=6e6913ab-5565-44c2-bf61-26805575b411"},"vehicle_type_id":"4","last_reported":1762863730,"current_range_meters":9600,"station_id":"st_d3jp68qikq2c7381ktn0","pricing_plan_id":"cebpf4jnsgd1na2vs0mg"},{"bike_id":"64a20e40-a6fd-48eb-a2d5-705239f93aec","system_id":"levelo_inurba_marseille","lat":43.21197,"lon":5.35074,"is_reserved":false,"is_disabled":false,"rental_uris":{"android":"levelo://app?vid=64a20e40-a6fd-48eb-a2d5-705239f93aec","ios":"levelo://app?vid=64a20e40-a6fd-48eb-a2d5-705239f93aec"},"vehicle_type_id":"4","last_reported":1762863730,"current_range_meters":9600,"station_id":"st_cvj6sg6p6f1abm77japg","pricing_plan_id":"cebpf4jnsgd1na2vs0mg"},{"bike_id":"c7a653bf-78a0-4c17-99dd-7da7db86003b","system_id":"levelo_inurba_marseille","lat":43.23964,"lon":5.36639,"is_reserved":false,"is_disabled":false,"rental_uris":{"android":"levelo://app?vid=c7a653bf-78a0-4c17-99dd-7da7db86003b","ios":"levelo://app?vid=c7a653bf-78a0-4c17-99dd-7da7db86003b"},"vehicle_type_id":"4","last_reported":1762863730,"current_range_meters":9600,"station_id":"ce4bhi12rcd13ifvqfp0","pricing_plan_id":"cebpf4jnsgd1na2vs0mg"},{"bike_id":"d4a86094-56fb-4627-b9a3-90b7de619fd0","system_id":"levelo_inurba_marseille","lat":43.28484,"lon":5.48407,"is_reserved":false,"is_disabled":false,"rental_uris":{"android":"levelo://app?vid=d4a86094-56fb-4627-b9a3-90b7de619fd0","ios":"levelo://app?vid=d4a86094-56fb-4627-b9a3-90b7de619fd0"},"vehicle_type_id":"4","last_reported":1762863730,"current_range_meters":9600,"station_id":"","pricing_plan_id":"cebpf4jnsgd1na2vs0mg"},{"bike_id":"0a0d87ee-447f-48c7-a9cd-e00ba4e992a2","system_id":"levelo_inurba_marseille","lat":43.28865,"lon":5.42519,"is_reserved":false,"is_disabled":false,"rental_uris":{"android":"levelo://app?vid=0a0d87ee-447f-48c7-a9cd-e00ba4e992a2","ios":"levelo://app?vid=0a0d87ee-447f-48c7-a9cd-e00ba4e992a2"},"vehicle_type_id":"4","last_reported":1762863730,"current_range_meters":9600,"station_id":"st_d3b462108ojc7389ooeg","pricing_plan_id":"cebpf4jnsgd1na2vs0mg"},{"bike_id":"e8fbfae2-3996-406c-a51e-b82a3f624d8b","system_id":"levelo_inurba_marseille","lat":43.29615,"lon":5.37719,"is_reserved":false,"is_disabled":false,"rental_uris":{"android":"levelo://app?vid=e8fbfae2-3996-406c-a51e-b82a3f624d8b","ios":"levelo://app?vid=e8fbfae2-3996-406c-a51e-b82a3f624d8b"},"vehicle_type_id":"4","last_reported":1762863730,"current_range_meters":9600,"station_id":"ce4bgi92rcd13ifvqb90","pricing_plan_id":"cebpf4jnsgd1na2vs0mg"},{"bike_id":"d14a3070-960e-421d-b5dc-419b8cc88005","system_id":"levelo_inurba_marseille","lat":43.31563,"lon":5.3764,"is_reserved":false,"is_disabled":false,"rental_uris":{"android":"levelo://app?vid=d14a3070-960e-421d-b5dc-419b8cc88005","ios":"levelo://app?vid=d14a3070-960e-421d-b5dc-419b8cc88005"},"vehicle_type_id":"4","last_reported":1762863730,"current_range_meters":9600,"station_id":"","pricing_plan_id":"cebpf4jnsgd1na2vs0mg"},{"bike_id":"d537f8c6-7db8-475d-a05b-4ccfc05579ca","system_id":"levelo_inurba_marseille","lat":43.3107,"lon":5.38358,"is_reserved":false,"is_disabled":false,"rental_uris":{"android":"levelo://app?vid=d537f8c6-7db8-475d-a05b-4ccfc05579ca","ios":"levelo://app?vid=d537f8c6-7db8-475d-a05b-4ccfc05579ca"},"vehicle_type_id":"4","last_reported":1762863730,"current_range_meters":10000,"station_id":"ce4bgv92rcd13ifvqcr0","pricing_plan_id":"cebpf4jnsgd1na2vs0mg"},{"bike_id":"a4a1a1de-97ca-4f33-bd01-a55e149676e2","system_id":"levelo_inurba_marseille","lat":43.29588,"lon":5.37703,"is_reserved":false,"is_disabled":true,"rental_uris":{"android":"levelo://app?vid=a4a1a1de-97ca-4f33-bd01-a55e149676e2","ios":"levelo://app?vid=a4a1a1de-97ca-4f33-bd01-a55e149676e2"},"vehicle_type_id":"4","last_reported":1762863730,"current_range_meters":10000,"station_id":"ce4bgi92rcd13ifvqb90","pricing_plan_id":"cebpf4jnsgd1na2vs0mg"},{"bike_id":"89c8333a-6c89-4320-a9d0-faa9687fbb36","system_id":"levelo_inurba_marseille","lat":43.21192,"lon":5.35069,"is_reserved":false,"is_disabled":false,"rental_uris":{"android":"levelo://app?vid=89c8333a-6c89-4320-a9d0-faa9687fbb36","ios":"levelo://app?vid=89c8333a-6c89-4320-a9d0-faa9687fbb36"},"vehicle_type_id":"4","last_reported":1762863730,"current_range_meters":10000,"station_id":"st_cvj5dfep6f1abm77gieg","pricing_plan_id":"cebpf4jnsgd1na2vs0mg"},{"bike_id":"802f0882-56e4-4b36-863b-5e80a12b8d76","system_id":"levelo_inurba_marseille","lat":43.29194,"lon":5.39314,"is_reserved":false,"is_disabled":false,"rental_uris":{"android":"levelo://app?vid=802f0882-56e4-4b36-863b-5e80a12b8d76","ios":"levelo://app?vid=802f0882-56e4-4b36-863b-5e80a12b8d76"},"vehicle_type_id":"4","last_reported":1762863730,"current_range_meters":10000,"station_id":"ce4bh192rcd13ifvqdd0","pricing_plan_id":"cebpf4jnsgd1na2vs0mg"},{"bike_id":"d83ce753-19bb-4fdf-97e6-b782d8fea836","system_id":"levelo_inurba_marseille","lat":43.22561,"lon":5.41666,"is_reserved":false,"is_disabled":false,"rental_uris":{"android":"levelo://app?vid=d83ce753-19bb-4fdf-97e6-b782d8fea836","ios":"levelo://app?vid=d83ce753-19bb-4fdf-97e6-b782d8fea836"},"vehicle_type_id":"4","last_reported":1762863730,"current_range_meters":10000,"station_id":"st_d2o4gvlbi1j2169b742g","pricing_plan_id":"cebpf4jnsgd1na2vs0mg"},{"bike_id":"c4f30d8e-e873-46d4-a785-3519043a555c","system_id":"levelo_inurba_marseille","lat":43.301443,"lon":5.376342,"is_reserved":false,"is_disabled":false,"rental_uris":{"android":"levelo://app?vid=c4f30d8e-e873-46d4-a785-3519043a555c","ios":"levelo://app?vid=c4f30d8e-e873-46d4-a785-3519043a555c"},"vehicle_type_id":"4","last_reported":1762863730,"current_range_meters":10000,"station_id":"","pricing_plan_id":"cebpf4jnsgd1na2vs0mg"},{"bike_id":"4b75f4f1-28cd-4ac7-9b5c-b069daf52b29","system_id":"levelo_inurba_marseille","lat":43.31815,"lon":5.37417,"is_reserved":false,"is_disabled":false,"rental_uris":{"android":"levelo://app?vid=4b75f4f1-28cd-4ac7-9b5c-b069daf52b29","ios":"levelo://app?vid=4b75f4f1-28cd-4ac7-9b5c-b069daf52b29"},"vehicle_type_id":"4","last_reported":1762863730,"current_range_meters":10800,"station_id":"","pricing_plan_id":"cebpf4jnsgd1na2vs0mg"},{"bike_id":"4e226879-1039-40de-abb5-4505565eb518","system_id":"levelo_inurba_marseille","lat":43.211912,"lon":5.350769,"is_reserved":false,"is_disabled":false,"rental_uris":{"android":"levelo://app?vid=4e226879-1039-40de-abb5-4505565eb518","ios":"levelo://app?vid=4e226879-1039-40de-abb5-4505565eb518"},"vehicle_type_id":"4","last_reported":1762863730,"current_range_meters":10800,"station_id":"st_cvj5dfep6f1abm77gieg","pricing_plan_id":"cebpf4jnsgd1na2vs0mg"},{"bike_id":"ca05ed51-b1fe-4a8c-a9a8-781302a8fa1b","system_id":"levelo_inurba_marseille","lat":43.281502,"lon":5.42639,"is_reserved":false,"is_disabled":false,"rental_uris":{"android":"levelo://app?vid=ca05ed51-b1fe-4a8c-a9a8-781302a8fa1b","ios":"levelo://app?vid=ca05ed51-b1fe-4a8c-a9a8-781302a8fa1b"},"vehicle_type_id":"4","last_reported":1762863730,"current_range_meters":10800,"station_id":"ce4bhnh2rcd13ifvqgug","pricing_plan_id":"cebpf4jnsgd1na2vs0mg"},{"bike_id":"5369ca34-7723-43dc-a1d0-03c4269b2e4a","system_id":"levelo_inurba_marseille","lat":43.31287,"lon":5.37795,"is_reserved":false,"is_disabled":false,"rental_uris":{"android":"levelo://app?vid=5369ca34-7723-43dc-a1d0-03c4269b2e4a","ios":"levelo://app?vid=5369ca34-7723-43dc-a1d0-03c4269b2e4a"},"vehicle_type_id":"4","last_reported":1762863730,"current_range_meters":11200,"station_id":"","pricing_plan_id":"cebpf4jnsgd1na2vs0mg"},{"bike_id":"ed71783a-d5ea-49c7-9b5d-fadfcb9d180d","system_id":"levelo_inurba_marseille","lat":43.21749,"lon":5.34598,"is_reserved":false,"is_disabled":false,"rental_uris":{"android":"levelo://app?vid=ed71783a-d5ea-49c7-9b5d-fadfcb9d180d","ios":"levelo://app?vid=ed71783a-d5ea-49c7-9b5d-fadfcb9d180d"},"vehicle_type_id":"4","last_reported":1762863730,"current_range_meters":11200,"station_id":"st_cvj6r9ubvosntc0bgbag","pricing_plan_id":"cebpf4jnsgd1na2vs0mg"},{"bike_id":"d352f792-f1ed-4574-ace7-b8870e6d3ec8","system_id":"levelo_inurba_marseille","lat":43.29172,"lon":5.37159,"is_reserved":false,"is_disabled":false,"rental_uris":{"android":"levelo://app?vid=d352f792-f1ed-4574-ace7-b8870e6d3ec8","ios":"levelo://app?vid=d352f792-f1ed-4574-ace7-b8870e6d3ec8"},"vehicle_type_id":"4","last_reported":1762863730,"current_range_meters":11200,"station_id":"ce4bha92rcd13ifvqeh0","pricing_plan_id":"cebpf4jnsgd1na2vs0mg"},{"bike_id":"9efc62c4-772b-4094-b412-078f67193096","system_id":"levelo_inurba_marseille","lat":43.23148,"lon":5.43714,"is_reserved":false,"is_disabled":false,"rental_uris":{"android":"levelo://app?vid=9efc62c4-772b-4094-b412-078f67193096","ios":"levelo://app?vid=9efc62c4-772b-4094-b412-078f67193096"},"vehicle_type_id":"4","last_reported":1762863730,"current_range_meters":11200,"station_id":"ce4bhmp2rcd13ifvqgog","pricing_plan_id":"cebpf4jnsgd1na2vs0mg"},{"bike_id":"69aff1d4-05e6-4619-92db-0e4a943e4f45","system_id":"levelo_inurba_marseille","lat":43.304696,"lon":5.3791,"is_reserved":false,"is_disabled":true,"rental_uris":{"android":"levelo://app?vid=69aff1d4-05e6-4619-92db-0e4a943e4f45","ios":"levelo://app?vid=69aff1d4-05e6-4619-92db-0e4a943e4f45"},"vehicle_type_id":"4","last_reported":1762863730,"current_range_meters":11200,"station_id":"ce4bgup2rcd13ifvqcn0","pricing_plan_id":"cebpf4jnsgd1na2vs0mg"},{"bike_id":"985d03a7-73da-4498-bd77-64b1fded7b4a","system_id":"levelo_inurba_marseille","lat":43.29751,"lon":5.4278,"is_reserved":false,"is_disabled":false,"rental_uris":{"android":"levelo://app?vid=985d03a7-73da-4498-bd77-64b1fded7b4a","ios":"levelo://app?vid=985d03a7-73da-4498-bd77-64b1fded7b4a"},"vehicle_type_id":"4","last_reported":1762863730,"current_range_meters":11200,"station_id":"st_d3md5207bmas73dh9klg","pricing_plan_id":"cebpf4jnsgd1na2vs0mg"},{"bike_id":"7361a9ed-c655-4b64-8c4b-33b13e6fdd24","system_id":"levelo_inurba_marseille","lat":43.29795,"lon":5.38093,"is_reserved":false,"is_disabled":false,"rental_uris":{"android":"levelo://app?vid=7361a9ed-c655-4b64-8c4b-33b13e6fdd24","ios":"levelo://app?vid=7361a9ed-c655-4b64-8c4b-33b13e6fdd24"},"vehicle_type_id":"4","last_reported":1762863730,"current_range_meters":11200,"station_id":"ce4bgip2rcd13ifvqbb0","pricing_plan_id":"cebpf4jnsgd1na2vs0mg"},{"bike_id":"5acfb4f2-ec5e-450f-9319-769d75ee38b3","system_id":"levelo_inurba_marseille","lat":43.28494,"lon":5.48387,"is_reserved":false,"is_disabled":false,"rental_uris":{"android":"levelo://app?vid=5acfb4f2-ec5e-450f-9319-769d75ee38b3","ios":"levelo://app?vid=5acfb4f2-ec5e-450f-9319-769d75ee38b3"},"vehicle_type_id":"4","last_reported":1762863730,"current_range_meters":11200,"station_id":"st_d3svhcjqgbts73a3dn0g","pricing_plan_id":"cebpf4jnsgd1na2vs0mg"},{"bike_id":"5bb896f2-dec6-4193-88dc-e86ff5a402fd","system_id":"levelo_inurba_marseille","lat":43.298143,"lon":5.440617,"is_reserved":false,"is_disabled":false,"rental_uris":{"android":"levelo://app?vid=5bb896f2-dec6-4193-88dc-e86ff5a402fd","ios":"levelo://app?vid=5bb896f2-dec6-4193-88dc-e86ff5a402fd"},"vehicle_type_id":"4","last_reported":1762863730,"current_range_meters":11200,"station_id":"st_d3jp68qikq2c7381ktn0","pricing_plan_id":"cebpf4jnsgd1na2vs0mg"},{"bike_id":"c37a07d0-759c-4ac5-a3f5-b314b9032f52","system_id":"levelo_inurba_marseille","lat":43.29969,"lon":5.38204,"is_reserved":false,"is_disabled":false,"rental_uris":{"android":"levelo://app?vid=c37a07d0-759c-4ac5-a3f5-b314b9032f52","ios":"levelo://app?vid=c37a07d0-759c-4ac5-a3f5-b314b9032f52"},"vehicle_type_id":"4","last_reported":1762863730,"current_range_meters":11600,"station_id":"","pricing_plan_id":"cebpf4jnsgd1na2vs0mg"},{"bike_id":"0db5a8aa-8b3a-4f4d-9542-47bc674e0507","system_id":"levelo_inurba_marseille","lat":43.299255,"lon":5.365479,"is_reserved":false,"is_disabled":false,"rental_uris":{"android":"levelo://app?vid=0db5a8aa-8b3a-4f4d-9542-47bc674e0507","ios":"levelo://app?vid=0db5a8aa-8b3a-4f4d-9542-47bc674e0507"},"vehicle_type_id":"4","last_reported":1762863730,"current_range_meters":11600,"station_id":"ce4bgm92rcd13ifvqbr0","pricing_plan_id":"cebpf4jnsgd1na2vs0mg"},{"bike_id":"3244b1b8-26d4-489a-93c5-d3045db26ebc","system_id":"levelo_inurba_marseille","lat":43.30803,"lon":5.38162,"is_reserved":false,"is_disabled":false,"rental_uris":{"android":"levelo://app?vid=3244b1b8-26d4-489a-93c5-d3045db26ebc","ios":"levelo://app?vid=3244b1b8-26d4-489a-93c5-d3045db26ebc"},"vehicle_type_id":"4","last_reported":1762863730,"current_range_meters":11600,"station_id":"ce4bgt12rcd13ifvqce0","pricing_plan_id":"cebpf4jnsgd1na2vs0mg"},{"bike_id":"33364094-3c8e-4197-b579-6d9a44d696af","system_id":"levelo_inurba_marseille","lat":43.25586,"lon":5.38226,"is_reserved":false,"is_disabled":false,"rental_uris":{"android":"levelo://app?vid=33364094-3c8e-4197-b579-6d9a44d696af","ios":"levelo://app?vid=33364094-3c8e-4197-b579-6d9a44d696af"},"vehicle_type_id":"4","last_reported":1762863730,"current_range_meters":11600,"station_id":"ce4bhih2rcd13ifvqfs0","pricing_plan_id":"cebpf4jnsgd1na2vs0mg"},{"bike_id":"c5972d04-4f2a-4646-ae90-eb007a82fe19","system_id":"levelo_inurba_marseille","lat":43.23051,"lon":5.35499,"is_reserved":false,"is_disabled":false,"rental_uris":{"android":"levelo://app?vid=c5972d04-4f2a-4646-ae90-eb007a82fe19","ios":"levelo://app?vid=c5972d04-4f2a-4646-ae90-eb007a82fe19"},"vehicle_type_id":"4","last_reported":1762863730,"current_range_meters":11600,"station_id":"cpo3342slgdg3j2ifvpg","pricing_plan_id":"cebpf4jnsgd1na2vs0mg"},{"bike_id":"81068db1-0ad3-4336-b814-33eacd23dd19","system_id":"levelo_inurba_marseille","lat":43.28156,"lon":5.42683,"is_reserved":false,"is_disabled":false,"rental_uris":{"android":"levelo://app?vid=81068db1-0ad3-4336-b814-33eacd23dd19","ios":"levelo://app?vid=81068db1-0ad3-4336-b814-33eacd23dd19"},"vehicle_type_id":"4","last_reported":1762863730,"current_range_meters":11600,"station_id":"ce4bhnh2rcd13ifvqgug","pricing_plan_id":"cebpf4jnsgd1na2vs0mg"},{"bike_id":"bcec3f19-205d-4d8d-af41-1729aa329635","system_id":"levelo_inurba_marseille","lat":43.27933,"lon":5.41057,"is_reserved":false,"is_disabled":false,"rental_uris":{"android":"levelo://app?vid=bcec3f19-205d-4d8d-af41-1729aa329635","ios":"levelo://app?vid=bcec3f19-205d-4d8d-af41-1729aa329635"},"vehicle_type_id":"4","last_reported":1762863730,"current_range_meters":11600,"station_id":"ce4bhnp2rcd13ifvqh0g","pricing_plan_id":"cebpf4jnsgd1na2vs0mg"},{"bike_id":"c05f03dd-d141-4fd9-9949-37200985b4a4","system_id":"levelo_inurba_marseille","lat":43.255058,"lon":5.376515,"is_reserved":false,"is_disabled":false,"rental_uris":{"android":"levelo://app?vid=c05f03dd-d141-4fd9-9949-37200985b4a4","ios":"levelo://app?vid=c05f03dd-d141-4fd9-9949-37200985b4a4"},"vehicle_type_id":"4","last_reported":1762863730,"current_range_meters":12000,"station_id":"ce4bhh12rcd13ifvqff0","pricing_plan_id":"cebpf4jnsgd1na2vs0mg"},{"bike_id":"285edc02-c40d-4315-906b-2d38b29ac259","system_id":"levelo_inurba_marseille","lat":43.22533,"lon":5.34834,"is_reserved":false,"is_disabled":false,"rental_uris":{"android":"levelo://app?vid=285edc02-c40d-4315-906b-2d38b29ac259","ios":"levelo://app?vid=285edc02-c40d-4315-906b-2d38b29ac259"},"vehicle_type_id":"4","last_reported":1762863730,"current_range_meters":12000,"station_id":"","pricing_plan_id":"cebpf4jnsgd1na2vs0mg"},{"bike_id":"58a1822c-b251-4e64-b5de-b439d223bf77","system_id":"levelo_inurba_marseille","lat":43.24179,"lon":5.39721,"is_reserved":false,"is_disabled":false,"rental_uris":{"android":"levelo://app?vid=58a1822c-b251-4e64-b5de-b439d223bf77","ios":"levelo://app?vid=58a1822c-b251-4e64-b5de-b439d223bf77"},"vehicle_type_id":"4","last_reported":1762863730,"current_range_meters":12000,"station_id":"ce4bhn12rcd13ifvqgpg","pricing_plan_id":"cebpf4jnsgd1na2vs0mg"},{"bike_id":"ff087dac-12f7-44c4-80e9-1f707a8f5fdd","system_id":"levelo_inurba_marseille","lat":43.255096,"lon":5.376555,"is_reserved":false,"is_disabled":false,"rental_uris":{"android":"levelo://app?vid=ff087dac-12f7-44c4-80e9-1f707a8f5fdd","ios":"levelo://app?vid=ff087dac-12f7-44c4-80e9-1f707a8f5fdd"},"vehicle_type_id":"4","last_reported":1762863730,"current_range_meters":12000,"station_id":"ce4bhh12rcd13ifvqff0","pricing_plan_id":"cebpf4jnsgd1na2vs0mg"},{"bike_id":"5f951acd-4387-43e1-8d9a-524f96501bf3","system_id":"levelo_inurba_marseille","lat":43.21746,"lon":5.34612,"is_reserved":false,"is_disabled":false,"rental_uris":{"android":"levelo://app?vid=5f951acd-4387-43e1-8d9a-524f96501bf3","ios":"levelo://app?vid=5f951acd-4387-43e1-8d9a-524f96501bf3"},"vehicle_type_id":"4","last_reported":1762863730,"current_range_meters":12000,"station_id":"st_cvj6r9ubvosntc0bgbag","pricing_plan_id":"cebpf4jnsgd1na2vs0mg"},{"bike_id":"38c922e6-37cd-47dc-af88-f07475112c2a","system_id":"levelo_inurba_marseille","lat":43.321191,"lon":5.38848,"is_reserved":false,"is_disabled":false,"rental_uris":{"android":"levelo://app?vid=38c922e6-37cd-47dc-af88-f07475112c2a","ios":"levelo://app?vid=38c922e6-37cd-47dc-af88-f07475112c2a"},"vehicle_type_id":"4","last_reported":1762863730,"current_range_meters":12000,"station_id":"","pricing_plan_id":"cebpf4jnsgd1na2vs0mg"},{"bike_id":"ecce2c7e-3cd5-4e98-86b3-634feb709e51","system_id":"levelo_inurba_marseille","lat":43.27163,"lon":5.41003,"is_reserved":false,"is_disabled":false,"rental_uris":{"android":"levelo://app?vid=ecce2c7e-3cd5-4e98-86b3-634feb709e51","ios":"levelo://app?vid=ecce2c7e-3cd5-4e98-86b3-634feb709e51"},"vehicle_type_id":"4","last_reported":1762863730,"current_range_meters":12000,"station_id":"ce4bhl12rcd13ifvqgf0","pricing_plan_id":"cebpf4jnsgd1na2vs0mg"},{"bike_id":"b0052a7d-0063-46a2-a0fa-53f53bf07d7d","system_id":"levelo_inurba_marseille","lat":43.28764,"lon":5.3884,"is_reserved":false,"is_disabled":false,"rental_uris":{"android":"levelo://app?vid=b0052a7d-0063-46a2-a0fa-53f53bf07d7d","ios":"levelo://app?vid=b0052a7d-0063-46a2-a0fa-53f53bf07d7d"},"vehicle_type_id":"4","last_reported":1762863730,"current_range_meters":12000,"station_id":"","pricing_plan_id":"cebpf4jnsgd1na2vs0mg"},{"bike_id":"98e360c1-3b77-49af-aca0-15ad91414dde","system_id":"levelo_inurba_marseille","lat":43.33166,"lon":5.37699,"is_reserved":false,"is_disabled":false,"rental_uris":{"android":"levelo://app?vid=98e360c1-3b77-49af-aca0-15ad91414dde","ios":"levelo://app?vid=98e360c1-3b77-49af-aca0-15ad91414dde"},"vehicle_type_id":"4","last_reported":1762863730,"current_range_meters":12000,"station_id":"st_d46cu089ee8s73dldbu0","pricing_plan_id":"cebpf4jnsgd1na2vs0mg"},{"bike_id":"9665242b-6112-449b-b61f-bebc901c67e4","system_id":"levelo_inurba_marseille","lat":43.31719,"lon":5.42395,"is_reserved":false,"is_disabled":false,"rental_uris":{"android":"levelo://app?vid=9665242b-6112-449b-b61f-bebc901c67e4","ios":"levelo://app?vid=9665242b-6112-449b-b61f-bebc901c67e4"},"vehicle_type_id":"4","last_reported":1762863730,"current_range_meters":12000,"station_id":"ce4bhp92rcd13ifvqhbg","pricing_plan_id":"cebpf4jnsgd1na2vs0mg"},{"bike_id":"27015ad6-a8d1-4fce-b123-0142b5771f32","system_id":"levelo_inurba_marseille","lat":43.211979,"lon":5.350757,"is_reserved":false,"is_disabled":false,"rental_uris":{"android":"levelo://app?vid=27015ad6-a8d1-4fce-b123-0142b5771f32","ios":"levelo://app?vid=27015ad6-a8d1-4fce-b123-0142b5771f32"},"vehicle_type_id":"4","last_reported":1762863730,"current_range_meters":12000,"station_id":"","pricing_plan_id":"cebpf4jnsgd1na2vs0mg"},{"bike_id":"e26fa3f0-e9d3-4204-b9e6-216cd8c19354","system_id":"levelo_inurba_marseille","lat":43.309322,"lon":5.401366,"is_reserved":false,"is_disabled":false,"rental_uris":{"android":"levelo://app?vid=e26fa3f0-e9d3-4204-b9e6-216cd8c19354","ios":"levelo://app?vid=e26fa3f0-e9d3-4204-b9e6-216cd8c19354"},"vehicle_type_id":"4","last_reported":1762863730,"current_range_meters":12400,"station_id":"","pricing_plan_id":"cebpf4jnsgd1na2vs0mg"},{"bike_id":"40a21b00-303c-4de5-b15a-dd0653c38cf6","system_id":"levelo_inurba_marseille","lat":43.29102,"lon":5.3812,"is_reserved":false,"is_disabled":false,"rental_uris":{"android":"levelo://app?vid=40a21b00-303c-4de5-b15a-dd0653c38cf6","ios":"levelo://app?vid=40a21b00-303c-4de5-b15a-dd0653c38cf6"},"vehicle_type_id":"4","last_reported":1762863730,"current_range_meters":12400,"station_id":"ce4bh512rcd13ifvqe2g","pricing_plan_id":"cebpf4jnsgd1na2vs0mg"},{"bike_id":"718e5b92-b0e1-462f-8d50-ecad918eacfb","system_id":"levelo_inurba_marseille","lat":43.30574,"lon":5.37218,"is_reserved":false,"is_disabled":false,"rental_uris":{"android":"levelo://app?vid=718e5b92-b0e1-462f-8d50-ecad918eacfb","ios":"levelo://app?vid=718e5b92-b0e1-462f-8d50-ecad918eacfb"},"vehicle_type_id":"4","last_reported":1762863730,"current_range_meters":12400,"station_id":"ce4bgqh2rcd13ifvqc4g","pricing_plan_id":"cebpf4jnsgd1na2vs0mg"},{"bike_id":"4568cfe6-a63e-4a16-b057-a148ab410685","system_id":"levelo_inurba_marseille","lat":43.24392,"lon":5.37076,"is_reserved":false,"is_disabled":false,"rental_uris":{"android":"levelo://app?vid=4568cfe6-a63e-4a16-b057-a148ab410685","ios":"levelo://app?vid=4568cfe6-a63e-4a16-b057-a148ab410685"},"vehicle_type_id":"4","last_reported":1762863730,"current_range_meters":12400,"station_id":"ce4bhhh2rcd13ifvqfk0","pricing_plan_id":"cebpf4jnsgd1na2vs0mg"},{"bike_id":"c0fea017-2183-4bea-8e99-5ce3eb72b868","system_id":"levelo_inurba_marseille","lat":43.31696,"lon":5.37744,"is_reserved":false,"is_disabled":false,"rental_uris":{"android":"levelo://app?vid=c0fea017-2183-4bea-8e99-5ce3eb72b868","ios":"levelo://app?vid=c0fea017-2183-4bea-8e99-5ce3eb72b868"},"vehicle_type_id":"4","last_reported":1762863730,"current_range_meters":12400,"station_id":"ce4bgth2rcd13ifvqch0","pricing_plan_id":"cebpf4jnsgd1na2vs0mg"},{"bike_id":"113e3526-2177-4fdc-b598-40988723ea92","system_id":"levelo_inurba_marseille","lat":43.23765,"lon":5.36604,"is_reserved":false,"is_disabled":false,"rental_uris":{"android":"levelo://app?vid=113e3526-2177-4fdc-b598-40988723ea92","ios":"levelo://app?vid=113e3526-2177-4fdc-b598-40988723ea92"},"vehicle_type_id":"4","last_reported":1762863730,"current_range_meters":12400,"station_id":"st_d3nk18o9ro0c73en2l3g","pricing_plan_id":"cebpf4jnsgd1na2vs0mg"},{"bike_id":"d54952de-c2c9-4463-b55a-b35b39e9463c","system_id":"levelo_inurba_marseille","lat":43.298243,"lon":5.44067,"is_reserved":false,"is_disabled":false,"rental_uris":{"android":"levelo://app?vid=d54952de-c2c9-4463-b55a-b35b39e9463c","ios":"levelo://app?vid=d54952de-c2c9-4463-b55a-b35b39e9463c"},"vehicle_type_id":"4","last_reported":1762863730,"current_range_meters":12400,"station_id":"st_d3jp68qikq2c7381ktn0","pricing_plan_id":"cebpf4jnsgd1na2vs0mg"},{"bike_id":"996109e5-ee1d-42f8-8a26-8be10db3c27d","system_id":"levelo_inurba_marseille","lat":43.29609,"lon":5.38084,"is_reserved":false,"is_disabled":false,"rental_uris":{"android":"levelo://app?vid=996109e5-ee1d-42f8-8a26-8be10db3c27d","ios":"levelo://app?vid=996109e5-ee1d-42f8-8a26-8be10db3c27d"},"vehicle_type_id":"4","last_reported":1762863730,"current_range_meters":12400,"station_id":"ce4bgl12rcd13ifvqbo0","pricing_plan_id":"cebpf4jnsgd1na2vs0mg"},{"bike_id":"82b35d51-0c35-417c-8a61-22fe88f04d62","system_id":"levelo_inurba_marseille","lat":43.29858,"lon":5.36278,"is_reserved":false,"is_disabled":false,"rental_uris":{"android":"levelo://app?vid=82b35d51-0c35-417c-8a61-22fe88f04d62","ios":"levelo://app?vid=82b35d51-0c35-417c-8a61-22fe88f04d62"},"vehicle_type_id":"4","last_reported":1762863730,"current_range_meters":12800,"station_id":"ce4bgpp2rcd13ifvqc3g","pricing_plan_id":"cebpf4jnsgd1na2vs0mg"},{"bike_id":"4a392cd4-0e9e-4acc-9ed4-f14baadd93d7","system_id":"levelo_inurba_marseille","lat":43.32118,"lon":5.36767,"is_reserved":false,"is_disabled":false,"rental_uris":{"android":"levelo://app?vid=4a392cd4-0e9e-4acc-9ed4-f14baadd93d7","ios":"levelo://app?vid=4a392cd4-0e9e-4acc-9ed4-f14baadd93d7"},"vehicle_type_id":"4","last_reported":1762863730,"current_range_meters":12800,"station_id":"ce4bhrh2rcd13ifvqhug","pricing_plan_id":"cebpf4jnsgd1na2vs0mg"},{"bike_id":"9565d935-49ed-451a-bdf8-6d318de50664","system_id":"levelo_inurba_marseille","lat":43.31663,"lon":5.40439,"is_reserved":false,"is_disabled":false,"rental_uris":{"android":"levelo://app?vid=9565d935-49ed-451a-bdf8-6d318de50664","ios":"levelo://app?vid=9565d935-49ed-451a-bdf8-6d318de50664"},"vehicle_type_id":"4","last_reported":1762863730,"current_range_meters":12800,"station_id":"ce4bh012rcd13ifvqd00","pricing_plan_id":"cebpf4jnsgd1na2vs0mg"},{"bike_id":"07aa209c-e097-4068-9f40-30b30be1c6bb","system_id":"levelo_inurba_marseille","lat":43.29299,"lon":5.37449,"is_reserved":false,"is_disabled":false,"rental_uris":{"android":"levelo://app?vid=07aa209c-e097-4068-9f40-30b30be1c6bb","ios":"levelo://app?vid=07aa209c-e097-4068-9f40-30b30be1c6bb"},"vehicle_type_id":"4","last_reported":1762863730,"current_range_meters":12800,"station_id":"ce4bgi12rcd13ifvqb70","pricing_plan_id":"cebpf4jnsgd1na2vs0mg"},{"bike_id":"3871ebcf-4a28-4b22-beb9-9220e15dd9fe","system_id":"levelo_inurba_marseille","lat":43.284806,"lon":5.48398,"is_reserved":false,"is_disabled":false,"rental_uris":{"android":"levelo://app?vid=3871ebcf-4a28-4b22-beb9-9220e15dd9fe","ios":"levelo://app?vid=3871ebcf-4a28-4b22-beb9-9220e15dd9fe"},"vehicle_type_id":"4","last_reported":1762863730,"current_range_meters":12800,"station_id":"st_d3svhcjqgbts73a3dn0g","pricing_plan_id":"cebpf4jnsgd1na2vs0mg"},{"bike_id":"2645b227-bbb8-4a22-96f6-fc66d510ac34","system_id":"levelo_inurba_marseille","lat":43.24392,"lon":5.37061,"is_reserved":false,"is_disabled":false,"rental_uris":{"android":"levelo://app?vid=2645b227-bbb8-4a22-96f6-fc66d510ac34","ios":"levelo://app?vid=2645b227-bbb8-4a22-96f6-fc66d510ac34"},"vehicle_type_id":"4","last_reported":1762863730,"current_range_meters":12800,"station_id":"ce4bhhh2rcd13ifvqfk0","pricing_plan_id":"cebpf4jnsgd1na2vs0mg"},{"bike_id":"71a961e6-e0d3-4ba5-a7f0-41e06706bcd2","system_id":"levelo_inurba_marseille","lat":43.21184,"lon":5.35083,"is_reserved":false,"is_disabled":false,"rental_uris":{"android":"levelo://app?vid=71a961e6-e0d3-4ba5-a7f0-41e06706bcd2","ios":"levelo://app?vid=71a961e6-e0d3-4ba5-a7f0-41e06706bcd2"},"vehicle_type_id":"4","last_reported":1762863730,"current_range_meters":12800,"station_id":"st_cvj6sg6p6f1abm77japg","pricing_plan_id":"cebpf4jnsgd1na2vs0mg"},{"bike_id":"85c4fa0d-6a45-42a4-9804-853d363fd895","system_id":"levelo_inurba_marseille","lat":43.21747,"lon":5.34603,"is_reserved":false,"is_disabled":false,"rental_uris":{"android":"levelo://app?vid=85c4fa0d-6a45-42a4-9804-853d363fd895","ios":"levelo://app?vid=85c4fa0d-6a45-42a4-9804-853d363fd895"},"vehicle_type_id":"4","last_reported":1762863730,"current_range_meters":13600,"station_id":"","pricing_plan_id":"cebpf4jnsgd1na2vs0mg"},{"bike_id":"172a1479-a5a8-4a14-96d6-945fbc77b377","system_id":"levelo_inurba_marseille","lat":43.31999,"lon":5.38126,"is_reserved":false,"is_disabled":false,"rental_uris":{"android":"levelo://app?vid=172a1479-a5a8-4a14-96d6-945fbc77b377","ios":"levelo://app?vid=172a1479-a5a8-4a14-96d6-945fbc77b377"},"vehicle_type_id":"4","last_reported":1762863730,"current_range_meters":13600,"station_id":"ce4bhr12rcd13ifvqhpg","pricing_plan_id":"cebpf4jnsgd1na2vs0mg"},{"bike_id":"57c05cfb-067f-4510-8cef-283089ad2f2b","system_id":"levelo_inurba_marseille","lat":43.25932,"lon":5.40898,"is_reserved":false,"is_disabled":false,"rental_uris":{"android":"levelo://app?vid=57c05cfb-067f-4510-8cef-283089ad2f2b","ios":"levelo://app?vid=57c05cfb-067f-4510-8cef-283089ad2f2b"},"vehicle_type_id":"4","last_reported":1762863730,"current_range_meters":13600,"station_id":"ce4bhm92rcd13ifvqglg","pricing_plan_id":"cebpf4jnsgd1na2vs0mg"},{"bike_id":"442b800c-7498-409b-971f-3001eff0cec5","system_id":"levelo_inurba_marseille","lat":43.28689,"lon":5.38685,"is_reserved":false,"is_disabled":false,"rental_uris":{"android":"levelo://app?vid=442b800c-7498-409b-971f-3001eff0cec5","ios":"levelo://app?vid=442b800c-7498-409b-971f-3001eff0cec5"},"vehicle_type_id":"4","last_reported":1762863730,"current_range_meters":13600,"station_id":"ce4bh492rcd13ifvqdug","pricing_plan_id":"cebpf4jnsgd1na2vs0mg"},{"bike_id":"bbb4164a-4b95-4378-bcdb-f96c79d804df","system_id":"levelo_inurba_marseille","lat":43.22533,"lon":5.34829,"is_reserved":false,"is_disabled":false,"rental_uris":{"android":"levelo://app?vid=bbb4164a-4b95-4378-bcdb-f96c79d804df","ios":"levelo://app?vid=bbb4164a-4b95-4378-bcdb-f96c79d804df"},"vehicle_type_id":"4","last_reported":1762863730,"current_range_meters":13600,"station_id":"","pricing_plan_id":"cebpf4jnsgd1na2vs0mg"},{"bike_id":"f4812a4d-5c29-40a3-9a66-f4893f9ff62f","system_id":"levelo_inurba_marseille","lat":43.26502,"lon":5.39532,"is_reserved":false,"is_disabled":false,"rental_uris":{"android":"levelo://app?vid=f4812a4d-5c29-40a3-9a66-f4893f9ff62f","ios":"levelo://app?vid=f4812a4d-5c29-40a3-9a66-f4893f9ff62f"},"vehicle_type_id":"4","last_reported":1762863730,"current_range_meters":13600,"station_id":"ce4bhi12rcd13ifvqfq0","pricing_plan_id":"cebpf4jnsgd1na2vs0mg"},{"bike_id":"2c288f22-f47e-4fb3-a06a-8474839b9241","system_id":"levelo_inurba_marseille","lat":43.29286,"lon":5.37462,"is_reserved":false,"is_disabled":false,"rental_uris":{"android":"levelo://app?vid=2c288f22-f47e-4fb3-a06a-8474839b9241","ios":"levelo://app?vid=2c288f22-f47e-4fb3-a06a-8474839b9241"},"vehicle_type_id":"4","last_reported":1762863730,"current_range_meters":14000,"station_id":"ce4bgi12rcd13ifvqb70","pricing_plan_id":"cebpf4jnsgd1na2vs0mg"},{"bike_id":"42bd7eaa-a853-4b82-9d84-352dbc011c2d","system_id":"levelo_inurba_marseille","lat":43.2119,"lon":5.35065,"is_reserved":false,"is_disabled":false,"rental_uris":{"android":"levelo://app?vid=42bd7eaa-a853-4b82-9d84-352dbc011c2d","ios":"levelo://app?vid=42bd7eaa-a853-4b82-9d84-352dbc011c2d"},"vehicle_type_id":"4","last_reported":1762863730,"current_range_meters":14000,"station_id":"st_cvj6sg6p6f1abm77japg","pricing_plan_id":"cebpf4jnsgd1na2vs0mg"},{"bike_id":"a8c3a637-a44c-4237-94c1-130901f8ddbf","system_id":"levelo_inurba_marseille","lat":43.324982,"lon":5.36657,"is_reserved":false,"is_disabled":false,"rental_uris":{"android":"levelo://app?vid=a8c3a637-a44c-4237-94c1-130901f8ddbf","ios":"levelo://app?vid=a8c3a637-a44c-4237-94c1-130901f8ddbf"},"vehicle_type_id":"4","last_reported":1762863730,"current_range_meters":14000,"station_id":"ce4bhs12rcd13ifvqhvg","pricing_plan_id":"cebpf4jnsgd1na2vs0mg"},{"bike_id":"dc9399a6-68ac-4bce-a28c-89dbbb7d0681","system_id":"levelo_inurba_marseille","lat":43.287811,"lon":5.408166,"is_reserved":false,"is_disabled":true,"rental_uris":{"android":"levelo://app?vid=dc9399a6-68ac-4bce-a28c-89dbbb7d0681","ios":"levelo://app?vid=dc9399a6-68ac-4bce-a28c-89dbbb7d0681"},"vehicle_type_id":"4","last_reported":1762863730,"current_range_meters":14000,"station_id":"","pricing_plan_id":"cebpf4jnsgd1na2vs0mg"},{"bike_id":"8d2b0e01-2305-414b-8efe-9c7f34161e31","system_id":"levelo_inurba_marseille","lat":43.21188,"lon":5.35079,"is_reserved":false,"is_disabled":false,"rental_uris":{"android":"levelo://app?vid=8d2b0e01-2305-414b-8efe-9c7f34161e31","ios":"levelo://app?vid=8d2b0e01-2305-414b-8efe-9c7f34161e31"},"vehicle_type_id":"4","last_reported":1762863730,"current_range_meters":14400,"station_id":"st_cvj6sg6p6f1abm77japg","pricing_plan_id":"cebpf4jnsgd1na2vs0mg"},{"bike_id":"2a4a2bfb-88e8-458b-958e-784844578a23","system_id":"levelo_inurba_marseille","lat":43.28525,"lon":5.44108,"is_reserved":false,"is_disabled":false,"rental_uris":{"android":"levelo://app?vid=2a4a2bfb-88e8-458b-958e-784844578a23","ios":"levelo://app?vid=2a4a2bfb-88e8-458b-958e-784844578a23"},"vehicle_type_id":"4","last_reported":1762863730,"current_range_meters":14400,"station_id":"st_d3j3df2ikq2c7380ej80","pricing_plan_id":"cebpf4jnsgd1na2vs0mg"},{"bike_id":"1792f246-d4d6-4d50-9ab7-b791d7b5490e","system_id":"levelo_inurba_marseille","lat":43.28615,"lon":5.37058,"is_reserved":false,"is_disabled":false,"rental_uris":{"android":"levelo://app?vid=1792f246-d4d6-4d50-9ab7-b791d7b5490e","ios":"levelo://app?vid=1792f246-d4d6-4d50-9ab7-b791d7b5490e"},"vehicle_type_id":"4","last_reported":1762863730,"current_range_meters":14400,"station_id":"ce4bht12rcd13ifvqi60","pricing_plan_id":"cebpf4jnsgd1na2vs0mg"},{"bike_id":"f17c6ca9-8e72-4d7f-b2d5-3c8ad3f03a4e","system_id":"levelo_inurba_marseille","lat":43.28035,"lon":5.3695,"is_reserved":false,"is_disabled":false,"rental_uris":{"android":"levelo://app?vid=f17c6ca9-8e72-4d7f-b2d5-3c8ad3f03a4e","ios":"levelo://app?vid=f17c6ca9-8e72-4d7f-b2d5-3c8ad3f03a4e"},"vehicle_type_id":"4","last_reported":1762863730,"current_range_meters":14400,"station_id":"ce4bha12rcd13ifvqef0","pricing_plan_id":"cebpf4jnsgd1na2vs0mg"},{"bike_id":"ac571466-1dc3-4aea-b277-4afec8514b82","system_id":"levelo_inurba_marseille","lat":43.2794,"lon":5.410357,"is_reserved":false,"is_disabled":false,"rental_uris":{"android":"levelo://app?vid=ac571466-1dc3-4aea-b277-4afec8514b82","ios":"levelo://app?vid=ac571466-1dc3-4aea-b277-4afec8514b82"},"vehicle_type_id":"4","last_reported":1762863730,"current_range_meters":14400,"station_id":"ce4bhnp2rcd13ifvqh0g","pricing_plan_id":"cebpf4jnsgd1na2vs0mg"},{"bike_id":"681ec287-cd05-42b9-842e-8c5f41909996","system_id":"levelo_inurba_marseille","lat":43.29292,"lon":5.37441,"is_reserved":false,"is_disabled":false,"rental_uris":{"android":"levelo://app?vid=681ec287-cd05-42b9-842e-8c5f41909996","ios":"levelo://app?vid=681ec287-cd05-42b9-842e-8c5f41909996"},"vehicle_type_id":"4","last_reported":1762863730,"current_range_meters":14400,"station_id":"ce4bgi12rcd13ifvqb70","pricing_plan_id":"cebpf4jnsgd1na2vs0mg"},{"bike_id":"4f63f233-0281-4362-afce-e2880e414cca","system_id":"levelo_inurba_marseille","lat":43.23963,"lon":5.36621,"is_reserved":false,"is_disabled":false,"rental_uris":{"android":"levelo://app?vid=4f63f233-0281-4362-afce-e2880e414cca","ios":"levelo://app?vid=4f63f233-0281-4362-afce-e2880e414cca"},"vehicle_type_id":"4","last_reported":1762863730,"current_range_meters":14400,"station_id":"ce4bhi12rcd13ifvqfp0","pricing_plan_id":"cebpf4jnsgd1na2vs0mg"},{"bike_id":"5d79d3d2-8302-4150-97d5-df980714ace1","system_id":"levelo_inurba_marseille","lat":43.23195,"lon":5.35553,"is_reserved":false,"is_disabled":false,"rental_uris":{"android":"levelo://app?vid=5d79d3d2-8302-4150-97d5-df980714ace1","ios":"levelo://app?vid=5d79d3d2-8302-4150-97d5-df980714ace1"},"vehicle_type_id":"4","last_reported":1762863730,"current_range_meters":14800,"station_id":"ce4bhu92rcd13ifvqi70","pricing_plan_id":"cebpf4jnsgd1na2vs0mg"},{"bike_id":"3f64d4a4-f894-4713-80e1-41b9b37c6599","system_id":"levelo_inurba_marseille","lat":43.23181,"lon":5.39984,"is_reserved":false,"is_disabled":false,"rental_uris":{"android":"levelo://app?vid=3f64d4a4-f894-4713-80e1-41b9b37c6599","ios":"levelo://app?vid=3f64d4a4-f894-4713-80e1-41b9b37c6599"},"vehicle_type_id":"4","last_reported":1762863730,"current_range_meters":14800,"station_id":"ce4bhn12rcd13ifvqgqg","pricing_plan_id":"cebpf4jnsgd1na2vs0mg"},{"bike_id":"cf4395de-1858-4935-987f-3c2c16c383c8","system_id":"levelo_inurba_marseille","lat":43.28268,"lon":5.35062,"is_reserved":false,"is_disabled":false,"rental_uris":{"android":"levelo://app?vid=cf4395de-1858-4935-987f-3c2c16c383c8","ios":"levelo://app?vid=cf4395de-1858-4935-987f-3c2c16c383c8"},"vehicle_type_id":"4","last_reported":1762863730,"current_range_meters":14800,"station_id":"ce4bhbp2rcd13ifvqerg","pricing_plan_id":"cebpf4jnsgd1na2vs0mg"},{"bike_id":"1152c84a-a055-4f29-9b92-843214c87d0f","system_id":"levelo_inurba_marseille","lat":43.22549,"lon":5.41645,"is_reserved":false,"is_disabled":false,"rental_uris":{"android":"levelo://app?vid=1152c84a-a055-4f29-9b92-843214c87d0f","ios":"levelo://app?vid=1152c84a-a055-4f29-9b92-843214c87d0f"},"vehicle_type_id":"4","last_reported":1762863730,"current_range_meters":14800,"station_id":"st_d2o4gvlbi1j2169b742g","pricing_plan_id":"cebpf4jnsgd1na2vs0mg"},{"bike_id":"21b3123e-f92d-44de-9dd8-7035f5f631dc","system_id":"levelo_inurba_marseille","lat":43.2256,"lon":5.41631,"is_reserved":false,"is_disabled":false,"rental_uris":{"android":"levelo://app?vid=21b3123e-f92d-44de-9dd8-7035f5f631dc","ios":"levelo://app?vid=21b3123e-f92d-44de-9dd8-7035f5f631dc"},"vehicle_type_id":"4","last_reported":1762863730,"current_range_meters":14800,"station_id":"st_d2o4gvlbi1j2169b742g","pricing_plan_id":"cebpf4jnsgd1na2vs0mg"},{"bike_id":"ca7cd9bc-08a1-49bb-b705-30393d1c4082","system_id":"levelo_inurba_marseille","lat":43.29784,"lon":5.37103,"is_reserved":false,"is_disabled":true,"rental_uris":{"android":"levelo://app?vid=ca7cd9bc-08a1-49bb-b705-30393d1c4082","ios":"levelo://app?vid=ca7cd9bc-08a1-49bb-b705-30393d1c4082"},"vehicle_type_id":"4","last_reported":1762863730,"current_range_meters":14800,"station_id":"ce4bgop2rcd13ifvqc1g","pricing_plan_id":"cebpf4jnsgd1na2vs0mg"},{"bike_id":"7355bc60-d273-45eb-9af9-5d150a3797ba","system_id":"levelo_inurba_marseille","lat":43.25586,"lon":5.38233,"is_reserved":false,"is_disabled":false,"rental_uris":{"android":"levelo://app?vid=7355bc60-d273-45eb-9af9-5d150a3797ba","ios":"levelo://app?vid=7355bc60-d273-45eb-9af9-5d150a3797ba"},"vehicle_type_id":"4","last_reported":1762863730,"current_range_meters":14800,"station_id":"ce4bhih2rcd13ifvqfs0","pricing_plan_id":"cebpf4jnsgd1na2vs0mg"},{"bike_id":"ebe6be58-f4e1-43a4-918a-89cf0638ec6b","system_id":"levelo_inurba_marseille","lat":43.28593,"lon":5.35121,"is_reserved":false,"is_disabled":false,"rental_uris":{"android":"levelo://app?vid=ebe6be58-f4e1-43a4-918a-89cf0638ec6b","ios":"levelo://app?vid=ebe6be58-f4e1-43a4-918a-89cf0638ec6b"},"vehicle_type_id":"4","last_reported":1762863730,"current_range_meters":14800,"station_id":"ce4bhch2rcd13ifvqeug","pricing_plan_id":"cebpf4jnsgd1na2vs0mg"},{"bike_id":"d0bd55f8-b06d-47de-a1fc-7cad9b15512f","system_id":"levelo_inurba_marseille","lat":43.230616,"lon":5.354897,"is_reserved":false,"is_disabled":false,"rental_uris":{"android":"levelo://app?vid=d0bd55f8-b06d-47de-a1fc-7cad9b15512f","ios":"levelo://app?vid=d0bd55f8-b06d-47de-a1fc-7cad9b15512f"},"vehicle_type_id":"4","last_reported":1762863730,"current_range_meters":15200,"station_id":"cpo3342slgdg3j2ifvpg","pricing_plan_id":"cebpf4jnsgd1na2vs0mg"},{"bike_id":"a9950223-0fd5-4ca0-a865-e71817980350","system_id":"levelo_inurba_marseille","lat":43.30917,"lon":5.4016,"is_reserved":false,"is_disabled":false,"rental_uris":{"android":"levelo://app?vid=a9950223-0fd5-4ca0-a865-e71817980350","ios":"levelo://app?vid=a9950223-0fd5-4ca0-a865-e71817980350"},"vehicle_type_id":"4","last_reported":1762863730,"current_range_meters":15200,"station_id":"ce4bgvp2rcd13ifvqct0","pricing_plan_id":"cebpf4jnsgd1na2vs0mg"},{"bike_id":"ac029cc9-31d4-4bcc-b083-2d229e9f9161","system_id":"levelo_inurba_marseille","lat":43.22941,"lon":5.35385,"is_reserved":false,"is_disabled":false,"rental_uris":{"android":"levelo://app?vid=ac029cc9-31d4-4bcc-b083-2d229e9f9161","ios":"levelo://app?vid=ac029cc9-31d4-4bcc-b083-2d229e9f9161"},"vehicle_type_id":"4","last_reported":1762863730,"current_range_meters":15200,"station_id":"cpo3532slgdg3j2ikp40","pricing_plan_id":"cebpf4jnsgd1na2vs0mg"},{"bike_id":"dc702984-50fc-4caf-ba8f-0725e8815c34","system_id":"levelo_inurba_marseille","lat":43.29579,"lon":5.36746,"is_reserved":false,"is_disabled":true,"rental_uris":{"android":"levelo://app?vid=dc702984-50fc-4caf-ba8f-0725e8815c34","ios":"levelo://app?vid=dc702984-50fc-4caf-ba8f-0725e8815c34"},"vehicle_type_id":"4","last_reported":1762863730,"current_range_meters":15200,"station_id":"ce4bgph2rcd13ifvqc2g","pricing_plan_id":"cebpf4jnsgd1na2vs0mg"},{"bike_id":"b42fa335-ddd0-4a7d-803a-3501f9190f0f","system_id":"levelo_inurba_marseille","lat":43.30276,"lon":5.37702,"is_reserved":false,"is_disabled":false,"rental_uris":{"android":"levelo://app?vid=b42fa335-ddd0-4a7d-803a-3501f9190f0f","ios":"levelo://app?vid=b42fa335-ddd0-4a7d-803a-3501f9190f0f"},"vehicle_type_id":"4","last_reported":1762863730,"current_range_meters":16000,"station_id":"ce4bguh2rcd13ifvqcj0","pricing_plan_id":"cebpf4jnsgd1na2vs0mg"},{"bike_id":"68a24acd-a9fb-4a3b-9fa4-84e3eef81ada","system_id":"levelo_inurba_marseille","lat":43.2895,"lon":5.36633,"is_reserved":false,"is_disabled":false,"rental_uris":{"android":"levelo://app?vid=68a24acd-a9fb-4a3b-9fa4-84e3eef81ada","ios":"levelo://app?vid=68a24acd-a9fb-4a3b-9fa4-84e3eef81ada"},"vehicle_type_id":"4","last_reported":1762863730,"current_range_meters":16000,"station_id":"ce4bhap2rcd13ifvqek0","pricing_plan_id":"cebpf4jnsgd1na2vs0mg"},{"bike_id":"84aade2c-4b39-4bce-814f-cfa3d6ed46f7","system_id":"levelo_inurba_marseille","lat":43.28476,"lon":5.48393,"is_reserved":false,"is_disabled":false,"rental_uris":{"android":"levelo://app?vid=84aade2c-4b39-4bce-814f-cfa3d6ed46f7","ios":"levelo://app?vid=84aade2c-4b39-4bce-814f-cfa3d6ed46f7"},"vehicle_type_id":"4","last_reported":1762863730,"current_range_meters":16000,"station_id":"st_d3svhcjqgbts73a3dn0g","pricing_plan_id":"cebpf4jnsgd1na2vs0mg"},{"bike_id":"28e36cd3-4665-4002-a55e-04a45eaa3992","system_id":"levelo_inurba_marseille","lat":43.33166,"lon":5.37691,"is_reserved":false,"is_disabled":false,"rental_uris":{"android":"levelo://app?vid=28e36cd3-4665-4002-a55e-04a45eaa3992","ios":"levelo://app?vid=28e36cd3-4665-4002-a55e-04a45eaa3992"},"vehicle_type_id":"4","last_reported":1762863730,"current_range_meters":16000,"station_id":"st_d46cu089ee8s73dldbu0","pricing_plan_id":"cebpf4jnsgd1na2vs0mg"},{"bike_id":"3675fcb9-4257-4c23-936c-1064c6107c79","system_id":"levelo_inurba_marseille","lat":43.288719,"lon":5.425153,"is_reserved":false,"is_disabled":false,"rental_uris":{"android":"levelo://app?vid=3675fcb9-4257-4c23-936c-1064c6107c79","ios":"levelo://app?vid=3675fcb9-4257-4c23-936c-1064c6107c79"},"vehicle_type_id":"4","last_reported":1762863730,"current_range_meters":16000,"station_id":"st_d3b462108ojc7389ooeg","pricing_plan_id":"cebpf4jnsgd1na2vs0mg"},{"bike_id":"30ed4e2c-b99b-4f97-b2a4-31e2777ac9f4","system_id":"levelo_inurba_marseille","lat":43.292816,"lon":5.368503,"is_reserved":false,"is_disabled":false,"rental_uris":{"android":"levelo://app?vid=30ed4e2c-b99b-4f97-b2a4-31e2777ac9f4","ios":"levelo://app?vid=30ed4e2c-b99b-4f97-b2a4-31e2777ac9f4"},"vehicle_type_id":"4","last_reported":1762863730,"current_range_meters":16400,"station_id":"ce4bhbp2rcd13ifvqesg","pricing_plan_id":"cebpf4jnsgd1na2vs0mg"},{"bike_id":"0dd353a7-bc6e-40d0-8c6c-e9b68a4c0b58","system_id":"levelo_inurba_marseille","lat":43.308866,"lon":5.371967,"is_reserved":false,"is_disabled":false,"rental_uris":{"android":"levelo://app?vid=0dd353a7-bc6e-40d0-8c6c-e9b68a4c0b58","ios":"levelo://app?vid=0dd353a7-bc6e-40d0-8c6c-e9b68a4c0b58"},"vehicle_type_id":"4","last_reported":1762863730,"current_range_meters":16400,"station_id":"ce4bguh2rcd13ifvqckg","pricing_plan_id":"cebpf4jnsgd1na2vs0mg"},{"bike_id":"d8f860d9-50b7-4c7b-bbff-d95804ddc0e3","system_id":"levelo_inurba_marseille","lat":43.326586,"lon":5.409886,"is_reserved":false,"is_disabled":false,"rental_uris":{"android":"levelo://app?vid=d8f860d9-50b7-4c7b-bbff-d95804ddc0e3","ios":"levelo://app?vid=d8f860d9-50b7-4c7b-bbff-d95804ddc0e3"},"vehicle_type_id":"4","last_reported":1762863730,"current_range_meters":16400,"station_id":"ce4bhpp2rcd13ifvqhgg","pricing_plan_id":"cebpf4jnsgd1na2vs0mg"},{"bike_id":"f9f26bb9-d7ae-4d7e-a59d-9e1313cfca41","system_id":"levelo_inurba_marseille","lat":43.29291,"lon":5.37439,"is_reserved":false,"is_disabled":false,"rental_uris":{"android":"levelo://app?vid=f9f26bb9-d7ae-4d7e-a59d-9e1313cfca41","ios":"levelo://app?vid=f9f26bb9-d7ae-4d7e-a59d-9e1313cfca41"},"vehicle_type_id":"4","last_reported":1762863730,"current_range_meters":16400,"station_id":"ce4bgi12rcd13ifvqb70","pricing_plan_id":"cebpf4jnsgd1na2vs0mg"},{"bike_id":"c47023ab-2905-4a00-af93-ffd0b768cdc9","system_id":"levelo_inurba_marseille","lat":43.288666,"lon":5.425202,"is_reserved":false,"is_disabled":false,"rental_uris":{"android":"levelo://app?vid=c47023ab-2905-4a00-af93-ffd0b768cdc9","ios":"levelo://app?vid=c47023ab-2905-4a00-af93-ffd0b768cdc9"},"vehicle_type_id":"4","last_reported":1762863730,"current_range_meters":16400,"station_id":"st_d3b462108ojc7389ooeg","pricing_plan_id":"cebpf4jnsgd1na2vs0mg"},{"bike_id":"b4e874b9-bbb4-4b53-951c-41ac1439d23b","system_id":"levelo_inurba_marseille","lat":43.30525,"lon":5.36526,"is_reserved":false,"is_disabled":false,"rental_uris":{"android":"levelo://app?vid=b4e874b9-bbb4-4b53-951c-41ac1439d23b","ios":"levelo://app?vid=b4e874b9-bbb4-4b53-951c-41ac1439d23b"},"vehicle_type_id":"4","last_reported":1762863730,"current_range_meters":16400,"station_id":"ce4bgs12rcd13ifvqcag","pricing_plan_id":"cebpf4jnsgd1na2vs0mg"},{"bike_id":"19e5adf4-e7c4-4857-9f51-455df04b903b","system_id":"levelo_inurba_marseille","lat":43.254987,"lon":5.376495,"is_reserved":false,"is_disabled":false,"rental_uris":{"android":"levelo://app?vid=19e5adf4-e7c4-4857-9f51-455df04b903b","ios":"levelo://app?vid=19e5adf4-e7c4-4857-9f51-455df04b903b"},"vehicle_type_id":"4","last_reported":1762863730,"current_range_meters":16400,"station_id":"ce4bhh12rcd13ifvqff0","pricing_plan_id":"cebpf4jnsgd1na2vs0mg"},{"bike_id":"10832612-bd6d-4d64-947f-699f60d0c3eb","system_id":"levelo_inurba_marseille","lat":43.297665,"lon":5.388979,"is_reserved":false,"is_disabled":false,"rental_uris":{"android":"levelo://app?vid=10832612-bd6d-4d64-947f-699f60d0c3eb","ios":"levelo://app?vid=10832612-bd6d-4d64-947f-699f60d0c3eb"},"vehicle_type_id":"4","last_reported":1762863730,"current_range_meters":16400,"station_id":"","pricing_plan_id":"cebpf4jnsgd1na2vs0mg"},{"bike_id":"71c08fab-e226-4412-8a8c-b01591e65a26","system_id":"levelo_inurba_marseille","lat":43.307355,"lon":5.424376,"is_reserved":false,"is_disabled":false,"rental_uris":{"android":"levelo://app?vid=71c08fab-e226-4412-8a8c-b01591e65a26","ios":"levelo://app?vid=71c08fab-e226-4412-8a8c-b01591e65a26"},"vehicle_type_id":"4","last_reported":1762863730,"current_range_meters":16400,"station_id":"st_cvj6ca6bvosntc0bfgr0","pricing_plan_id":"cebpf4jnsgd1na2vs0mg"},{"bike_id":"d055200a-4a70-4394-a7a2-71b9216e8a74","system_id":"levelo_inurba_marseille","lat":43.312853,"lon":5.385031,"is_reserved":false,"is_disabled":false,"rental_uris":{"android":"levelo://app?vid=d055200a-4a70-4394-a7a2-71b9216e8a74","ios":"levelo://app?vid=d055200a-4a70-4394-a7a2-71b9216e8a74"},"vehicle_type_id":"4","last_reported":1762863730,"current_range_meters":16400,"station_id":"ce4bgt92rcd13ifvqcf0","pricing_plan_id":"cebpf4jnsgd1na2vs0mg"},{"bike_id":"d07b902f-e0b8-41cc-b221-714bf2651e15","system_id":"levelo_inurba_marseille","lat":43.288691,"lon":5.425198,"is_reserved":false,"is_disabled":false,"rental_uris":{"android":"levelo://app?vid=d07b902f-e0b8-41cc-b221-714bf2651e15","ios":"levelo://app?vid=d07b902f-e0b8-41cc-b221-714bf2651e15"},"vehicle_type_id":"4","last_reported":1762863730,"current_range_meters":16400,"station_id":"st_d3b462108ojc7389ooeg","pricing_plan_id":"cebpf4jnsgd1na2vs0mg"},{"bike_id":"b54b1144-2bdf-47b5-b321-63082eaf82c0","system_id":"levelo_inurba_marseille","lat":43.29313,"lon":5.37171,"is_reserved":false,"is_disabled":false,"rental_uris":{"android":"levelo://app?vid=b54b1144-2bdf-47b5-b321-63082eaf82c0","ios":"levelo://app?vid=b54b1144-2bdf-47b5-b321-63082eaf82c0"},"vehicle_type_id":"4","last_reported":1762863730,"current_range_meters":16400,"station_id":"ce4bgh92rcd13ifvqb40","pricing_plan_id":"cebpf4jnsgd1na2vs0mg"},{"bike_id":"67f21b4e-7bd4-4f2b-a672-c410c5f88d67","system_id":"levelo_inurba_marseille","lat":43.28523,"lon":5.4412,"is_reserved":false,"is_disabled":false,"rental_uris":{"android":"levelo://app?vid=67f21b4e-7bd4-4f2b-a672-c410c5f88d67","ios":"levelo://app?vid=67f21b4e-7bd4-4f2b-a672-c410c5f88d67"},"vehicle_type_id":"4","last_reported":1762863730,"current_range_meters":16800,"station_id":"st_d3j3df2ikq2c7380ej80","pricing_plan_id":"cebpf4jnsgd1na2vs0mg"},{"bike_id":"958b6545-b7ff-4c8b-967c-ea2338184bf1","system_id":"levelo_inurba_marseille","lat":43.22563,"lon":5.41621,"is_reserved":false,"is_disabled":false,"rental_uris":{"android":"levelo://app?vid=958b6545-b7ff-4c8b-967c-ea2338184bf1","ios":"levelo://app?vid=958b6545-b7ff-4c8b-967c-ea2338184bf1"},"vehicle_type_id":"4","last_reported":1762863730,"current_range_meters":16800,"station_id":"st_d2o4gvlbi1j2169b742g","pricing_plan_id":"cebpf4jnsgd1na2vs0mg"},{"bike_id":"b301b69e-454d-4cf6-be2d-70f65e1b8330","system_id":"levelo_inurba_marseille","lat":43.29075,"lon":5.37159,"is_reserved":false,"is_disabled":true,"rental_uris":{"android":"levelo://app?vid=b301b69e-454d-4cf6-be2d-70f65e1b8330","ios":"levelo://app?vid=b301b69e-454d-4cf6-be2d-70f65e1b8330"},"vehicle_type_id":"4","last_reported":1762863730,"current_range_meters":16800,"station_id":"ce4bh5p2rcd13ifvqe4g","pricing_plan_id":"cebpf4jnsgd1na2vs0mg"},{"bike_id":"f09b69fd-4220-4b51-8365-9a85828617f1","system_id":"levelo_inurba_marseille","lat":43.330268,"lon":5.390397,"is_reserved":false,"is_disabled":false,"rental_uris":{"android":"levelo://app?vid=f09b69fd-4220-4b51-8365-9a85828617f1","ios":"levelo://app?vid=f09b69fd-4220-4b51-8365-9a85828617f1"},"vehicle_type_id":"4","last_reported":1762863730,"current_range_meters":16800,"station_id":"ce4bhr92rcd13ifvqhrg","pricing_plan_id":"cebpf4jnsgd1na2vs0mg"},{"bike_id":"32162483-923a-4e23-8738-bf029245f9f0","system_id":"levelo_inurba_marseille","lat":43.28476,"lon":5.38423,"is_reserved":false,"is_disabled":true,"rental_uris":{"android":"levelo://app?vid=32162483-923a-4e23-8738-bf029245f9f0","ios":"levelo://app?vid=32162483-923a-4e23-8738-bf029245f9f0"},"vehicle_type_id":"4","last_reported":1762863730,"current_range_meters":16800,"station_id":"ce4bh512rcd13ifvqe3g","pricing_plan_id":"cebpf4jnsgd1na2vs0mg"},{"bike_id":"52ce3b10-787d-41da-81ca-bdc9e6f723f2","system_id":"levelo_inurba_marseille","lat":43.282715,"lon":5.350668,"is_reserved":false,"is_disabled":false,"rental_uris":{"android":"levelo://app?vid=52ce3b10-787d-41da-81ca-bdc9e6f723f2","ios":"levelo://app?vid=52ce3b10-787d-41da-81ca-bdc9e6f723f2"},"vehicle_type_id":"4","last_reported":1762863730,"current_range_meters":16800,"station_id":"ce4bhbp2rcd13ifvqerg","pricing_plan_id":"cebpf4jnsgd1na2vs0mg"},{"bike_id":"194ccba3-e27a-47f2-96d1-c65a50ce720e","system_id":"levelo_inurba_marseille","lat":43.21746,"lon":5.34606,"is_reserved":false,"is_disabled":false,"rental_uris":{"android":"levelo://app?vid=194ccba3-e27a-47f2-96d1-c65a50ce720e","ios":"levelo://app?vid=194ccba3-e27a-47f2-96d1-c65a50ce720e"},"vehicle_type_id":"4","last_reported":1762863730,"current_range_meters":16800,"station_id":"st_cvj6r9ubvosntc0bgbag","pricing_plan_id":"cebpf4jnsgd1na2vs0mg"},{"bike_id":"76a1089c-002b-485b-821d-6f7fe8019ffe","system_id":"levelo_inurba_marseille","lat":43.24389,"lon":5.37053,"is_reserved":false,"is_disabled":false,"rental_uris":{"android":"levelo://app?vid=76a1089c-002b-485b-821d-6f7fe8019ffe","ios":"levelo://app?vid=76a1089c-002b-485b-821d-6f7fe8019ffe"},"vehicle_type_id":"4","last_reported":1762863730,"current_range_meters":16800,"station_id":"ce4bhhh2rcd13ifvqfk0","pricing_plan_id":"cebpf4jnsgd1na2vs0mg"},{"bike_id":"f9a603b5-ce3e-4f22-8f6d-b9ebfa9274b2","system_id":"levelo_inurba_marseille","lat":43.29802,"lon":5.38105,"is_reserved":false,"is_disabled":false,"rental_uris":{"android":"levelo://app?vid=f9a603b5-ce3e-4f22-8f6d-b9ebfa9274b2","ios":"levelo://app?vid=f9a603b5-ce3e-4f22-8f6d-b9ebfa9274b2"},"vehicle_type_id":"4","last_reported":1762863730,"current_range_meters":16800,"station_id":"ce4bgip2rcd13ifvqbb0","pricing_plan_id":"cebpf4jnsgd1na2vs0mg"},{"bike_id":"50b661f0-112f-4780-95bd-167a8c61a238","system_id":"levelo_inurba_marseille","lat":43.21194,"lon":5.35081,"is_reserved":false,"is_disabled":true,"rental_uris":{"android":"levelo://app?vid=50b661f0-112f-4780-95bd-167a8c61a238","ios":"levelo://app?vid=50b661f0-112f-4780-95bd-167a8c61a238"},"vehicle_type_id":"4","last_reported":1762863730,"current_range_meters":16800,"station_id":"st_cvj6sg6p6f1abm77japg","pricing_plan_id":"cebpf4jnsgd1na2vs0mg"},{"bike_id":"14c4c79d-54a2-43ff-b01b-d18f58077d1e","system_id":"levelo_inurba_marseille","lat":43.285976,"lon":5.350182,"is_reserved":false,"is_disabled":false,"rental_uris":{"android":"levelo://app?vid=14c4c79d-54a2-43ff-b01b-d18f58077d1e","ios":"levelo://app?vid=14c4c79d-54a2-43ff-b01b-d18f58077d1e"},"vehicle_type_id":"4","last_reported":1762863730,"current_range_meters":17200,"station_id":"","pricing_plan_id":"cebpf4jnsgd1na2vs0mg"},{"bike_id":"81ecdbad-b116-4371-8f79-e464cd3888a1","system_id":"levelo_inurba_marseille","lat":43.21779,"lon":5.34603,"is_reserved":false,"is_disabled":false,"rental_uris":{"android":"levelo://app?vid=81ecdbad-b116-4371-8f79-e464cd3888a1","ios":"levelo://app?vid=81ecdbad-b116-4371-8f79-e464cd3888a1"},"vehicle_type_id":"4","last_reported":1762863730,"current_range_meters":17200,"station_id":"st_cvj6r9ubvosntc0bgbag","pricing_plan_id":"cebpf4jnsgd1na2vs0mg"},{"bike_id":"0d99d113-8953-4587-8656-a8ad5dc8d796","system_id":"levelo_inurba_marseille","lat":43.21187,"lon":5.3508,"is_reserved":false,"is_disabled":false,"rental_uris":{"android":"levelo://app?vid=0d99d113-8953-4587-8656-a8ad5dc8d796","ios":"levelo://app?vid=0d99d113-8953-4587-8656-a8ad5dc8d796"},"vehicle_type_id":"4","last_reported":1762863730,"current_range_meters":17200,"station_id":"st_cvj6sg6p6f1abm77japg","pricing_plan_id":"cebpf4jnsgd1na2vs0mg"},{"bike_id":"e5072903-b867-4d8e-a478-9934ce296bde","system_id":"levelo_inurba_marseille","lat":43.29113,"lon":5.39056,"is_reserved":false,"is_disabled":false,"rental_uris":{"android":"levelo://app?vid=e5072903-b867-4d8e-a478-9934ce296bde","ios":"levelo://app?vid=e5072903-b867-4d8e-a478-9934ce296bde"},"vehicle_type_id":"4","last_reported":1762863730,"current_range_meters":17200,"station_id":"","pricing_plan_id":"cebpf4jnsgd1na2vs0mg"},{"bike_id":"2b337186-5672-4087-8da2-b3ab6d078c9c","system_id":"levelo_inurba_marseille","lat":43.21745,"lon":5.34608,"is_reserved":false,"is_disabled":false,"rental_uris":{"android":"levelo://app?vid=2b337186-5672-4087-8da2-b3ab6d078c9c","ios":"levelo://app?vid=2b337186-5672-4087-8da2-b3ab6d078c9c"},"vehicle_type_id":"4","last_reported":1762863730,"current_range_meters":17200,"station_id":"st_cvj6r9ubvosntc0bgbag","pricing_plan_id":"cebpf4jnsgd1na2vs0mg"},{"bike_id":"b74e9fc1-55cc-47af-96f5-a47371755d10","system_id":"levelo_inurba_marseille","lat":43.24162,"lon":5.3973,"is_reserved":false,"is_disabled":false,"rental_uris":{"android":"levelo://app?vid=b74e9fc1-55cc-47af-96f5-a47371755d10","ios":"levelo://app?vid=b74e9fc1-55cc-47af-96f5-a47371755d10"},"vehicle_type_id":"4","last_reported":1762863730,"current_range_meters":17200,"station_id":"ce4bhn12rcd13ifvqgpg","pricing_plan_id":"cebpf4jnsgd1na2vs0mg"},{"bike_id":"93ff4334-3238-4645-aa5b-b66992313456","system_id":"levelo_inurba_marseille","lat":43.21193,"lon":5.35073,"is_reserved":false,"is_disabled":false,"rental_uris":{"android":"levelo://app?vid=93ff4334-3238-4645-aa5b-b66992313456","ios":"levelo://app?vid=93ff4334-3238-4645-aa5b-b66992313456"},"vehicle_type_id":"4","last_reported":1762863730,"current_range_meters":17200,"station_id":"st_cvj6sg6p6f1abm77japg","pricing_plan_id":"cebpf4jnsgd1na2vs0mg"},{"bike_id":"7044058a-0054-455f-a3b2-0773c2b1008e","system_id":"levelo_inurba_marseille","lat":43.295734,"lon":5.375227,"is_reserved":false,"is_disabled":false,"rental_uris":{"android":"levelo://app?vid=7044058a-0054-455f-a3b2-0773c2b1008e","ios":"levelo://app?vid=7044058a-0054-455f-a3b2-0773c2b1008e"},"vehicle_type_id":"4","last_reported":1762863730,"current_range_meters":17200,"station_id":"","pricing_plan_id":"cebpf4jnsgd1na2vs0mg"},{"bike_id":"138acbc8-a44a-45ec-9d4e-f41258a8778e","system_id":"levelo_inurba_marseille","lat":43.29837,"lon":5.44061,"is_reserved":false,"is_disabled":false,"rental_uris":{"android":"levelo://app?vid=138acbc8-a44a-45ec-9d4e-f41258a8778e","ios":"levelo://app?vid=138acbc8-a44a-45ec-9d4e-f41258a8778e"},"vehicle_type_id":"4","last_reported":1762863730,"current_range_meters":17200,"station_id":"","pricing_plan_id":"cebpf4jnsgd1na2vs0mg"},{"bike_id":"59092e0b-8e2c-49e1-8126-64ad7629b05f","system_id":"levelo_inurba_marseille","lat":43.24289,"lon":5.39242,"is_reserved":false,"is_disabled":false,"rental_uris":{"android":"levelo://app?vid=59092e0b-8e2c-49e1-8126-64ad7629b05f","ios":"levelo://app?vid=59092e0b-8e2c-49e1-8126-64ad7629b05f"},"vehicle_type_id":"4","last_reported":1762863730,"current_range_meters":17600,"station_id":"","pricing_plan_id":"cebpf4jnsgd1na2vs0mg"},{"bike_id":"fd8fe60f-b89f-40fa-8afe-1fb06c83c7ff","system_id":"levelo_inurba_marseille","lat":43.241665,"lon":5.363961,"is_reserved":false,"is_disabled":false,"rental_uris":{"android":"levelo://app?vid=fd8fe60f-b89f-40fa-8afe-1fb06c83c7ff","ios":"levelo://app?vid=fd8fe60f-b89f-40fa-8afe-1fb06c83c7ff"},"vehicle_type_id":"4","last_reported":1762863730,"current_range_meters":17600,"station_id":"cpo36qri1sfpv3e86is0","pricing_plan_id":"cebpf4jnsgd1na2vs0mg"},{"bike_id":"0fe81ef8-eb80-4a3e-94fa-0c7e76b11812","system_id":"levelo_inurba_marseille","lat":43.22557,"lon":5.41629,"is_reserved":false,"is_disabled":false,"rental_uris":{"android":"levelo://app?vid=0fe81ef8-eb80-4a3e-94fa-0c7e76b11812","ios":"levelo://app?vid=0fe81ef8-eb80-4a3e-94fa-0c7e76b11812"},"vehicle_type_id":"4","last_reported":1762863730,"current_range_meters":17600,"station_id":"st_d2o4gvlbi1j2169b742g","pricing_plan_id":"cebpf4jnsgd1na2vs0mg"},{"bike_id":"f29f7b54-5e01-402a-be86-569f17f0de10","system_id":"levelo_inurba_marseille","lat":43.30733,"lon":5.42457,"is_reserved":false,"is_disabled":false,"rental_uris":{"android":"levelo://app?vid=f29f7b54-5e01-402a-be86-569f17f0de10","ios":"levelo://app?vid=f29f7b54-5e01-402a-be86-569f17f0de10"},"vehicle_type_id":"4","last_reported":1762863730,"current_range_meters":17600,"station_id":"st_cvj6ca6bvosntc0bfgr0","pricing_plan_id":"cebpf4jnsgd1na2vs0mg"},{"bike_id":"cae8c237-20be-40a1-ad78-d7eb4e81ebc6","system_id":"levelo_inurba_marseille","lat":43.30375,"lon":5.42487,"is_reserved":false,"is_disabled":false,"rental_uris":{"android":"levelo://app?vid=cae8c237-20be-40a1-ad78-d7eb4e81ebc6","ios":"levelo://app?vid=cae8c237-20be-40a1-ad78-d7eb4e81ebc6"},"vehicle_type_id":"4","last_reported":1762863730,"current_range_meters":17600,"station_id":"ce4bhoh2rcd13ifvqh6g","pricing_plan_id":"cebpf4jnsgd1na2vs0mg"},{"bike_id":"0d90a8c5-fed6-490b-86a5-570c18f369ba","system_id":"levelo_inurba_marseille","lat":43.21184,"lon":5.35087,"is_reserved":false,"is_disabled":false,"rental_uris":{"android":"levelo://app?vid=0d90a8c5-fed6-490b-86a5-570c18f369ba","ios":"levelo://app?vid=0d90a8c5-fed6-490b-86a5-570c18f369ba"},"vehicle_type_id":"4","last_reported":1762863730,"current_range_meters":17600,"station_id":"st_cvj6sg6p6f1abm77japg","pricing_plan_id":"cebpf4jnsgd1na2vs0mg"},{"bike_id":"a58ba703-1197-4e2a-905a-28f45ecaa265","system_id":"levelo_inurba_marseille","lat":43.21748,"lon":5.346024,"is_reserved":false,"is_disabled":false,"rental_uris":{"android":"levelo://app?vid=a58ba703-1197-4e2a-905a-28f45ecaa265","ios":"levelo://app?vid=a58ba703-1197-4e2a-905a-28f45ecaa265"},"vehicle_type_id":"4","last_reported":1762863730,"current_range_meters":17600,"station_id":"st_cvj6r9ubvosntc0bgbag","pricing_plan_id":"cebpf4jnsgd1na2vs0mg"},{"bike_id":"2c53d192-a331-4753-803e-826d4161d29c","system_id":"levelo_inurba_marseille","lat":43.217522,"lon":5.346022,"is_reserved":false,"is_disabled":false,"rental_uris":{"android":"levelo://app?vid=2c53d192-a331-4753-803e-826d4161d29c","ios":"levelo://app?vid=2c53d192-a331-4753-803e-826d4161d29c"},"vehicle_type_id":"4","last_reported":1762863730,"current_range_meters":17600,"station_id":"st_cvj6r9ubvosntc0bgbag","pricing_plan_id":"cebpf4jnsgd1na2vs0mg"},{"bike_id":"8eb5bd1a-a2a2-4b8a-b727-241a5e891360","system_id":"levelo_inurba_marseille","lat":43.28262,"lon":5.35068,"is_reserved":false,"is_disabled":false,"rental_uris":{"android":"levelo://app?vid=8eb5bd1a-a2a2-4b8a-b727-241a5e891360","ios":"levelo://app?vid=8eb5bd1a-a2a2-4b8a-b727-241a5e891360"},"vehicle_type_id":"4","last_reported":1762863730,"current_range_meters":17600,"station_id":"ce4bhbp2rcd13ifvqerg","pricing_plan_id":"cebpf4jnsgd1na2vs0mg"},{"bike_id":"e26730d9-d775-470c-bdea-e378dba7cda5","system_id":"levelo_inurba_marseille","lat":43.27366,"lon":5.36269,"is_reserved":false,"is_disabled":false,"rental_uris":{"android":"levelo://app?vid=e26730d9-d775-470c-bdea-e378dba7cda5","ios":"levelo://app?vid=e26730d9-d775-470c-bdea-e378dba7cda5"},"vehicle_type_id":"4","last_reported":1762863730,"current_range_meters":17600,"station_id":"ce4bhbh2rcd13ifvqeo0","pricing_plan_id":"cebpf4jnsgd1na2vs0mg"},{"bike_id":"c0f341b8-4ffd-42e9-a749-512db46f9b04","system_id":"levelo_inurba_marseille","lat":43.21182,"lon":5.3509,"is_reserved":false,"is_disabled":false,"rental_uris":{"android":"levelo://app?vid=c0f341b8-4ffd-42e9-a749-512db46f9b04","ios":"levelo://app?vid=c0f341b8-4ffd-42e9-a749-512db46f9b04"},"vehicle_type_id":"4","last_reported":1762863730,"current_range_meters":18000,"station_id":"st_cvj6sg6p6f1abm77japg","pricing_plan_id":"cebpf4jnsgd1na2vs0mg"},{"bike_id":"42adfb6c-448c-4675-b611-a025c9b6490d","system_id":"levelo_inurba_marseille","lat":43.2551,"lon":5.37656,"is_reserved":false,"is_disabled":false,"rental_uris":{"android":"levelo://app?vid=42adfb6c-448c-4675-b611-a025c9b6490d","ios":"levelo://app?vid=42adfb6c-448c-4675-b611-a025c9b6490d"},"vehicle_type_id":"4","last_reported":1762863730,"current_range_meters":18000,"station_id":"ce4bhh12rcd13ifvqff0","pricing_plan_id":"cebpf4jnsgd1na2vs0mg"},{"bike_id":"a8e66c3b-911c-499e-96a5-636e3021acc7","system_id":"levelo_inurba_marseille","lat":43.246323,"lon":5.431492,"is_reserved":false,"is_disabled":false,"rental_uris":{"android":"levelo://app?vid=a8e66c3b-911c-499e-96a5-636e3021acc7","ios":"levelo://app?vid=a8e66c3b-911c-499e-96a5-636e3021acc7"},"vehicle_type_id":"4","last_reported":1762863730,"current_range_meters":18000,"station_id":"st_d2m6c4gdas8pm72e190g","pricing_plan_id":"cebpf4jnsgd1na2vs0mg"},{"bike_id":"d9fcfbfe-a19f-455b-a2a3-83a811b0da61","system_id":"levelo_inurba_marseille","lat":43.29302,"lon":5.37454,"is_reserved":false,"is_disabled":false,"rental_uris":{"android":"levelo://app?vid=d9fcfbfe-a19f-455b-a2a3-83a811b0da61","ios":"levelo://app?vid=d9fcfbfe-a19f-455b-a2a3-83a811b0da61"},"vehicle_type_id":"4","last_reported":1762863730,"current_range_meters":18000,"station_id":"ce4bgi12rcd13ifvqb70","pricing_plan_id":"cebpf4jnsgd1na2vs0mg"},{"bike_id":"5804ac99-3bd4-4091-bff1-7487e9285e0c","system_id":"levelo_inurba_marseille","lat":43.291895,"lon":5.375791,"is_reserved":false,"is_disabled":false,"rental_uris":{"android":"levelo://app?vid=5804ac99-3bd4-4091-bff1-7487e9285e0c","ios":"levelo://app?vid=5804ac99-3bd4-4091-bff1-7487e9285e0c"},"vehicle_type_id":"4","last_reported":1762863730,"current_range_meters":18000,"station_id":"","pricing_plan_id":"cebpf4jnsgd1na2vs0mg"},{"bike_id":"8b027115-1a9e-4312-923f-dbf5aec10ee4","system_id":"levelo_inurba_marseille","lat":43.30236,"lon":5.36505,"is_reserved":false,"is_disabled":false,"rental_uris":{"android":"levelo://app?vid=8b027115-1a9e-4312-923f-dbf5aec10ee4","ios":"levelo://app?vid=8b027115-1a9e-4312-923f-dbf5aec10ee4"},"vehicle_type_id":"4","last_reported":1762863730,"current_range_meters":18000,"station_id":"","pricing_plan_id":"cebpf4jnsgd1na2vs0mg"},{"bike_id":"b27e2e9b-f5bf-4043-b1f4-adfb5c984260","system_id":"levelo_inurba_marseille","lat":43.21752,"lon":5.34604,"is_reserved":false,"is_disabled":false,"rental_uris":{"android":"levelo://app?vid=b27e2e9b-f5bf-4043-b1f4-adfb5c984260","ios":"levelo://app?vid=b27e2e9b-f5bf-4043-b1f4-adfb5c984260"},"vehicle_type_id":"4","last_reported":1762863730,"current_range_meters":18000,"station_id":"st_cvj6r9ubvosntc0bgbag","pricing_plan_id":"cebpf4jnsgd1na2vs0mg"},{"bike_id":"ae1e442c-2e49-4ab3-a9e4-a2b32e3699e7","system_id":"levelo_inurba_marseille","lat":43.286117,"lon":5.370672,"is_reserved":false,"is_disabled":false,"rental_uris":{"android":"levelo://app?vid=ae1e442c-2e49-4ab3-a9e4-a2b32e3699e7","ios":"levelo://app?vid=ae1e442c-2e49-4ab3-a9e4-a2b32e3699e7"},"vehicle_type_id":"4","last_reported":1762863730,"current_range_meters":18000,"station_id":"ce4bht12rcd13ifvqi60","pricing_plan_id":"cebpf4jnsgd1na2vs0mg"},{"bike_id":"24576411-bddd-4c30-838b-560561a34033","system_id":"levelo_inurba_marseille","lat":43.27814,"lon":5.4071,"is_reserved":false,"is_disabled":false,"rental_uris":{"android":"levelo://app?vid=24576411-bddd-4c30-838b-560561a34033","ios":"levelo://app?vid=24576411-bddd-4c30-838b-560561a34033"},"vehicle_type_id":"4","last_reported":1762863730,"current_range_meters":18000,"station_id":"ce4bhnh2rcd13ifvqgtg","pricing_plan_id":"cebpf4jnsgd1na2vs0mg"},{"bike_id":"e95c7a5e-2ca6-4704-beef-c914118730ac","system_id":"levelo_inurba_marseille","lat":43.23391,"lon":5.41238,"is_reserved":false,"is_disabled":false,"rental_uris":{"android":"levelo://app?vid=e95c7a5e-2ca6-4704-beef-c914118730ac","ios":"levelo://app?vid=e95c7a5e-2ca6-4704-beef-c914118730ac"},"vehicle_type_id":"4","last_reported":1762863730,"current_range_meters":18000,"station_id":"","pricing_plan_id":"cebpf4jnsgd1na2vs0mg"},{"bike_id":"05c75608-a109-42d6-bb0b-b1692272735d","system_id":"levelo_inurba_marseille","lat":43.211903,"lon":5.350764,"is_reserved":false,"is_disabled":false,"rental_uris":{"android":"levelo://app?vid=05c75608-a109-42d6-bb0b-b1692272735d","ios":"levelo://app?vid=05c75608-a109-42d6-bb0b-b1692272735d"},"vehicle_type_id":"4","last_reported":1762863730,"current_range_meters":18800,"station_id":"st_cvj6sg6p6f1abm77japg","pricing_plan_id":"cebpf4jnsgd1na2vs0mg"},{"bike_id":"9ed27a31-e2e7-4113-b8c6-939ac948a25c","system_id":"levelo_inurba_marseille","lat":43.28622,"lon":5.37036,"is_reserved":false,"is_disabled":false,"rental_uris":{"android":"levelo://app?vid=9ed27a31-e2e7-4113-b8c6-939ac948a25c","ios":"levelo://app?vid=9ed27a31-e2e7-4113-b8c6-939ac948a25c"},"vehicle_type_id":"4","last_reported":1762863730,"current_range_meters":18800,"station_id":"ce4bht12rcd13ifvqi60","pricing_plan_id":"cebpf4jnsgd1na2vs0mg"},{"bike_id":"de51947e-fa63-4261-a554-282f4de145d3","system_id":"levelo_inurba_marseille","lat":43.25337,"lon":5.42174,"is_reserved":false,"is_disabled":false,"rental_uris":{"android":"levelo://app?vid=de51947e-fa63-4261-a554-282f4de145d3","ios":"levelo://app?vid=de51947e-fa63-4261-a554-282f4de145d3"},"vehicle_type_id":"4","last_reported":1762863730,"current_range_meters":18800,"station_id":"st_d2m65c5bi1j21697t3ng","pricing_plan_id":"cebpf4jnsgd1na2vs0mg"},{"bike_id":"530c5435-dc57-4588-bace-0b20c07151bb","system_id":"levelo_inurba_marseille","lat":43.2118,"lon":5.35083,"is_reserved":false,"is_disabled":false,"rental_uris":{"android":"levelo://app?vid=530c5435-dc57-4588-bace-0b20c07151bb","ios":"levelo://app?vid=530c5435-dc57-4588-bace-0b20c07151bb"},