{"last_updated":1758316120,"ttl":60,"version":"2.2","data":{"bikes":[{"bike_id":"6a8b12d1-6fce-43b9-9abf-29648b2dfb32","system_id":"levelo_inurba_marseille","lat":43.26574,"lon":5.37281,"is_reserved":false,"is_disabled":true,"rental_uris":{"android":"levelo://app?vid=6a8b12d1-6fce-43b9-9abf-29648b2dfb32","ios":"levelo://app?vid=6a8b12d1-6fce-43b9-9abf-29648b2dfb32"},"vehicle_type_id":"4","last_reported":1758316121,"current_range_meters":2800,"station_id":"ce4bhg12rcd13ifvqf70","pricing_plan_id":"cebpf4jnsgd1na2vs0mg"},{"bike_id":"ae7b8959-af31-45f0-904e-9efb0dff29b0","system_id":"levelo_inurba_marseille","lat":43.31069,"lon":5.38358,"is_reserved":false,"is_disabled":false,"rental_uris":{"android":"levelo://app?vid=ae7b8959-af31-45f0-904e-9efb0dff29b0","ios":"levelo://app?vid=ae7b8959-af31-45f0-904e-9efb0dff29b0"},"vehicle_type_id":"4","last_reported":1758316121,"current_range_meters":2800,"station_id":"ce4bgv92rcd13ifvqcr0","pricing_plan_id":"cebpf4jnsgd1na2vs0mg"},{"bike_id":"8d92177b-cd40-45ed-8f39-94186120c93d","system_id":"levelo_inurba_marseille","lat":43.30886,"lon":5.37184,"is_reserved":false,"is_disabled":false,"rental_uris":{"android":"levelo://app?vid=8d92177b-cd40-45ed-8f39-94186120c93d","ios":"levelo://app?vid=8d92177b-cd40-45ed-8f39-94186120c93d"},"vehicle_type_id":"4","last_reported":1758316121,"current_range_meters":800,"station_id":"ce4bguh2rcd13ifvqckg","pricing_plan_id":"cebpf4jnsgd1na2vs0mg"},{"bike_id":"d4e42fed-b7d1-4743-b033-42e94790e119","system_id":"levelo_inurba_marseille","lat":43.24041,"lon":5.37684,"is_reserved":false,"is_disabled":false,"rental_uris":{"android":"levelo://app?vid=d4e42fed-b7d1-4743-b033-42e94790e119","ios":"levelo://app?vid=d4e42fed-b7d1-4743-b033-42e94790e119"},"vehicle_type_id":"4","last_reported":1758316121,"current_range_meters":3200,"station_id":"","pricing_plan_id":"cebpf4jnsgd1na2vs0mg"},{"bike_id":"0c1c67b6-bf86-4fe2-bb0e-edb7093a3a87","system_id":"levelo_inurba_marseille","lat":43.2655,"lon":5.37288,"is_reserved":false,"is_disabled":false,"rental_uris":{"android":"levelo://app?vid=0c1c67b6-bf86-4fe2-bb0e-edb7093a3a87","ios":"levelo://app?vid=0c1c67b6-bf86-4fe2-bb0e-edb7093a3a87"},"vehicle_type_id":"4","last_reported":1758316121,"current_range_meters":3200,"station_id":"ce4bhg12rcd13ifvqf70","pricing_plan_id":"cebpf4jnsgd1na2vs0mg"},{"bike_id":"7918c8ea-f7f4-4157-b837-0cbefe2a77c9","system_id":"levelo_inurba_marseille","lat":43.2748,"lon":5.42457,"is_reserved":false,"is_disabled":true,"rental_uris":{"android":"levelo://app?vid=7918c8ea-f7f4-4157-b837-0cbefe2a77c9","ios":"levelo://app?vid=7918c8ea-f7f4-4157-b837-0cbefe2a77c9"},"vehicle_type_id":"4","last_reported":1758316121,"current_range_meters":3600,"station_id":"ce4bhn92rcd13ifvqgrg","pricing_plan_id":"cebpf4jnsgd1na2vs0mg"},{"bike_id":"7b51a36e-d3c1-400a-a130-b00f35dc0b10","system_id":"levelo_inurba_marseille","lat":43.225343,"lon":5.348357,"is_reserved":false,"is_disabled":false,"rental_uris":{"android":"levelo://app?vid=7b51a36e-d3c1-400a-a130-b00f35dc0b10","ios":"levelo://app?vid=7b51a36e-d3c1-400a-a130-b00f35dc0b10"},"vehicle_type_id":"4","last_reported":1758316121,"current_range_meters":3600,"station_id":"","pricing_plan_id":"cebpf4jnsgd1na2vs0mg"},{"bike_id":"a5e0b672-9071-4b92-82b7-73c52ba10454","system_id":"levelo_inurba_marseille","lat":43.29525,"lon":5.38544,"is_reserved":false,"is_disabled":false,"rental_uris":{"android":"levelo://app?vid=a5e0b672-9071-4b92-82b7-73c52ba10454","ios":"levelo://app?vid=a5e0b672-9071-4b92-82b7-73c52ba10454"},"vehicle_type_id":"4","last_reported":1758316121,"current_range_meters":3600,"station_id":"ce4bgih2rcd13ifvqba0","pricing_plan_id":"cebpf4jnsgd1na2vs0mg"},{"bike_id":"6fb21590-64b8-42a1-ad08-ac006ba052fd","system_id":"levelo_inurba_marseille","lat":43.24802,"lon":5.37457,"is_reserved":false,"is_disabled":false,"rental_uris":{"android":"levelo://app?vid=6fb21590-64b8-42a1-ad08-ac006ba052fd","ios":"levelo://app?vid=6fb21590-64b8-42a1-ad08-ac006ba052fd"},"vehicle_type_id":"4","last_reported":1758316121,"current_range_meters":4000,"station_id":"ce4bhgh2rcd13ifvqfb0","pricing_plan_id":"cebpf4jnsgd1na2vs0mg"},{"bike_id":"059c0ba7-1dcb-4f29-8d05-6060640937cc","system_id":"levelo_inurba_marseille","lat":43.31052,"lon":5.37471,"is_reserved":false,"is_disabled":true,"rental_uris":{"android":"levelo://app?vid=059c0ba7-1dcb-4f29-8d05-6060640937cc","ios":"levelo://app?vid=059c0ba7-1dcb-4f29-8d05-6060640937cc"},"vehicle_type_id":"4","last_reported":1758316121,"current_range_meters":4000,"station_id":"","pricing_plan_id":"cebpf4jnsgd1na2vs0mg"},{"bike_id":"45afe5f4-5cbe-49c2-a913-33c967100178","system_id":"levelo_inurba_marseille","lat":43.29776,"lon":5.380931,"is_reserved":false,"is_disabled":false,"rental_uris":{"android":"levelo://app?vid=45afe5f4-5cbe-49c2-a913-33c967100178","ios":"levelo://app?vid=45afe5f4-5cbe-49c2-a913-33c967100178"},"vehicle_type_id":"4","last_reported":1758316121,"current_range_meters":4000,"station_id":"","pricing_plan_id":"cebpf4jnsgd1na2vs0mg"},{"bike_id":"ec753155-ece3-46e9-a454-41b891d4be01","system_id":"levelo_inurba_marseille","lat":43.29897,"lon":5.43662,"is_reserved":false,"is_disabled":false,"rental_uris":{"android":"levelo://app?vid=ec753155-ece3-46e9-a454-41b891d4be01","ios":"levelo://app?vid=ec753155-ece3-46e9-a454-41b891d4be01"},"vehicle_type_id":"4","last_reported":1758316121,"current_range_meters":4400,"station_id":"ce4bhpp2rcd13ifvqhfg","pricing_plan_id":"cebpf4jnsgd1na2vs0mg"},{"bike_id":"9963a081-3d47-45c3-9a5f-f912abc0ffc5","system_id":"levelo_inurba_marseille","lat":43.25008,"lon":5.38919,"is_reserved":false,"is_disabled":true,"rental_uris":{"android":"levelo://app?vid=9963a081-3d47-45c3-9a5f-f912abc0ffc5","ios":"levelo://app?vid=9963a081-3d47-45c3-9a5f-f912abc0ffc5"},"vehicle_type_id":"4","last_reported":1758316121,"current_range_meters":4400,"station_id":"ce4bhgp2rcd13ifvqfd0","pricing_plan_id":"cebpf4jnsgd1na2vs0mg"},{"bike_id":"83fa453f-1a16-46b3-b2e1-c725ad9e7bf3","system_id":"levelo_inurba_marseille","lat":43.28828,"lon":5.379091,"is_reserved":false,"is_disabled":false,"rental_uris":{"android":"levelo://app?vid=83fa453f-1a16-46b3-b2e1-c725ad9e7bf3","ios":"levelo://app?vid=83fa453f-1a16-46b3-b2e1-c725ad9e7bf3"},"vehicle_type_id":"4","last_reported":1758316121,"current_range_meters":4800,"station_id":"","pricing_plan_id":"cebpf4jnsgd1na2vs0mg"},{"bike_id":"91d75646-396b-4e35-8c7f-b572fede9fd4","system_id":"levelo_inurba_marseille","lat":43.30815,"lon":5.43519,"is_reserved":false,"is_disabled":false,"rental_uris":{"android":"levelo://app?vid=91d75646-396b-4e35-8c7f-b572fede9fd4","ios":"levelo://app?vid=91d75646-396b-4e35-8c7f-b572fede9fd4"},"vehicle_type_id":"4","last_reported":1758316121,"current_range_meters":4800,"station_id":"ce4bhph2rcd13ifvqheg","pricing_plan_id":"cebpf4jnsgd1na2vs0mg"},{"bike_id":"7745eab8-3d48-4349-b863-861b7cc7cbd1","system_id":"levelo_inurba_marseille","lat":43.290054,"lon":5.381405,"is_reserved":false,"is_disabled":false,"rental_uris":{"android":"levelo://app?vid=7745eab8-3d48-4349-b863-861b7cc7cbd1","ios":"levelo://app?vid=7745eab8-3d48-4349-b863-861b7cc7cbd1"},"vehicle_type_id":"4","last_reported":1758316121,"current_range_meters":4800,"station_id":"","pricing_plan_id":"cebpf4jnsgd1na2vs0mg"},{"bike_id":"526ec24b-b3a8-4935-924f-e04d9714c45b","system_id":"levelo_inurba_marseille","lat":43.28957,"lon":5.39634,"is_reserved":false,"is_disabled":false,"rental_uris":{"android":"levelo://app?vid=526ec24b-b3a8-4935-924f-e04d9714c45b","ios":"levelo://app?vid=526ec24b-b3a8-4935-924f-e04d9714c45b"},"vehicle_type_id":"4","last_reported":1758316121,"current_range_meters":1600,"station_id":"ce4bh3h2rcd13ifvqdn0","pricing_plan_id":"cebpf4jnsgd1na2vs0mg"},{"bike_id":"c383a25a-46d3-4686-afad-e874823b853e","system_id":"levelo_inurba_marseille","lat":43.27417,"lon":5.40775,"is_reserved":false,"is_disabled":false,"rental_uris":{"android":"levelo://app?vid=c383a25a-46d3-4686-afad-e874823b853e","ios":"levelo://app?vid=c383a25a-46d3-4686-afad-e874823b853e"},"vehicle_type_id":"4","last_reported":1758316121,"current_range_meters":4800,"station_id":"","pricing_plan_id":"cebpf4jnsgd1na2vs0mg"},{"bike_id":"63946743-48b8-4831-8709-2a380a8e8c92","system_id":"levelo_inurba_marseille","lat":43.29955,"lon":5.41318,"is_reserved":false,"is_disabled":false,"rental_uris":{"android":"levelo://app?vid=63946743-48b8-4831-8709-2a380a8e8c92","ios":"levelo://app?vid=63946743-48b8-4831-8709-2a380a8e8c92"},"vehicle_type_id":"4","last_reported":1758316121,"current_range_meters":4800,"station_id":"ce4bhp12rcd13ifvqh9g","pricing_plan_id":"cebpf4jnsgd1na2vs0mg"},{"bike_id":"5200b3a2-9746-4014-8946-83a02b4d75a9","system_id":"levelo_inurba_marseille","lat":43.2848,"lon":5.38401,"is_reserved":false,"is_disabled":false,"rental_uris":{"android":"levelo://app?vid=5200b3a2-9746-4014-8946-83a02b4d75a9","ios":"levelo://app?vid=5200b3a2-9746-4014-8946-83a02b4d75a9"},"vehicle_type_id":"4","last_reported":1758316121,"current_range_meters":4800,"station_id":"ce4bh512rcd13ifvqe3g","pricing_plan_id":"cebpf4jnsgd1na2vs0mg"},{"bike_id":"ccd44948-7c00-492e-b618-36105a29ab8f","system_id":"levelo_inurba_marseille","lat":43.326552,"lon":5.409896,"is_reserved":false,"is_disabled":true,"rental_uris":{"android":"levelo://app?vid=ccd44948-7c00-492e-b618-36105a29ab8f","ios":"levelo://app?vid=ccd44948-7c00-492e-b618-36105a29ab8f"},"vehicle_type_id":"4","last_reported":1758316121,"current_range_meters":5600,"station_id":"ce4bhpp2rcd13ifvqhgg","pricing_plan_id":"cebpf4jnsgd1na2vs0mg"},{"bike_id":"98b70b5b-80ae-4c8a-98fb-9c4405038b96","system_id":"levelo_inurba_marseille","lat":43.30801,"lon":5.4352,"is_reserved":false,"is_disabled":false,"rental_uris":{"android":"levelo://app?vid=98b70b5b-80ae-4c8a-98fb-9c4405038b96","ios":"levelo://app?vid=98b70b5b-80ae-4c8a-98fb-9c4405038b96"},"vehicle_type_id":"4","last_reported":1758316121,"current_range_meters":5600,"station_id":"ce4bhph2rcd13ifvqheg","pricing_plan_id":"cebpf4jnsgd1na2vs0mg"},{"bike_id":"2dbfe08c-c3c1-4d5c-bf7b-29c8b6e02ccc","system_id":"levelo_inurba_marseille","lat":43.26616,"lon":5.3938,"is_reserved":false,"is_disabled":false,"rental_uris":{"android":"levelo://app?vid=2dbfe08c-c3c1-4d5c-bf7b-29c8b6e02ccc","ios":"levelo://app?vid=2dbfe08c-c3c1-4d5c-bf7b-29c8b6e02ccc"},"vehicle_type_id":"4","last_reported":1758316121,"current_range_meters":5600,"station_id":"","pricing_plan_id":"cebpf4jnsgd1na2vs0mg"},{"bike_id":"741191bc-7dd1-4226-8a2c-90de2c4fe490","system_id":"levelo_inurba_marseille","lat":43.29445,"lon":5.39735,"is_reserved":false,"is_disabled":false,"rental_uris":{"android":"levelo://app?vid=741191bc-7dd1-4226-8a2c-90de2c4fe490","ios":"levelo://app?vid=741191bc-7dd1-4226-8a2c-90de2c4fe490"},"vehicle_type_id":"4","last_reported":1758316121,"current_range_meters":6000,"station_id":"ce4bh3h2rcd13ifvqdo0","pricing_plan_id":"cebpf4jnsgd1na2vs0mg"},{"bike_id":"b026053e-87ba-448a-b7fc-a762a08c470a","system_id":"levelo_inurba_marseille","lat":43.29002,"lon":5.35613,"is_reserved":false,"is_disabled":false,"rental_uris":{"android":"levelo://app?vid=b026053e-87ba-448a-b7fc-a762a08c470a","ios":"levelo://app?vid=b026053e-87ba-448a-b7fc-a762a08c470a"},"vehicle_type_id":"4","last_reported":1758316121,"current_range_meters":6800,"station_id":"ce4bhb92rcd13ifvqen0","pricing_plan_id":"cebpf4jnsgd1na2vs0mg"},{"bike_id":"80db9b35-2074-4cef-99a1-bf35980c90a1","system_id":"levelo_inurba_marseille","lat":43.24544,"lon":5.39522,"is_reserved":false,"is_disabled":false,"rental_uris":{"android":"levelo://app?vid=80db9b35-2074-4cef-99a1-bf35980c90a1","ios":"levelo://app?vid=80db9b35-2074-4cef-99a1-bf35980c90a1"},"vehicle_type_id":"4","last_reported":1758316121,"current_range_meters":6400,"station_id":"ce4bhlp2rcd13ifvqgjg","pricing_plan_id":"cebpf4jnsgd1na2vs0mg"},{"bike_id":"b03963e7-f165-473d-a43d-a68e09ff2d96","system_id":"levelo_inurba_marseille","lat":43.25684,"lon":5.41928,"is_reserved":false,"is_disabled":false,"rental_uris":{"android":"levelo://app?vid=b03963e7-f165-473d-a43d-a68e09ff2d96","ios":"levelo://app?vid=b03963e7-f165-473d-a43d-a68e09ff2d96"},"vehicle_type_id":"4","last_reported":1758316121,"current_range_meters":6400,"station_id":"","pricing_plan_id":"cebpf4jnsgd1na2vs0mg"},{"bike_id":"81de29ef-b1d6-4e07-981e-5a8a1510d68e","system_id":"levelo_inurba_marseille","lat":43.28076,"lon":5.39664,"is_reserved":false,"is_disabled":false,"rental_uris":{"android":"levelo://app?vid=81de29ef-b1d6-4e07-981e-5a8a1510d68e","ios":"levelo://app?vid=81de29ef-b1d6-4e07-981e-5a8a1510d68e"},"vehicle_type_id":"4","last_reported":1758316121,"current_range_meters":8000,"station_id":"ce4bho12rcd13ifvqh2g","pricing_plan_id":"cebpf4jnsgd1na2vs0mg"},{"bike_id":"3ec046f8-4600-4d46-afc5-852a0eb9a677","system_id":"levelo_inurba_marseille","lat":43.310413,"lon":5.38354,"is_reserved":false,"is_disabled":false,"rental_uris":{"android":"levelo://app?vid=3ec046f8-4600-4d46-afc5-852a0eb9a677","ios":"levelo://app?vid=3ec046f8-4600-4d46-afc5-852a0eb9a677"},"vehicle_type_id":"4","last_reported":1758316121,"current_range_meters":6800,"station_id":"ce4bgv92rcd13ifvqcr0","pricing_plan_id":"cebpf4jnsgd1na2vs0mg"},{"bike_id":"c8df185d-72ec-4d4f-b49e-e1df8802e59a","system_id":"levelo_inurba_marseille","lat":43.24078,"lon":5.37761,"is_reserved":false,"is_disabled":false,"rental_uris":{"android":"levelo://app?vid=c8df185d-72ec-4d4f-b49e-e1df8802e59a","ios":"levelo://app?vid=c8df185d-72ec-4d4f-b49e-e1df8802e59a"},"vehicle_type_id":"4","last_reported":1758316121,"current_range_meters":6800,"station_id":"ce4bhnp2rcd13ifvqgvg","pricing_plan_id":"cebpf4jnsgd1na2vs0mg"},{"bike_id":"1625e7b4-9089-440d-8364-3d4faf683139","system_id":"levelo_inurba_marseille","lat":43.289381,"lon":5.366437,"is_reserved":false,"is_disabled":false,"rental_uris":{"android":"levelo://app?vid=1625e7b4-9089-440d-8364-3d4faf683139","ios":"levelo://app?vid=1625e7b4-9089-440d-8364-3d4faf683139"},"vehicle_type_id":"4","last_reported":1758316121,"current_range_meters":6800,"station_id":"ce4bhap2rcd13ifvqek0","pricing_plan_id":"cebpf4jnsgd1na2vs0mg"},{"bike_id":"15d1ecdf-c080-4aaa-90eb-c6c2ea3d3057","system_id":"levelo_inurba_marseille","lat":43.31465,"lon":5.37321,"is_reserved":false,"is_disabled":false,"rental_uris":{"android":"levelo://app?vid=15d1ecdf-c080-4aaa-90eb-c6c2ea3d3057","ios":"levelo://app?vid=15d1ecdf-c080-4aaa-90eb-c6c2ea3d3057"},"vehicle_type_id":"4","last_reported":1758316121,"current_range_meters":6800,"station_id":"","pricing_plan_id":"cebpf4jnsgd1na2vs0mg"},{"bike_id":"22d8aeb6-27c0-41c5-aa69-753190d4ed0c","system_id":"levelo_inurba_marseille","lat":43.30591,"lon":5.39354,"is_reserved":false,"is_disabled":false,"rental_uris":{"android":"levelo://app?vid=22d8aeb6-27c0-41c5-aa69-753190d4ed0c","ios":"levelo://app?vid=22d8aeb6-27c0-41c5-aa69-753190d4ed0c"},"vehicle_type_id":"4","last_reported":1758316121,"current_range_meters":6800,"station_id":"ce4bh0p2rcd13ifvqd80","pricing_plan_id":"cebpf4jnsgd1na2vs0mg"},{"bike_id":"cf66592a-d8fa-4c6c-9927-5d7a9fef5026","system_id":"levelo_inurba_marseille","lat":43.26222,"lon":5.39742,"is_reserved":false,"is_disabled":false,"rental_uris":{"android":"levelo://app?vid=cf66592a-d8fa-4c6c-9927-5d7a9fef5026","ios":"levelo://app?vid=cf66592a-d8fa-4c6c-9927-5d7a9fef5026"},"vehicle_type_id":"4","last_reported":1758316121,"current_range_meters":6800,"station_id":"","pricing_plan_id":"cebpf4jnsgd1na2vs0mg"},{"bike_id":"c58991aa-3c14-4377-8648-4b115c7af122","system_id":"levelo_inurba_marseille","lat":43.29535,"lon":5.38551,"is_reserved":false,"is_disabled":false,"rental_uris":{"android":"levelo://app?vid=c58991aa-3c14-4377-8648-4b115c7af122","ios":"levelo://app?vid=c58991aa-3c14-4377-8648-4b115c7af122"},"vehicle_type_id":"4","last_reported":1758316121,"current_range_meters":7200,"station_id":"ce4bgih2rcd13ifvqba0","pricing_plan_id":"cebpf4jnsgd1na2vs0mg"},{"bike_id":"5978bf05-705a-454c-aa45-05fd10b9921c","system_id":"levelo_inurba_marseille","lat":43.25106,"lon":5.40322,"is_reserved":false,"is_disabled":false,"rental_uris":{"android":"levelo://app?vid=5978bf05-705a-454c-aa45-05fd10b9921c","ios":"levelo://app?vid=5978bf05-705a-454c-aa45-05fd10b9921c"},"vehicle_type_id":"4","last_reported":1758316121,"current_range_meters":7200,"station_id":"ce4bhlh2rcd13ifvqgig","pricing_plan_id":"cebpf4jnsgd1na2vs0mg"},{"bike_id":"448c81c1-37bf-4feb-8abd-7e42d13d0792","system_id":"levelo_inurba_marseille","lat":43.30924,"lon":5.36857,"is_reserved":false,"is_disabled":false,"rental_uris":{"android":"levelo://app?vid=448c81c1-37bf-4feb-8abd-7e42d13d0792","ios":"levelo://app?vid=448c81c1-37bf-4feb-8abd-7e42d13d0792"},"vehicle_type_id":"4","last_reported":1758316121,"current_range_meters":8000,"station_id":"","pricing_plan_id":"cebpf4jnsgd1na2vs0mg"},{"bike_id":"56a4f75d-eaf2-44b4-aa02-4a439b19699b","system_id":"levelo_inurba_marseille","lat":43.33759,"lon":5.37423,"is_reserved":false,"is_disabled":false,"rental_uris":{"android":"levelo://app?vid=56a4f75d-eaf2-44b4-aa02-4a439b19699b","ios":"levelo://app?vid=56a4f75d-eaf2-44b4-aa02-4a439b19699b"},"vehicle_type_id":"4","last_reported":1758316121,"current_range_meters":8000,"station_id":"","pricing_plan_id":"cebpf4jnsgd1na2vs0mg"},{"bike_id":"bd140d58-85a8-4ab5-bd0d-cc8394476c21","system_id":"levelo_inurba_marseille","lat":43.31224,"lon":5.36843,"is_reserved":false,"is_disabled":false,"rental_uris":{"android":"levelo://app?vid=bd140d58-85a8-4ab5-bd0d-cc8394476c21","ios":"levelo://app?vid=bd140d58-85a8-4ab5-bd0d-cc8394476c21"},"vehicle_type_id":"4","last_reported":1758316121,"current_range_meters":8000,"station_id":"ce4bgl92rcd13ifvqbq0","pricing_plan_id":"cebpf4jnsgd1na2vs0mg"},{"bike_id":"42323a1a-489c-43cb-90ae-c675b27444d5","system_id":"levelo_inurba_marseille","lat":43.21638,"lon":5.34361,"is_reserved":false,"is_disabled":false,"rental_uris":{"android":"levelo://app?vid=42323a1a-489c-43cb-90ae-c675b27444d5","ios":"levelo://app?vid=42323a1a-489c-43cb-90ae-c675b27444d5"},"vehicle_type_id":"4","last_reported":1758316121,"current_range_meters":8000,"station_id":"","pricing_plan_id":"cebpf4jnsgd1na2vs0mg"},{"bike_id":"f9636a44-11a8-49d6-9b1c-12db7ad64ee3","system_id":"levelo_inurba_marseille","lat":43.24191,"lon":5.39712,"is_reserved":false,"is_disabled":true,"rental_uris":{"android":"levelo://app?vid=f9636a44-11a8-49d6-9b1c-12db7ad64ee3","ios":"levelo://app?vid=f9636a44-11a8-49d6-9b1c-12db7ad64ee3"},"vehicle_type_id":"4","last_reported":1758316121,"current_range_meters":8000,"station_id":"ce4bhn12rcd13ifvqgpg","pricing_plan_id":"cebpf4jnsgd1na2vs0mg"},{"bike_id":"69d5a835-1fbc-40fd-9b2b-512555a8b3a3","system_id":"levelo_inurba_marseille","lat":43.29532,"lon":5.38539,"is_reserved":false,"is_disabled":false,"rental_uris":{"android":"levelo://app?vid=69d5a835-1fbc-40fd-9b2b-512555a8b3a3","ios":"levelo://app?vid=69d5a835-1fbc-40fd-9b2b-512555a8b3a3"},"vehicle_type_id":"4","last_reported":1758316121,"current_range_meters":8400,"station_id":"ce4bgih2rcd13ifvqba0","pricing_plan_id":"cebpf4jnsgd1na2vs0mg"},{"bike_id":"8c04f3e6-e37c-430d-9fe8-f058d6c48e09","system_id":"levelo_inurba_marseille","lat":43.29255,"lon":5.38439,"is_reserved":false,"is_disabled":false,"rental_uris":{"android":"levelo://app?vid=8c04f3e6-e37c-430d-9fe8-f058d6c48e09","ios":"levelo://app?vid=8c04f3e6-e37c-430d-9fe8-f058d6c48e09"},"vehicle_type_id":"4","last_reported":1758316121,"current_range_meters":8400,"station_id":"ce4bh692rcd13ifvqea0","pricing_plan_id":"cebpf4jnsgd1na2vs0mg"},{"bike_id":"e6f8489d-fe42-4015-a82c-b604c2c8b33e","system_id":"levelo_inurba_marseille","lat":43.29795,"lon":5.36682,"is_reserved":false,"is_disabled":false,"rental_uris":{"android":"levelo://app?vid=e6f8489d-fe42-4015-a82c-b604c2c8b33e","ios":"levelo://app?vid=e6f8489d-fe42-4015-a82c-b604c2c8b33e"},"vehicle_type_id":"4","last_reported":1758316121,"current_range_meters":8400,"station_id":"","pricing_plan_id":"cebpf4jnsgd1na2vs0mg"},{"bike_id":"1f29a6e5-f9e3-4c61-b416-d9b618cf143d","system_id":"levelo_inurba_marseille","lat":43.25107,"lon":5.40322,"is_reserved":false,"is_disabled":false,"rental_uris":{"android":"levelo://app?vid=1f29a6e5-f9e3-4c61-b416-d9b618cf143d","ios":"levelo://app?vid=1f29a6e5-f9e3-4c61-b416-d9b618cf143d"},"vehicle_type_id":"4","last_reported":1758316121,"current_range_meters":8800,"station_id":"ce4bhlh2rcd13ifvqgig","pricing_plan_id":"cebpf4jnsgd1na2vs0mg"},{"bike_id":"cad97885-b582-49b2-8b83-0a6c3d079fc6","system_id":"levelo_inurba_marseille","lat":43.297018,"lon":5.365873,"is_reserved":false,"is_disabled":false,"rental_uris":{"android":"levelo://app?vid=cad97885-b582-49b2-8b83-0a6c3d079fc6","ios":"levelo://app?vid=cad97885-b582-49b2-8b83-0a6c3d079fc6"},"vehicle_type_id":"4","last_reported":1758316121,"current_range_meters":8800,"station_id":"ce4bgn12rcd13ifvqbt0","pricing_plan_id":"cebpf4jnsgd1na2vs0mg"},{"bike_id":"a4faa1fd-62ee-404a-aff8-b79ea6b6b5d2","system_id":"levelo_inurba_marseille","lat":43.32986,"lon":5.39245,"is_reserved":false,"is_disabled":true,"rental_uris":{"android":"levelo://app?vid=a4faa1fd-62ee-404a-aff8-b79ea6b6b5d2","ios":"levelo://app?vid=a4faa1fd-62ee-404a-aff8-b79ea6b6b5d2"},"vehicle_type_id":"4","last_reported":1758316121,"current_range_meters":8800,"station_id":"","pricing_plan_id":"cebpf4jnsgd1na2vs0mg"},{"bike_id":"e942f984-8fe7-48d1-8f04-3806656b9996","system_id":"levelo_inurba_marseille","lat":43.33619,"lon":5.37922,"is_reserved":false,"is_disabled":false,"rental_uris":{"android":"levelo://app?vid=e942f984-8fe7-48d1-8f04-3806656b9996","ios":"levelo://app?vid=e942f984-8fe7-48d1-8f04-3806656b9996"},"vehicle_type_id":"4","last_reported":1758316121,"current_range_meters":8800,"station_id":"","pricing_plan_id":"cebpf4jnsgd1na2vs0mg"},{"bike_id":"0862d915-d978-40a4-bb96-b1eb01af9bb7","system_id":"levelo_inurba_marseille","lat":43.24948,"lon":5.40491,"is_reserved":false,"is_disabled":false,"rental_uris":{"android":"levelo://app?vid=0862d915-d978-40a4-bb96-b1eb01af9bb7","ios":"levelo://app?vid=0862d915-d978-40a4-bb96-b1eb01af9bb7"},"vehicle_type_id":"4","last_reported":1758316121,"current_range_meters":8800,"station_id":"st_d2ngiaodas8pm72gd1h0","pricing_plan_id":"cebpf4jnsgd1na2vs0mg"},{"bike_id":"92cf6e8a-f771-409d-b299-82c0fa4faa1d","system_id":"levelo_inurba_marseille","lat":43.25821,"lon":5.39418,"is_reserved":false,"is_disabled":false,"rental_uris":{"android":"levelo://app?vid=92cf6e8a-f771-409d-b299-82c0fa4faa1d","ios":"levelo://app?vid=92cf6e8a-f771-409d-b299-82c0fa4faa1d"},"vehicle_type_id":"4","last_reported":1758316121,"current_range_meters":8800,"station_id":"ce4bhip2rcd13ifvqft0","pricing_plan_id":"cebpf4jnsgd1na2vs0mg"},{"bike_id":"09072e22-69e4-4626-b463-ded44cfd8e7d","system_id":"levelo_inurba_marseille","lat":43.298127,"lon":5.417095,"is_reserved":false,"is_disabled":false,"rental_uris":{"android":"levelo://app?vid=09072e22-69e4-4626-b463-ded44cfd8e7d","ios":"levelo://app?vid=09072e22-69e4-4626-b463-ded44cfd8e7d"},"vehicle_type_id":"4","last_reported":1758316121,"current_range_meters":9200,"station_id":"","pricing_plan_id":"cebpf4jnsgd1na2vs0mg"},{"bike_id":"22f0687d-25d3-4094-9c4a-293a61e189a6","system_id":"levelo_inurba_marseille","lat":43.2463,"lon":5.39626,"is_reserved":false,"is_disabled":false,"rental_uris":{"android":"levelo://app?vid=22f0687d-25d3-4094-9c4a-293a61e189a6","ios":"levelo://app?vid=22f0687d-25d3-4094-9c4a-293a61e189a6"},"vehicle_type_id":"4","last_reported":1758316121,"current_range_meters":9200,"station_id":"","pricing_plan_id":"cebpf4jnsgd1na2vs0mg"},{"bike_id":"f6650f57-f864-4a1e-a2eb-cbb35d17ffaa","system_id":"levelo_inurba_marseille","lat":43.27825,"lon":5.39223,"is_reserved":false,"is_disabled":false,"rental_uris":{"android":"levelo://app?vid=f6650f57-f864-4a1e-a2eb-cbb35d17ffaa","ios":"levelo://app?vid=f6650f57-f864-4a1e-a2eb-cbb35d17ffaa"},"vehicle_type_id":"4","last_reported":1758316121,"current_range_meters":9200,"station_id":"ce4bhjp2rcd13ifvqga0","pricing_plan_id":"cebpf4jnsgd1na2vs0mg"},{"bike_id":"0ec46f6b-b2db-418b-a1e4-5581f478d5ec","system_id":"levelo_inurba_marseille","lat":43.27971,"lon":5.38759,"is_reserved":false,"is_disabled":false,"rental_uris":{"android":"levelo://app?vid=0ec46f6b-b2db-418b-a1e4-5581f478d5ec","ios":"levelo://app?vid=0ec46f6b-b2db-418b-a1e4-5581f478d5ec"},"vehicle_type_id":"4","last_reported":1758316121,"current_range_meters":9600,"station_id":"ce4bhg12rcd13ifvqf80","pricing_plan_id":"cebpf4jnsgd1na2vs0mg"},{"bike_id":"cc05a417-a31a-48d1-9578-4fe3ddce0fcd","system_id":"levelo_inurba_marseille","lat":43.28938,"lon":5.38387,"is_reserved":false,"is_disabled":true,"rental_uris":{"android":"levelo://app?vid=cc05a417-a31a-48d1-9578-4fe3ddce0fcd","ios":"levelo://app?vid=cc05a417-a31a-48d1-9578-4fe3ddce0fcd"},"vehicle_type_id":"4","last_reported":1758316121,"current_range_meters":9600,"station_id":"ce4bh612rcd13ifvqe6g","pricing_plan_id":"cebpf4jnsgd1na2vs0mg"},{"bike_id":"c03db5d6-931c-41e0-bfa5-6550a106fb99","system_id":"levelo_inurba_marseille","lat":43.23286,"lon":5.36011,"is_reserved":false,"is_disabled":false,"rental_uris":{"android":"levelo://app?vid=c03db5d6-931c-41e0-bfa5-6550a106fb99","ios":"levelo://app?vid=c03db5d6-931c-41e0-bfa5-6550a106fb99"},"vehicle_type_id":"4","last_reported":1758316121,"current_range_meters":9600,"station_id":"","pricing_plan_id":"cebpf4jnsgd1na2vs0mg"},{"bike_id":"c3897c00-e950-4044-8f08-e0b1f3ccd977","system_id":"levelo_inurba_marseille","lat":43.22942,"lon":5.35364,"is_reserved":false,"is_disabled":true,"rental_uris":{"android":"levelo://app?vid=c3897c00-e950-4044-8f08-e0b1f3ccd977","ios":"levelo://app?vid=c3897c00-e950-4044-8f08-e0b1f3ccd977"},"vehicle_type_id":"4","last_reported":1758316121,"current_range_meters":9600,"station_id":"cpo3532slgdg3j2ikp40","pricing_plan_id":"cebpf4jnsgd1na2vs0mg"},{"bike_id":"7fdfddfc-98b7-4c57-a3c6-63103337451f","system_id":"levelo_inurba_marseille","lat":43.28461,"lon":5.3589,"is_reserved":false,"is_disabled":false,"rental_uris":{"android":"levelo://app?vid=7fdfddfc-98b7-4c57-a3c6-63103337451f","ios":"levelo://app?vid=7fdfddfc-98b7-4c57-a3c6-63103337451f"},"vehicle_type_id":"4","last_reported":1758316121,"current_range_meters":9600,"station_id":"ce4bhah2rcd13ifvqei0","pricing_plan_id":"cebpf4jnsgd1na2vs0mg"},{"bike_id":"2aa1e690-fb47-41f4-87b4-95b056172a1a","system_id":"levelo_inurba_marseille","lat":43.22931,"lon":5.35383,"is_reserved":false,"is_disabled":true,"rental_uris":{"android":"levelo://app?vid=2aa1e690-fb47-41f4-87b4-95b056172a1a","ios":"levelo://app?vid=2aa1e690-fb47-41f4-87b4-95b056172a1a"},"vehicle_type_id":"4","last_reported":1758316121,"current_range_meters":10000,"station_id":"cpo3532slgdg3j2ikp40","pricing_plan_id":"cebpf4jnsgd1na2vs0mg"},{"bike_id":"95a62c10-7ca9-4348-809a-c3089ad076d3","system_id":"levelo_inurba_marseille","lat":43.29885,"lon":5.39756,"is_reserved":false,"is_disabled":true,"rental_uris":{"android":"levelo://app?vid=95a62c10-7ca9-4348-809a-c3089ad076d3","ios":"levelo://app?vid=95a62c10-7ca9-4348-809a-c3089ad076d3"},"vehicle_type_id":"4","last_reported":1758316121,"current_range_meters":10000,"station_id":"ce4bh0h2rcd13ifvqd50","pricing_plan_id":"cebpf4jnsgd1na2vs0mg"},{"bike_id":"34f8aae4-f8db-43e4-a6fb-eca624308160","system_id":"levelo_inurba_marseille","lat":43.30541,"lon":5.36708,"is_reserved":false,"is_disabled":false,"rental_uris":{"android":"levelo://app?vid=34f8aae4-f8db-43e4-a6fb-eca624308160","ios":"levelo://app?vid=34f8aae4-f8db-43e4-a6fb-eca624308160"},"vehicle_type_id":"4","last_reported":1758316121,"current_range_meters":10000,"station_id":"ce4bgrp2rcd13ifvqc9g","pricing_plan_id":"cebpf4jnsgd1na2vs0mg"},{"bike_id":"b1f4dbf0-857c-4df9-8052-fa3ff428a506","system_id":"levelo_inurba_marseille","lat":43.29527,"lon":5.38553,"is_reserved":false,"is_disabled":false,"rental_uris":{"android":"levelo://app?vid=b1f4dbf0-857c-4df9-8052-fa3ff428a506","ios":"levelo://app?vid=b1f4dbf0-857c-4df9-8052-fa3ff428a506"},"vehicle_type_id":"4","last_reported":1758316121,"current_range_meters":10000,"station_id":"ce4bgih2rcd13ifvqba0","pricing_plan_id":"cebpf4jnsgd1na2vs0mg"},{"bike_id":"cc48539f-3363-44f7-9041-3eea5291a9db","system_id":"levelo_inurba_marseille","lat":43.211937,"lon":5.350815,"is_reserved":false,"is_disabled":true,"rental_uris":{"android":"levelo://app?vid=cc48539f-3363-44f7-9041-3eea5291a9db","ios":"levelo://app?vid=cc48539f-3363-44f7-9041-3eea5291a9db"},"vehicle_type_id":"4","last_reported":1758316121,"current_range_meters":10000,"station_id":"st_cvj6sg6p6f1abm77japg","pricing_plan_id":"cebpf4jnsgd1na2vs0mg"},{"bike_id":"3e682cf4-5ea7-4563-9004-71435c031ec4","system_id":"levelo_inurba_marseille","lat":43.21184,"lon":5.3508,"is_reserved":false,"is_disabled":true,"rental_uris":{"android":"levelo://app?vid=3e682cf4-5ea7-4563-9004-71435c031ec4","ios":"levelo://app?vid=3e682cf4-5ea7-4563-9004-71435c031ec4"},"vehicle_type_id":"4","last_reported":1758316121,"current_range_meters":10800,"station_id":"st_cvj6sg6p6f1abm77japg","pricing_plan_id":"cebpf4jnsgd1na2vs0mg"},{"bike_id":"fb78ea42-e26f-45b3-a617-d3474b811b72","system_id":"levelo_inurba_marseille","lat":43.29843,"lon":5.37949,"is_reserved":false,"is_disabled":false,"rental_uris":{"android":"levelo://app?vid=fb78ea42-e26f-45b3-a617-d3474b811b72","ios":"levelo://app?vid=fb78ea42-e26f-45b3-a617-d3474b811b72"},"vehicle_type_id":"4","last_reported":1758316121,"current_range_meters":10800,"station_id":"","pricing_plan_id":"cebpf4jnsgd1na2vs0mg"},{"bike_id":"b0020f2a-6da3-4e11-9113-5b3ff108e803","system_id":"levelo_inurba_marseille","lat":43.29163,"lon":5.37184,"is_reserved":false,"is_disabled":false,"rental_uris":{"android":"levelo://app?vid=b0020f2a-6da3-4e11-9113-5b3ff108e803","ios":"levelo://app?vid=b0020f2a-6da3-4e11-9113-5b3ff108e803"},"vehicle_type_id":"4","last_reported":1758316121,"current_range_meters":10800,"station_id":"ce4bha92rcd13ifvqeh0","pricing_plan_id":"cebpf4jnsgd1na2vs0mg"},{"bike_id":"07d75db5-b047-4350-8786-a3c1b30b72b8","system_id":"levelo_inurba_marseille","lat":43.29431,"lon":5.39753,"is_reserved":false,"is_disabled":false,"rental_uris":{"android":"levelo://app?vid=07d75db5-b047-4350-8786-a3c1b30b72b8","ios":"levelo://app?vid=07d75db5-b047-4350-8786-a3c1b30b72b8"},"vehicle_type_id":"4","last_reported":1758316121,"current_range_meters":10800,"station_id":"ce4bh3h2rcd13ifvqdo0","pricing_plan_id":"cebpf4jnsgd1na2vs0mg"},{"bike_id":"4366fbe5-c1f6-4c5d-bca5-c5f28b3e10c2","system_id":"levelo_inurba_marseille","lat":43.29273,"lon":5.40124,"is_reserved":false,"is_disabled":false,"rental_uris":{"android":"levelo://app?vid=4366fbe5-c1f6-4c5d-bca5-c5f28b3e10c2","ios":"levelo://app?vid=4366fbe5-c1f6-4c5d-bca5-c5f28b3e10c2"},"vehicle_type_id":"4","last_reported":1758316121,"current_range_meters":10800,"station_id":"ce4bh312rcd13ifvqdk0","pricing_plan_id":"cebpf4jnsgd1na2vs0mg"},{"bike_id":"c627b34a-8e81-4438-af3b-4fd0aab1c160","system_id":"levelo_inurba_marseille","lat":43.29616,"lon":5.36045,"is_reserved":false,"is_disabled":false,"rental_uris":{"android":"levelo://app?vid=c627b34a-8e81-4438-af3b-4fd0aab1c160","ios":"levelo://app?vid=c627b34a-8e81-4438-af3b-4fd0aab1c160"},"vehicle_type_id":"4","last_reported":1758316121,"current_range_meters":10800,"station_id":"","pricing_plan_id":"cebpf4jnsgd1na2vs0mg"},{"bike_id":"9b9f6315-958e-4e43-8771-5ee5f050185e","system_id":"levelo_inurba_marseille","lat":43.24806,"lon":5.37476,"is_reserved":false,"is_disabled":true,"rental_uris":{"android":"levelo://app?vid=9b9f6315-958e-4e43-8771-5ee5f050185e","ios":"levelo://app?vid=9b9f6315-958e-4e43-8771-5ee5f050185e"},"vehicle_type_id":"4","last_reported":1758316121,"current_range_meters":11200,"station_id":"ce4bhgh2rcd13ifvqfb0","pricing_plan_id":"cebpf4jnsgd1na2vs0mg"},{"bike_id":"4bbb8e4b-8415-4755-924b-7c4f87fc83dd","system_id":"levelo_inurba_marseille","lat":43.2174,"lon":5.34629,"is_reserved":false,"is_disabled":false,"rental_uris":{"android":"levelo://app?vid=4bbb8e4b-8415-4755-924b-7c4f87fc83dd","ios":"levelo://app?vid=4bbb8e4b-8415-4755-924b-7c4f87fc83dd"},"vehicle_type_id":"4","last_reported":1758316121,"current_range_meters":11200,"station_id":"","pricing_plan_id":"cebpf4jnsgd1na2vs0mg"},{"bike_id":"b09d6ca5-499c-4846-9339-c11544949b71","system_id":"levelo_inurba_marseille","lat":43.29253,"lon":5.38452,"is_reserved":false,"is_disabled":false,"rental_uris":{"android":"levelo://app?vid=b09d6ca5-499c-4846-9339-c11544949b71","ios":"levelo://app?vid=b09d6ca5-499c-4846-9339-c11544949b71"},"vehicle_type_id":"4","last_reported":1758316121,"current_range_meters":11200,"station_id":"ce4bh692rcd13ifvqea0","pricing_plan_id":"cebpf4jnsgd1na2vs0mg"},{"bike_id":"e0c1706f-c0a3-4722-baa6-8a838944d2c6","system_id":"levelo_inurba_marseille","lat":43.29225,"lon":5.40224,"is_reserved":false,"is_disabled":false,"rental_uris":{"android":"levelo://app?vid=e0c1706f-c0a3-4722-baa6-8a838944d2c6","ios":"levelo://app?vid=e0c1706f-c0a3-4722-baa6-8a838944d2c6"},"vehicle_type_id":"4","last_reported":1758316121,"current_range_meters":11200,"station_id":"ce4bh312rcd13ifvqdk0","pricing_plan_id":"cebpf4jnsgd1na2vs0mg"},{"bike_id":"6f28235e-3f31-4c9c-9456-a4ed29864072","system_id":"levelo_inurba_marseille","lat":43.28933,"lon":5.36644,"is_reserved":false,"is_disabled":false,"rental_uris":{"android":"levelo://app?vid=6f28235e-3f31-4c9c-9456-a4ed29864072","ios":"levelo://app?vid=6f28235e-3f31-4c9c-9456-a4ed29864072"},"vehicle_type_id":"4","last_reported":1758316121,"current_range_meters":11200,"station_id":"ce4bhap2rcd13ifvqek0","pricing_plan_id":"cebpf4jnsgd1na2vs0mg"},{"bike_id":"72716c82-39a9-4cf2-a920-ed6ed70ceae1","system_id":"levelo_inurba_marseille","lat":43.30299,"lon":5.39218,"is_reserved":false,"is_disabled":false,"rental_uris":{"android":"levelo://app?vid=72716c82-39a9-4cf2-a920-ed6ed70ceae1","ios":"levelo://app?vid=72716c82-39a9-4cf2-a920-ed6ed70ceae1"},"vehicle_type_id":"4","last_reported":1758316121,"current_range_meters":11200,"station_id":"ce4bgkh2rcd13ifvqbk0","pricing_plan_id":"cebpf4jnsgd1na2vs0mg"},{"bike_id":"70d0695a-e7b3-42da-a976-06c91ff95e97","system_id":"levelo_inurba_marseille","lat":43.30546,"lon":5.36532,"is_reserved":false,"is_disabled":false,"rental_uris":{"android":"levelo://app?vid=70d0695a-e7b3-42da-a976-06c91ff95e97","ios":"levelo://app?vid=70d0695a-e7b3-42da-a976-06c91ff95e97"},"vehicle_type_id":"4","last_reported":1758316121,"current_range_meters":11600,"station_id":"ce4bgs12rcd13ifvqcag","pricing_plan_id":"cebpf4jnsgd1na2vs0mg"},{"bike_id":"0765f1d1-081b-48ff-b4ce-50191a579599","system_id":"levelo_inurba_marseille","lat":43.24178,"lon":5.39727,"is_reserved":false,"is_disabled":false,"rental_uris":{"android":"levelo://app?vid=0765f1d1-081b-48ff-b4ce-50191a579599","ios":"levelo://app?vid=0765f1d1-081b-48ff-b4ce-50191a579599"},"vehicle_type_id":"4","last_reported":1758316121,"current_range_meters":11600,"station_id":"ce4bhn12rcd13ifvqgpg","pricing_plan_id":"cebpf4jnsgd1na2vs0mg"},{"bike_id":"c68d7b71-2ccc-4344-ae28-76e2c7592be4","system_id":"levelo_inurba_marseille","lat":43.25497,"lon":5.3765,"is_reserved":false,"is_disabled":false,"rental_uris":{"android":"levelo://app?vid=c68d7b71-2ccc-4344-ae28-76e2c7592be4","ios":"levelo://app?vid=c68d7b71-2ccc-4344-ae28-76e2c7592be4"},"vehicle_type_id":"4","last_reported":1758316121,"current_range_meters":11600,"station_id":"ce4bhh12rcd13ifvqff0","pricing_plan_id":"cebpf4jnsgd1na2vs0mg"},{"bike_id":"41855bc9-a0b6-4b3d-a1dc-6e9024caaec7","system_id":"levelo_inurba_marseille","lat":43.29035,"lon":5.3814,"is_reserved":false,"is_disabled":false,"rental_uris":{"android":"levelo://app?vid=41855bc9-a0b6-4b3d-a1dc-6e9024caaec7","ios":"levelo://app?vid=41855bc9-a0b6-4b3d-a1dc-6e9024caaec7"},"vehicle_type_id":"4","last_reported":1758316121,"current_range_meters":11600,"station_id":"ce4bh4p2rcd13ifvqe1g","pricing_plan_id":"cebpf4jnsgd1na2vs0mg"},{"bike_id":"c5c61190-1416-4aba-aff0-046a1a65f791","system_id":"levelo_inurba_marseille","lat":43.31071,"lon":5.38359,"is_reserved":false,"is_disabled":false,"rental_uris":{"android":"levelo://app?vid=c5c61190-1416-4aba-aff0-046a1a65f791","ios":"levelo://app?vid=c5c61190-1416-4aba-aff0-046a1a65f791"},"vehicle_type_id":"4","last_reported":1758316121,"current_range_meters":11600,"station_id":"ce4bgv92rcd13ifvqcr0","pricing_plan_id":"cebpf4jnsgd1na2vs0mg"},{"bike_id":"7acae3dc-4a35-4795-a73c-b6ee3d0aa090","system_id":"levelo_inurba_marseille","lat":43.29604,"lon":5.38097,"is_reserved":false,"is_disabled":false,"rental_uris":{"android":"levelo://app?vid=7acae3dc-4a35-4795-a73c-b6ee3d0aa090","ios":"levelo://app?vid=7acae3dc-4a35-4795-a73c-b6ee3d0aa090"},"vehicle_type_id":"4","last_reported":1758316121,"current_range_meters":11600,"station_id":"ce4bgl12rcd13ifvqbo0","pricing_plan_id":"cebpf4jnsgd1na2vs0mg"},{"bike_id":"99c8e7ee-3530-4657-bc3e-12aed53f0699","system_id":"levelo_inurba_marseille","lat":43.24649,"lon":5.38894,"is_reserved":false,"is_disabled":false,"rental_uris":{"android":"levelo://app?vid=99c8e7ee-3530-4657-bc3e-12aed53f0699","ios":"levelo://app?vid=99c8e7ee-3530-4657-bc3e-12aed53f0699"},"vehicle_type_id":"4","last_reported":1758316121,"current_range_meters":11600,"station_id":"ce4bhg12rcd13ifvqf60","pricing_plan_id":"cebpf4jnsgd1na2vs0mg"},{"bike_id":"370ae577-d776-4add-8475-fabd0f567afb","system_id":"levelo_inurba_marseille","lat":43.2797,"lon":5.38747,"is_reserved":false,"is_disabled":false,"rental_uris":{"android":"levelo://app?vid=370ae577-d776-4add-8475-fabd0f567afb","ios":"levelo://app?vid=370ae577-d776-4add-8475-fabd0f567afb"},"vehicle_type_id":"4","last_reported":1758316121,"current_range_meters":11600,"station_id":"ce4bhg12rcd13ifvqf80","pricing_plan_id":"cebpf4jnsgd1na2vs0mg"},{"bike_id":"c01f88fc-a824-4814-adf6-4a51b73aa6a9","system_id":"levelo_inurba_marseille","lat":43.29276,"lon":5.38445,"is_reserved":false,"is_disabled":false,"rental_uris":{"android":"levelo://app?vid=c01f88fc-a824-4814-adf6-4a51b73aa6a9","ios":"levelo://app?vid=c01f88fc-a824-4814-adf6-4a51b73aa6a9"},"vehicle_type_id":"4","last_reported":1758316121,"current_range_meters":11600,"station_id":"ce4bh692rcd13ifvqea0","pricing_plan_id":"cebpf4jnsgd1na2vs0mg"},{"bike_id":"bf6e6d27-c09e-4725-9fbc-20073fd5a515","system_id":"levelo_inurba_marseille","lat":43.289376,"lon":5.396214,"is_reserved":false,"is_disabled":false,"rental_uris":{"android":"levelo://app?vid=bf6e6d27-c09e-4725-9fbc-20073fd5a515","ios":"levelo://app?vid=bf6e6d27-c09e-4725-9fbc-20073fd5a515"},"vehicle_type_id":"4","last_reported":1758316121,"current_range_meters":11600,"station_id":"","pricing_plan_id":"cebpf4jnsgd1na2vs0mg"},{"bike_id":"0960e3dd-c358-4474-bd10-8223758e1f6b","system_id":"levelo_inurba_marseille","lat":43.296996,"lon":5.376855,"is_reserved":false,"is_disabled":false,"rental_uris":{"android":"levelo://app?vid=0960e3dd-c358-4474-bd10-8223758e1f6b","ios":"levelo://app?vid=0960e3dd-c358-4474-bd10-8223758e1f6b"},"vehicle_type_id":"4","last_reported":1758316121,"current_range_meters":11600,"station_id":"","pricing_plan_id":"cebpf4jnsgd1na2vs0mg"},{"bike_id":"ecb4db07-3d66-43d9-9133-5f91fc082720","system_id":"levelo_inurba_marseille","lat":43.29533,"lon":5.38541,"is_reserved":false,"is_disabled":false,"rental_uris":{"android":"levelo://app?vid=ecb4db07-3d66-43d9-9133-5f91fc082720","ios":"levelo://app?vid=ecb4db07-3d66-43d9-9133-5f91fc082720"},"vehicle_type_id":"4","last_reported":1758316121,"current_range_meters":11600,"station_id":"ce4bgih2rcd13ifvqba0","pricing_plan_id":"cebpf4jnsgd1na2vs0mg"},{"bike_id":"6969112e-a655-475d-b120-995cac7f4cc8","system_id":"levelo_inurba_marseille","lat":43.31162,"lon":5.38719,"is_reserved":false,"is_disabled":false,"rental_uris":{"android":"levelo://app?vid=6969112e-a655-475d-b120-995cac7f4cc8","ios":"levelo://app?vid=6969112e-a655-475d-b120-995cac7f4cc8"},"vehicle_type_id":"4","last_reported":1758316121,"current_range_meters":12000,"station_id":"ce4bgv12rcd13ifvqcp0","pricing_plan_id":"cebpf4jnsgd1na2vs0mg"},{"bike_id":"e0fa618d-316c-40f0-84a4-361066b627a3","system_id":"levelo_inurba_marseille","lat":43.217549,"lon":5.346085,"is_reserved":false,"is_disabled":true,"rental_uris":{"android":"levelo://app?vid=e0fa618d-316c-40f0-84a4-361066b627a3","ios":"levelo://app?vid=e0fa618d-316c-40f0-84a4-361066b627a3"},"vehicle_type_id":"4","last_reported":1758316121,"current_range_meters":12000,"station_id":"st_cvj6r9ubvosntc0bgbag","pricing_plan_id":"cebpf4jnsgd1na2vs0mg"},{"bike_id":"03a6184c-1803-4188-9662-0d51261a9098","system_id":"levelo_inurba_marseille","lat":43.279982,"lon":5.416684,"is_reserved":false,"is_disabled":false,"rental_uris":{"android":"levelo://app?vid=03a6184c-1803-4188-9662-0d51261a9098","ios":"levelo://app?vid=03a6184c-1803-4188-9662-0d51261a9098"},"vehicle_type_id":"4","last_reported":1758316121,"current_range_meters":12000,"station_id":"ce4bho12rcd13ifvqh1g","pricing_plan_id":"cebpf4jnsgd1na2vs0mg"},{"bike_id":"6dc49f8f-31b8-485c-b489-e3fd253e6676","system_id":"levelo_inurba_marseille","lat":43.333009,"lon":5.410255,"is_reserved":false,"is_disabled":true,"rental_uris":{"android":"levelo://app?vid=6dc49f8f-31b8-485c-b489-e3fd253e6676","ios":"levelo://app?vid=6dc49f8f-31b8-485c-b489-e3fd253e6676"},"vehicle_type_id":"4","last_reported":1758316121,"current_range_meters":12400,"station_id":"","pricing_plan_id":"cebpf4jnsgd1na2vs0mg"},{"bike_id":"ce3baef8-a371-458f-bd33-e9b336f88c7b","system_id":"levelo_inurba_marseille","lat":43.23176,"lon":5.39989,"is_reserved":false,"is_disabled":false,"rental_uris":{"android":"levelo://app?vid=ce3baef8-a371-458f-bd33-e9b336f88c7b","ios":"levelo://app?vid=ce3baef8-a371-458f-bd33-e9b336f88c7b"},"vehicle_type_id":"4","last_reported":1758316121,"current_range_meters":12400,"station_id":"ce4bhn12rcd13ifvqgqg","pricing_plan_id":"cebpf4jnsgd1na2vs0mg"},{"bike_id":"7799fb68-2af4-44d7-8815-0289541769cf","system_id":"levelo_inurba_marseille","lat":43.292533,"lon":5.384302,"is_reserved":false,"is_disabled":false,"rental_uris":{"android":"levelo://app?vid=7799fb68-2af4-44d7-8815-0289541769cf","ios":"levelo://app?vid=7799fb68-2af4-44d7-8815-0289541769cf"},"vehicle_type_id":"4","last_reported":1758316121,"current_range_meters":12400,"station_id":"","pricing_plan_id":"cebpf4jnsgd1na2vs0mg"},{"bike_id":"518eef5b-9e3c-4b06-94a9-56e70af9d262","system_id":"levelo_inurba_marseille","lat":43.30786,"lon":5.38187,"is_reserved":false,"is_disabled":true,"rental_uris":{"android":"levelo://app?vid=518eef5b-9e3c-4b06-94a9-56e70af9d262","ios":"levelo://app?vid=518eef5b-9e3c-4b06-94a9-56e70af9d262"},"vehicle_type_id":"4","last_reported":1758316121,"current_range_meters":12400,"station_id":"ce4bgt12rcd13ifvqce0","pricing_plan_id":"cebpf4jnsgd1na2vs0mg"},{"bike_id":"931664d9-a1f9-4b23-9426-5b3082bf7d09","system_id":"levelo_inurba_marseille","lat":43.30942,"lon":5.40128,"is_reserved":false,"is_disabled":true,"rental_uris":{"android":"levelo://app?vid=931664d9-a1f9-4b23-9426-5b3082bf7d09","ios":"levelo://app?vid=931664d9-a1f9-4b23-9426-5b3082bf7d09"},"vehicle_type_id":"4","last_reported":1758316121,"current_range_meters":12800,"station_id":"ce4bgvp2rcd13ifvqct0","pricing_plan_id":"cebpf4jnsgd1na2vs0mg"},{"bike_id":"626b6093-634e-4cbb-b2d9-40fd2760e802","system_id":"levelo_inurba_marseille","lat":43.25832,"lon":5.39431,"is_reserved":false,"is_disabled":false,"rental_uris":{"android":"levelo://app?vid=626b6093-634e-4cbb-b2d9-40fd2760e802","ios":"levelo://app?vid=626b6093-634e-4cbb-b2d9-40fd2760e802"},"vehicle_type_id":"4","last_reported":1758316121,"current_range_meters":12800,"station_id":"ce4bhip2rcd13ifvqft0","pricing_plan_id":"cebpf4jnsgd1na2vs0mg"},{"bike_id":"784f9c16-0e74-4f9e-aa91-8729696f1791","system_id":"levelo_inurba_marseille","lat":43.29525,"lon":5.3904,"is_reserved":false,"is_disabled":false,"rental_uris":{"android":"levelo://app?vid=784f9c16-0e74-4f9e-aa91-8729696f1791","ios":"levelo://app?vid=784f9c16-0e74-4f9e-aa91-8729696f1791"},"vehicle_type_id":"4","last_reported":1758316121,"current_range_meters":12800,"station_id":"ce4bh3p2rcd13ifvqdp0","pricing_plan_id":"cebpf4jnsgd1na2vs0mg"},{"bike_id":"1835b825-2b28-461d-b8f7-a2b3804e765d","system_id":"levelo_inurba_marseille","lat":43.29249,"lon":5.38437,"is_reserved":false,"is_disabled":false,"rental_uris":{"android":"levelo://app?vid=1835b825-2b28-461d-b8f7-a2b3804e765d","ios":"levelo://app?vid=1835b825-2b28-461d-b8f7-a2b3804e765d"},"vehicle_type_id":"4","last_reported":1758316121,"current_range_meters":12800,"station_id":"ce4bh692rcd13ifvqea0","pricing_plan_id":"cebpf4jnsgd1na2vs0mg"},{"bike_id":"61d6bd44-8373-44dd-a68f-835ab26f25d7","system_id":"levelo_inurba_marseille","lat":43.29233,"lon":5.38482,"is_reserved":false,"is_disabled":false,"rental_uris":{"android":"levelo://app?vid=61d6bd44-8373-44dd-a68f-835ab26f25d7","ios":"levelo://app?vid=61d6bd44-8373-44dd-a68f-835ab26f25d7"},"vehicle_type_id":"4","last_reported":1758316121,"current_range_meters":12800,"station_id":"","pricing_plan_id":"cebpf4jnsgd1na2vs0mg"},{"bike_id":"9c0693b2-33f4-40d9-85fa-754a770a9d54","system_id":"levelo_inurba_marseille","lat":43.295188,"lon":5.390328,"is_reserved":false,"is_disabled":false,"rental_uris":{"android":"levelo://app?vid=9c0693b2-33f4-40d9-85fa-754a770a9d54","ios":"levelo://app?vid=9c0693b2-33f4-40d9-85fa-754a770a9d54"},"vehicle_type_id":"4","last_reported":1758316121,"current_range_meters":12800,"station_id":"ce4bh312rcd13ifvqdj0","pricing_plan_id":"cebpf4jnsgd1na2vs0mg"},{"bike_id":"7ef1fc27-109a-4648-982e-dbd35889305f","system_id":"levelo_inurba_marseille","lat":43.29808,"lon":5.38085,"is_reserved":false,"is_disabled":false,"rental_uris":{"android":"levelo://app?vid=7ef1fc27-109a-4648-982e-dbd35889305f","ios":"levelo://app?vid=7ef1fc27-109a-4648-982e-dbd35889305f"},"vehicle_type_id":"4","last_reported":1758316121,"current_range_meters":12800,"station_id":"ce4bgip2rcd13ifvqbb0","pricing_plan_id":"cebpf4jnsgd1na2vs0mg"},{"bike_id":"1697aa94-1b71-4641-bf1d-63765b076242","system_id":"levelo_inurba_marseille","lat":43.30327,"lon":5.40444,"is_reserved":false,"is_disabled":false,"rental_uris":{"android":"levelo://app?vid=1697aa94-1b71-4641-bf1d-63765b076242","ios":"levelo://app?vid=1697aa94-1b71-4641-bf1d-63765b076242"},"vehicle_type_id":"4","last_reported":1758316121,"current_range_meters":13600,"station_id":"ce4bh012rcd13ifvqd10","pricing_plan_id":"cebpf4jnsgd1na2vs0mg"},{"bike_id":"f85a8c4d-f9d0-4136-9b57-8bfb28db950c","system_id":"levelo_inurba_marseille","lat":43.31879,"lon":5.37431,"is_reserved":false,"is_disabled":false,"rental_uris":{"android":"levelo://app?vid=f85a8c4d-f9d0-4136-9b57-8bfb28db950c","ios":"levelo://app?vid=f85a8c4d-f9d0-4136-9b57-8bfb28db950c"},"vehicle_type_id":"4","last_reported":1758316121,"current_range_meters":13600,"station_id":"","pricing_plan_id":"cebpf4jnsgd1na2vs0mg"},{"bike_id":"747ba5b3-9ba5-4d45-9e26-ae34c1cba17e","system_id":"levelo_inurba_marseille","lat":43.29869,"lon":5.39728,"is_reserved":false,"is_disabled":false,"rental_uris":{"android":"levelo://app?vid=747ba5b3-9ba5-4d45-9e26-ae34c1cba17e","ios":"levelo://app?vid=747ba5b3-9ba5-4d45-9e26-ae34c1cba17e"},"vehicle_type_id":"4","last_reported":1758316121,"current_range_meters":13600,"station_id":"ce4bh0h2rcd13ifvqd50","pricing_plan_id":"cebpf4jnsgd1na2vs0mg"},{"bike_id":"13b2192c-5011-4eeb-8b6e-4bc8c055ae32","system_id":"levelo_inurba_marseille","lat":43.28468,"lon":5.35884,"is_reserved":false,"is_disabled":false,"rental_uris":{"android":"levelo://app?vid=13b2192c-5011-4eeb-8b6e-4bc8c055ae32","ios":"levelo://app?vid=13b2192c-5011-4eeb-8b6e-4bc8c055ae32"},"vehicle_type_id":"4","last_reported":1758316121,"current_range_meters":10800,"station_id":"ce4bhah2rcd13ifvqei0","pricing_plan_id":"cebpf4jnsgd1na2vs0mg"},{"bike_id":"33fc4344-1d91-4907-97d7-4c8413663889","system_id":"levelo_inurba_marseille","lat":43.26947,"lon":5.38632,"is_reserved":false,"is_disabled":false,"rental_uris":{"android":"levelo://app?vid=33fc4344-1d91-4907-97d7-4c8413663889","ios":"levelo://app?vid=33fc4344-1d91-4907-97d7-4c8413663889"},"vehicle_type_id":"4","last_reported":1758316121,"current_range_meters":13600,"station_id":"ce4bhh92rcd13ifvqfh0","pricing_plan_id":"cebpf4jnsgd1na2vs0mg"},{"bike_id":"e5338652-76af-4ad8-bccf-8f87248b4197","system_id":"levelo_inurba_marseille","lat":43.27938,"lon":5.41052,"is_reserved":false,"is_disabled":false,"rental_uris":{"android":"levelo://app?vid=e5338652-76af-4ad8-bccf-8f87248b4197","ios":"levelo://app?vid=e5338652-76af-4ad8-bccf-8f87248b4197"},"vehicle_type_id":"4","last_reported":1758316121,"current_range_meters":13600,"station_id":"ce4bhnp2rcd13ifvqh0g","pricing_plan_id":"cebpf4jnsgd1na2vs0mg"},{"bike_id":"a0c398b2-e840-46c1-a388-badc4185a7a2","system_id":"levelo_inurba_marseille","lat":43.28576,"lon":5.39493,"is_reserved":false,"is_disabled":false,"rental_uris":{"android":"levelo://app?vid=a0c398b2-e840-46c1-a388-badc4185a7a2","ios":"levelo://app?vid=a0c398b2-e840-46c1-a388-badc4185a7a2"},"vehicle_type_id":"4","last_reported":1758316121,"current_range_meters":14000,"station_id":"ce4bh292rcd13ifvqdg0","pricing_plan_id":"cebpf4jnsgd1na2vs0mg"},{"bike_id":"c475d11d-fe30-41a8-9239-a1aee45c6b04","system_id":"levelo_inurba_marseille","lat":43.27838,"lon":5.39205,"is_reserved":false,"is_disabled":false,"rental_uris":{"android":"levelo://app?vid=c475d11d-fe30-41a8-9239-a1aee45c6b04","ios":"levelo://app?vid=c475d11d-fe30-41a8-9239-a1aee45c6b04"},"vehicle_type_id":"4","last_reported":1758316121,"current_range_meters":14000,"station_id":"ce4bhjp2rcd13ifvqga0","pricing_plan_id":"cebpf4jnsgd1na2vs0mg"},{"bike_id":"438ead59-de14-4fa0-a61d-03a70a4122ae","system_id":"levelo_inurba_marseille","lat":43.97319,"lon":4.89144,"is_reserved":false,"is_disabled":true,"rental_uris":{"android":"levelo://app?vid=438ead59-de14-4fa0-a61d-03a70a4122ae","ios":"levelo://app?vid=438ead59-de14-4fa0-a61d-03a70a4122ae"},"vehicle_type_id":"4","last_reported":1758316121,"current_range_meters":14000,"station_id":"","pricing_plan_id":"cebpf4jnsgd1na2vs0mg"},{"bike_id":"bd867ced-463d-4224-a2f8-65a5b888e6b7","system_id":"levelo_inurba_marseille","lat":43.28475,"lon":5.3842,"is_reserved":false,"is_disabled":false,"rental_uris":{"android":"levelo://app?vid=bd867ced-463d-4224-a2f8-65a5b888e6b7","ios":"levelo://app?vid=bd867ced-463d-4224-a2f8-65a5b888e6b7"},"vehicle_type_id":"4","last_reported":1758316121,"current_range_meters":14400,"station_id":"ce4bh512rcd13ifvqe3g","pricing_plan_id":"cebpf4jnsgd1na2vs0mg"},{"bike_id":"fbf8b3ef-fab4-496b-9171-97052b3bc0bd","system_id":"levelo_inurba_marseille","lat":43.306026,"lon":5.372034,"is_reserved":false,"is_disabled":true,"rental_uris":{"android":"levelo://app?vid=fbf8b3ef-fab4-496b-9171-97052b3bc0bd","ios":"levelo://app?vid=fbf8b3ef-fab4-496b-9171-97052b3bc0bd"},"vehicle_type_id":"4","last_reported":1758316121,"current_range_meters":14400,"station_id":"ce4bgqh2rcd13ifvqc4g","pricing_plan_id":"cebpf4jnsgd1na2vs0mg"},{"bike_id":"27245587-82ed-48d8-b73e-02c57fe2aecd","system_id":"levelo_inurba_marseille","lat":43.28149,"lon":5.4265,"is_reserved":false,"is_disabled":false,"rental_uris":{"android":"levelo://app?vid=27245587-82ed-48d8-b73e-02c57fe2aecd","ios":"levelo://app?vid=27245587-82ed-48d8-b73e-02c57fe2aecd"},"vehicle_type_id":"4","last_reported":1758316121,"current_range_meters":14400,"station_id":"ce4bhnh2rcd13ifvqgug","pricing_plan_id":"cebpf4jnsgd1na2vs0mg"},{"bike_id":"50a98a41-9d7c-4671-909b-e200471756f8","system_id":"levelo_inurba_marseille","lat":43.29906,"lon":5.36559,"is_reserved":false,"is_disabled":false,"rental_uris":{"android":"levelo://app?vid=50a98a41-9d7c-4671-909b-e200471756f8","ios":"levelo://app?vid=50a98a41-9d7c-4671-909b-e200471756f8"},"vehicle_type_id":"4","last_reported":1758316121,"current_range_meters":14400,"station_id":"ce4bgm92rcd13ifvqbr0","pricing_plan_id":"cebpf4jnsgd1na2vs0mg"},{"bike_id":"3c70ac7d-f6f1-4b32-a730-a5dfc2e234bf","system_id":"levelo_inurba_marseille","lat":43.29258,"lon":5.37637,"is_reserved":false,"is_disabled":true,"rental_uris":{"android":"levelo://app?vid=3c70ac7d-f6f1-4b32-a730-a5dfc2e234bf","ios":"levelo://app?vid=3c70ac7d-f6f1-4b32-a730-a5dfc2e234bf"},"vehicle_type_id":"4","last_reported":1758316121,"current_range_meters":14400,"station_id":"ce4bgi12rcd13ifvqb80","pricing_plan_id":"cebpf4jnsgd1na2vs0mg"},{"bike_id":"dccefeab-758e-4850-a415-f18571ed0a71","system_id":"levelo_inurba_marseille","lat":43.295272,"lon":5.385401,"is_reserved":false,"is_disabled":true,"rental_uris":{"android":"levelo://app?vid=dccefeab-758e-4850-a415-f18571ed0a71","ios":"levelo://app?vid=dccefeab-758e-4850-a415-f18571ed0a71"},"vehicle_type_id":"4","last_reported":1758316121,"current_range_meters":14400,"station_id":"ce4bgih2rcd13ifvqba0","pricing_plan_id":"cebpf4jnsgd1na2vs0mg"},{"bike_id":"2499a65f-106c-4cee-823e-c9d939ffbc5f","system_id":"levelo_inurba_marseille","lat":43.31094,"lon":5.38594,"is_reserved":false,"is_disabled":false,"rental_uris":{"android":"levelo://app?vid=2499a65f-106c-4cee-823e-c9d939ffbc5f","ios":"levelo://app?vid=2499a65f-106c-4cee-823e-c9d939ffbc5f"},"vehicle_type_id":"4","last_reported":1758316121,"current_range_meters":14400,"station_id":"","pricing_plan_id":"cebpf4jnsgd1na2vs0mg"},{"bike_id":"d0e82d88-6691-4f50-8622-d36731a035b5","system_id":"levelo_inurba_marseille","lat":43.270242,"lon":5.423111,"is_reserved":false,"is_disabled":false,"rental_uris":{"android":"levelo://app?vid=d0e82d88-6691-4f50-8622-d36731a035b5","ios":"levelo://app?vid=d0e82d88-6691-4f50-8622-d36731a035b5"},"vehicle_type_id":"4","last_reported":1758316121,"current_range_meters":14800,"station_id":"","pricing_plan_id":"cebpf4jnsgd1na2vs0mg"},{"bike_id":"2d4703db-d9ba-4e0d-8d49-15ec7ebb5eeb","system_id":"levelo_inurba_marseille","lat":43.2783,"lon":5.392,"is_reserved":false,"is_disabled":false,"rental_uris":{"android":"levelo://app?vid=2d4703db-d9ba-4e0d-8d49-15ec7ebb5eeb","ios":"levelo://app?vid=2d4703db-d9ba-4e0d-8d49-15ec7ebb5eeb"},"vehicle_type_id":"4","last_reported":1758316121,"current_range_meters":14800,"station_id":"ce4bhjp2rcd13ifvqga0","pricing_plan_id":"cebpf4jnsgd1na2vs0mg"},{"bike_id":"c4706891-6ce1-4440-91ff-a3ecf2ff007e","system_id":"levelo_inurba_marseille","lat":43.26374,"lon":5.40075,"is_reserved":false,"is_disabled":false,"rental_uris":{"android":"levelo://app?vid=c4706891-6ce1-4440-91ff-a3ecf2ff007e","ios":"levelo://app?vid=c4706891-6ce1-4440-91ff-a3ecf2ff007e"},"vehicle_type_id":"4","last_reported":1758316121,"current_range_meters":14800,"station_id":"","pricing_plan_id":"cebpf4jnsgd1na2vs0mg"},{"bike_id":"9186af57-f08c-4cc8-9050-a3582004c079","system_id":"levelo_inurba_marseille","lat":43.25347,"lon":5.42172,"is_reserved":false,"is_disabled":false,"rental_uris":{"android":"levelo://app?vid=9186af57-f08c-4cc8-9050-a3582004c079","ios":"levelo://app?vid=9186af57-f08c-4cc8-9050-a3582004c079"},"vehicle_type_id":"4","last_reported":1758316121,"current_range_meters":14800,"station_id":"st_d2m65c5bi1j21697t3ng","pricing_plan_id":"cebpf4jnsgd1na2vs0mg"},{"bike_id":"dfebb5fd-b559-4a79-b54d-fbe5f4f3c93a","system_id":"levelo_inurba_marseille","lat":43.28613,"lon":5.35105,"is_reserved":false,"is_disabled":false,"rental_uris":{"android":"levelo://app?vid=dfebb5fd-b559-4a79-b54d-fbe5f4f3c93a","ios":"levelo://app?vid=dfebb5fd-b559-4a79-b54d-fbe5f4f3c93a"},"vehicle_type_id":"4","last_reported":1758316121,"current_range_meters":14800,"station_id":"ce4bhch2rcd13ifvqeug","pricing_plan_id":"cebpf4jnsgd1na2vs0mg"},{"bike_id":"df0199ee-ab4f-48ab-bbe9-404b970e49dc","system_id":"levelo_inurba_marseille","lat":43.29045,"lon":5.37204,"is_reserved":false,"is_disabled":true,"rental_uris":{"android":"levelo://app?vid=df0199ee-ab4f-48ab-bbe9-404b970e49dc","ios":"levelo://app?vid=df0199ee-ab4f-48ab-bbe9-404b970e49dc"},"vehicle_type_id":"4","last_reported":1758316121,"current_range_meters":14800,"station_id":"","pricing_plan_id":"cebpf4jnsgd1na2vs0mg"},{"bike_id":"d41250cc-7710-451d-b6c2-e517f2bba5f7","system_id":"levelo_inurba_marseille","lat":43.29259,"lon":5.38462,"is_reserved":false,"is_disabled":false,"rental_uris":{"android":"levelo://app?vid=d41250cc-7710-451d-b6c2-e517f2bba5f7","ios":"levelo://app?vid=d41250cc-7710-451d-b6c2-e517f2bba5f7"},"vehicle_type_id":"4","last_reported":1758316121,"current_range_meters":14800,"station_id":"ce4bh692rcd13ifvqea0","pricing_plan_id":"cebpf4jnsgd1na2vs0mg"},{"bike_id":"0bfe348e-6459-4dea-b9d4-f1251d15e612","system_id":"levelo_inurba_marseille","lat":43.32006,"lon":5.38137,"is_reserved":false,"is_disabled":false,"rental_uris":{"android":"levelo://app?vid=0bfe348e-6459-4dea-b9d4-f1251d15e612","ios":"levelo://app?vid=0bfe348e-6459-4dea-b9d4-f1251d15e612"},"vehicle_type_id":"4","last_reported":1758316121,"current_range_meters":15200,"station_id":"ce4bhr12rcd13ifvqhpg","pricing_plan_id":"cebpf4jnsgd1na2vs0mg"},{"bike_id":"bb72ba64-0211-468b-8863-8690777c217e","system_id":"levelo_inurba_marseille","lat":43.32111,"lon":5.3677,"is_reserved":false,"is_disabled":false,"rental_uris":{"android":"levelo://app?vid=bb72ba64-0211-468b-8863-8690777c217e","ios":"levelo://app?vid=bb72ba64-0211-468b-8863-8690777c217e"},"vehicle_type_id":"4","last_reported":1758316121,"current_range_meters":15200,"station_id":"ce4bhrh2rcd13ifvqhug","pricing_plan_id":"cebpf4jnsgd1na2vs0mg"},{"bike_id":"835975a0-27c7-47e7-bc1c-b8ba0b505127","system_id":"levelo_inurba_marseille","lat":43.326,"lon":5.37808,"is_reserved":false,"is_disabled":false,"rental_uris":{"android":"levelo://app?vid=835975a0-27c7-47e7-bc1c-b8ba0b505127","ios":"levelo://app?vid=835975a0-27c7-47e7-bc1c-b8ba0b505127"},"vehicle_type_id":"4","last_reported":1758316121,"current_range_meters":15200,"station_id":"","pricing_plan_id":"cebpf4jnsgd1na2vs0mg"},{"bike_id":"d367fabd-c2cd-4540-9efc-ecc1320b65f5","system_id":"levelo_inurba_marseille","lat":43.29536,"lon":5.38547,"is_reserved":false,"is_disabled":false,"rental_uris":{"android":"levelo://app?vid=d367fabd-c2cd-4540-9efc-ecc1320b65f5","ios":"levelo://app?vid=d367fabd-c2cd-4540-9efc-ecc1320b65f5"},"vehicle_type_id":"4","last_reported":1758316121,"current_range_meters":15200,"station_id":"ce4bgih2rcd13ifvqba0","pricing_plan_id":"cebpf4jnsgd1na2vs0mg"},{"bike_id":"23fac069-01cc-45b6-b24d-e676fd2da16a","system_id":"levelo_inurba_marseille","lat":43.29278,"lon":5.36838,"is_reserved":false,"is_disabled":true,"rental_uris":{"android":"levelo://app?vid=23fac069-01cc-45b6-b24d-e676fd2da16a","ios":"levelo://app?vid=23fac069-01cc-45b6-b24d-e676fd2da16a"},"vehicle_type_id":"4","last_reported":1758316121,"current_range_meters":15200,"station_id":"ce4bhbp2rcd13ifvqesg","pricing_plan_id":"cebpf4jnsgd1na2vs0mg"},{"bike_id":"9d06b621-0ce2-4359-a681-b5fad76100ad","system_id":"levelo_inurba_marseille","lat":43.29282,"lon":5.36851,"is_reserved":false,"is_disabled":false,"rental_uris":{"android":"levelo://app?vid=9d06b621-0ce2-4359-a681-b5fad76100ad","ios":"levelo://app?vid=9d06b621-0ce2-4359-a681-b5fad76100ad"},"vehicle_type_id":"4","last_reported":1758316121,"current_range_meters":15200,"station_id":"ce4bhbp2rcd13ifvqesg","pricing_plan_id":"cebpf4jnsgd1na2vs0mg"},{"bike_id":"5c7c2bf1-a8fd-45f2-90d6-7fa74078a8c5","system_id":"levelo_inurba_marseille","lat":43.32057,"lon":5.38141,"is_reserved":false,"is_disabled":false,"rental_uris":{"android":"levelo://app?vid=5c7c2bf1-a8fd-45f2-90d6-7fa74078a8c5","ios":"levelo://app?vid=5c7c2bf1-a8fd-45f2-90d6-7fa74078a8c5"},"vehicle_type_id":"4","last_reported":1758316121,"current_range_meters":16000,"station_id":"ce4bhr12rcd13ifvqhpg","pricing_plan_id":"cebpf4jnsgd1na2vs0mg"},{"bike_id":"7c00454d-87e2-4622-8e26-0a709fe028eb","system_id":"levelo_inurba_marseille","lat":43.29252,"lon":5.38443,"is_reserved":false,"is_disabled":false,"rental_uris":{"android":"levelo://app?vid=7c00454d-87e2-4622-8e26-0a709fe028eb","ios":"levelo://app?vid=7c00454d-87e2-4622-8e26-0a709fe028eb"},"vehicle_type_id":"4","last_reported":1758316121,"current_range_meters":16000,"station_id":"ce4bh692rcd13ifvqea0","pricing_plan_id":"cebpf4jnsgd1na2vs0mg"},{"bike_id":"15056272-9948-4fb8-8a3f-0dce85d9f376","system_id":"levelo_inurba_marseille","lat":43.27824,"lon":5.39204,"is_reserved":false,"is_disabled":true,"rental_uris":{"android":"levelo://app?vid=15056272-9948-4fb8-8a3f-0dce85d9f376","ios":"levelo://app?vid=15056272-9948-4fb8-8a3f-0dce85d9f376"},"vehicle_type_id":"4","last_reported":1758316121,"current_range_meters":16000,"station_id":"ce4bhjp2rcd13ifvqga0","pricing_plan_id":"cebpf4jnsgd1na2vs0mg"},{"bike_id":"18e3aeb1-b2cc-4222-967e-3fa218817483","system_id":"levelo_inurba_marseille","lat":43.29603,"lon":5.38103,"is_reserved":false,"is_disabled":false,"rental_uris":{"android":"levelo://app?vid=18e3aeb1-b2cc-4222-967e-3fa218817483","ios":"levelo://app?vid=18e3aeb1-b2cc-4222-967e-3fa218817483"},"vehicle_type_id":"4","last_reported":1758316121,"current_range_meters":16000,"station_id":"ce4bgl12rcd13ifvqbo0","pricing_plan_id":"cebpf4jnsgd1na2vs0mg"},{"bike_id":"bcb6dacc-f3c1-4961-8267-7f6dc1482c4a","system_id":"levelo_inurba_marseille","lat":43.29251,"lon":5.38455,"is_reserved":false,"is_disabled":false,"rental_uris":{"android":"levelo://app?vid=bcb6dacc-f3c1-4961-8267-7f6dc1482c4a","ios":"levelo://app?vid=bcb6dacc-f3c1-4961-8267-7f6dc1482c4a"},"vehicle_type_id":"4","last_reported":1758316121,"current_range_meters":16000,"station_id":"ce4bh692rcd13ifvqea0","pricing_plan_id":"cebpf4jnsgd1na2vs0mg"},{"bike_id":"fdcc689b-8bfd-49e7-9a87-e1ecca521fdd","system_id":"levelo_inurba_marseille","lat":43.3107,"lon":5.38362,"is_reserved":false,"is_disabled":false,"rental_uris":{"android":"levelo://app?vid=fdcc689b-8bfd-49e7-9a87-e1ecca521fdd","ios":"levelo://app?vid=fdcc689b-8bfd-49e7-9a87-e1ecca521fdd"},"vehicle_type_id":"4","last_reported":1758316121,"current_range_meters":16000,"station_id":"ce4bgv92rcd13ifvqcr0","pricing_plan_id":"cebpf4jnsgd1na2vs0mg"},{"bike_id":"ddd0c6de-ab84-4ea8-ad27-a731087c8ea3","system_id":"levelo_inurba_marseille","lat":43.305395,"lon":5.365589,"is_reserved":false,"is_disabled":false,"rental_uris":{"android":"levelo://app?vid=ddd0c6de-ab84-4ea8-ad27-a731087c8ea3","ios":"levelo://app?vid=ddd0c6de-ab84-4ea8-ad27-a731087c8ea3"},"vehicle_type_id":"4","last_reported":1758316121,"current_range_meters":16000,"station_id":"ce4bgs12rcd13ifvqcag","pricing_plan_id":"cebpf4jnsgd1na2vs0mg"},{"bike_id":"b1b9b7c3-9249-4533-a029-90c49e2bf642","system_id":"levelo_inurba_marseille","lat":43.29548,"lon":5.37524,"is_reserved":false,"is_disabled":false,"rental_uris":{"android":"levelo://app?vid=b1b9b7c3-9249-4533-a029-90c49e2bf642","ios":"levelo://app?vid=b1b9b7c3-9249-4533-a029-90c49e2bf642"},"vehicle_type_id":"4","last_reported":1758316121,"current_range_meters":16000,"station_id":"ce4bgkp2rcd13ifvqbmg","pricing_plan_id":"cebpf4jnsgd1na2vs0mg"},{"bike_id":"43d57fd4-047e-4ac8-97e5-ec9b96239472","system_id":"levelo_inurba_marseille","lat":43.32595,"lon":5.38924,"is_reserved":false,"is_disabled":false,"rental_uris":{"android":"levelo://app?vid=43d57fd4-047e-4ac8-97e5-ec9b96239472","ios":"levelo://app?vid=43d57fd4-047e-4ac8-97e5-ec9b96239472"},"vehicle_type_id":"4","last_reported":1758316121,"current_range_meters":16000,"station_id":"","pricing_plan_id":"cebpf4jnsgd1na2vs0mg"},{"bike_id":"8e86fe12-b2d6-4764-9720-31f5ab462b7b","system_id":"levelo_inurba_marseille","lat":43.22567,"lon":5.41625,"is_reserved":false,"is_disabled":false,"rental_uris":{"android":"levelo://app?vid=8e86fe12-b2d6-4764-9720-31f5ab462b7b","ios":"levelo://app?vid=8e86fe12-b2d6-4764-9720-31f5ab462b7b"},"vehicle_type_id":"4","last_reported":1758316121,"current_range_meters":16400,"station_id":"st_d2o4gvlbi1j2169b742g","pricing_plan_id":"cebpf4jnsgd1na2vs0mg"},{"bike_id":"a1a12c71-6d96-4648-a25f-8df642a6dc66","system_id":"levelo_inurba_marseille","lat":43.284756,"lon":5.384324,"is_reserved":false,"is_disabled":true,"rental_uris":{"android":"levelo://app?vid=a1a12c71-6d96-4648-a25f-8df642a6dc66","ios":"levelo://app?vid=a1a12c71-6d96-4648-a25f-8df642a6dc66"},"vehicle_type_id":"4","last_reported":1758316121,"current_range_meters":16400,"station_id":"ce4bh512rcd13ifvqe3g","pricing_plan_id":"cebpf4jnsgd1na2vs0mg"},{"bike_id":"100fc699-7bc2-45de-9e70-967069e79569","system_id":"levelo_inurba_marseille","lat":43.27935,"lon":5.41052,"is_reserved":false,"is_disabled":false,"rental_uris":{"android":"levelo://app?vid=100fc699-7bc2-45de-9e70-967069e79569","ios":"levelo://app?vid=100fc699-7bc2-45de-9e70-967069e79569"},"vehicle_type_id":"4","last_reported":1758316121,"current_range_meters":16400,"station_id":"ce4bhnp2rcd13ifvqh0g","pricing_plan_id":"cebpf4jnsgd1na2vs0mg"},{"bike_id":"8f8458a7-d63f-485d-b4e8-7b4f14400c95","system_id":"levelo_inurba_marseille","lat":43.292532,"lon":5.384476,"is_reserved":false,"is_disabled":false,"rental_uris":{"android":"levelo://app?vid=8f8458a7-d63f-485d-b4e8-7b4f14400c95","ios":"levelo://app?vid=8f8458a7-d63f-485d-b4e8-7b4f14400c95"},"vehicle_type_id":"4","last_reported":1758316121,"current_range_meters":16400,"station_id":"ce4bh692rcd13ifvqea0","pricing_plan_id":"cebpf4jnsgd1na2vs0mg"},{"bike_id":"05ca0aa0-5596-4971-a0c3-94e65df6bd50","system_id":"levelo_inurba_marseille","lat":43.22553,"lon":5.41656,"is_reserved":false,"is_disabled":false,"rental_uris":{"android":"levelo://app?vid=05ca0aa0-5596-4971-a0c3-94e65df6bd50","ios":"levelo://app?vid=05ca0aa0-5596-4971-a0c3-94e65df6bd50"},"vehicle_type_id":"4","last_reported":1758316121,"current_range_meters":16400,"station_id":"st_d2o4gvlbi1j2169b742g","pricing_plan_id":"cebpf4jnsgd1na2vs0mg"},{"bike_id":"3a738d32-7d3d-4e70-a41c-d1bcf998b110","system_id":"levelo_inurba_marseille","lat":43.29838,"lon":5.38147,"is_reserved":false,"is_disabled":false,"rental_uris":{"android":"levelo://app?vid=3a738d32-7d3d-4e70-a41c-d1bcf998b110","ios":"levelo://app?vid=3a738d32-7d3d-4e70-a41c-d1bcf998b110"},"vehicle_type_id":"4","last_reported":1758316121,"current_range_meters":16400,"station_id":"","pricing_plan_id":"cebpf4jnsgd1na2vs0mg"},{"bike_id":"76ecefcc-5748-4899-a711-7d831c2a10a3","system_id":"levelo_inurba_marseille","lat":43.29026,"lon":5.3864,"is_reserved":false,"is_disabled":false,"rental_uris":{"android":"levelo://app?vid=76ecefcc-5748-4899-a711-7d831c2a10a3","ios":"levelo://app?vid=76ecefcc-5748-4899-a711-7d831c2a10a3"},"vehicle_type_id":"4","last_reported":1758316121,"current_range_meters":16400,"station_id":"ce4bh4p2rcd13ifvqe0g","pricing_plan_id":"cebpf4jnsgd1na2vs0mg"},{"bike_id":"b810ec46-97ab-4356-95f9-0c9d02506d5a","system_id":"levelo_inurba_marseille","lat":43.24458,"lon":5.39039,"is_reserved":false,"is_disabled":false,"rental_uris":{"android":"levelo://app?vid=b810ec46-97ab-4356-95f9-0c9d02506d5a","ios":"levelo://app?vid=b810ec46-97ab-4356-95f9-0c9d02506d5a"},"vehicle_type_id":"4","last_reported":1758316121,"current_range_meters":16800,"station_id":"","pricing_plan_id":"cebpf4jnsgd1na2vs0mg"},{"bike_id":"5d443146-ce66-4ed7-94f6-5a1ef16d19ce","system_id":"levelo_inurba_marseille","lat":43.29569,"lon":5.37505,"is_reserved":false,"is_disabled":false,"rental_uris":{"android":"levelo://app?vid=5d443146-ce66-4ed7-94f6-5a1ef16d19ce","ios":"levelo://app?vid=5d443146-ce66-4ed7-94f6-5a1ef16d19ce"},"vehicle_type_id":"4","last_reported":1758316121,"current_range_meters":16800,"station_id":"ce4bgh92rcd13ifvqb50","pricing_plan_id":"cebpf4jnsgd1na2vs0mg"},{"bike_id":"80c27fd3-c57d-45ad-8ced-9be1d1bffcb0","system_id":"levelo_inurba_marseille","lat":43.28731,"lon":5.36083,"is_reserved":false,"is_disabled":false,"rental_uris":{"android":"levelo://app?vid=80c27fd3-c57d-45ad-8ced-9be1d1bffcb0","ios":"levelo://app?vid=80c27fd3-c57d-45ad-8ced-9be1d1bffcb0"},"vehicle_type_id":"4","last_reported":1758316121,"current_range_meters":16800,"station_id":"cki0cbj6b192h4jlfktg","pricing_plan_id":"cebpf4jnsgd1na2vs0mg"},{"bike_id":"039c3eec-9f3a-4c2e-af73-085933b8065c","system_id":"levelo_inurba_marseille","lat":43.31167,"lon":5.3872,"is_reserved":false,"is_disabled":false,"rental_uris":{"android":"levelo://app?vid=039c3eec-9f3a-4c2e-af73-085933b8065c","ios":"levelo://app?vid=039c3eec-9f3a-4c2e-af73-085933b8065c"},"vehicle_type_id":"4","last_reported":1758316121,"current_range_meters":16800,"station_id":"ce4bgv12rcd13ifvqcp0","pricing_plan_id":"cebpf4jnsgd1na2vs0mg"},{"bike_id":"0199f79d-4ea5-4aeb-bc01-0823c6a659a9","system_id":"levelo_inurba_marseille","lat":43.29245,"lon":5.3845,"is_reserved":false,"is_disabled":false,"rental_uris":{"android":"levelo://app?vid=0199f79d-4ea5-4aeb-bc01-0823c6a659a9","ios":"levelo://app?vid=0199f79d-4ea5-4aeb-bc01-0823c6a659a9"},"vehicle_type_id":"4","last_reported":1758316121,"current_range_meters":16800,"station_id":"ce4bh692rcd13ifvqea0","pricing_plan_id":"cebpf4jnsgd1na2vs0mg"},{"bike_id":"55d1bc08-fd54-4a82-afc7-2adcaa7b1c4e","system_id":"levelo_inurba_marseille","lat":43.30008,"lon":5.37723,"is_reserved":false,"is_disabled":false,"rental_uris":{"android":"levelo://app?vid=55d1bc08-fd54-4a82-afc7-2adcaa7b1c4e","ios":"levelo://app?vid=55d1bc08-fd54-4a82-afc7-2adcaa7b1c4e"},"vehicle_type_id":"4","last_reported":1758316121,"current_range_meters":16800,"station_id":"","pricing_plan_id":"cebpf4jnsgd1na2vs0mg"},{"bike_id":"367dfdc0-1134-4793-a6df-1c26342946d4","system_id":"levelo_inurba_marseille","lat":43.29527,"lon":5.38551,"is_reserved":false,"is_disabled":false,"rental_uris":{"android":"levelo://app?vid=367dfdc0-1134-4793-a6df-1c26342946d4","ios":"levelo://app?vid=367dfdc0-1134-4793-a6df-1c26342946d4"},"vehicle_type_id":"4","last_reported":1758316121,"current_range_meters":16800,"station_id":"ce4bgih2rcd13ifvqba0","pricing_plan_id":"cebpf4jnsgd1na2vs0mg"},{"bike_id":"fe88b160-fe9b-426c-9532-d75c476c785a","system_id":"levelo_inurba_marseille","lat":43.28941,"lon":5.366287,"is_reserved":false,"is_disabled":false,"rental_uris":{"android":"levelo://app?vid=fe88b160-fe9b-426c-9532-d75c476c785a","ios":"levelo://app?vid=fe88b160-fe9b-426c-9532-d75c476c785a"},"vehicle_type_id":"4","last_reported":1758316121,"current_range_meters":16800,"station_id":"ce4bhap2rcd13ifvqek0","pricing_plan_id":"cebpf4jnsgd1na2vs0mg"},{"bike_id":"0f7caa9f-1d1a-40d7-9b4a-2f8720e63681","system_id":"levelo_inurba_marseille","lat":43.30868,"lon":5.37488,"is_reserved":false,"is_disabled":false,"rental_uris":{"android":"levelo://app?vid=0f7caa9f-1d1a-40d7-9b4a-2f8720e63681","ios":"levelo://app?vid=0f7caa9f-1d1a-40d7-9b4a-2f8720e63681"},"vehicle_type_id":"4","last_reported":1758316121,"current_range_meters":17200,"station_id":"","pricing_plan_id":"cebpf4jnsgd1na2vs0mg"},{"bike_id":"014b859c-8e48-4671-b9c1-4ee13801e82d","system_id":"levelo_inurba_marseille","lat":43.29268,"lon":5.38451,"is_reserved":false,"is_disabled":false,"rental_uris":{"android":"levelo://app?vid=014b859c-8e48-4671-b9c1-4ee13801e82d","ios":"levelo://app?vid=014b859c-8e48-4671-b9c1-4ee13801e82d"},"vehicle_type_id":"4","last_reported":1758316121,"current_range_meters":17200,"station_id":"ce4bh692rcd13ifvqea0","pricing_plan_id":"cebpf4jnsgd1na2vs0mg"},{"bike_id":"e0ef7392-1099-4052-a8c2-600c0dd2bf63","system_id":"levelo_inurba_marseille","lat":43.29532,"lon":5.38547,"is_reserved":false,"is_disabled":false,"rental_uris":{"android":"levelo://app?vid=e0ef7392-1099-4052-a8c2-600c0dd2bf63","ios":"levelo://app?vid=e0ef7392-1099-4052-a8c2-600c0dd2bf63"},"vehicle_type_id":"4","last_reported":1758316121,"current_range_meters":17200,"station_id":"ce4bgih2rcd13ifvqba0","pricing_plan_id":"cebpf4jnsgd1na2vs0mg"},{"bike_id":"7982c2e1-87d1-4f7b-945d-91a7e04a6246","system_id":"levelo_inurba_marseille","lat":43.29193,"lon":5.3933,"is_reserved":false,"is_disabled":false,"rental_uris":{"android":"levelo://app?vid=7982c2e1-87d1-4f7b-945d-91a7e04a6246","ios":"levelo://app?vid=7982c2e1-87d1-4f7b-945d-91a7e04a6246"},"vehicle_type_id":"4","last_reported":1758316121,"current_range_meters":17200,"station_id":"ce4bh192rcd13ifvqdd0","pricing_plan_id":"cebpf4jnsgd1na2vs0mg"},{"bike_id":"aa0a6741-a372-47d5-9bae-35556397abcf","system_id":"levelo_inurba_marseille","lat":43.29525,"lon":5.39034,"is_reserved":false,"is_disabled":false,"rental_uris":{"android":"levelo://app?vid=aa0a6741-a372-47d5-9bae-35556397abcf","ios":"levelo://app?vid=aa0a6741-a372-47d5-9bae-35556397abcf"},"vehicle_type_id":"4","last_reported":1758316121,"current_range_meters":17200,"station_id":"ce4bh3p2rcd13ifvqdp0","pricing_plan_id":"cebpf4jnsgd1na2vs0mg"},{"bike_id":"375f1086-376e-46a4-ac8a-31c6cfb4cc1b","system_id":"levelo_inurba_marseille","lat":43.27973,"lon":5.41675,"is_reserved":false,"is_disabled":false,"rental_uris":{"android":"levelo://app?vid=375f1086-376e-46a4-ac8a-31c6cfb4cc1b","ios":"levelo://app?vid=375f1086-376e-46a4-ac8a-31c6cfb4cc1b"},"vehicle_type_id":"4","last_reported":1758316121,"current_range_meters":17200,"station_id":"ce4bho12rcd13ifvqh1g","pricing_plan_id":"cebpf4jnsgd1na2vs0mg"},{"bike_id":"58ec57d0-0fb6-4a89-9d42-84862117fe57","system_id":"levelo_inurba_marseille","lat":43.29271,"lon":5.38437,"is_reserved":false,"is_disabled":false,"rental_uris":{"android":"levelo://app?vid=58ec57d0-0fb6-4a89-9d42-84862117fe57","ios":"levelo://app?vid=58ec57d0-0fb6-4a89-9d42-84862117fe57"},"vehicle_type_id":"4","last_reported":1758316121,"current_range_meters":17200,"station_id":"ce4bh692rcd13ifvqea0","pricing_plan_id":"cebpf4jnsgd1na2vs0mg"},{"bike_id":"ed441e3b-67eb-4038-8de7-15ae5b7f3dee","system_id":"levelo_inurba_marseille","lat":43.2418,"lon":5.39735,"is_reserved":false,"is_disabled":false,"rental_uris":{"android":"levelo://app?vid=ed441e3b-67eb-4038-8de7-15ae5b7f3dee","ios":"levelo://app?vid=ed441e3b-67eb-4038-8de7-15ae5b7f3dee"},"vehicle_type_id":"4","last_reported":1758316121,"current_range_meters":17200,"station_id":"ce4bhn12rcd13ifvqgpg","pricing_plan_id":"cebpf4jnsgd1na2vs0mg"},{"bike_id":"74be8966-8d9f-4462-a6ee-04df0145586d","system_id":"levelo_inurba_marseille","lat":43.29234,"lon":5.40902,"is_reserved":false,"is_disabled":true,"rental_uris":{"android":"levelo://app?vid=74be8966-8d9f-4462-a6ee-04df0145586d","ios":"levelo://app?vid=74be8966-8d9f-4462-a6ee-04df0145586d"},"vehicle_type_id":"4","last_reported":1758316121,"current_range_meters":17200,"station_id":"ce4bh192rcd13ifvqdc0","pricing_plan_id":"cebpf4jnsgd1na2vs0mg"},{"bike_id":"7c6c39b1-f16d-4724-96c0-57f2da0d0a53","system_id":"levelo_inurba_marseille","lat":43.30201,"lon":5.39472,"is_reserved":false,"is_disabled":false,"rental_uris":{"android":"levelo://app?vid=7c6c39b1-f16d-4724-96c0-57f2da0d0a53","ios":"levelo://app?vid=7c6c39b1-f16d-4724-96c0-57f2da0d0a53"},"vehicle_type_id":"4","last_reported":1758316121,"current_range_meters":17200,"station_id":"ce4bh0p2rcd13ifvqd70","pricing_plan_id":"cebpf4jnsgd1na2vs0mg"},{"bike_id":"2a00cb84-e9e6-4781-804d-0494d7480777","system_id":"levelo_inurba_marseille","lat":43.22562,"lon":5.41626,"is_reserved":false,"is_disabled":false,"rental_uris":{"android":"levelo://app?vid=2a00cb84-e9e6-4781-804d-0494d7480777","ios":"levelo://app?vid=2a00cb84-e9e6-4781-804d-0494d7480777"},"vehicle_type_id":"4","last_reported":1758316121,"current_range_meters":17600,"station_id":"st_d2o4gvlbi1j2169b742g","pricing_plan_id":"cebpf4jnsgd1na2vs0mg"},{"bike_id":"2c734c36-442f-468e-ab47-e34ad5183e32","system_id":"levelo_inurba_marseille","lat":43.25772,"lon":5.41047,"is_reserved":false,"is_disabled":false,"rental_uris":{"android":"levelo://app?vid=2c734c36-442f-468e-ab47-e34ad5183e32","ios":"levelo://app?vid=2c734c36-442f-468e-ab47-e34ad5183e32"},"vehicle_type_id":"4","last_reported":1758316121,"current_range_meters":17600,"station_id":"","pricing_plan_id":"cebpf4jnsgd1na2vs0mg"},{"bike_id":"f0e00d43-5373-4ee0-909a-efad5f7b6f51","system_id":"levelo_inurba_marseille","lat":43.29359,"lon":5.37832,"is_reserved":false,"is_disabled":false,"rental_uris":{"android":"levelo://app?vid=f0e00d43-5373-4ee0-909a-efad5f7b6f51","ios":"levelo://app?vid=f0e00d43-5373-4ee0-909a-efad5f7b6f51"},"vehicle_type_id":"4","last_reported":1758316121,"current_range_meters":17600,"station_id":"ce4bgjh2rcd13ifvqbf0","pricing_plan_id":"cebpf4jnsgd1na2vs0mg"},{"bike_id":"39ac667b-bbdf-4442-a8e5-e7700a9d1554","system_id":"levelo_inurba_marseille","lat":43.31075,"lon":5.38354,"is_reserved":false,"is_disabled":false,"rental_uris":{"android":"levelo://app?vid=39ac667b-bbdf-4442-a8e5-e7700a9d1554","ios":"levelo://app?vid=39ac667b-bbdf-4442-a8e5-e7700a9d1554"},"vehicle_type_id":"4","last_reported":1758316121,"current_range_meters":17600,"station_id":"ce4bgv92rcd13ifvqcr0","pricing_plan_id":"cebpf4jnsgd1na2vs0mg"},{"bike_id":"b4eb8ad2-3215-4100-8be8-4ebbc5c9ab6f","system_id":"levelo_inurba_marseille","lat":43.3113,"lon":5.38987,"is_reserved":false,"is_disabled":false,"rental_uris":{"android":"levelo://app?vid=b4eb8ad2-3215-4100-8be8-4ebbc5c9ab6f","ios":"levelo://app?vid=b4eb8ad2-3215-4100-8be8-4ebbc5c9ab6f"},"vehicle_type_id":"4","last_reported":1758316121,"current_range_meters":17600,"station_id":"","pricing_plan_id":"cebpf4jnsgd1na2vs0mg"},{"bike_id":"37057e3f-fd7e-4766-bd79-e5585a8584a6","system_id":"levelo_inurba_marseille","lat":43.30444,"lon":5.38911,"is_reserved":false,"is_disabled":false,"rental_uris":{"android":"levelo://app?vid=37057e3f-fd7e-4766-bd79-e5585a8584a6","ios":"levelo://app?vid=37057e3f-fd7e-4766-bd79-e5585a8584a6"},"vehicle_type_id":"4","last_reported":1758316121,"current_range_meters":17200,"station_id":"ce4bgk12rcd13ifvqbi0","pricing_plan_id":"cebpf4jnsgd1na2vs0mg"},{"bike_id":"8e047761-4cb2-4fa7-920f-ce3feb6390f9","system_id":"levelo_inurba_marseille","lat":43.33777,"lon":5.37445,"is_reserved":false,"is_disabled":false,"rental_uris":{"android":"levelo://app?vid=8e047761-4cb2-4fa7-920f-ce3feb6390f9","ios":"levelo://app?vid=8e047761-4cb2-4fa7-920f-ce3feb6390f9"},"vehicle_type_id":"4","last_reported":1758316121,"current_range_meters":17600,"station_id":"","pricing_plan_id":"cebpf4jnsgd1na2vs0mg"},{"bike_id":"a07a513e-e5a9-4481-8592-d991379bc662","system_id":"levelo_inurba_marseille","lat":43.337536,"lon":5.374536,"is_reserved":false,"is_disabled":false,"rental_uris":{"android":"levelo://app?vid=a07a513e-e5a9-4481-8592-d991379bc662","ios":"levelo://app?vid=a07a513e-e5a9-4481-8592-d991379bc662"},"vehicle_type_id":"4","last_reported":1758316121,"current_range_meters":17600,"station_id":"","pricing_plan_id":"cebpf4jnsgd1na2vs0mg"},{"bike_id":"359acfdd-6088-470c-a135-df2f79f8c3d6","system_id":"levelo_inurba_marseille","lat":43.28695,"lon":5.37913,"is_reserved":false,"is_disabled":false,"rental_uris":{"android":"levelo://app?vid=359acfdd-6088-470c-a135-df2f79f8c3d6","ios":"levelo://app?vid=359acfdd-6088-470c-a135-df2f79f8c3d6"},"vehicle_type_id":"4","last_reported":1758316121,"current_range_meters":18000,"station_id":"ce4bh9p2rcd13ifvqec0","pricing_plan_id":"cebpf4jnsgd1na2vs0mg"},{"bike_id":"63b11244-ad32-4a85-a54f-b82e9260d15b","system_id":"levelo_inurba_marseille","lat":43.28723,"lon":5.37915,"is_reserved":false,"is_disabled":false,"rental_uris":{"android":"levelo://app?vid=63b11244-ad32-4a85-a54f-b82e9260d15b","ios":"levelo://app?vid=63b11244-ad32-4a85-a54f-b82e9260d15b"},"vehicle_type_id":"4","last_reported":1758316121,"current_range_meters":18000,"station_id":"ce4bh9p2rcd13ifvqec0","pricing_plan_id":"cebpf4jnsgd1na2vs0mg"},{"bike_id":"68adab37-f5ad-4072-b58a-fe6c68285ca6","system_id":"levelo_inurba_marseille","lat":43.30621,"lon":5.37656,"is_reserved":false,"is_disabled":false,"rental_uris":{"android":"levelo://app?vid=68adab37-f5ad-4072-b58a-fe6c68285ca6","ios":"levelo://app?vid=68adab37-f5ad-4072-b58a-fe6c68285ca6"},"vehicle_type_id":"4","last_reported":1758316121,"current_range_meters":18000,"station_id":"","pricing_plan_id":"cebpf4jnsgd1na2vs0mg"},{"bike_id":"5d08312c-780c-424c-aac9-65f8ccfb5ace","system_id":"levelo_inurba_marseille","lat":43.25086,"lon":5.39523,"is_reserved":false,"is_disabled":false,"rental_uris":{"android":"levelo://app?vid=5d08312c-780c-424c-aac9-65f8ccfb5ace","ios":"levelo://app?vid=5d08312c-780c-424c-aac9-65f8ccfb5ace"},"vehicle_type_id":"4","last_reported":1758316121,"current_range_meters":18000,"station_id":"ce4bhm12rcd13ifvqgkg","pricing_plan_id":"cebpf4jnsgd1na2vs0mg"},{"bike_id":"820b6674-61f1-4f23-9e19-854ba826eb91","system_id":"levelo_inurba_marseille","lat":43.29283,"lon":5.384564,"is_reserved":false,"is_disabled":false,"rental_uris":{"android":"levelo://app?vid=820b6674-61f1-4f23-9e19-854ba826eb91","ios":"levelo://app?vid=820b6674-61f1-4f23-9e19-854ba826eb91"},"vehicle_type_id":"4","last_reported":1758316121,"current_range_meters":18000,"station_id":"ce4bh692rcd13ifvqea0","pricing_plan_id":"cebpf4jnsgd1na2vs0mg"},{"bike_id":"65e76f30-a41c-440e-b443-0ad69a5e298f","system_id":"levelo_inurba_marseille","lat":43.298791,"lon":5.39745,"is_reserved":false,"is_disabled":false,"rental_uris":{"android":"levelo://app?vid=65e76f30-a41c-440e-b443-0ad69a5e298f","ios":"levelo://app?vid=65e76f30-a41c-440e-b443-0ad69a5e298f"},"vehicle_type_id":"4","last_reported":1758316121,"current_range_meters":18000,"station_id":"ce4bh0h2rcd13ifvqd50","pricing_plan_id":"cebpf4jnsgd1na2vs0mg"},{"bike_id":"d370ebaf-e74d-4d4a-ae52-2f34034652f3","system_id":"levelo_inurba_marseille","lat":43.29,"lon":5.35613,"is_reserved":false,"is_disabled":false,"rental_uris":{"android":"levelo://app?vid=d370ebaf-e74d-4d4a-ae52-2f34034652f3","ios":"levelo://app?vid=d370ebaf-e74d-4d4a-ae52-2f34034652f3"},"vehicle_type_id":"4","last_reported":1758316121,"current_range_meters":18800,"station_id":"ce4bhb92rcd13ifvqen0","pricing_plan_id":"cebpf4jnsgd1na2vs0mg"},{"bike_id":"56975eb0-de58-4eee-bb76-c1ecb40f5858","system_id":"levelo_inurba_marseille","lat":43.31119,"lon":5.377651,"is_reserved":false,"is_disabled":false,"rental_uris":{"android":"levelo://app?vid=56975eb0-de58-4eee-bb76-c1ecb40f5858","ios":"levelo://app?vid=56975eb0-de58-4eee-bb76-c1ecb40f5858"},"vehicle_type_id":"4","last_reported":1758316121,"current_range_meters":18800,"station_id":"ce4bgt92rcd13ifvqcg0","pricing_plan_id":"cebpf4jnsgd1na2vs0mg"},{"bike_id":"c4dd266e-aaee-49b1-a3ec-2846548e41c4","system_id":"levelo_inurba_marseille","lat":43.24997,"lon":5.38931,"is_reserved":false,"is_disabled":false,"rental_uris":{"android":"levelo://app?vid=c4dd266e-aaee-49b1-a3ec-2846548e41c4","ios":"levelo://app?vid=c4dd266e-aaee-49b1-a3ec-2846548e41c4"},"vehicle_type_id":"4","last_reported":1758316121,"current_range_meters":18800,"station_id":"ce4bhgp2rcd13ifvqfd0","pricing_plan_id":"cebpf4jnsgd1na2vs0mg"},{"bike_id":"5485ef6f-688a-43aa-ac7e-9bb003cf9864","system_id":"levelo_inurba_marseille","lat":43.29614,"lon":5.3772,"is_reserved":false,"is_disabled":false,"rental_uris":{"android":"levelo://app?vid=5485ef6f-688a-43aa-ac7e-9bb003cf9864","ios":"levelo://app?vid=5485ef6f-688a-43aa-ac7e-9bb003cf9864"},"vehicle_type_id":"4","last_reported":1758316121,"current_range_meters":18800,"station_id":"ce4bgi92rcd13ifvqb90","pricing_plan_id":"cebpf4jnsgd1na2vs0mg"},{"bike_id":"5314d76e-6761-463c-9d7a-edcaa9c2da84","system_id":"levelo_inurba_marseille","lat":43.29598,"lon":5.38104,"is_reserved":false,"is_disabled":false,"rental_uris":{"android":"levelo://app?vid=5314d76e-6761-463c-9d7a-edcaa9c2da84","ios":"levelo://app?vid=5314d76e-6761-463c-9d7a-edcaa9c2da84"},"vehicle_type_id":"4","last_reported":1758316121,"current_range_meters":18800,"station_id":"ce4bgl12rcd13ifvqbo0","pricing_plan_id":"cebpf4jnsgd1na2vs0mg"},{"bike_id":"bdaa96f0-ba94-407a-9f4f-03908943cdaf","system_id":"levelo_inurba_marseille","lat":43.32338,"lon":5.40625,"is_reserved":false,"is_disabled":false,"rental_uris":{"android":"levelo://app?vid=bdaa96f0-ba94-407a-9f4f-03908943cdaf","ios":"levelo://app?vid=bdaa96f0-ba94-407a-9f4f-03908943cdaf"},"vehicle_type_id":"4","last_reported":1758316121,"current_range_meters":18800,"station_id":"ce4bhq92rcd13ifvqhjg","pricing_plan_id":"cebpf4jnsgd1na2vs0mg"},{"bike_id":"8b6df30c-b964-4fe5-8710-0b3d910abc47","system_id":"levelo_inurba_marseille","lat":43.286962,"lon":5.373764,"is_reserved":false,"is_disabled":false,"rental_uris":{"android":"levelo://app?vid=8b6df30c-b964-4fe5-8710-0b3d910abc47","ios":"levelo://app?vid=8b6df30c-b964-4fe5-8710-0b3d910abc47"},"vehicle_type_id":"4","last_reported":1758316121,"current_range_meters":18800,"station_id":"ce4bh3p2rcd13ifvqdq0","pricing_plan_id":"cebpf4jnsgd1na2vs0mg"},{"bike_id":"726d7f3c-b8b6-4170-848b-463a0d26f48e","system_id":"levelo_inurba_marseille","lat":43.25819,"lon":5.39442,"is_reserved":false,"is_disabled":false,"rental_uris":{"android":"levelo://app?vid=726d7f3c-b8b6-4170-848b-463a0d26f48e","ios":"levelo://app?vid=726d7f3c-b8b6-4170-848b-463a0d26f48e"},"vehicle_type_id":"4","last_reported":1758316121,"current_range_meters":18800,"station_id":"ce4bhip2rcd13ifvqft0","pricing_plan_id":"cebpf4jnsgd1na2vs0mg"},{"bike_id":"19613896-b63a-44bc-92e8-994deaddf924","system_id":"levelo_inurba_marseille","lat":43.22551,"lon":5.41643,"is_reserved":false,"is_disabled":false,"rental_uris":{"android":"levelo://app?vid=19613896-b63a-44bc-92e8-994deaddf924","ios":"levelo://app?vid=19613896-b63a-44bc-92e8-994deaddf924"},"vehicle_type_id":"4","last_reported":1758316121,"current_range_meters":18800,"station_id":"st_d2o4gvlbi1j2169b742g","pricing_plan_id":"cebpf4jnsgd1na2vs0mg"},{"bike_id":"805747b4-02c5-4c6b-9d7e-ca58d54b740f","system_id":"levelo_inurba_marseille","lat":43.29251,"lon":5.38452,"is_reserved":false,"is_disabled":false,"rental_uris":{"android":"levelo://app?vid=805747b4-02c5-4c6b-9d7e-ca58d54b740f","ios":"levelo://app?vid=805747b4-02c5-4c6b-9d7e-ca58d54b740f"},"vehicle_type_id":"4","last_reported":1758316121,"current_range_meters":19200,"station_id":"ce4bh692rcd13ifvqea0","pricing_plan_id":"cebpf4jnsgd1na2vs0mg"},{"bike_id":"6f72b99b-ce32-4a38-83bd-472379356bd1","system_id":"levelo_inurba_marseille","lat":43.28026,"lon":5.36948,"is_reserved":false,"is_disabled":true,"rental_uris":{"android":"levelo://app?vid=6f72b99b-ce32-4a38-83bd-472379356bd1","ios":"levelo://app?vid=6f72b99b-ce32-4a38-83bd-472379356bd1"},"vehicle_type_id":"4","last_reported":1758316121,"current_range_meters":19200,"station_id":"ce4bha12rcd13ifvqef0","pricing_plan_id":"cebpf4jnsgd1na2vs0mg"},{"bike_id":"3174647d-057d-4e08-961a-2b646c7e24d0","system_id":"levelo_inurba_marseille","lat":43.28848,"lon":5.39317,"is_reserved":false,"is_disabled":false,"rental_uris":{"android":"levelo://app?vid=3174647d-057d-4e08-961a-2b646c7e24d0","ios":"levelo://app?vid=3174647d-057d-4e08-961a-2b646c7e24d0"},"vehicle_type_id":"4","last_reported":1758316121,"current_range_meters":19200,"station_id":"ce4bh2p2rcd13ifvqdi0","pricing_plan_id":"cebpf4jnsgd1na2vs0mg"},{"bike_id":"2f09573f-08b2-4c22-8ede-c6a99dcfc297","system_id":"levelo_inurba_marseille","lat":43.29814,"lon":5.38096,"is_reserved":false,"is_disabled":false,"rental_uris":{"android":"levelo://app?vid=2f09573f-08b2-4c22-8ede-c6a99dcfc297","ios":"levelo://app?vid=2f09573f-08b2-4c22-8ede-c6a99dcfc297"},"vehicle_type_id":"4","last_reported":1758316121,"current_range_meters":19200,"station_id":"ce4bgip2rcd13ifvqbb0","pricing_plan_id":"cebpf4jnsgd1na2vs0mg"},{"bike_id":"d963dee9-71ac-481c-b682-cddcf35ce028","system_id":"levelo_inurba_marseille","lat":43.29537,"lon":5.38541,"is_reserved":false,"is_disabled":false,"rental_uris":{"android":"levelo://app?vid=d963dee9-71ac-481c-b682-cddcf35ce028","ios":"levelo://app?vid=d963dee9-71ac-481c-b682-cddcf35ce028"},"vehicle_type_id":"4","last_reported":1758316121,"current_range_meters":19200,"station_id":"ce4bgih2rcd13ifvqba0","pricing_plan_id":"cebpf4jnsgd1na2vs0mg"},{"bike_id":"97514a44-1f4d-4ae1-a270-04ca7b75c621","system_id":"levelo_inurba_marseille","lat":43.28865,"lon":5.4252,"is_reserved":false,"is_disabled":false,"rental_uris":{"android":"levelo://app?vid=97514a44-1f4d-4ae1-a270-04ca7b75c621","ios":"levelo://app?vid=97514a44-1f4d-4ae1-a270-04ca7b75c621"},"vehicle_type_id":"4","last_reported":1758316121,"current_range_meters":19200,"station_id":"","pricing_plan_id":"cebpf4jnsgd1na2vs0mg"},{"bike_id":"f20a398e-24f0-4937-a89c-f93acc361249","system_id":"levelo_inurba_marseille","lat":43.30882,"lon":5.39656,"is_reserved":false,"is_disabled":false,"rental_uris":{"android":"levelo://app?vid=f20a398e-24f0-4937-a89c-f93acc361249","ios":"levelo://app?vid=f20a398e-24f0-4937-a89c-f93acc361249"},"vehicle_type_id":"4","last_reported":1758316121,"current_range_meters":19200,"station_id":"ce4bh012rcd13ifvqcv0","pricing_plan_id":"cebpf4jnsgd1na2vs0mg"},{"bike_id":"350ecd1e-d3c9-4d77-b370-39417df324b3","system_id":"levelo_inurba_marseille","lat":43.2903,"lon":5.38145,"is_reserved":false,"is_disabled":true,"rental_uris":{"android":"levelo://app?vid=350ecd1e-d3c9-4d77-b370-39417df324b3","ios":"levelo://app?vid=350ecd1e-d3c9-4d77-b370-39417df324b3"},"vehicle_type_id":"4","last_reported":1758316121,"current_range_meters":19200,"station_id":"ce4bh4p2rcd13ifvqe1g","pricing_plan_id":"cebpf4jnsgd1na2vs0mg"},{"bike_id":"91abbd72-1896-4cfa-90d7-8a63a78871a9","system_id":"levelo_inurba_marseille","lat":43.30159,"lon":5.37426,"is_reserved":false,"is_disabled":false,"rental_uris":{"android":"levelo://app?vid=91abbd72-1896-4cfa-90d7-8a63a78871a9","ios":"levelo://app?vid=91abbd72-1896-4cfa-90d7-8a63a78871a9"},"vehicle_type_id":"4","last_reported":1758316121,"current_range_meters":20000,"station_id":"ce4bgs92rcd13ifvqcc0","pricing_plan_id":"cebpf4jnsgd1na2vs0mg"},{"bike_id":"35da6695-3201-4ea6-8792-a27d60e37cb4","system_id":"levelo_inurba_marseille","lat":43.26201,"lon":5.37043,"is_reserved":false,"is_disabled":false,"rental_uris":{"android":"levelo://app?vid=35da6695-3201-4ea6-8792-a27d60e37cb4","ios":"levelo://app?vid=35da6695-3201-4ea6-8792-a27d60e37cb4"},"vehicle_type_id":"4","last_reported":1758316121,"current_range_meters":19200,"station_id":"","pricing_plan_id":"cebpf4jnsgd1na2vs0mg"},{"bike_id":"b8af4056-fb36-4e39-a4f0-5cd179383459","system_id":"levelo_inurba_marseille","lat":43.32918,"lon":5.38949,"is_reserved":false,"is_disabled":false,"rental_uris":{"android":"levelo://app?vid=b8af4056-fb36-4e39-a4f0-5cd179383459","ios":"levelo://app?vid=b8af4056-fb36-4e39-a4f0-5cd179383459"},"vehicle_type_id":"4","last_reported":1758316121,"current_range_meters":19200,"station_id":"","pricing_plan_id":"cebpf4jnsgd1na2vs0mg"},{"bike_id":"238cd87d-838d-45ba-99a1-30db69d0fcb2","system_id":"levelo_inurba_marseille","lat":43.2794,"lon":5.41049,"is_reserved":false,"is_disabled":false,"rental_uris":{"android":"levelo://app?vid=238cd87d-838d-45ba-99a1-30db69d0fcb2","ios":"levelo://app?vid=238cd87d-838d-45ba-99a1-30db69d0fcb2"},"vehicle_type_id":"4","last_reported":1758316121,"current_range_meters":19200,"station_id":"ce4bhnp2rcd13ifvqh0g","pricing_plan_id":"cebpf4jnsgd1na2vs0mg"},{"bike_id":"d5d0c203-0107-446d-a7ee-77a6a9804fef","system_id":"levelo_inurba_marseille","lat":43.25109,"lon":5.40318,"is_reserved":false,"is_disabled":false,"rental_uris":{"android":"levelo://app?vid=d5d0c203-0107-446d-a7ee-77a6a9804fef","ios":"levelo://app?vid=d5d0c203-0107-446d-a7ee-77a6a9804fef"},"vehicle_type_id":"4","last_reported":1758316121,"current_range_meters":19200,"station_id":"ce4bhlh2rcd13ifvqgig","pricing_plan_id":"cebpf4jnsgd1na2vs0mg"},{"bike_id":"f23b5be2-e44e-4a0b-a876-685332274f9a","system_id":"levelo_inurba_marseille","lat":43.297925,"lon":5.370469,"is_reserved":false,"is_disabled":false,"rental_uris":{"android":"levelo://app?vid=f23b5be2-e44e-4a0b-a876-685332274f9a","ios":"levelo://app?vid=f23b5be2-e44e-4a0b-a876-685332274f9a"},"vehicle_type_id":"4","last_reported":1758316121,"current_range_meters":19600,"station_id":"ce4bgop2rcd13ifvqc1g","pricing_plan_id":"cebpf4jnsgd1na2vs0mg"},{"bike_id":"53320182-80fb-40d6-a9a0-03034b3156b6","system_id":"levelo_inurba_marseille","lat":43.29875,"lon":5.39733,"is_reserved":false,"is_disabled":false,"rental_uris":{"android":"levelo://app?vid=53320182-80fb-40d6-a9a0-03034b3156b6","ios":"levelo://app?vid=53320182-80fb-40d6-a9a0-03034b3156b6"},"vehicle_type_id":"4","last_reported":1758316121,"current_range_meters":19200,"station_id":"ce4bh0h2rcd13ifvqd50","pricing_plan_id":"cebpf4jnsgd1na2vs0mg"},{"bike_id":"82f37750-d521-4c74-accf-c9eed01243f0","system_id":"levelo_inurba_marseille","lat":43.28348,"lon":5.38106,"is_reserved":false,"is_disabled":false,"rental_uris":{"android":"levelo://app?vid=82f37750-d521-4c74-accf-c9eed01243f0","ios":"levelo://app?vid=82f37750-d521-4c74-accf-c9eed01243f0"},"vehicle_type_id":"4","last_reported":1758316121,"current_range_meters":19600,"station_id":"ce4bh412rcd13ifvqdr0","pricing_plan_id":"cebpf4jnsgd1na2vs0mg"},{"bike_id":"0f850c22-3d6c-4dfe-b889-c92d1afcf7e0","system_id":"levelo_inurba_marseille","lat":43.2804,"lon":5.36948,"is_reserved":false,"is_disabled":false,"rental_uris":{"android":"levelo://app?vid=0f850c22-3d6c-4dfe-b889-c92d1afcf7e0","ios":"levelo://app?vid=0f850c22-3d6c-4dfe-b889-c92d1afcf7e0"},"vehicle_type_id":"4","last_reported":1758316121,"current_range_meters":19600,"station_id":"ce4bha12rcd13ifvqef0","pricing_plan_id":"cebpf4jnsgd1na2vs0mg"},{"bike_id":"feb7026a-8fd5-42ad-8e39-2891fadb5476","system_id":"levelo_inurba_marseille","lat":43.2803,"lon":5.36945,"is_reserved":false,"is_disabled":false,"rental_uris":{"android":"levelo://app?vid=feb7026a-8fd5-42ad-8e39-2891fadb5476","ios":"levelo://app?vid=feb7026a-8fd5-42ad-8e39-2891fadb5476"},"vehicle_type_id":"4","last_reported":1758316121,"current_range_meters":19600,"station_id":"ce4bha12rcd13ifvqef0","pricing_plan_id":"cebpf4jnsgd1na2vs0mg"},{"bike_id":"4b96fdd3-4191-405a-9508-0bcda5ffa797","system_id":"levelo_inurba_marseille","lat":43.29586,"lon":5.39957,"is_reserved":false,"is_disabled":true,"rental_uris":{"android":"levelo://app?vid=4b96fdd3-4191-405a-9508-0bcda5ffa797","ios":"levelo://app?vid=4b96fdd3-4191-405a-9508-0bcda5ffa797"},"vehicle_type_id":"4","last_reported":1758316121,"current_range_meters":19600,"station_id":"ce4bh312rcd13ifvqdj0","pricing_plan_id":"cebpf4jnsgd1na2vs0mg"},{"bike_id":"f46cb67e-a6d0-4bc3-b960-25fba0030eaa","system_id":"levelo_inurba_marseille","lat":43.29519,"lon":5.37511,"is_reserved":false,"is_disabled":true,"rental_uris":{"android":"levelo://app?vid=f46cb67e-a6d0-4bc3-b960-25fba0030eaa","ios":"levelo://app?vid=f46cb67e-a6d0-4bc3-b960-25fba0030eaa"},"vehicle_type_id":"4","last_reported":1758316121,"current_range_meters":19600,"station_id":"ce4bgkp2rcd13ifvqbmg","pricing_plan_id":"cebpf4jnsgd1na2vs0mg"},{"bike_id":"1c8c217d-ba25-44e4-9e2d-171a282d5806","system_id":"levelo_inurba_marseille","lat":43.28862,"lon":5.42512,"is_reserved":false,"is_disabled":false,"rental_uris":{"android":"levelo://app?vid=1c8c217d-ba25-44e4-9e2d-171a282d5806","ios":"levelo://app?vid=1c8c217d-ba25-44e4-9e2d-171a282d5806"},"vehicle_type_id":"4","last_reported":1758316121,"current_range_meters":19600,"station_id":"","pricing_plan_id":"cebpf4jnsgd1na2vs0mg"},{"bike_id":"1c47e0b5-8e14-4d76-ab4b-31a2e9200d4a","system_id":"levelo_inurba_marseille","lat":43.29525,"lon":5.38544,"is_reserved":false,"is_disabled":false,"rental_uris":{"android":"levelo://app?vid=1c47e0b5-8e14-4d76-ab4b-31a2e9200d4a","ios":"levelo://app?vid=1c47e0b5-8e14-4d76-ab4b-31a2e9200d4a"},"vehicle_type_id":"4","last_reported":1758316121,"current_range_meters":19600,"station_id":"ce4bgih2rcd13ifvqba0","pricing_plan_id":"cebpf4jnsgd1na2vs0mg"},{"bike_id":"534ff5b4-9e83-493b-9063-104ef0af4212","system_id":"levelo_inurba_marseille","lat":43.27994,"lon":5.41669,"is_reserved":false,"is_disabled":true,"rental_uris":{"android":"levelo://app?vid=534ff5b4-9e83-493b-9063-104ef0af4212","ios":"levelo://app?vid=534ff5b4-9e83-493b-9063-104ef0af4212"},"vehicle_type_id":"4","last_reported":1758316121,"current_range_meters":19600,"station_id":"ce4bho12rcd13ifvqh1g","pricing_plan_id":"cebpf4jnsgd1na2vs0mg"},{"bike_id":"35a93bfd-5830-4d6f-84cb-b1463186850a","system_id":"levelo_inurba_marseille","lat":43.28728,"lon":5.37929,"is_reserved":false,"is_disabled":false,"rental_uris":{"android":"levelo://app?vid=35a93bfd-5830-4d6f-84cb-b1463186850a","ios":"levelo://app?vid=35a93bfd-5830-4d6f-84cb-b1463186850a"},"vehicle_type_id":"4","last_reported":1758316121,"current_range_meters":20000,"station_id":"ce4bh9p2rcd13ifvqec0","pricing_plan_id":"cebpf4jnsgd1na2vs0mg"},{"bike_id":"e700cd12-a575-4c3c-a0c7-bed821411894","system_id":"levelo_inurba_marseille","lat":43.29028,"lon":5.37568,"is_reserved":false,"is_disabled":false,"rental_uris":{"android":"levelo://app?vid=e700cd12-a575-4c3c-a0c7-bed821411894","ios":"levelo://app?vid=e700cd12-a575-4c3c-a0c7-bed821411894"},"vehicle_type_id":"4","last_reported":1758316121,"current_range_meters":20000,"station_id":"ce4bh692rcd13ifvqe90","pricing_plan_id":"cebpf4jnsgd1na2vs0mg"},{"bike_id":"5a95be37-98f7-496b-a4ef-6a020f07f846","system_id":"levelo_inurba_marseille","lat":43.31373,"lon":5.385,"is_reserved":false,"is_disabled":false,"rental_uris":{"android":"levelo://app?vid=5a95be37-98f7-496b-a4ef-6a020f07f846","ios":"levelo://app?vid=5a95be37-98f7-496b-a4ef-6a020f07f846"},"vehicle_type_id":"4","last_reported":1758316121,"current_range_meters":20000,"station_id":"ce4bgt92rcd13ifvqcf0","pricing_plan_id":"cebpf4jnsgd1na2vs0mg"},{"bike_id":"bd8d612d-9ee5-4404-8540-7167a289b512","system_id":"levelo_inurba_marseille","lat":43.30234,"lon":5.4007,"is_reserved":false,"is_disabled":true,"rental_uris":{"android":"levelo://app?vid=bd8d612d-9ee5-4404-8540-7167a289b512","ios":"levelo://app?vid=bd8d612d-9ee5-4404-8540-7167a289b512"},"vehicle_type_id":"4","last_reported":1758316121,"current_range_meters":20000,"station_id":"ce4bgvh2rcd13ifvqcs0","pricing_plan_id":"cebpf4jnsgd1na2vs0mg"},{"bike_id":"1d0b5d60-568f-4170-98dc-84bbc30b1c4e","system_id":"levelo_inurba_marseille","lat":43.28363,"lon":5.43842,"is_reserved":false,"is_disabled":false,"rental_uris":{"android":"levelo://app?vid=1d0b5d60-568f-4170-98dc-84bbc30b1c4e","ios":"levelo://app?vid=1d0b5d60-568f-4170-98dc-84bbc30b1c4e"},"vehicle_type_id":"4","last_reported":1758316121,"current_range_meters":20000,"station_id":"","pricing_plan_id":"cebpf4jnsgd1na2vs0mg"},{"bike_id":"76bbf107-7ec5-4826-b296-ab629ecd14ab","system_id":"levelo_inurba_marseille","lat":43.29838,"lon":5.420447,"is_reserved":false,"is_disabled":false,"rental_uris":{"android":"levelo://app?vid=76bbf107-7ec5-4826-b296-ab629ecd14ab","ios":"levelo://app?vid=76bbf107-7ec5-4826-b296-ab629ecd14ab"},"vehicle_type_id":"4","last_reported":1758316121,"current_range_meters":20000,"station_id":"","pricing_plan_id":"cebpf4jnsgd1na2vs0mg"},{"bike_id":"53252f59-ad0c-42f1-ad73-6de18c35b85e","system_id":"levelo_inurba_marseille","lat":43.29593,"lon":5.38097,"is_reserved":false,"is_disabled":false,"rental_uris":{"android":"levelo://app?vid=53252f59-ad0c-42f1-ad73-6de18c35b85e","ios":"levelo://app?vid=53252f59-ad0c-42f1-ad73-6de18c35b85e"},"vehicle_type_id":"4","last_reported":1758316121,"current_range_meters":20400,"station_id":"ce4bgl12rcd13ifvqbo0","pricing_plan_id":"cebpf4jnsgd1na2vs0mg"},{"bike_id":"c7201cf6-1542-4c36-96b0-376858fc1b13","system_id":"levelo_inurba_marseille","lat":43.30303,"lon":5.36889,"is_reserved":false,"is_disabled":false,"rental_uris":{"android":"levelo://app?vid=c7201cf6-1542-4c36-96b0-376858fc1b13","ios":"levelo://app?vid=c7201cf6-1542-4c36-96b0-376858fc1b13"},"vehicle_type_id":"4","last_reported":1758316121,"current_range_meters":20400,"station_id":"ce4bgqh2rcd13ifvqc5g","pricing_plan_id":"cebpf4jnsgd1na2vs0mg"},{"bike_id":"42e3b186-c344-49e1-8411-f8b97d2b73b5","system_id":"levelo_inurba_marseille","lat":43.29596,"lon":5.38093,"is_reserved":false,"is_disabled":false,"rental_uris":{"android":"levelo://app?vid=42e3b186-c344-49e1-8411-f8b97d2b73b5","ios":"levelo://app?vid=42e3b186-c344-49e1-8411-f8b97d2b73b5"},"vehicle_type_id":"4","last_reported":1758316121,"current_range_meters":20400,"station_id":"ce4bgl12rcd13ifvqbo0","pricing_plan_id":"cebpf4jnsgd1na2vs0mg"},{"bike_id":"25c4c180-15df-478a-a6f3-bb7fbcf3bdbf","system_id":"levelo_inurba_marseille","lat":43.29032,"lon":5.38649,"is_reserved":false,"is_disabled":false,"rental_uris":{"android":"levelo://app?vid=25c4c180-15df-478a-a6f3-bb7fbcf3bdbf","ios":"levelo://app?vid=25c4c180-15df-478a-a6f3-bb7fbcf3bdbf"},"vehicle_type_id":"4","last_reported":1758316121,"current_range_meters":20400,"station_id":"ce4bh4p2rcd13ifvqe0g","pricing_plan_id":"cebpf4jnsgd1na2vs0mg"},{"bike_id":"3d1ad8f0-05bf-4e5b-a714-72f3e7f9d512","system_id":"levelo_inurba_marseille","lat":43.3089,"lon":5.39656,"is_reserved":false,"is_disabled":false,"rental_uris":{"android":"levelo://app?vid=3d1ad8f0-05bf-4e5b-a714-72f3e7f9d512","ios":"levelo://app?vid=3d1ad8f0-05bf-4e5b-a714-72f3e7f9d512"},"vehicle_type_id":"4","last_reported":1758316121,"current_range_meters":20400,"station_id":"ce4bh012rcd13ifvqcv0","pricing_plan_id":"cebpf4jnsgd1na2vs0mg"},