{"last_updated":1731859776,"ttl":60,"version":"2.2","data":{"bikes":[{"bike_id":"73806b4b-3409-4fe7-9bac-cc9da7355bda","system_id":"levelo_inurba_marseille","lat":43.3103,"lon":5.4,"is_reserved":false,"is_disabled":false,"rental_uris":{"android":"levelo://app?vid=73806b4b-3409-4fe7-9bac-cc9da7355bda","ios":"levelo://app?vid=73806b4b-3409-4fe7-9bac-cc9da7355bda"},"vehicle_type_id":"4","last_reported":1731859776,"current_range_meters":28400,"station_id":"","pricing_plan_id":"cebpf4jnsgd1na2vs0mg"},{"bike_id":"2732417d-6f3b-4147-a48d-e80e3fa0017b","system_id":"levelo_inurba_marseille","lat":43.23189,"lon":5.39979,"is_reserved":false,"is_disabled":false,"rental_uris":{"android":"levelo://app?vid=2732417d-6f3b-4147-a48d-e80e3fa0017b","ios":"levelo://app?vid=2732417d-6f3b-4147-a48d-e80e3fa0017b"},"vehicle_type_id":"4","last_reported":1731859776,"current_range_meters":40000,"station_id":"ce4bhn12rcd13ifvqgqg","pricing_plan_id":"cebpf4jnsgd1na2vs0mg"},{"bike_id":"f27d6d39-df74-4d7b-bc21-fb7ac3cf43e6","system_id":"levelo_inurba_marseille","lat":43.29959,"lon":5.41321,"is_reserved":false,"is_disabled":false,"rental_uris":{"android":"levelo://app?vid=f27d6d39-df74-4d7b-bc21-fb7ac3cf43e6","ios":"levelo://app?vid=f27d6d39-df74-4d7b-bc21-fb7ac3cf43e6"},"vehicle_type_id":"4","last_reported":1731859776,"current_range_meters":33200,"station_id":"ce4bhp12rcd13ifvqh9g","pricing_plan_id":"cebpf4jnsgd1na2vs0mg"},{"bike_id":"0b559113-fdc0-42e5-9d9f-b4f0fdb3ddca","system_id":"levelo_inurba_marseille","lat":43.25003,"lon":5.38918,"is_reserved":false,"is_disabled":false,"rental_uris":{"android":"levelo://app?vid=0b559113-fdc0-42e5-9d9f-b4f0fdb3ddca","ios":"levelo://app?vid=0b559113-fdc0-42e5-9d9f-b4f0fdb3ddca"},"vehicle_type_id":"4","last_reported":1731859776,"current_range_meters":3200,"station_id":"ce4bhgp2rcd13ifvqfd0","pricing_plan_id":"cebpf4jnsgd1na2vs0mg"},{"bike_id":"0672d165-d197-4474-bbec-2df95543fd2f","system_id":"levelo_inurba_marseille","lat":43.298996,"lon":5.436616,"is_reserved":false,"is_disabled":false,"rental_uris":{"android":"levelo://app?vid=0672d165-d197-4474-bbec-2df95543fd2f","ios":"levelo://app?vid=0672d165-d197-4474-bbec-2df95543fd2f"},"vehicle_type_id":"4","last_reported":1731859776,"current_range_meters":7200,"station_id":"ce4bhpp2rcd13ifvqhfg","pricing_plan_id":"cebpf4jnsgd1na2vs0mg"},{"bike_id":"f70f0c03-8c1e-4133-8287-ee9d569a0e91","system_id":"levelo_inurba_marseille","lat":43.27583,"lon":5.38424,"is_reserved":false,"is_disabled":false,"rental_uris":{"android":"levelo://app?vid=f70f0c03-8c1e-4133-8287-ee9d569a0e91","ios":"levelo://app?vid=f70f0c03-8c1e-4133-8287-ee9d569a0e91"},"vehicle_type_id":"4","last_reported":1731859776,"current_range_meters":24400,"station_id":"ce4bhh92rcd13ifvqfi0","pricing_plan_id":"cebpf4jnsgd1na2vs0mg"},{"bike_id":"8fe39cc9-83c3-424c-a33e-22ca5f2aa318","system_id":"levelo_inurba_marseille","lat":43.22894,"lon":5.35386,"is_reserved":false,"is_disabled":false,"rental_uris":{"android":"levelo://app?vid=8fe39cc9-83c3-424c-a33e-22ca5f2aa318","ios":"levelo://app?vid=8fe39cc9-83c3-424c-a33e-22ca5f2aa318"},"vehicle_type_id":"4","last_reported":1731859776,"current_range_meters":38800,"station_id":"cpo3532slgdg3j2ikp40","pricing_plan_id":"cebpf4jnsgd1na2vs0mg"},{"bike_id":"cb4d1522-8b70-44bb-a7fa-d2c8f5714dff","system_id":"levelo_inurba_marseille","lat":43.28859,"lon":5.35852,"is_reserved":false,"is_disabled":false,"rental_uris":{"android":"levelo://app?vid=cb4d1522-8b70-44bb-a7fa-d2c8f5714dff","ios":"levelo://app?vid=cb4d1522-8b70-44bb-a7fa-d2c8f5714dff"},"vehicle_type_id":"4","last_reported":1731859776,"current_range_meters":38800,"station_id":"ce4bhb12rcd13ifvqem0","pricing_plan_id":"cebpf4jnsgd1na2vs0mg"},{"bike_id":"4c167bc3-2964-4625-adc0-c92e539ad80f","system_id":"levelo_inurba_marseille","lat":43.28277,"lon":5.40795,"is_reserved":false,"is_disabled":false,"rental_uris":{"android":"levelo://app?vid=4c167bc3-2964-4625-adc0-c92e539ad80f","ios":"levelo://app?vid=4c167bc3-2964-4625-adc0-c92e539ad80f"},"vehicle_type_id":"4","last_reported":1731859776,"current_range_meters":34000,"station_id":"","pricing_plan_id":"cebpf4jnsgd1na2vs0mg"},{"bike_id":"0050b429-8203-4b7d-989a-9c4784990b7c","system_id":"levelo_inurba_marseille","lat":43.29014,"lon":5.35617,"is_reserved":false,"is_disabled":false,"rental_uris":{"android":"levelo://app?vid=0050b429-8203-4b7d-989a-9c4784990b7c","ios":"levelo://app?vid=0050b429-8203-4b7d-989a-9c4784990b7c"},"vehicle_type_id":"4","last_reported":1731859776,"current_range_meters":5600,"station_id":"","pricing_plan_id":"cebpf4jnsgd1na2vs0mg"},{"bike_id":"478296bf-14f3-421a-b6f1-7a288e3fb3e9","system_id":"levelo_inurba_marseille","lat":43.29785,"lon":5.381,"is_reserved":false,"is_disabled":false,"rental_uris":{"android":"levelo://app?vid=478296bf-14f3-421a-b6f1-7a288e3fb3e9","ios":"levelo://app?vid=478296bf-14f3-421a-b6f1-7a288e3fb3e9"},"vehicle_type_id":"4","last_reported":1731859776,"current_range_meters":18800,"station_id":"ce4bgip2rcd13ifvqbb0","pricing_plan_id":"cebpf4jnsgd1na2vs0mg"},{"bike_id":"44a253fe-0c31-4482-bf7d-eed3349505cd","system_id":"levelo_inurba_marseille","lat":43.27495,"lon":5.42459,"is_reserved":false,"is_disabled":false,"rental_uris":{"android":"levelo://app?vid=44a253fe-0c31-4482-bf7d-eed3349505cd","ios":"levelo://app?vid=44a253fe-0c31-4482-bf7d-eed3349505cd"},"vehicle_type_id":"4","last_reported":1731859776,"current_range_meters":17200,"station_id":"ce4bhn92rcd13ifvqgrg","pricing_plan_id":"cebpf4jnsgd1na2vs0mg"},{"bike_id":"6b0ea79e-cb12-4a50-9845-e4686b3cacc8","system_id":"levelo_inurba_marseille","lat":43.295751,"lon":5.399791,"is_reserved":false,"is_disabled":false,"rental_uris":{"android":"levelo://app?vid=6b0ea79e-cb12-4a50-9845-e4686b3cacc8","ios":"levelo://app?vid=6b0ea79e-cb12-4a50-9845-e4686b3cacc8"},"vehicle_type_id":"4","last_reported":1731859776,"current_range_meters":9200,"station_id":"","pricing_plan_id":"cebpf4jnsgd1na2vs0mg"},{"bike_id":"0e1d2e7a-8318-45fe-af1b-31857eb1aac8","system_id":"levelo_inurba_marseille","lat":43.23952,"lon":5.36634,"is_reserved":false,"is_disabled":false,"rental_uris":{"android":"levelo://app?vid=0e1d2e7a-8318-45fe-af1b-31857eb1aac8","ios":"levelo://app?vid=0e1d2e7a-8318-45fe-af1b-31857eb1aac8"},"vehicle_type_id":"4","last_reported":1731859776,"current_range_meters":24000,"station_id":"ce4bhi12rcd13ifvqfp0","pricing_plan_id":"cebpf4jnsgd1na2vs0mg"},{"bike_id":"f03fd18e-0c38-4f0c-a978-f9f95836d2ef","system_id":"levelo_inurba_marseille","lat":43.25489,"lon":5.37649,"is_reserved":false,"is_disabled":false,"rental_uris":{"android":"levelo://app?vid=f03fd18e-0c38-4f0c-a978-f9f95836d2ef","ios":"levelo://app?vid=f03fd18e-0c38-4f0c-a978-f9f95836d2ef"},"vehicle_type_id":"4","last_reported":1731859776,"current_range_meters":3200,"station_id":"ce4bhh12rcd13ifvqff0","pricing_plan_id":"cebpf4jnsgd1na2vs0mg"},{"bike_id":"2bd3ae1c-22d2-4b0f-9fd7-42d6b84fc3a3","system_id":"levelo_inurba_marseille","lat":43.336,"lon":5.41042,"is_reserved":false,"is_disabled":false,"rental_uris":{"android":"levelo://app?vid=2bd3ae1c-22d2-4b0f-9fd7-42d6b84fc3a3","ios":"levelo://app?vid=2bd3ae1c-22d2-4b0f-9fd7-42d6b84fc3a3"},"vehicle_type_id":"4","last_reported":1731859776,"current_range_meters":17600,"station_id":"ce4bhqh2rcd13ifvqhmg","pricing_plan_id":"cebpf4jnsgd1na2vs0mg"},{"bike_id":"79b76398-f4aa-422b-b325-2360d07a8784","system_id":"levelo_inurba_marseille","lat":43.33728,"lon":5.39192,"is_reserved":false,"is_disabled":false,"rental_uris":{"android":"levelo://app?vid=79b76398-f4aa-422b-b325-2360d07a8784","ios":"levelo://app?vid=79b76398-f4aa-422b-b325-2360d07a8784"},"vehicle_type_id":"4","last_reported":1731859776,"current_range_meters":38800,"station_id":"ce4bhr92rcd13ifvqhsg","pricing_plan_id":"cebpf4jnsgd1na2vs0mg"},{"bike_id":"bce285d2-e671-4dec-84c7-f5427715f253","system_id":"levelo_inurba_marseille","lat":43.22928,"lon":5.35387,"is_reserved":false,"is_disabled":false,"rental_uris":{"android":"levelo://app?vid=bce285d2-e671-4dec-84c7-f5427715f253","ios":"levelo://app?vid=bce285d2-e671-4dec-84c7-f5427715f253"},"vehicle_type_id":"4","last_reported":1731859776,"current_range_meters":7200,"station_id":"cpo3532slgdg3j2ikp40","pricing_plan_id":"cebpf4jnsgd1na2vs0mg"},{"bike_id":"cd7a46d4-9cd2-4964-a4f4-f19fd89cdeee","system_id":"levelo_inurba_marseille","lat":43.23958,"lon":5.36616,"is_reserved":false,"is_disabled":false,"rental_uris":{"android":"levelo://app?vid=cd7a46d4-9cd2-4964-a4f4-f19fd89cdeee","ios":"levelo://app?vid=cd7a46d4-9cd2-4964-a4f4-f19fd89cdeee"},"vehicle_type_id":"4","last_reported":1731859776,"current_range_meters":6800,"station_id":"ce4bhi12rcd13ifvqfp0","pricing_plan_id":"cebpf4jnsgd1na2vs0mg"},{"bike_id":"5eaceb6e-cc41-4ec4-8643-72cc4d3be8c1","system_id":"levelo_inurba_marseille","lat":43.26681,"lon":5.38273,"is_reserved":false,"is_disabled":false,"rental_uris":{"android":"levelo://app?vid=5eaceb6e-cc41-4ec4-8643-72cc4d3be8c1","ios":"levelo://app?vid=5eaceb6e-cc41-4ec4-8643-72cc4d3be8c1"},"vehicle_type_id":"4","last_reported":1731859776,"current_range_meters":37600,"station_id":"ce4bhg92rcd13ifvqf90","pricing_plan_id":"cebpf4jnsgd1na2vs0mg"},{"bike_id":"0d29e689-4fff-4dfe-a49d-3e58cca7d777","system_id":"levelo_inurba_marseille","lat":43.23962,"lon":5.36619,"is_reserved":false,"is_disabled":false,"rental_uris":{"android":"levelo://app?vid=0d29e689-4fff-4dfe-a49d-3e58cca7d777","ios":"levelo://app?vid=0d29e689-4fff-4dfe-a49d-3e58cca7d777"},"vehicle_type_id":"4","last_reported":1731859776,"current_range_meters":32000,"station_id":"ce4bhi12rcd13ifvqfp0","pricing_plan_id":"cebpf4jnsgd1na2vs0mg"},{"bike_id":"ec579983-733b-4733-a3a9-e848779b76a6","system_id":"levelo_inurba_marseille","lat":43.286121,"lon":5.370668,"is_reserved":false,"is_disabled":false,"rental_uris":{"android":"levelo://app?vid=ec579983-733b-4733-a3a9-e848779b76a6","ios":"levelo://app?vid=ec579983-733b-4733-a3a9-e848779b76a6"},"vehicle_type_id":"4","last_reported":1731859776,"current_range_meters":15200,"station_id":"ce4bht12rcd13ifvqi60","pricing_plan_id":"cebpf4jnsgd1na2vs0mg"},{"bike_id":"ce0f486a-1bf2-4042-8d3f-d831fe46a29e","system_id":"levelo_inurba_marseille","lat":43.29279,"lon":5.40113,"is_reserved":false,"is_disabled":false,"rental_uris":{"android":"levelo://app?vid=ce0f486a-1bf2-4042-8d3f-d831fe46a29e","ios":"levelo://app?vid=ce0f486a-1bf2-4042-8d3f-d831fe46a29e"},"vehicle_type_id":"4","last_reported":1731859776,"current_range_meters":20400,"station_id":"ce4bh312rcd13ifvqdk0","pricing_plan_id":"cebpf4jnsgd1na2vs0mg"},{"bike_id":"69dbc2c6-5434-4884-a919-090c7c5596ce","system_id":"levelo_inurba_marseille","lat":43.23957,"lon":5.36626,"is_reserved":false,"is_disabled":false,"rental_uris":{"android":"levelo://app?vid=69dbc2c6-5434-4884-a919-090c7c5596ce","ios":"levelo://app?vid=69dbc2c6-5434-4884-a919-090c7c5596ce"},"vehicle_type_id":"4","last_reported":1731859776,"current_range_meters":24000,"station_id":"ce4bhi12rcd13ifvqfp0","pricing_plan_id":"cebpf4jnsgd1na2vs0mg"},{"bike_id":"176b56b2-3f7f-4f22-97c6-741add3cb4ae","system_id":"levelo_inurba_marseille","lat":43.24657,"lon":5.38894,"is_reserved":false,"is_disabled":false,"rental_uris":{"android":"levelo://app?vid=176b56b2-3f7f-4f22-97c6-741add3cb4ae","ios":"levelo://app?vid=176b56b2-3f7f-4f22-97c6-741add3cb4ae"},"vehicle_type_id":"4","last_reported":1731859776,"current_range_meters":38800,"station_id":"ce4bhg12rcd13ifvqf60","pricing_plan_id":"cebpf4jnsgd1na2vs0mg"},{"bike_id":"d5f9b86b-efe7-4e71-9af6-58ed566586c1","system_id":"levelo_inurba_marseille","lat":43.32028,"lon":5.41564,"is_reserved":false,"is_disabled":false,"rental_uris":{"android":"levelo://app?vid=d5f9b86b-efe7-4e71-9af6-58ed566586c1","ios":"levelo://app?vid=d5f9b86b-efe7-4e71-9af6-58ed566586c1"},"vehicle_type_id":"4","last_reported":1731859776,"current_range_meters":39200,"station_id":"ce4bhq92rcd13ifvqhkg","pricing_plan_id":"cebpf4jnsgd1na2vs0mg"},{"bike_id":"1829606e-1672-4dcd-94a5-fc392f50097b","system_id":"levelo_inurba_marseille","lat":43.29781,"lon":5.37103,"is_reserved":false,"is_disabled":false,"rental_uris":{"android":"levelo://app?vid=1829606e-1672-4dcd-94a5-fc392f50097b","ios":"levelo://app?vid=1829606e-1672-4dcd-94a5-fc392f50097b"},"vehicle_type_id":"4","last_reported":1731859776,"current_range_meters":11200,"station_id":"ce4bgop2rcd13ifvqc1g","pricing_plan_id":"cebpf4jnsgd1na2vs0mg"},{"bike_id":"fa31aaad-d0a9-4e21-918e-1dff54a75c8f","system_id":"levelo_inurba_marseille","lat":43.29573,"lon":5.37532,"is_reserved":false,"is_disabled":false,"rental_uris":{"android":"levelo://app?vid=fa31aaad-d0a9-4e21-918e-1dff54a75c8f","ios":"levelo://app?vid=fa31aaad-d0a9-4e21-918e-1dff54a75c8f"},"vehicle_type_id":"4","last_reported":1731859776,"current_range_meters":8800,"station_id":"ce4bgh92rcd13ifvqb50","pricing_plan_id":"cebpf4jnsgd1na2vs0mg"},{"bike_id":"4218e25f-b589-4585-9802-2be2a1418d47","system_id":"levelo_inurba_marseille","lat":43.34143,"lon":5.40909,"is_reserved":false,"is_disabled":false,"rental_uris":{"android":"levelo://app?vid=4218e25f-b589-4585-9802-2be2a1418d47","ios":"levelo://app?vid=4218e25f-b589-4585-9802-2be2a1418d47"},"vehicle_type_id":"4","last_reported":1731859776,"current_range_meters":38800,"station_id":"ce4bhqh2rcd13ifvqhlg","pricing_plan_id":"cebpf4jnsgd1na2vs0mg"},{"bike_id":"23e5e119-83f6-4211-ade1-a250a82ab7db","system_id":"levelo_inurba_marseille","lat":43.22928,"lon":5.3538,"is_reserved":false,"is_disabled":false,"rental_uris":{"android":"levelo://app?vid=23e5e119-83f6-4211-ade1-a250a82ab7db","ios":"levelo://app?vid=23e5e119-83f6-4211-ade1-a250a82ab7db"},"vehicle_type_id":"4","last_reported":1731859776,"current_range_meters":16000,"station_id":"cpo3532slgdg3j2ikp40","pricing_plan_id":"cebpf4jnsgd1na2vs0mg"},{"bike_id":"01272bd5-a2c0-44b6-b76e-87cd305d9451","system_id":"levelo_inurba_marseille","lat":43.33023,"lon":5.39047,"is_reserved":false,"is_disabled":false,"rental_uris":{"android":"levelo://app?vid=01272bd5-a2c0-44b6-b76e-87cd305d9451","ios":"levelo://app?vid=01272bd5-a2c0-44b6-b76e-87cd305d9451"},"vehicle_type_id":"4","last_reported":1731859776,"current_range_meters":14800,"station_id":"ce4bhr92rcd13ifvqhrg","pricing_plan_id":"cebpf4jnsgd1na2vs0mg"},{"bike_id":"ccd1c8db-652e-40bb-8006-2f8260ca4fd9","system_id":"levelo_inurba_marseille","lat":43.244446,"lon":5.372138,"is_reserved":false,"is_disabled":false,"rental_uris":{"android":"levelo://app?vid=ccd1c8db-652e-40bb-8006-2f8260ca4fd9","ios":"levelo://app?vid=ccd1c8db-652e-40bb-8006-2f8260ca4fd9"},"vehicle_type_id":"4","last_reported":1731859776,"current_range_meters":36400,"station_id":"ce4bhhh2rcd13ifvqfk0","pricing_plan_id":"cebpf4jnsgd1na2vs0mg"},{"bike_id":"5cb5bd36-b40f-4b20-ab2d-9cffd4de642e","system_id":"levelo_inurba_marseille","lat":43.28616,"lon":5.37068,"is_reserved":false,"is_disabled":false,"rental_uris":{"android":"levelo://app?vid=5cb5bd36-b40f-4b20-ab2d-9cffd4de642e","ios":"levelo://app?vid=5cb5bd36-b40f-4b20-ab2d-9cffd4de642e"},"vehicle_type_id":"4","last_reported":1731859776,"current_range_meters":38800,"station_id":"ce4bht12rcd13ifvqi60","pricing_plan_id":"cebpf4jnsgd1na2vs0mg"},{"bike_id":"d753c74d-4fd7-4b0f-8e5d-7b63399c76ab","system_id":"levelo_inurba_marseille","lat":43.31758,"lon":5.39,"is_reserved":false,"is_disabled":false,"rental_uris":{"android":"levelo://app?vid=d753c74d-4fd7-4b0f-8e5d-7b63399c76ab","ios":"levelo://app?vid=d753c74d-4fd7-4b0f-8e5d-7b63399c76ab"},"vehicle_type_id":"4","last_reported":1731859776,"current_range_meters":38400,"station_id":"ce4bhqp2rcd13ifvqhng","pricing_plan_id":"cebpf4jnsgd1na2vs0mg"},{"bike_id":"10473ae9-343a-42a2-916b-9f1475a0a3bc","system_id":"levelo_inurba_marseille","lat":43.23959,"lon":5.36638,"is_reserved":false,"is_disabled":false,"rental_uris":{"android":"levelo://app?vid=10473ae9-343a-42a2-916b-9f1475a0a3bc","ios":"levelo://app?vid=10473ae9-343a-42a2-916b-9f1475a0a3bc"},"vehicle_type_id":"4","last_reported":1731859776,"current_range_meters":28000,"station_id":"ce4bhi12rcd13ifvqfp0","pricing_plan_id":"cebpf4jnsgd1na2vs0mg"},{"bike_id":"5938f129-0be9-4612-acac-86791f6673ad","system_id":"levelo_inurba_marseille","lat":43.28195,"lon":5.44385,"is_reserved":false,"is_disabled":false,"rental_uris":{"android":"levelo://app?vid=5938f129-0be9-4612-acac-86791f6673ad","ios":"levelo://app?vid=5938f129-0be9-4612-acac-86791f6673ad"},"vehicle_type_id":"4","last_reported":1731859776,"current_range_meters":12400,"station_id":"","pricing_plan_id":"cebpf4jnsgd1na2vs0mg"},{"bike_id":"0f233f6f-841f-408e-a73f-d84b06aa8bc8","system_id":"levelo_inurba_marseille","lat":43.28609,"lon":5.37076,"is_reserved":false,"is_disabled":false,"rental_uris":{"android":"levelo://app?vid=0f233f6f-841f-408e-a73f-d84b06aa8bc8","ios":"levelo://app?vid=0f233f6f-841f-408e-a73f-d84b06aa8bc8"},"vehicle_type_id":"4","last_reported":1731859776,"current_range_meters":38000,"station_id":"ce4bht12rcd13ifvqi60","pricing_plan_id":"cebpf4jnsgd1na2vs0mg"},{"bike_id":"ec545ebf-0bfb-48a8-accf-1982d6f3e853","system_id":"levelo_inurba_marseille","lat":43.31716,"lon":5.37747,"is_reserved":false,"is_disabled":false,"rental_uris":{"android":"levelo://app?vid=ec545ebf-0bfb-48a8-accf-1982d6f3e853","ios":"levelo://app?vid=ec545ebf-0bfb-48a8-accf-1982d6f3e853"},"vehicle_type_id":"4","last_reported":1731859776,"current_range_meters":37600,"station_id":"ce4bgth2rcd13ifvqch0","pricing_plan_id":"cebpf4jnsgd1na2vs0mg"},{"bike_id":"3f2c2bc5-2893-46cf-b91f-714ea72e81e7","system_id":"levelo_inurba_marseille","lat":43.27815,"lon":5.40716,"is_reserved":false,"is_disabled":false,"rental_uris":{"android":"levelo://app?vid=3f2c2bc5-2893-46cf-b91f-714ea72e81e7","ios":"levelo://app?vid=3f2c2bc5-2893-46cf-b91f-714ea72e81e7"},"vehicle_type_id":"4","last_reported":1731859776,"current_range_meters":12400,"station_id":"ce4bhnh2rcd13ifvqgtg","pricing_plan_id":"cebpf4jnsgd1na2vs0mg"},{"bike_id":"e94e002d-b039-4c50-abae-927d738cddfd","system_id":"levelo_inurba_marseille","lat":43.25826,"lon":5.39443,"is_reserved":false,"is_disabled":false,"rental_uris":{"android":"levelo://app?vid=e94e002d-b039-4c50-abae-927d738cddfd","ios":"levelo://app?vid=e94e002d-b039-4c50-abae-927d738cddfd"},"vehicle_type_id":"4","last_reported":1731859776,"current_range_meters":16400,"station_id":"ce4bhip2rcd13ifvqft0","pricing_plan_id":"cebpf4jnsgd1na2vs0mg"},{"bike_id":"65f5fc28-b4d5-45b2-8d39-7757b215f8c8","system_id":"levelo_inurba_marseille","lat":43.23182,"lon":5.39988,"is_reserved":false,"is_disabled":false,"rental_uris":{"android":"levelo://app?vid=65f5fc28-b4d5-45b2-8d39-7757b215f8c8","ios":"levelo://app?vid=65f5fc28-b4d5-45b2-8d39-7757b215f8c8"},"vehicle_type_id":"4","last_reported":1731859776,"current_range_meters":20400,"station_id":"ce4bhn12rcd13ifvqgqg","pricing_plan_id":"cebpf4jnsgd1na2vs0mg"},{"bike_id":"12867844-fa2a-41b2-8d74-706d4ef15909","system_id":"levelo_inurba_marseille","lat":43.33771,"lon":5.37446,"is_reserved":false,"is_disabled":false,"rental_uris":{"android":"levelo://app?vid=12867844-fa2a-41b2-8d74-706d4ef15909","ios":"levelo://app?vid=12867844-fa2a-41b2-8d74-706d4ef15909"},"vehicle_type_id":"4","last_reported":1731859776,"current_range_meters":32800,"station_id":"","pricing_plan_id":"cebpf4jnsgd1na2vs0mg"},{"bike_id":"55098471-5ec1-4326-9139-872e99718f2d","system_id":"levelo_inurba_marseille","lat":43.32365,"lon":5.3889,"is_reserved":false,"is_disabled":false,"rental_uris":{"android":"levelo://app?vid=55098471-5ec1-4326-9139-872e99718f2d","ios":"levelo://app?vid=55098471-5ec1-4326-9139-872e99718f2d"},"vehicle_type_id":"4","last_reported":1731859776,"current_range_meters":32400,"station_id":"ce4bhqp2rcd13ifvqhog","pricing_plan_id":"cebpf4jnsgd1na2vs0mg"},{"bike_id":"271474c2-43b3-4921-94b3-a2a6c262ff28","system_id":"levelo_inurba_marseille","lat":43.290055,"lon":5.356207,"is_reserved":false,"is_disabled":false,"rental_uris":{"android":"levelo://app?vid=271474c2-43b3-4921-94b3-a2a6c262ff28","ios":"levelo://app?vid=271474c2-43b3-4921-94b3-a2a6c262ff28"},"vehicle_type_id":"4","last_reported":1731859776,"current_range_meters":34000,"station_id":"ce4bhgh2rcd13ifvqfa0","pricing_plan_id":"cebpf4jnsgd1na2vs0mg"},{"bike_id":"43dbeb92-fde7-42c3-87eb-a42e1857f6de","system_id":"levelo_inurba_marseille","lat":43.29592,"lon":5.40453,"is_reserved":false,"is_disabled":false,"rental_uris":{"android":"levelo://app?vid=43dbeb92-fde7-42c3-87eb-a42e1857f6de","ios":"levelo://app?vid=43dbeb92-fde7-42c3-87eb-a42e1857f6de"},"vehicle_type_id":"4","last_reported":1731859776,"current_range_meters":11600,"station_id":"ce4bh0h2rcd13ifvqd60","pricing_plan_id":"cebpf4jnsgd1na2vs0mg"},{"bike_id":"10808265-c82e-4663-ad34-00454e769817","system_id":"levelo_inurba_marseille","lat":43.23187,"lon":5.39994,"is_reserved":false,"is_disabled":false,"rental_uris":{"android":"levelo://app?vid=10808265-c82e-4663-ad34-00454e769817","ios":"levelo://app?vid=10808265-c82e-4663-ad34-00454e769817"},"vehicle_type_id":"4","last_reported":1731859776,"current_range_meters":30400,"station_id":"ce4bhn12rcd13ifvqgqg","pricing_plan_id":"cebpf4jnsgd1na2vs0mg"},{"bike_id":"0696ed21-9332-4e6d-93ad-4e839f165043","system_id":"levelo_inurba_marseille","lat":43.32369,"lon":5.38882,"is_reserved":false,"is_disabled":false,"rental_uris":{"android":"levelo://app?vid=0696ed21-9332-4e6d-93ad-4e839f165043","ios":"levelo://app?vid=0696ed21-9332-4e6d-93ad-4e839f165043"},"vehicle_type_id":"4","last_reported":1731859776,"current_range_meters":27600,"station_id":"ce4bhqp2rcd13ifvqhog","pricing_plan_id":"cebpf4jnsgd1na2vs0mg"},{"bike_id":"ae0067f7-132d-4fef-a232-046b9f424181","system_id":"levelo_inurba_marseille","lat":43.22927,"lon":5.35378,"is_reserved":false,"is_disabled":false,"rental_uris":{"android":"levelo://app?vid=ae0067f7-132d-4fef-a232-046b9f424181","ios":"levelo://app?vid=ae0067f7-132d-4fef-a232-046b9f424181"},"vehicle_type_id":"4","last_reported":1731859776,"current_range_meters":36800,"station_id":"cpo3532slgdg3j2ikp40","pricing_plan_id":"cebpf4jnsgd1na2vs0mg"},{"bike_id":"b98fcb30-9279-46bb-9574-6f8b39ce2376","system_id":"levelo_inurba_marseille","lat":43.2978,"lon":5.37098,"is_reserved":false,"is_disabled":false,"rental_uris":{"android":"levelo://app?vid=b98fcb30-9279-46bb-9574-6f8b39ce2376","ios":"levelo://app?vid=b98fcb30-9279-46bb-9574-6f8b39ce2376"},"vehicle_type_id":"4","last_reported":1731859776,"current_range_meters":14000,"station_id":"ce4bgop2rcd13ifvqc1g","pricing_plan_id":"cebpf4jnsgd1na2vs0mg"},{"bike_id":"c1ee7606-908f-4f92-b8e8-2cbba6adfd35","system_id":"levelo_inurba_marseille","lat":43.27174,"lon":5.40997,"is_reserved":false,"is_disabled":false,"rental_uris":{"android":"levelo://app?vid=c1ee7606-908f-4f92-b8e8-2cbba6adfd35","ios":"levelo://app?vid=c1ee7606-908f-4f92-b8e8-2cbba6adfd35"},"vehicle_type_id":"4","last_reported":1731859776,"current_range_meters":25200,"station_id":"ce4bhl12rcd13ifvqgf0","pricing_plan_id":"cebpf4jnsgd1na2vs0mg"},{"bike_id":"68800380-8986-4e82-84bb-e4795ea3f3a8","system_id":"levelo_inurba_marseille","lat":43.31712,"lon":5.43707,"is_reserved":false,"is_disabled":false,"rental_uris":{"android":"levelo://app?vid=68800380-8986-4e82-84bb-e4795ea3f3a8","ios":"levelo://app?vid=68800380-8986-4e82-84bb-e4795ea3f3a8"},"vehicle_type_id":"4","last_reported":1731859776,"current_range_meters":36800,"station_id":"ce4bhp92rcd13ifvqhcg","pricing_plan_id":"cebpf4jnsgd1na2vs0mg"},{"bike_id":"9dd32881-9739-4bcd-a350-0e234ec4d8db","system_id":"levelo_inurba_marseille","lat":43.28617,"lon":5.37062,"is_reserved":false,"is_disabled":false,"rental_uris":{"android":"levelo://app?vid=9dd32881-9739-4bcd-a350-0e234ec4d8db","ios":"levelo://app?vid=9dd32881-9739-4bcd-a350-0e234ec4d8db"},"vehicle_type_id":"4","last_reported":1731859776,"current_range_meters":6800,"station_id":"ce4bht12rcd13ifvqi60","pricing_plan_id":"cebpf4jnsgd1na2vs0mg"},{"bike_id":"1ce7e343-b9b8-4728-905c-7931a00c8dca","system_id":"levelo_inurba_marseille","lat":43.2656,"lon":5.38994,"is_reserved":false,"is_disabled":false,"rental_uris":{"android":"levelo://app?vid=1ce7e343-b9b8-4728-905c-7931a00c8dca","ios":"levelo://app?vid=1ce7e343-b9b8-4728-905c-7931a00c8dca"},"vehicle_type_id":"4","last_reported":1731859776,"current_range_meters":2000,"station_id":"ce4bhe12rcd13ifvqf30","pricing_plan_id":"cebpf4jnsgd1na2vs0mg"},{"bike_id":"c4d4fe37-1df7-4660-8977-18af7f327749","system_id":"levelo_inurba_marseille","lat":43.25504,"lon":5.37652,"is_reserved":false,"is_disabled":false,"rental_uris":{"android":"levelo://app?vid=c4d4fe37-1df7-4660-8977-18af7f327749","ios":"levelo://app?vid=c4d4fe37-1df7-4660-8977-18af7f327749"},"vehicle_type_id":"4","last_reported":1731859776,"current_range_meters":4400,"station_id":"ce4bhh12rcd13ifvqff0","pricing_plan_id":"cebpf4jnsgd1na2vs0mg"},{"bike_id":"fbf0e50f-280f-42d5-a89c-9d83ff426a22","system_id":"levelo_inurba_marseille","lat":43.2917,"lon":5.37164,"is_reserved":false,"is_disabled":false,"rental_uris":{"android":"levelo://app?vid=fbf0e50f-280f-42d5-a89c-9d83ff426a22","ios":"levelo://app?vid=fbf0e50f-280f-42d5-a89c-9d83ff426a22"},"vehicle_type_id":"4","last_reported":1731859776,"current_range_meters":20800,"station_id":"ce4bha92rcd13ifvqeh0","pricing_plan_id":"cebpf4jnsgd1na2vs0mg"},{"bike_id":"6761e476-6b18-44f8-a0d9-f4e0aa8290a3","system_id":"levelo_inurba_marseille","lat":43.30143,"lon":5.38069,"is_reserved":false,"is_disabled":false,"rental_uris":{"android":"levelo://app?vid=6761e476-6b18-44f8-a0d9-f4e0aa8290a3","ios":"levelo://app?vid=6761e476-6b18-44f8-a0d9-f4e0aa8290a3"},"vehicle_type_id":"4","last_reported":1731859776,"current_range_meters":36800,"station_id":"ce4bgjp2rcd13ifvqbh0","pricing_plan_id":"cebpf4jnsgd1na2vs0mg"},{"bike_id":"c2273092-4ad4-4483-8525-e6150ece5338","system_id":"levelo_inurba_marseille","lat":43.298974,"lon":5.436644,"is_reserved":false,"is_disabled":false,"rental_uris":{"android":"levelo://app?vid=c2273092-4ad4-4483-8525-e6150ece5338","ios":"levelo://app?vid=c2273092-4ad4-4483-8525-e6150ece5338"},"vehicle_type_id":"4","last_reported":1731859776,"current_range_meters":38800,"station_id":"ce4bhpp2rcd13ifvqhfg","pricing_plan_id":"cebpf4jnsgd1na2vs0mg"},{"bike_id":"61102216-1914-4b3c-a218-cdf2139a7b35","system_id":"levelo_inurba_marseille","lat":43.30265,"lon":5.37714,"is_reserved":false,"is_disabled":false,"rental_uris":{"android":"levelo://app?vid=61102216-1914-4b3c-a218-cdf2139a7b35","ios":"levelo://app?vid=61102216-1914-4b3c-a218-cdf2139a7b35"},"vehicle_type_id":"4","last_reported":1731859776,"current_range_meters":22400,"station_id":"ce4bguh2rcd13ifvqcj0","pricing_plan_id":"cebpf4jnsgd1na2vs0mg"},{"bike_id":"1b76a929-b62b-4f36-9885-f2570e1ced67","system_id":"levelo_inurba_marseille","lat":43.241913,"lon":5.397059,"is_reserved":false,"is_disabled":false,"rental_uris":{"android":"levelo://app?vid=1b76a929-b62b-4f36-9885-f2570e1ced67","ios":"levelo://app?vid=1b76a929-b62b-4f36-9885-f2570e1ced67"},"vehicle_type_id":"4","last_reported":1731859776,"current_range_meters":35200,"station_id":"ce4bhn12rcd13ifvqgpg","pricing_plan_id":"cebpf4jnsgd1na2vs0mg"},{"bike_id":"ebe052b3-eb6d-4b86-b5f9-0c122349f859","system_id":"levelo_inurba_marseille","lat":43.27491,"lon":5.42457,"is_reserved":false,"is_disabled":false,"rental_uris":{"android":"levelo://app?vid=ebe052b3-eb6d-4b86-b5f9-0c122349f859","ios":"levelo://app?vid=ebe052b3-eb6d-4b86-b5f9-0c122349f859"},"vehicle_type_id":"4","last_reported":1731859776,"current_range_meters":11600,"station_id":"ce4bhn92rcd13ifvqgrg","pricing_plan_id":"cebpf4jnsgd1na2vs0mg"},{"bike_id":"4f01fa73-c9c0-4fc0-986b-b2a94d270e4a","system_id":"levelo_inurba_marseille","lat":43.302519,"lon":5.400883,"is_reserved":false,"is_disabled":false,"rental_uris":{"android":"levelo://app?vid=4f01fa73-c9c0-4fc0-986b-b2a94d270e4a","ios":"levelo://app?vid=4f01fa73-c9c0-4fc0-986b-b2a94d270e4a"},"vehicle_type_id":"4","last_reported":1731859776,"current_range_meters":9200,"station_id":"ce4bgvh2rcd13ifvqcs0","pricing_plan_id":"cebpf4jnsgd1na2vs0mg"},{"bike_id":"6d757fef-4f26-43f9-ac2c-ffab39bf7dae","system_id":"levelo_inurba_marseille","lat":43.32249,"lon":5.36901,"is_reserved":false,"is_disabled":false,"rental_uris":{"android":"levelo://app?vid=6d757fef-4f26-43f9-ac2c-ffab39bf7dae","ios":"levelo://app?vid=6d757fef-4f26-43f9-ac2c-ffab39bf7dae"},"vehicle_type_id":"4","last_reported":1731859776,"current_range_meters":14400,"station_id":"","pricing_plan_id":"cebpf4jnsgd1na2vs0mg"},{"bike_id":"abcd4d7b-1c2c-4e60-aca0-8a3f56688bf6","system_id":"levelo_inurba_marseille","lat":43.27063,"lon":5.403587,"is_reserved":false,"is_disabled":false,"rental_uris":{"android":"levelo://app?vid=abcd4d7b-1c2c-4e60-aca0-8a3f56688bf6","ios":"levelo://app?vid=abcd4d7b-1c2c-4e60-aca0-8a3f56688bf6"},"vehicle_type_id":"4","last_reported":1731859776,"current_range_meters":32800,"station_id":"ce4bhk92rcd13ifvqgc0","pricing_plan_id":"cebpf4jnsgd1na2vs0mg"},{"bike_id":"5c955919-6d50-48c6-ab5e-612476348f65","system_id":"levelo_inurba_marseille","lat":43.286949,"lon":5.399797,"is_reserved":false,"is_disabled":false,"rental_uris":{"android":"levelo://app?vid=5c955919-6d50-48c6-ab5e-612476348f65","ios":"levelo://app?vid=5c955919-6d50-48c6-ab5e-612476348f65"},"vehicle_type_id":"4","last_reported":1731859776,"current_range_meters":13600,"station_id":"ce4bho92rcd13ifvqh3g","pricing_plan_id":"cebpf4jnsgd1na2vs0mg"},{"bike_id":"176dfcf1-dbb1-46ba-bb5a-0e8c5c06d0fe","system_id":"levelo_inurba_marseille","lat":43.23956,"lon":5.36631,"is_reserved":false,"is_disabled":false,"rental_uris":{"android":"levelo://app?vid=176dfcf1-dbb1-46ba-bb5a-0e8c5c06d0fe","ios":"levelo://app?vid=176dfcf1-dbb1-46ba-bb5a-0e8c5c06d0fe"},"vehicle_type_id":"4","last_reported":1731859776,"current_range_meters":6000,"station_id":"ce4bhi12rcd13ifvqfp0","pricing_plan_id":"cebpf4jnsgd1na2vs0mg"},{"bike_id":"ae335726-259a-4375-8971-887bdf305583","system_id":"levelo_inurba_marseille","lat":43.27495,"lon":5.42445,"is_reserved":false,"is_disabled":false,"rental_uris":{"android":"levelo://app?vid=ae335726-259a-4375-8971-887bdf305583","ios":"levelo://app?vid=ae335726-259a-4375-8971-887bdf305583"},"vehicle_type_id":"4","last_reported":1731859776,"current_range_meters":28000,"station_id":"ce4bhn92rcd13ifvqgrg","pricing_plan_id":"cebpf4jnsgd1na2vs0mg"},{"bike_id":"6f4185ba-0d14-49f4-aa40-36e0cbac687e","system_id":"levelo_inurba_marseille","lat":43.29897,"lon":5.43672,"is_reserved":false,"is_disabled":false,"rental_uris":{"android":"levelo://app?vid=6f4185ba-0d14-49f4-aa40-36e0cbac687e","ios":"levelo://app?vid=6f4185ba-0d14-49f4-aa40-36e0cbac687e"},"vehicle_type_id":"4","last_reported":1731859776,"current_range_meters":37600,"station_id":"ce4bhpp2rcd13ifvqhfg","pricing_plan_id":"cebpf4jnsgd1na2vs0mg"},{"bike_id":"60a6277a-9be3-4017-96a5-8bc879e9f21f","system_id":"levelo_inurba_marseille","lat":43.28599,"lon":5.37065,"is_reserved":false,"is_disabled":false,"rental_uris":{"android":"levelo://app?vid=60a6277a-9be3-4017-96a5-8bc879e9f21f","ios":"levelo://app?vid=60a6277a-9be3-4017-96a5-8bc879e9f21f"},"vehicle_type_id":"4","last_reported":1731859776,"current_range_meters":38800,"station_id":"ce4bht12rcd13ifvqi60","pricing_plan_id":"cebpf4jnsgd1na2vs0mg"},{"bike_id":"9270a1f7-7025-4b9b-8f92-0efeae537e81","system_id":"levelo_inurba_marseille","lat":43.27056,"lon":5.40263,"is_reserved":false,"is_disabled":false,"rental_uris":{"android":"levelo://app?vid=9270a1f7-7025-4b9b-8f92-0efeae537e81","ios":"levelo://app?vid=9270a1f7-7025-4b9b-8f92-0efeae537e81"},"vehicle_type_id":"4","last_reported":1731859776,"current_range_meters":27600,"station_id":"ce4bhk92rcd13ifvqgc0","pricing_plan_id":"cebpf4jnsgd1na2vs0mg"},{"bike_id":"e6676fc6-c1d0-4334-b04f-0d0b496b3d90","system_id":"levelo_inurba_marseille","lat":43.29599,"lon":5.38113,"is_reserved":false,"is_disabled":false,"rental_uris":{"android":"levelo://app?vid=e6676fc6-c1d0-4334-b04f-0d0b496b3d90","ios":"levelo://app?vid=e6676fc6-c1d0-4334-b04f-0d0b496b3d90"},"vehicle_type_id":"4","last_reported":1731859776,"current_range_meters":16400,"station_id":"ce4bgl12rcd13ifvqbo0","pricing_plan_id":"cebpf4jnsgd1na2vs0mg"},{"bike_id":"7426ebfa-7572-4526-bcf3-ba1709d2818a","system_id":"levelo_inurba_marseille","lat":43.28613,"lon":5.37059,"is_reserved":false,"is_disabled":false,"rental_uris":{"android":"levelo://app?vid=7426ebfa-7572-4526-bcf3-ba1709d2818a","ios":"levelo://app?vid=7426ebfa-7572-4526-bcf3-ba1709d2818a"},"vehicle_type_id":"4","last_reported":1731859776,"current_range_meters":38800,"station_id":"ce4bht12rcd13ifvqi60","pricing_plan_id":"cebpf4jnsgd1na2vs0mg"},{"bike_id":"08b8cc7a-173f-45ff-a19d-373334d8568e","system_id":"levelo_inurba_marseille","lat":43.3253,"lon":5.41433,"is_reserved":false,"is_disabled":false,"rental_uris":{"android":"levelo://app?vid=08b8cc7a-173f-45ff-a19d-373334d8568e","ios":"levelo://app?vid=08b8cc7a-173f-45ff-a19d-373334d8568e"},"vehicle_type_id":"4","last_reported":1731859776,"current_range_meters":15200,"station_id":"ce4bhq12rcd13ifvqhhg","pricing_plan_id":"cebpf4jnsgd1na2vs0mg"},{"bike_id":"dac87e5f-43b3-490e-a392-52d4df5a8f48","system_id":"levelo_inurba_marseille","lat":43.290588,"lon":5.378342,"is_reserved":false,"is_disabled":false,"rental_uris":{"android":"levelo://app?vid=dac87e5f-43b3-490e-a392-52d4df5a8f48","ios":"levelo://app?vid=dac87e5f-43b3-490e-a392-52d4df5a8f48"},"vehicle_type_id":"4","last_reported":1731859776,"current_range_meters":20400,"station_id":"ce4bh692rcd13ifvqe90","pricing_plan_id":"cebpf4jnsgd1na2vs0mg"},{"bike_id":"6d17d747-8856-4949-912b-5126747de59a","system_id":"levelo_inurba_marseille","lat":43.26211,"lon":5.37442,"is_reserved":false,"is_disabled":false,"rental_uris":{"android":"levelo://app?vid=6d17d747-8856-4949-912b-5126747de59a","ios":"levelo://app?vid=6d17d747-8856-4949-912b-5126747de59a"},"vehicle_type_id":"4","last_reported":1731859776,"current_range_meters":20000,"station_id":"ce4bhgp2rcd13ifvqfc0","pricing_plan_id":"cebpf4jnsgd1na2vs0mg"},{"bike_id":"eb9a84f5-6092-4dc4-a3c0-a07efb437c77","system_id":"levelo_inurba_marseille","lat":43.33763,"lon":5.37446,"is_reserved":false,"is_disabled":false,"rental_uris":{"android":"levelo://app?vid=eb9a84f5-6092-4dc4-a3c0-a07efb437c77","ios":"levelo://app?vid=eb9a84f5-6092-4dc4-a3c0-a07efb437c77"},"vehicle_type_id":"4","last_reported":1731859776,"current_range_meters":5600,"station_id":"","pricing_plan_id":"cebpf4jnsgd1na2vs0mg"},{"bike_id":"62d96a22-5eea-4864-8e68-d49d57553312","system_id":"levelo_inurba_marseille","lat":43.26682,"lon":5.38274,"is_reserved":false,"is_disabled":false,"rental_uris":{"android":"levelo://app?vid=62d96a22-5eea-4864-8e68-d49d57553312","ios":"levelo://app?vid=62d96a22-5eea-4864-8e68-d49d57553312"},"vehicle_type_id":"4","last_reported":1731859776,"current_range_meters":18800,"station_id":"ce4bhg92rcd13ifvqf90","pricing_plan_id":"cebpf4jnsgd1na2vs0mg"},{"bike_id":"22ea48db-755d-43c3-a7d2-0beff01815d8","system_id":"levelo_inurba_marseille","lat":43.337634,"lon":5.374433,"is_reserved":false,"is_disabled":false,"rental_uris":{"android":"levelo://app?vid=22ea48db-755d-43c3-a7d2-0beff01815d8","ios":"levelo://app?vid=22ea48db-755d-43c3-a7d2-0beff01815d8"},"vehicle_type_id":"4","last_reported":1731859776,"current_range_meters":8000,"station_id":"","pricing_plan_id":"cebpf4jnsgd1na2vs0mg"},{"bike_id":"e572c8c8-2c29-468a-9de9-47bf2d2e9b00","system_id":"levelo_inurba_marseille","lat":43.27489,"lon":5.42458,"is_reserved":false,"is_disabled":false,"rental_uris":{"android":"levelo://app?vid=e572c8c8-2c29-468a-9de9-47bf2d2e9b00","ios":"levelo://app?vid=e572c8c8-2c29-468a-9de9-47bf2d2e9b00"},"vehicle_type_id":"4","last_reported":1731859776,"current_range_meters":28000,"station_id":"ce4bhn92rcd13ifvqgrg","pricing_plan_id":"cebpf4jnsgd1na2vs0mg"},{"bike_id":"3dc5df48-bf35-49dc-a497-b340b3096a58","system_id":"levelo_inurba_marseille","lat":43.25007,"lon":5.38935,"is_reserved":false,"is_disabled":false,"rental_uris":{"android":"levelo://app?vid=3dc5df48-bf35-49dc-a497-b340b3096a58","ios":"levelo://app?vid=3dc5df48-bf35-49dc-a497-b340b3096a58"},"vehicle_type_id":"4","last_reported":1731859776,"current_range_meters":37600,"station_id":"ce4bhgp2rcd13ifvqfd0","pricing_plan_id":"cebpf4jnsgd1na2vs0mg"},{"bike_id":"8d6a804e-a708-449c-8101-a4d4b141c1a9","system_id":"levelo_inurba_marseille","lat":43.288848,"lon":5.400069,"is_reserved":false,"is_disabled":false,"rental_uris":{"android":"levelo://app?vid=8d6a804e-a708-449c-8101-a4d4b141c1a9","ios":"levelo://app?vid=8d6a804e-a708-449c-8101-a4d4b141c1a9"},"vehicle_type_id":"4","last_reported":1731859776,"current_range_meters":22800,"station_id":"ce4bh392rcd13ifvqdm0","pricing_plan_id":"cebpf4jnsgd1na2vs0mg"},{"bike_id":"a1862017-f597-4949-a306-4d7c53cc8b86","system_id":"levelo_inurba_marseille","lat":43.2417,"lon":5.364,"is_reserved":false,"is_disabled":false,"rental_uris":{"android":"levelo://app?vid=a1862017-f597-4949-a306-4d7c53cc8b86","ios":"levelo://app?vid=a1862017-f597-4949-a306-4d7c53cc8b86"},"vehicle_type_id":"4","last_reported":1731859776,"current_range_meters":8000,"station_id":"cpo36qri1sfpv3e86is0","pricing_plan_id":"cebpf4jnsgd1na2vs0mg"},{"bike_id":"cb74cf28-b70a-43ac-8471-344e6066216d","system_id":"levelo_inurba_marseille","lat":43.33014,"lon":5.38999,"is_reserved":false,"is_disabled":false,"rental_uris":{"android":"levelo://app?vid=cb74cf28-b70a-43ac-8471-344e6066216d","ios":"levelo://app?vid=cb74cf28-b70a-43ac-8471-344e6066216d"},"vehicle_type_id":"4","last_reported":1731859776,"current_range_meters":9200,"station_id":"ce4bgn92rcd13ifvqbvg","pricing_plan_id":"cebpf4jnsgd1na2vs0mg"},{"bike_id":"ca655f3b-8380-4045-b3f8-8acaa0e83ede","system_id":"levelo_inurba_marseille","lat":43.33739,"lon":5.37423,"is_reserved":false,"is_disabled":false,"rental_uris":{"android":"levelo://app?vid=ca655f3b-8380-4045-b3f8-8acaa0e83ede","ios":"levelo://app?vid=ca655f3b-8380-4045-b3f8-8acaa0e83ede"},"vehicle_type_id":"4","last_reported":1731859776,"current_range_meters":32400,"station_id":"","pricing_plan_id":"cebpf4jnsgd1na2vs0mg"},{"bike_id":"a6b8c285-acc9-4039-9531-1aae39136a33","system_id":"levelo_inurba_marseille","lat":43.312042,"lon":5.367348,"is_reserved":false,"is_disabled":false,"rental_uris":{"android":"levelo://app?vid=a6b8c285-acc9-4039-9531-1aae39136a33","ios":"levelo://app?vid=a6b8c285-acc9-4039-9531-1aae39136a33"},"vehicle_type_id":"4","last_reported":1731859776,"current_range_meters":9600,"station_id":"","pricing_plan_id":"cebpf4jnsgd1na2vs0mg"},{"bike_id":"04e579be-d930-46e5-bb29-40fdc45896e1","system_id":"levelo_inurba_marseille","lat":43.32643,"lon":5.36211,"is_reserved":false,"is_disabled":false,"rental_uris":{"android":"levelo://app?vid=04e579be-d930-46e5-bb29-40fdc45896e1","ios":"levelo://app?vid=04e579be-d930-46e5-bb29-40fdc45896e1"},"vehicle_type_id":"4","last_reported":1731859776,"current_range_meters":5600,"station_id":"","pricing_plan_id":"cebpf4jnsgd1na2vs0mg"},{"bike_id":"37b940f2-53f1-40b3-bcdc-a092eab2c248","system_id":"levelo_inurba_marseille","lat":43.23962,"lon":5.36628,"is_reserved":false,"is_disabled":false,"rental_uris":{"android":"levelo://app?vid=37b940f2-53f1-40b3-bcdc-a092eab2c248","ios":"levelo://app?vid=37b940f2-53f1-40b3-bcdc-a092eab2c248"},"vehicle_type_id":"4","last_reported":1731859776,"current_range_meters":19200,"station_id":"ce4bhi12rcd13ifvqfp0","pricing_plan_id":"cebpf4jnsgd1na2vs0mg"},{"bike_id":"2d042a9e-3b35-48a3-9f9f-5537b3e5d64a","system_id":"levelo_inurba_marseille","lat":43.29809,"lon":5.38094,"is_reserved":false,"is_disabled":false,"rental_uris":{"android":"levelo://app?vid=2d042a9e-3b35-48a3-9f9f-5537b3e5d64a","ios":"levelo://app?vid=2d042a9e-3b35-48a3-9f9f-5537b3e5d64a"},"vehicle_type_id":"4","last_reported":1731859776,"current_range_meters":37600,"station_id":"ce4bgip2rcd13ifvqbb0","pricing_plan_id":"cebpf4jnsgd1na2vs0mg"},{"bike_id":"3731846e-2218-45f1-ac96-76a41185ff9d","system_id":"levelo_inurba_marseille","lat":43.24167,"lon":5.36396,"is_reserved":false,"is_disabled":false,"rental_uris":{"android":"levelo://app?vid=3731846e-2218-45f1-ac96-76a41185ff9d","ios":"levelo://app?vid=3731846e-2218-45f1-ac96-76a41185ff9d"},"vehicle_type_id":"4","last_reported":1731859776,"current_range_meters":36000,"station_id":"cpo36qri1sfpv3e86is0","pricing_plan_id":"cebpf4jnsgd1na2vs0mg"},{"bike_id":"92ac4858-87d6-4ceb-8f6e-004635a816a8","system_id":"levelo_inurba_marseille","lat":43.27787,"lon":5.40739,"is_reserved":false,"is_disabled":false,"rental_uris":{"android":"levelo://app?vid=92ac4858-87d6-4ceb-8f6e-004635a816a8","ios":"levelo://app?vid=92ac4858-87d6-4ceb-8f6e-004635a816a8"},"vehicle_type_id":"4","last_reported":1731859776,"current_range_meters":26800,"station_id":"ce4bhnh2rcd13ifvqgtg","pricing_plan_id":"cebpf4jnsgd1na2vs0mg"},{"bike_id":"1396ab55-0e44-4ee6-a17e-86cf36813da1","system_id":"levelo_inurba_marseille","lat":43.24178,"lon":5.39735,"is_reserved":false,"is_disabled":false,"rental_uris":{"android":"levelo://app?vid=1396ab55-0e44-4ee6-a17e-86cf36813da1","ios":"levelo://app?vid=1396ab55-0e44-4ee6-a17e-86cf36813da1"},"vehicle_type_id":"4","last_reported":1731859776,"current_range_meters":27600,"station_id":"ce4bhn12rcd13ifvqgpg","pricing_plan_id":"cebpf4jnsgd1na2vs0mg"},{"bike_id":"d5a688b7-e3dd-4d9b-a917-07f4265737d5","system_id":"levelo_inurba_marseille","lat":43.29608,"lon":5.36939,"is_reserved":false,"is_disabled":false,"rental_uris":{"android":"levelo://app?vid=d5a688b7-e3dd-4d9b-a917-07f4265737d5","ios":"levelo://app?vid=d5a688b7-e3dd-4d9b-a917-07f4265737d5"},"vehicle_type_id":"4","last_reported":1731859776,"current_range_meters":4800,"station_id":"ce4bgpp2rcd13ifvqc3g","pricing_plan_id":"cebpf4jnsgd1na2vs0mg"},{"bike_id":"c74db7f7-b79f-41ba-85f4-909d309e4d30","system_id":"levelo_inurba_marseille","lat":43.28417,"lon":5.34983,"is_reserved":false,"is_disabled":false,"rental_uris":{"android":"levelo://app?vid=c74db7f7-b79f-41ba-85f4-909d309e4d30","ios":"levelo://app?vid=c74db7f7-b79f-41ba-85f4-909d309e4d30"},"vehicle_type_id":"4","last_reported":1731859776,"current_range_meters":39200,"station_id":"ce4bhbp2rcd13ifvqerg","pricing_plan_id":"cebpf4jnsgd1na2vs0mg"},{"bike_id":"a84f5389-258d-4508-9c0f-32ee5d326b43","system_id":"levelo_inurba_marseille","lat":43.33767,"lon":5.37475,"is_reserved":false,"is_disabled":false,"rental_uris":{"android":"levelo://app?vid=a84f5389-258d-4508-9c0f-32ee5d326b43","ios":"levelo://app?vid=a84f5389-258d-4508-9c0f-32ee5d326b43"},"vehicle_type_id":"4","last_reported":1731859776,"current_range_meters":28800,"station_id":"","pricing_plan_id":"cebpf4jnsgd1na2vs0mg"},{"bike_id":"22b78c8e-ee52-41e1-bec2-be577d43abd1","system_id":"levelo_inurba_marseille","lat":43.2572,"lon":5.41109,"is_reserved":false,"is_disabled":false,"rental_uris":{"android":"levelo://app?vid=22b78c8e-ee52-41e1-bec2-be577d43abd1","ios":"levelo://app?vid=22b78c8e-ee52-41e1-bec2-be577d43abd1"},"vehicle_type_id":"4","last_reported":1731859776,"current_range_meters":11200,"station_id":"ce4bhkp2rcd13ifvqgd0","pricing_plan_id":"cebpf4jnsgd1na2vs0mg"},{"bike_id":"d6ea0d18-09c5-4a16-8d92-16497ecc1e85","system_id":"levelo_inurba_marseille","lat":43.27493,"lon":5.42454,"is_reserved":false,"is_disabled":false,"rental_uris":{"android":"levelo://app?vid=d6ea0d18-09c5-4a16-8d92-16497ecc1e85","ios":"levelo://app?vid=d6ea0d18-09c5-4a16-8d92-16497ecc1e85"},"vehicle_type_id":"4","last_reported":1731859776,"current_range_meters":8800,"station_id":"ce4bhn92rcd13ifvqgrg","pricing_plan_id":"cebpf4jnsgd1na2vs0mg"},{"bike_id":"27f717f3-66af-4d50-b2f4-2885a369e618","system_id":"levelo_inurba_marseille","lat":43.32973,"lon":5.41387,"is_reserved":false,"is_disabled":false,"rental_uris":{"android":"levelo://app?vid=27f717f3-66af-4d50-b2f4-2885a369e618","ios":"levelo://app?vid=27f717f3-66af-4d50-b2f4-2885a369e618"},"vehicle_type_id":"4","last_reported":1731859776,"current_range_meters":5600,"station_id":"ce4bhq92rcd13ifvqhkg","pricing_plan_id":"cebpf4jnsgd1na2vs0mg"},{"bike_id":"09c28208-431f-49af-b3d3-ceadce53f994","system_id":"levelo_inurba_marseille","lat":43.30779,"lon":5.38141,"is_reserved":false,"is_disabled":false,"rental_uris":{"android":"levelo://app?vid=09c28208-431f-49af-b3d3-ceadce53f994","ios":"levelo://app?vid=09c28208-431f-49af-b3d3-ceadce53f994"},"vehicle_type_id":"4","last_reported":1731859776,"current_range_meters":38000,"station_id":"ce4bgt12rcd13ifvqce0","pricing_plan_id":"cebpf4jnsgd1na2vs0mg"},{"bike_id":"88d04cb7-724e-47ca-a73f-c12f6eca5d0a","system_id":"levelo_inurba_marseille","lat":43.301544,"lon":5.398257,"is_reserved":false,"is_disabled":false,"rental_uris":{"android":"levelo://app?vid=88d04cb7-724e-47ca-a73f-c12f6eca5d0a","ios":"levelo://app?vid=88d04cb7-724e-47ca-a73f-c12f6eca5d0a"},"vehicle_type_id":"4","last_reported":1731859776,"current_range_meters":36800,"station_id":"ce4bh0h2rcd13ifvqd40","pricing_plan_id":"cebpf4jnsgd1na2vs0mg"},{"bike_id":"195717e6-5452-4c2c-bbee-9283dc8fe309","system_id":"levelo_inurba_marseille","lat":43.306305,"lon":5.401029,"is_reserved":false,"is_disabled":false,"rental_uris":{"android":"levelo://app?vid=195717e6-5452-4c2c-bbee-9283dc8fe309","ios":"levelo://app?vid=195717e6-5452-4c2c-bbee-9283dc8fe309"},"vehicle_type_id":"4","last_reported":1731859776,"current_range_meters":38400,"station_id":"ce4bh112rcd13ifvqda0","pricing_plan_id":"cebpf4jnsgd1na2vs0mg"},{"bike_id":"a8134ae1-a6e5-4bba-8d24-4063136fda7c","system_id":"levelo_inurba_marseille","lat":43.26557,"lon":5.39002,"is_reserved":false,"is_disabled":false,"rental_uris":{"android":"levelo://app?vid=a8134ae1-a6e5-4bba-8d24-4063136fda7c","ios":"levelo://app?vid=a8134ae1-a6e5-4bba-8d24-4063136fda7c"},"vehicle_type_id":"4","last_reported":1731859776,"current_range_meters":18000,"station_id":"ce4bhe12rcd13ifvqf30","pricing_plan_id":"cebpf4jnsgd1na2vs0mg"},{"bike_id":"6fe8590f-e391-4325-bdde-177e28f31a3e","system_id":"levelo_inurba_marseille","lat":43.33723,"lon":5.39189,"is_reserved":false,"is_disabled":false,"rental_uris":{"android":"levelo://app?vid=6fe8590f-e391-4325-bdde-177e28f31a3e","ios":"levelo://app?vid=6fe8590f-e391-4325-bdde-177e28f31a3e"},"vehicle_type_id":"4","last_reported":1731859776,"current_range_meters":36400,"station_id":"ce4bhr92rcd13ifvqhsg","pricing_plan_id":"cebpf4jnsgd1na2vs0mg"},{"bike_id":"aa8150ba-f842-4c52-86b7-99a78c1f17af","system_id":"levelo_inurba_marseille","lat":43.31754,"lon":5.38994,"is_reserved":false,"is_disabled":false,"rental_uris":{"android":"levelo://app?vid=aa8150ba-f842-4c52-86b7-99a78c1f17af","ios":"levelo://app?vid=aa8150ba-f842-4c52-86b7-99a78c1f17af"},"vehicle_type_id":"4","last_reported":1731859776,"current_range_meters":11200,"station_id":"ce4bhqp2rcd13ifvqhng","pricing_plan_id":"cebpf4jnsgd1na2vs0mg"},{"bike_id":"1e730ee4-2d8d-4021-979d-8e8d2bbc3bcb","system_id":"levelo_inurba_marseille","lat":43.2707,"lon":5.42281,"is_reserved":false,"is_disabled":false,"rental_uris":{"android":"levelo://app?vid=1e730ee4-2d8d-4021-979d-8e8d2bbc3bcb","ios":"levelo://app?vid=1e730ee4-2d8d-4021-979d-8e8d2bbc3bcb"},"vehicle_type_id":"4","last_reported":1731859776,"current_range_meters":14400,"station_id":"ce4bhk92rcd13ifvqgb0","pricing_plan_id":"cebpf4jnsgd1na2vs0mg"},{"bike_id":"022f478e-da93-4eda-9d1b-2d0e36905c07","system_id":"levelo_inurba_marseille","lat":43.33778,"lon":5.37437,"is_reserved":false,"is_disabled":false,"rental_uris":{"android":"levelo://app?vid=022f478e-da93-4eda-9d1b-2d0e36905c07","ios":"levelo://app?vid=022f478e-da93-4eda-9d1b-2d0e36905c07"},"vehicle_type_id":"4","last_reported":1731859776,"current_range_meters":10000,"station_id":"","pricing_plan_id":"cebpf4jnsgd1na2vs0mg"},{"bike_id":"3c7108fb-85fe-43b6-95ce-e6a5e6d34b1a","system_id":"levelo_inurba_marseille","lat":43.33725,"lon":5.39188,"is_reserved":false,"is_disabled":false,"rental_uris":{"android":"levelo://app?vid=3c7108fb-85fe-43b6-95ce-e6a5e6d34b1a","ios":"levelo://app?vid=3c7108fb-85fe-43b6-95ce-e6a5e6d34b1a"},"vehicle_type_id":"4","last_reported":1731859776,"current_range_meters":27600,"station_id":"ce4bhr92rcd13ifvqhsg","pricing_plan_id":"cebpf4jnsgd1na2vs0mg"},{"bike_id":"5812221e-0f14-46db-8b08-dae58f81ea5e","system_id":"levelo_inurba_marseille","lat":43.30801,"lon":5.3816,"is_reserved":false,"is_disabled":false,"rental_uris":{"android":"levelo://app?vid=5812221e-0f14-46db-8b08-dae58f81ea5e","ios":"levelo://app?vid=5812221e-0f14-46db-8b08-dae58f81ea5e"},"vehicle_type_id":"4","last_reported":1731859776,"current_range_meters":18800,"station_id":"ce4bgt12rcd13ifvqce0","pricing_plan_id":"cebpf4jnsgd1na2vs0mg"},{"bike_id":"f0789b1b-57cd-466d-ba50-ee4191086cb8","system_id":"levelo_inurba_marseille","lat":43.29569,"lon":5.39964,"is_reserved":false,"is_disabled":false,"rental_uris":{"android":"levelo://app?vid=f0789b1b-57cd-466d-ba50-ee4191086cb8","ios":"levelo://app?vid=f0789b1b-57cd-466d-ba50-ee4191086cb8"},"vehicle_type_id":"4","last_reported":1731859776,"current_range_meters":16000,"station_id":"ce4bh312rcd13ifvqdj0","pricing_plan_id":"cebpf4jnsgd1na2vs0mg"},{"bike_id":"0f23cdbc-14c9-493b-90df-e69e41a20744","system_id":"levelo_inurba_marseille","lat":43.28475,"lon":5.38421,"is_reserved":false,"is_disabled":false,"rental_uris":{"android":"levelo://app?vid=0f23cdbc-14c9-493b-90df-e69e41a20744","ios":"levelo://app?vid=0f23cdbc-14c9-493b-90df-e69e41a20744"},"vehicle_type_id":"4","last_reported":1731859776,"current_range_meters":3600,"station_id":"ce4bh512rcd13ifvqe3g","pricing_plan_id":"cebpf4jnsgd1na2vs0mg"},{"bike_id":"9926ca40-124c-4c5a-98cf-ac48ff2c7e66","system_id":"levelo_inurba_marseille","lat":43.29629,"lon":5.40599,"is_reserved":false,"is_disabled":false,"rental_uris":{"android":"levelo://app?vid=9926ca40-124c-4c5a-98cf-ac48ff2c7e66","ios":"levelo://app?vid=9926ca40-124c-4c5a-98cf-ac48ff2c7e66"},"vehicle_type_id":"4","last_reported":1731859776,"current_range_meters":6000,"station_id":"ce4bh0h2rcd13ifvqd60","pricing_plan_id":"cebpf4jnsgd1na2vs0mg"},{"bike_id":"a96c616b-4ccd-4d35-92a1-18ed3a5c24e6","system_id":"levelo_inurba_marseille","lat":43.30146,"lon":5.37417,"is_reserved":false,"is_disabled":false,"rental_uris":{"android":"levelo://app?vid=a96c616b-4ccd-4d35-92a1-18ed3a5c24e6","ios":"levelo://app?vid=a96c616b-4ccd-4d35-92a1-18ed3a5c24e6"},"vehicle_type_id":"4","last_reported":1731859776,"current_range_meters":20000,"station_id":"ce4bgs92rcd13ifvqcc0","pricing_plan_id":"cebpf4jnsgd1na2vs0mg"},{"bike_id":"908510f9-8a4a-4d76-a48b-b5c87548449b","system_id":"levelo_inurba_marseille","lat":43.28737,"lon":5.37944,"is_reserved":false,"is_disabled":false,"rental_uris":{"android":"levelo://app?vid=908510f9-8a4a-4d76-a48b-b5c87548449b","ios":"levelo://app?vid=908510f9-8a4a-4d76-a48b-b5c87548449b"},"vehicle_type_id":"4","last_reported":1731859776,"current_range_meters":22000,"station_id":"ce4bh9p2rcd13ifvqec0","pricing_plan_id":"cebpf4jnsgd1na2vs0mg"},{"bike_id":"3ac033ef-cf13-47be-80b7-10638a31b190","system_id":"levelo_inurba_marseille","lat":43.30897,"lon":5.36844,"is_reserved":false,"is_disabled":false,"rental_uris":{"android":"levelo://app?vid=3ac033ef-cf13-47be-80b7-10638a31b190","ios":"levelo://app?vid=3ac033ef-cf13-47be-80b7-10638a31b190"},"vehicle_type_id":"4","last_reported":1731859776,"current_range_meters":16400,"station_id":"ce4bgn92rcd13ifvqbvg","pricing_plan_id":"cebpf4jnsgd1na2vs0mg"},{"bike_id":"3b679425-cd3b-4031-adac-78f0dbc8cc65","system_id":"levelo_inurba_marseille","lat":43.29022,"lon":5.38127,"is_reserved":false,"is_disabled":false,"rental_uris":{"android":"levelo://app?vid=3b679425-cd3b-4031-adac-78f0dbc8cc65","ios":"levelo://app?vid=3b679425-cd3b-4031-adac-78f0dbc8cc65"},"vehicle_type_id":"4","last_reported":1731859776,"current_range_meters":16400,"station_id":"ce4bh4p2rcd13ifvqe1g","pricing_plan_id":"cebpf4jnsgd1na2vs0mg"},{"bike_id":"7fad5a85-9e13-4001-8bc1-69ffda7a455f","system_id":"levelo_inurba_marseille","lat":43.29846,"lon":5.36281,"is_reserved":false,"is_disabled":false,"rental_uris":{"android":"levelo://app?vid=7fad5a85-9e13-4001-8bc1-69ffda7a455f","ios":"levelo://app?vid=7fad5a85-9e13-4001-8bc1-69ffda7a455f"},"vehicle_type_id":"4","last_reported":1731859776,"current_range_meters":21600,"station_id":"ce4bgpp2rcd13ifvqc3g","pricing_plan_id":"cebpf4jnsgd1na2vs0mg"},{"bike_id":"2206b92c-11c9-42dd-8f22-c56f36eab895","system_id":"levelo_inurba_marseille","lat":43.27176,"lon":5.41001,"is_reserved":false,"is_disabled":false,"rental_uris":{"android":"levelo://app?vid=2206b92c-11c9-42dd-8f22-c56f36eab895","ios":"levelo://app?vid=2206b92c-11c9-42dd-8f22-c56f36eab895"},"vehicle_type_id":"4","last_reported":1731859776,"current_range_meters":9600,"station_id":"ce4bhl12rcd13ifvqgf0","pricing_plan_id":"cebpf4jnsgd1na2vs0mg"},{"bike_id":"872a4163-87b8-4b4a-b31f-5d31a7e254a9","system_id":"levelo_inurba_marseille","lat":43.28613,"lon":5.37068,"is_reserved":false,"is_disabled":false,"rental_uris":{"android":"levelo://app?vid=872a4163-87b8-4b4a-b31f-5d31a7e254a9","ios":"levelo://app?vid=872a4163-87b8-4b4a-b31f-5d31a7e254a9"},"vehicle_type_id":"4","last_reported":1731859776,"current_range_meters":10800,"station_id":"ce4bht12rcd13ifvqi60","pricing_plan_id":"cebpf4jnsgd1na2vs0mg"},{"bike_id":"d09864f6-03c9-4ab4-aa91-325e87f3b8b4","system_id":"levelo_inurba_marseille","lat":43.29262,"lon":5.36665,"is_reserved":false,"is_disabled":false,"rental_uris":{"android":"levelo://app?vid=d09864f6-03c9-4ab4-aa91-325e87f3b8b4","ios":"levelo://app?vid=d09864f6-03c9-4ab4-aa91-325e87f3b8b4"},"vehicle_type_id":"4","last_reported":1731859776,"current_range_meters":28400,"station_id":"ce4bhbh2rcd13ifvqeqg","pricing_plan_id":"cebpf4jnsgd1na2vs0mg"},{"bike_id":"09f437b1-93f6-44ee-a17d-bac073b5aa1a","system_id":"levelo_inurba_marseille","lat":43.23963,"lon":5.36633,"is_reserved":false,"is_disabled":false,"rental_uris":{"android":"levelo://app?vid=09f437b1-93f6-44ee-a17d-bac073b5aa1a","ios":"levelo://app?vid=09f437b1-93f6-44ee-a17d-bac073b5aa1a"},"vehicle_type_id":"4","last_reported":1731859776,"current_range_meters":38000,"station_id":"ce4bhi12rcd13ifvqfp0","pricing_plan_id":"cebpf4jnsgd1na2vs0mg"},{"bike_id":"90bb2cae-4339-46de-973d-1d239b082c40","system_id":"levelo_inurba_marseille","lat":43.23185,"lon":5.39995,"is_reserved":false,"is_disabled":false,"rental_uris":{"android":"levelo://app?vid=90bb2cae-4339-46de-973d-1d239b082c40","ios":"levelo://app?vid=90bb2cae-4339-46de-973d-1d239b082c40"},"vehicle_type_id":"4","last_reported":1731859776,"current_range_meters":18000,"station_id":"ce4bhn12rcd13ifvqgqg","pricing_plan_id":"cebpf4jnsgd1na2vs0mg"},{"bike_id":"2829e5e0-0c97-40b0-8e2c-be6e6fd2d7fa","system_id":"levelo_inurba_marseille","lat":43.27939,"lon":5.4105,"is_reserved":false,"is_disabled":false,"rental_uris":{"android":"levelo://app?vid=2829e5e0-0c97-40b0-8e2c-be6e6fd2d7fa","ios":"levelo://app?vid=2829e5e0-0c97-40b0-8e2c-be6e6fd2d7fa"},"vehicle_type_id":"4","last_reported":1731859776,"current_range_meters":7200,"station_id":"ce4bhnp2rcd13ifvqh0g","pricing_plan_id":"cebpf4jnsgd1na2vs0mg"},{"bike_id":"9f9376b5-7a52-4020-8799-6ad682a12068","system_id":"levelo_inurba_marseille","lat":43.23174,"lon":5.39989,"is_reserved":false,"is_disabled":false,"rental_uris":{"android":"levelo://app?vid=9f9376b5-7a52-4020-8799-6ad682a12068","ios":"levelo://app?vid=9f9376b5-7a52-4020-8799-6ad682a12068"},"vehicle_type_id":"4","last_reported":1731859776,"current_range_meters":14400,"station_id":"ce4bhn12rcd13ifvqgqg","pricing_plan_id":"cebpf4jnsgd1na2vs0mg"},{"bike_id":"63cfe210-b1b7-4369-81a4-d305c4e3ae51","system_id":"levelo_inurba_marseille","lat":43.23184,"lon":5.39991,"is_reserved":false,"is_disabled":false,"rental_uris":{"android":"levelo://app?vid=63cfe210-b1b7-4369-81a4-d305c4e3ae51","ios":"levelo://app?vid=63cfe210-b1b7-4369-81a4-d305c4e3ae51"},"vehicle_type_id":"4","last_reported":1731859776,"current_range_meters":32800,"station_id":"ce4bhn12rcd13ifvqgqg","pricing_plan_id":"cebpf4jnsgd1na2vs0mg"},{"bike_id":"a91f23f7-f251-46d3-97a2-effb836fb255","system_id":"levelo_inurba_marseille","lat":43.24165,"lon":5.36395,"is_reserved":false,"is_disabled":false,"rental_uris":{"android":"levelo://app?vid=a91f23f7-f251-46d3-97a2-effb836fb255","ios":"levelo://app?vid=a91f23f7-f251-46d3-97a2-effb836fb255"},"vehicle_type_id":"4","last_reported":1731859776,"current_range_meters":14400,"station_id":"cpo36qri1sfpv3e86is0","pricing_plan_id":"cebpf4jnsgd1na2vs0mg"},{"bike_id":"952ede7a-2ff9-4a9b-9bbc-456dc8df9c18","system_id":"levelo_inurba_marseille","lat":43.32549,"lon":5.41452,"is_reserved":false,"is_disabled":false,"rental_uris":{"android":"levelo://app?vid=952ede7a-2ff9-4a9b-9bbc-456dc8df9c18","ios":"levelo://app?vid=952ede7a-2ff9-4a9b-9bbc-456dc8df9c18"},"vehicle_type_id":"4","last_reported":1731859776,"current_range_meters":38800,"station_id":"ce4bhq12rcd13ifvqhhg","pricing_plan_id":"cebpf4jnsgd1na2vs0mg"},{"bike_id":"7aa77366-707a-4235-89bd-7b6099cc88b1","system_id":"levelo_inurba_marseille","lat":43.28609,"lon":5.37074,"is_reserved":false,"is_disabled":false,"rental_uris":{"android":"levelo://app?vid=7aa77366-707a-4235-89bd-7b6099cc88b1","ios":"levelo://app?vid=7aa77366-707a-4235-89bd-7b6099cc88b1"},"vehicle_type_id":"4","last_reported":1731859776,"current_range_meters":38800,"station_id":"ce4bht12rcd13ifvqi60","pricing_plan_id":"cebpf4jnsgd1na2vs0mg"},{"bike_id":"9dad1bf9-34cc-4614-9f9a-f06c9f8e6be7","system_id":"levelo_inurba_marseille","lat":43.28341,"lon":5.38102,"is_reserved":false,"is_disabled":false,"rental_uris":{"android":"levelo://app?vid=9dad1bf9-34cc-4614-9f9a-f06c9f8e6be7","ios":"levelo://app?vid=9dad1bf9-34cc-4614-9f9a-f06c9f8e6be7"},"vehicle_type_id":"4","last_reported":1731859776,"current_range_meters":19200,"station_id":"ce4bh412rcd13ifvqdr0","pricing_plan_id":"cebpf4jnsgd1na2vs0mg"},{"bike_id":"0d84feb5-1b95-49ab-bf91-c474041a34ca","system_id":"levelo_inurba_marseille","lat":43.33025,"lon":5.39034,"is_reserved":false,"is_disabled":false,"rental_uris":{"android":"levelo://app?vid=0d84feb5-1b95-49ab-bf91-c474041a34ca","ios":"levelo://app?vid=0d84feb5-1b95-49ab-bf91-c474041a34ca"},"vehicle_type_id":"4","last_reported":1731859776,"current_range_meters":24400,"station_id":"ce4bhr92rcd13ifvqhrg","pricing_plan_id":"cebpf4jnsgd1na2vs0mg"},{"bike_id":"244ae319-bbbe-4107-af39-63ff4cd72526","system_id":"levelo_inurba_marseille","lat":43.270298,"lon":5.364816,"is_reserved":false,"is_disabled":false,"rental_uris":{"android":"levelo://app?vid=244ae319-bbbe-4107-af39-63ff4cd72526","ios":"levelo://app?vid=244ae319-bbbe-4107-af39-63ff4cd72526"},"vehicle_type_id":"4","last_reported":1731859776,"current_range_meters":22800,"station_id":"ce4bhl92rcd13ifvqghg","pricing_plan_id":"cebpf4jnsgd1na2vs0mg"},{"bike_id":"211e51e8-dbf7-4d22-b6f1-8020f0c8fa6e","system_id":"levelo_inurba_marseille","lat":43.24174,"lon":5.36403,"is_reserved":false,"is_disabled":false,"rental_uris":{"android":"levelo://app?vid=211e51e8-dbf7-4d22-b6f1-8020f0c8fa6e","ios":"levelo://app?vid=211e51e8-dbf7-4d22-b6f1-8020f0c8fa6e"},"vehicle_type_id":"4","last_reported":1731859776,"current_range_meters":18800,"station_id":"cpo36qri1sfpv3e86is0","pricing_plan_id":"cebpf4jnsgd1na2vs0mg"},{"bike_id":"52bed080-3732-4f86-93a1-cc827ac76e67","system_id":"levelo_inurba_marseille","lat":43.22931,"lon":5.35376,"is_reserved":false,"is_disabled":false,"rental_uris":{"android":"levelo://app?vid=52bed080-3732-4f86-93a1-cc827ac76e67","ios":"levelo://app?vid=52bed080-3732-4f86-93a1-cc827ac76e67"},"vehicle_type_id":"4","last_reported":1731859776,"current_range_meters":20800,"station_id":"cpo3532slgdg3j2ikp40","pricing_plan_id":"cebpf4jnsgd1na2vs0mg"},{"bike_id":"14b0dd5d-fb7f-4337-812d-2efd5b171e81","system_id":"levelo_inurba_marseille","lat":43.23049,"lon":5.35486,"is_reserved":false,"is_disabled":false,"rental_uris":{"android":"levelo://app?vid=14b0dd5d-fb7f-4337-812d-2efd5b171e81","ios":"levelo://app?vid=14b0dd5d-fb7f-4337-812d-2efd5b171e81"},"vehicle_type_id":"4","last_reported":1731859776,"current_range_meters":36800,"station_id":"cpo3342slgdg3j2ifvpg","pricing_plan_id":"cebpf4jnsgd1na2vs0mg"},{"bike_id":"3b475216-d6c5-4799-be42-143f9db83b02","system_id":"levelo_inurba_marseille","lat":43.29014,"lon":5.3562,"is_reserved":false,"is_disabled":false,"rental_uris":{"android":"levelo://app?vid=3b475216-d6c5-4799-be42-143f9db83b02","ios":"levelo://app?vid=3b475216-d6c5-4799-be42-143f9db83b02"},"vehicle_type_id":"4","last_reported":1731859776,"current_range_meters":6800,"station_id":"","pricing_plan_id":"cebpf4jnsgd1na2vs0mg"},{"bike_id":"6e6b7e95-e236-45c5-beda-1d130066d7ca","system_id":"levelo_inurba_marseille","lat":43.23199,"lon":5.35555,"is_reserved":false,"is_disabled":false,"rental_uris":{"android":"levelo://app?vid=6e6b7e95-e236-45c5-beda-1d130066d7ca","ios":"levelo://app?vid=6e6b7e95-e236-45c5-beda-1d130066d7ca"},"vehicle_type_id":"4","last_reported":1731859776,"current_range_meters":38800,"station_id":"ce4bhu92rcd13ifvqi70","pricing_plan_id":"cebpf4jnsgd1na2vs0mg"},{"bike_id":"2df1fc99-67d3-4962-a043-2d989720685b","system_id":"levelo_inurba_marseille","lat":43.24546,"lon":5.39529,"is_reserved":false,"is_disabled":false,"rental_uris":{"android":"levelo://app?vid=2df1fc99-67d3-4962-a043-2d989720685b","ios":"levelo://app?vid=2df1fc99-67d3-4962-a043-2d989720685b"},"vehicle_type_id":"4","last_reported":1731859776,"current_range_meters":12000,"station_id":"ce4bhlp2rcd13ifvqgjg","pricing_plan_id":"cebpf4jnsgd1na2vs0mg"},{"bike_id":"e5608815-1033-4b70-8fff-9e9d90d77929","system_id":"levelo_inurba_marseille","lat":43.30794,"lon":5.3816,"is_reserved":false,"is_disabled":false,"rental_uris":{"android":"levelo://app?vid=e5608815-1033-4b70-8fff-9e9d90d77929","ios":"levelo://app?vid=e5608815-1033-4b70-8fff-9e9d90d77929"},"vehicle_type_id":"4","last_reported":1731859776,"current_range_meters":24000,"station_id":"ce4bgt12rcd13ifvqce0","pricing_plan_id":"cebpf4jnsgd1na2vs0mg"},{"bike_id":"b3905255-23dc-444c-a75b-88b1daffbddc","system_id":"levelo_inurba_marseille","lat":43.31708,"lon":5.377623,"is_reserved":false,"is_disabled":false,"rental_uris":{"android":"levelo://app?vid=b3905255-23dc-444c-a75b-88b1daffbddc","ios":"levelo://app?vid=b3905255-23dc-444c-a75b-88b1daffbddc"},"vehicle_type_id":"4","last_reported":1731859776,"current_range_meters":27600,"station_id":"ce4bgth2rcd13ifvqch0","pricing_plan_id":"cebpf4jnsgd1na2vs0mg"},{"bike_id":"e8f655b0-206a-4c53-9f26-ac37563c4992","system_id":"levelo_inurba_marseille","lat":43.28151,"lon":5.4265,"is_reserved":false,"is_disabled":false,"rental_uris":{"android":"levelo://app?vid=e8f655b0-206a-4c53-9f26-ac37563c4992","ios":"levelo://app?vid=e8f655b0-206a-4c53-9f26-ac37563c4992"},"vehicle_type_id":"4","last_reported":1731859776,"current_range_meters":38000,"station_id":"ce4bhnh2rcd13ifvqgug","pricing_plan_id":"cebpf4jnsgd1na2vs0mg"},{"bike_id":"0eeacf83-0358-4c8f-af43-7926bdd71fb5","system_id":"levelo_inurba_marseille","lat":43.290039,"lon":5.35612,"is_reserved":false,"is_disabled":false,"rental_uris":{"android":"levelo://app?vid=0eeacf83-0358-4c8f-af43-7926bdd71fb5","ios":"levelo://app?vid=0eeacf83-0358-4c8f-af43-7926bdd71fb5"},"vehicle_type_id":"4","last_reported":1731859776,"current_range_meters":19200,"station_id":"ce4bhb92rcd13ifvqen0","pricing_plan_id":"cebpf4jnsgd1na2vs0mg"},{"bike_id":"eb1e3dd4-44e1-447b-b6e5-227b1f23dd28","system_id":"levelo_inurba_marseille","lat":43.2749,"lon":5.42457,"is_reserved":false,"is_disabled":false,"rental_uris":{"android":"levelo://app?vid=eb1e3dd4-44e1-447b-b6e5-227b1f23dd28","ios":"levelo://app?vid=eb1e3dd4-44e1-447b-b6e5-227b1f23dd28"},"vehicle_type_id":"4","last_reported":1731859776,"current_range_meters":4800,"station_id":"ce4bhn92rcd13ifvqgrg","pricing_plan_id":"cebpf4jnsgd1na2vs0mg"},{"bike_id":"9cb37952-7964-4700-bfd5-3450d1dd7dad","system_id":"levelo_inurba_marseille","lat":43.28032,"lon":5.36948,"is_reserved":false,"is_disabled":false,"rental_uris":{"android":"levelo://app?vid=9cb37952-7964-4700-bfd5-3450d1dd7dad","ios":"levelo://app?vid=9cb37952-7964-4700-bfd5-3450d1dd7dad"},"vehicle_type_id":"4","last_reported":1731859776,"current_range_meters":3200,"station_id":"ce4bha12rcd13ifvqef0","pricing_plan_id":"cebpf4jnsgd1na2vs0mg"},{"bike_id":"ef3da61f-cf2f-4e7f-962f-a81fa6e6e1a4","system_id":"levelo_inurba_marseille","lat":43.26053,"lon":5.39399,"is_reserved":false,"is_disabled":false,"rental_uris":{"android":"levelo://app?vid=ef3da61f-cf2f-4e7f-962f-a81fa6e6e1a4","ios":"levelo://app?vid=ef3da61f-cf2f-4e7f-962f-a81fa6e6e1a4"},"vehicle_type_id":"4","last_reported":1731859776,"current_range_meters":19200,"station_id":"ce4bhh92rcd13ifvqfj0","pricing_plan_id":"cebpf4jnsgd1na2vs0mg"},{"bike_id":"a7347ed6-fe41-4a96-833c-89250dcde604","system_id":"levelo_inurba_marseille","lat":43.28612,"lon":5.37058,"is_reserved":false,"is_disabled":false,"rental_uris":{"android":"levelo://app?vid=a7347ed6-fe41-4a96-833c-89250dcde604","ios":"levelo://app?vid=a7347ed6-fe41-4a96-833c-89250dcde604"},"vehicle_type_id":"4","last_reported":1731859776,"current_range_meters":36800,"station_id":"ce4bht12rcd13ifvqi60","pricing_plan_id":"cebpf4jnsgd1na2vs0mg"},{"bike_id":"b2c79329-ecc3-429a-95e2-4daa09b8b689","system_id":"levelo_inurba_marseille","lat":43.25499,"lon":5.37653,"is_reserved":false,"is_disabled":false,"rental_uris":{"android":"levelo://app?vid=b2c79329-ecc3-429a-95e2-4daa09b8b689","ios":"levelo://app?vid=b2c79329-ecc3-429a-95e2-4daa09b8b689"},"vehicle_type_id":"4","last_reported":1731859776,"current_range_meters":21600,"station_id":"ce4bhh12rcd13ifvqff0","pricing_plan_id":"cebpf4jnsgd1na2vs0mg"},{"bike_id":"cf045238-ff69-42b6-944e-cedd6932e624","system_id":"levelo_inurba_marseille","lat":43.312195,"lon":5.368609,"is_reserved":false,"is_disabled":false,"rental_uris":{"android":"levelo://app?vid=cf045238-ff69-42b6-944e-cedd6932e624","ios":"levelo://app?vid=cf045238-ff69-42b6-944e-cedd6932e624"},"vehicle_type_id":"4","last_reported":1731859776,"current_range_meters":13600,"station_id":"ce4bgt92rcd13ifvqcf0","pricing_plan_id":"cebpf4jnsgd1na2vs0mg"},{"bike_id":"562ba9a5-bc29-431f-8c48-91d95e9e48ba","system_id":"levelo_inurba_marseille","lat":43.32483,"lon":5.36567,"is_reserved":false,"is_disabled":false,"rental_uris":{"android":"levelo://app?vid=562ba9a5-bc29-431f-8c48-91d95e9e48ba","ios":"levelo://app?vid=562ba9a5-bc29-431f-8c48-91d95e9e48ba"},"vehicle_type_id":"4","last_reported":1731859776,"current_range_meters":25600,"station_id":"ce4bhs12rcd13ifvqhvg","pricing_plan_id":"cebpf4jnsgd1na2vs0mg"},{"bike_id":"77450d92-6630-4332-b616-b5e5230334b3","system_id":"levelo_inurba_marseille","lat":43.31167,"lon":5.38727,"is_reserved":false,"is_disabled":false,"rental_uris":{"android":"levelo://app?vid=77450d92-6630-4332-b616-b5e5230334b3","ios":"levelo://app?vid=77450d92-6630-4332-b616-b5e5230334b3"},"vehicle_type_id":"4","last_reported":1731859776,"current_range_meters":19600,"station_id":"ce4bgv12rcd13ifvqcp0","pricing_plan_id":"cebpf4jnsgd1na2vs0mg"},{"bike_id":"cc013e24-ceee-4b76-85ee-1a3500670fa2","system_id":"levelo_inurba_marseille","lat":43.29538,"lon":5.394109,"is_reserved":false,"is_disabled":false,"rental_uris":{"android":"levelo://app?vid=cc013e24-ceee-4b76-85ee-1a3500670fa2","ios":"levelo://app?vid=cc013e24-ceee-4b76-85ee-1a3500670fa2"},"vehicle_type_id":"4","last_reported":1731859776,"current_range_meters":35600,"station_id":"ce4bh292rcd13ifvqdf0","pricing_plan_id":"cebpf4jnsgd1na2vs0mg"},{"bike_id":"7814daba-3ea4-49db-95d3-b14204c0044a","system_id":"levelo_inurba_marseille","lat":43.28946,"lon":5.36402,"is_reserved":false,"is_disabled":false,"rental_uris":{"android":"levelo://app?vid=7814daba-3ea4-49db-95d3-b14204c0044a","ios":"levelo://app?vid=7814daba-3ea4-49db-95d3-b14204c0044a"},"vehicle_type_id":"4","last_reported":1731859776,"current_range_meters":35600,"station_id":"ce4bhc92rcd13ifvqetg","pricing_plan_id":"cebpf4jnsgd1na2vs0mg"},{"bike_id":"af5e8f35-eb6b-4d1d-b141-8f6cdaa9b241","system_id":"levelo_inurba_marseille","lat":43.28474,"lon":5.38414,"is_reserved":false,"is_disabled":false,"rental_uris":{"android":"levelo://app?vid=af5e8f35-eb6b-4d1d-b141-8f6cdaa9b241","ios":"levelo://app?vid=af5e8f35-eb6b-4d1d-b141-8f6cdaa9b241"},"vehicle_type_id":"4","last_reported":1731859776,"current_range_meters":16400,"station_id":"ce4bh512rcd13ifvqe3g","pricing_plan_id":"cebpf4jnsgd1na2vs0mg"},{"bike_id":"aebb50a8-8ba0-4378-9e54-d98cf8ebd81e","system_id":"levelo_inurba_marseille","lat":43.259338,"lon":5.40898,"is_reserved":false,"is_disabled":false,"rental_uris":{"android":"levelo://app?vid=aebb50a8-8ba0-4378-9e54-d98cf8ebd81e","ios":"levelo://app?vid=aebb50a8-8ba0-4378-9e54-d98cf8ebd81e"},"vehicle_type_id":"4","last_reported":1731859776,"current_range_meters":28800,"station_id":"ce4bhm92rcd13ifvqglg","pricing_plan_id":"cebpf4jnsgd1na2vs0mg"},{"bike_id":"7e08a400-3be7-4411-9722-564391a3ff1e","system_id":"levelo_inurba_marseille","lat":43.30786,"lon":5.38156,"is_reserved":false,"is_disabled":false,"rental_uris":{"android":"levelo://app?vid=7e08a400-3be7-4411-9722-564391a3ff1e","ios":"levelo://app?vid=7e08a400-3be7-4411-9722-564391a3ff1e"},"vehicle_type_id":"4","last_reported":1731859776,"current_range_meters":9600,"station_id":"ce4bgt12rcd13ifvqce0","pricing_plan_id":"cebpf4jnsgd1na2vs0mg"},{"bike_id":"633d9821-8174-4a8e-b7d1-280f3f9e44ad","system_id":"levelo_inurba_marseille","lat":43.25583,"lon":5.3823,"is_reserved":false,"is_disabled":false,"rental_uris":{"android":"levelo://app?vid=633d9821-8174-4a8e-b7d1-280f3f9e44ad","ios":"levelo://app?vid=633d9821-8174-4a8e-b7d1-280f3f9e44ad"},"vehicle_type_id":"4","last_reported":1731859776,"current_range_meters":39200,"station_id":"ce4bhih2rcd13ifvqfs0","pricing_plan_id":"cebpf4jnsgd1na2vs0mg"},{"bike_id":"237796b0-bc4f-46c5-b489-bea556994603","system_id":"levelo_inurba_marseille","lat":43.26562,"lon":5.3901,"is_reserved":false,"is_disabled":false,"rental_uris":{"android":"levelo://app?vid=237796b0-bc4f-46c5-b489-bea556994603","ios":"levelo://app?vid=237796b0-bc4f-46c5-b489-bea556994603"},"vehicle_type_id":"4","last_reported":1731859776,"current_range_meters":6000,"station_id":"ce4bhe12rcd13ifvqf30","pricing_plan_id":"cebpf4jnsgd1na2vs0mg"},{"bike_id":"1e553b8e-7441-4d51-95ce-394cde35b040","system_id":"levelo_inurba_marseille","lat":43.2417,"lon":5.364,"is_reserved":false,"is_disabled":false,"rental_uris":{"android":"levelo://app?vid=1e553b8e-7441-4d51-95ce-394cde35b040","ios":"levelo://app?vid=1e553b8e-7441-4d51-95ce-394cde35b040"},"vehicle_type_id":"4","last_reported":1731859776,"current_range_meters":38000,"station_id":"cpo36qri1sfpv3e86is0","pricing_plan_id":"cebpf4jnsgd1na2vs0mg"},{"bike_id":"1790ac93-5525-4bd4-a7ed-139eaa60ba18","system_id":"levelo_inurba_marseille","lat":43.30336,"lon":5.43505,"is_reserved":false,"is_disabled":false,"rental_uris":{"android":"levelo://app?vid=1790ac93-5525-4bd4-a7ed-139eaa60ba18","ios":"levelo://app?vid=1790ac93-5525-4bd4-a7ed-139eaa60ba18"},"vehicle_type_id":"4","last_reported":1731859776,"current_range_meters":8400,"station_id":"ce4bhph2rcd13ifvqheg","pricing_plan_id":"cebpf4jnsgd1na2vs0mg"},{"bike_id":"0c8e27cf-3ef8-4ad3-add6-2bd6fc2ae3c2","system_id":"levelo_inurba_marseille","lat":43.2396,"lon":5.36621,"is_reserved":false,"is_disabled":false,"rental_uris":{"android":"levelo://app?vid=0c8e27cf-3ef8-4ad3-add6-2bd6fc2ae3c2","ios":"levelo://app?vid=0c8e27cf-3ef8-4ad3-add6-2bd6fc2ae3c2"},"vehicle_type_id":"4","last_reported":1731859776,"current_range_meters":16400,"station_id":"ce4bhi12rcd13ifvqfp0","pricing_plan_id":"cebpf4jnsgd1na2vs0mg"},{"bike_id":"77c542d5-e2fd-47db-bd25-971222c64cea","system_id":"levelo_inurba_marseille","lat":43.2397,"lon":5.36633,"is_reserved":false,"is_disabled":false,"rental_uris":{"android":"levelo://app?vid=77c542d5-e2fd-47db-bd25-971222c64cea","ios":"levelo://app?vid=77c542d5-e2fd-47db-bd25-971222c64cea"},"vehicle_type_id":"4","last_reported":1731859776,"current_range_meters":35200,"station_id":"ce4bhi12rcd13ifvqfp0","pricing_plan_id":"cebpf4jnsgd1na2vs0mg"},{"bike_id":"22a8a22b-f98a-4802-bfda-c8909707ef1e","system_id":"levelo_inurba_marseille","lat":43.30598,"lon":5.37218,"is_reserved":false,"is_disabled":false,"rental_uris":{"android":"levelo://app?vid=22a8a22b-f98a-4802-bfda-c8909707ef1e","ios":"levelo://app?vid=22a8a22b-f98a-4802-bfda-c8909707ef1e"},"vehicle_type_id":"4","last_reported":1731859776,"current_range_meters":2000,"station_id":"ce4bgqh2rcd13ifvqc4g","pricing_plan_id":"cebpf4jnsgd1na2vs0mg"},{"bike_id":"c96395f1-fa72-4059-94dc-ccabe30c87c1","system_id":"levelo_inurba_marseille","lat":43.25936,"lon":5.40897,"is_reserved":false,"is_disabled":false,"rental_uris":{"android":"levelo://app?vid=c96395f1-fa72-4059-94dc-ccabe30c87c1","ios":"levelo://app?vid=c96395f1-fa72-4059-94dc-ccabe30c87c1"},"vehicle_type_id":"4","last_reported":1731859776,"current_range_meters":9600,"station_id":"ce4bhm92rcd13ifvqglg","pricing_plan_id":"cebpf4jnsgd1na2vs0mg"},{"bike_id":"f4ed7504-f0dd-48e2-a209-1709ff351c12","system_id":"levelo_inurba_marseille","lat":43.24164,"lon":5.36399,"is_reserved":false,"is_disabled":false,"rental_uris":{"android":"levelo://app?vid=f4ed7504-f0dd-48e2-a209-1709ff351c12","ios":"levelo://app?vid=f4ed7504-f0dd-48e2-a209-1709ff351c12"},"vehicle_type_id":"4","last_reported":1731859776,"current_range_meters":33200,"station_id":"cpo36qri1sfpv3e86is0","pricing_plan_id":"cebpf4jnsgd1na2vs0mg"},{"bike_id":"c3fd793d-984b-4e7b-848e-79174a058ce6","system_id":"levelo_inurba_marseille","lat":43.22927,"lon":5.35387,"is_reserved":false,"is_disabled":false,"rental_uris":{"android":"levelo://app?vid=c3fd793d-984b-4e7b-848e-79174a058ce6","ios":"levelo://app?vid=c3fd793d-984b-4e7b-848e-79174a058ce6"},"vehicle_type_id":"4","last_reported":1731859776,"current_range_meters":38800,"station_id":"cpo3532slgdg3j2ikp40","pricing_plan_id":"cebpf4jnsgd1na2vs0mg"},{"bike_id":"b3286841-8549-4fcd-bc26-97e178709c26","system_id":"levelo_inurba_marseille","lat":43.27502,"lon":5.42455,"is_reserved":false,"is_disabled":false,"rental_uris":{"android":"levelo://app?vid=b3286841-8549-4fcd-bc26-97e178709c26","ios":"levelo://app?vid=b3286841-8549-4fcd-bc26-97e178709c26"},"vehicle_type_id":"4","last_reported":1731859776,"current_range_meters":18800,"station_id":"ce4bhn92rcd13ifvqgrg","pricing_plan_id":"cebpf4jnsgd1na2vs0mg"},{"bike_id":"0abede36-a0e8-4ce1-85b2-e9b3ddfce058","system_id":"levelo_inurba_marseille","lat":43.33024,"lon":5.39027,"is_reserved":false,"is_disabled":false,"rental_uris":{"android":"levelo://app?vid=0abede36-a0e8-4ce1-85b2-e9b3ddfce058","ios":"levelo://app?vid=0abede36-a0e8-4ce1-85b2-e9b3ddfce058"},"vehicle_type_id":"4","last_reported":1731859776,"current_range_meters":9600,"station_id":"ce4bhr92rcd13ifvqhrg","pricing_plan_id":"cebpf4jnsgd1na2vs0mg"},{"bike_id":"7a988331-5db7-409c-90c8-76e1b9cced84","system_id":"levelo_inurba_marseille","lat":43.231823,"lon":5.399966,"is_reserved":false,"is_disabled":false,"rental_uris":{"android":"levelo://app?vid=7a988331-5db7-409c-90c8-76e1b9cced84","ios":"levelo://app?vid=7a988331-5db7-409c-90c8-76e1b9cced84"},"vehicle_type_id":"4","last_reported":1731859776,"current_range_meters":19200,"station_id":"ce4bhn12rcd13ifvqgqg","pricing_plan_id":"cebpf4jnsgd1na2vs0mg"},{"bike_id":"acbe15a9-7fbd-4361-84a0-ee882ea053ea","system_id":"levelo_inurba_marseille","lat":43.24668,"lon":5.38165,"is_reserved":false,"is_disabled":false,"rental_uris":{"android":"levelo://app?vid=acbe15a9-7fbd-4361-84a0-ee882ea053ea","ios":"levelo://app?vid=acbe15a9-7fbd-4361-84a0-ee882ea053ea"},"vehicle_type_id":"4","last_reported":1731859776,"current_range_meters":30800,"station_id":"ce4bhih2rcd13ifvqfr0","pricing_plan_id":"cebpf4jnsgd1na2vs0mg"},{"bike_id":"c1a8b3fe-89f1-480d-83ff-6a91c23e456c","system_id":"levelo_inurba_marseille","lat":43.274961,"lon":5.424493,"is_reserved":false,"is_disabled":false,"rental_uris":{"android":"levelo://app?vid=c1a8b3fe-89f1-480d-83ff-6a91c23e456c","ios":"levelo://app?vid=c1a8b3fe-89f1-480d-83ff-6a91c23e456c"},"vehicle_type_id":"4","last_reported":1731859776,"current_range_meters":4400,"station_id":"ce4bhn92rcd13ifvqgrg","pricing_plan_id":"cebpf4jnsgd1na2vs0mg"},{"bike_id":"4c268812-2c5e-4973-8985-fa51f3785846","system_id":"levelo_inurba_marseille","lat":43.240785,"lon":5.37768,"is_reserved":false,"is_disabled":false,"rental_uris":{"android":"levelo://app?vid=4c268812-2c5e-4973-8985-fa51f3785846","ios":"levelo://app?vid=4c268812-2c5e-4973-8985-fa51f3785846"},"vehicle_type_id":"4","last_reported":1731859776,"current_range_meters":38800,"station_id":"ce4bhnp2rcd13ifvqgvg","pricing_plan_id":"cebpf4jnsgd1na2vs0mg"},{"bike_id":"27a57414-c57a-4659-95ec-c81cba6a40c0","system_id":"levelo_inurba_marseille","lat":43.32782,"lon":5.41305,"is_reserved":false,"is_disabled":false,"rental_uris":{"android":"levelo://app?vid=27a57414-c57a-4659-95ec-c81cba6a40c0","ios":"levelo://app?vid=27a57414-c57a-4659-95ec-c81cba6a40c0"},"vehicle_type_id":"4","last_reported":1731859776,"current_range_meters":18800,"station_id":"ce4bhq92rcd13ifvqhkg","pricing_plan_id":"cebpf4jnsgd1na2vs0mg"},{"bike_id":"9ab56d74-1d16-4e5c-b77b-c7b828c0372b","system_id":"levelo_inurba_marseille","lat":43.27944,"lon":5.41057,"is_reserved":false,"is_disabled":false,"rental_uris":{"android":"levelo://app?vid=9ab56d74-1d16-4e5c-b77b-c7b828c0372b","ios":"levelo://app?vid=9ab56d74-1d16-4e5c-b77b-c7b828c0372b"},"vehicle_type_id":"4","last_reported":1731859776,"current_range_meters":9600,"station_id":"ce4bhnp2rcd13ifvqh0g","pricing_plan_id":"cebpf4jnsgd1na2vs0mg"},{"bike_id":"47e06a38-fada-43b8-8046-487dc8986f1d","system_id":"levelo_inurba_marseille","lat":43.2396,"lon":5.36622,"is_reserved":false,"is_disabled":false,"rental_uris":{"android":"levelo://app?vid=47e06a38-fada-43b8-8046-487dc8986f1d","ios":"levelo://app?vid=47e06a38-fada-43b8-8046-487dc8986f1d"},"vehicle_type_id":"4","last_reported":1731859776,"current_range_meters":27200,"station_id":"ce4bhi12rcd13ifvqfp0","pricing_plan_id":"cebpf4jnsgd1na2vs0mg"},{"bike_id":"5ca49efd-2378-45c0-95d9-13adcb9f66ba","system_id":"levelo_inurba_marseille","lat":43.337444,"lon":5.374475,"is_reserved":false,"is_disabled":false,"rental_uris":{"android":"levelo://app?vid=5ca49efd-2378-45c0-95d9-13adcb9f66ba","ios":"levelo://app?vid=5ca49efd-2378-45c0-95d9-13adcb9f66ba"},"vehicle_type_id":"4","last_reported":1731859776,"current_range_meters":12000,"station_id":"","pricing_plan_id":"cebpf4jnsgd1na2vs0mg"},{"bike_id":"cdb8717d-5488-42af-b644-38af1e89833b","system_id":"levelo_inurba_marseille","lat":43.30538,"lon":5.36561,"is_reserved":false,"is_disabled":false,"rental_uris":{"android":"levelo://app?vid=cdb8717d-5488-42af-b644-38af1e89833b","ios":"levelo://app?vid=cdb8717d-5488-42af-b644-38af1e89833b"},"vehicle_type_id":"4","last_reported":1731859776,"current_range_meters":7200,"station_id":"ce4bgs12rcd13ifvqcag","pricing_plan_id":"cebpf4jnsgd1na2vs0mg"},{"bike_id":"ee8da935-f37f-4b18-8149-4509a795d8ad","system_id":"levelo_inurba_marseille","lat":43.29221,"lon":5.36068,"is_reserved":false,"is_disabled":false,"rental_uris":{"android":"levelo://app?vid=ee8da935-f37f-4b18-8149-4509a795d8ad","ios":"levelo://app?vid=ee8da935-f37f-4b18-8149-4509a795d8ad"},"vehicle_type_id":"4","last_reported":1731859776,"current_range_meters":20000,"station_id":"ce4bhbh2rcd13ifvqeqg","pricing_plan_id":"cebpf4jnsgd1na2vs0mg"},{"bike_id":"326d71c7-f7c6-474c-9026-34d651044aad","system_id":"levelo_inurba_marseille","lat":43.22934,"lon":5.35381,"is_reserved":false,"is_disabled":false,"rental_uris":{"android":"levelo://app?vid=326d71c7-f7c6-474c-9026-34d651044aad","ios":"levelo://app?vid=326d71c7-f7c6-474c-9026-34d651044aad"},"vehicle_type_id":"4","last_reported":1731859776,"current_range_meters":24800,"station_id":"cpo3532slgdg3j2ikp40","pricing_plan_id":"cebpf4jnsgd1na2vs0mg"},{"bike_id":"a1e19e06-5361-44c6-827d-9b33fceaf245","system_id":"levelo_inurba_marseille","lat":43.29632,"lon":5.406,"is_reserved":false,"is_disabled":false,"rental_uris":{"android":"levelo://app?vid=a1e19e06-5361-44c6-827d-9b33fceaf245","ios":"levelo://app?vid=a1e19e06-5361-44c6-827d-9b33fceaf245"},"vehicle_type_id":"4","last_reported":1731859776,"current_range_meters":23200,"station_id":"ce4bh0h2rcd13ifvqd60","pricing_plan_id":"cebpf4jnsgd1na2vs0mg"},{"bike_id":"1740992c-7b95-4612-9d60-a4f9fb5e6c8f","system_id":"levelo_inurba_marseille","lat":43.28654,"lon":5.38671,"is_reserved":false,"is_disabled":false,"rental_uris":{"android":"levelo://app?vid=1740992c-7b95-4612-9d60-a4f9fb5e6c8f","ios":"levelo://app?vid=1740992c-7b95-4612-9d60-a4f9fb5e6c8f"},"vehicle_type_id":"4","last_reported":1731859776,"current_range_meters":8400,"station_id":"ce4bh492rcd13ifvqdug","pricing_plan_id":"cebpf4jnsgd1na2vs0mg"},{"bike_id":"1fe77f86-0d2a-47e3-bddb-87b84e7e49e1","system_id":"levelo_inurba_marseille","lat":43.32541,"lon":5.41441,"is_reserved":false,"is_disabled":false,"rental_uris":{"android":"levelo://app?vid=1fe77f86-0d2a-47e3-bddb-87b84e7e49e1","ios":"levelo://app?vid=1fe77f86-0d2a-47e3-bddb-87b84e7e49e1"},"vehicle_type_id":"4","last_reported":1731859776,"current_range_meters":36800,"station_id":"ce4bhq12rcd13ifvqhhg","pricing_plan_id":"cebpf4jnsgd1na2vs0mg"},{"bike_id":"172e18c7-396b-423e-ad77-ed3b6535f76e","system_id":"levelo_inurba_marseille","lat":43.26509,"lon":5.39539,"is_reserved":false,"is_disabled":false,"rental_uris":{"android":"levelo://app?vid=172e18c7-396b-423e-ad77-ed3b6535f76e","ios":"levelo://app?vid=172e18c7-396b-423e-ad77-ed3b6535f76e"},"vehicle_type_id":"4","last_reported":1731859776,"current_range_meters":30400,"station_id":"ce4bhi12rcd13ifvqfq0","pricing_plan_id":"cebpf4jnsgd1na2vs0mg"},{"bike_id":"ddfe0aec-cfac-4ec8-b608-986a9afefb5e","system_id":"levelo_inurba_marseille","lat":43.27546,"lon":5.40934,"is_reserved":false,"is_disabled":false,"rental_uris":{"android":"levelo://app?vid=ddfe0aec-cfac-4ec8-b608-986a9afefb5e","ios":"levelo://app?vid=ddfe0aec-cfac-4ec8-b608-986a9afefb5e"},"vehicle_type_id":"4","last_reported":1731859776,"current_range_meters":31200,"station_id":"","pricing_plan_id":"cebpf4jnsgd1na2vs0mg"},{"bike_id":"2c17d2ad-29d8-4a39-aa91-408534cbb24d","system_id":"levelo_inurba_marseille","lat":43.33611,"lon":5.41032,"is_reserved":false,"is_disabled":false,"rental_uris":{"android":"levelo://app?vid=2c17d2ad-29d8-4a39-aa91-408534cbb24d","ios":"levelo://app?vid=2c17d2ad-29d8-4a39-aa91-408534cbb24d"},"vehicle_type_id":"4","last_reported":1731859776,"current_range_meters":28400,"station_id":"ce4bhqh2rcd13ifvqhmg","pricing_plan_id":"cebpf4jnsgd1na2vs0mg"},{"bike_id":"9f68d829-f776-416b-a2b3-fbc337efbab0","system_id":"levelo_inurba_marseille","lat":43.29595,"lon":5.3811,"is_reserved":false,"is_disabled":false,"rental_uris":{"android":"levelo://app?vid=9f68d829-f776-416b-a2b3-fbc337efbab0","ios":"levelo://app?vid=9f68d829-f776-416b-a2b3-fbc337efbab0"},"vehicle_type_id":"4","last_reported":1731859776,"current_range_meters":4400,"station_id":"ce4bgl12rcd13ifvqbo0","pricing_plan_id":"cebpf4jnsgd1na2vs0mg"},{"bike_id":"33adffe5-2d2d-4db8-ad4c-cfabb94467ef","system_id":"levelo_inurba_marseille","lat":43.29578,"lon":5.39988,"is_reserved":false,"is_disabled":false,"rental_uris":{"android":"levelo://app?vid=33adffe5-2d2d-4db8-ad4c-cfabb94467ef","ios":"levelo://app?vid=33adffe5-2d2d-4db8-ad4c-cfabb94467ef"},"vehicle_type_id":"4","last_reported":1731859776,"current_range_meters":16000,"station_id":"ce4bh312rcd13ifvqdj0","pricing_plan_id":"cebpf4jnsgd1na2vs0mg"},{"bike_id":"07270bb6-b113-4a4d-99f6-808f54c4a2b9","system_id":"levelo_inurba_marseille","lat":43.22933,"lon":5.3538,"is_reserved":false,"is_disabled":false,"rental_uris":{"android":"levelo://app?vid=07270bb6-b113-4a4d-99f6-808f54c4a2b9","ios":"levelo://app?vid=07270bb6-b113-4a4d-99f6-808f54c4a2b9"},"vehicle_type_id":"4","last_reported":1731859776,"current_range_meters":39200,"station_id":"cpo3532slgdg3j2ikp40","pricing_plan_id":"cebpf4jnsgd1na2vs0mg"},{"bike_id":"54212c68-b2a1-432c-b82e-68b59bad7fdb","system_id":"levelo_inurba_marseille","lat":43.33022,"lon":5.39042,"is_reserved":false,"is_disabled":false,"rental_uris":{"android":"levelo://app?vid=54212c68-b2a1-432c-b82e-68b59bad7fdb","ios":"levelo://app?vid=54212c68-b2a1-432c-b82e-68b59bad7fdb"},"vehicle_type_id":"4","last_reported":1731859776,"current_range_meters":26000,"station_id":"ce4bhr92rcd13ifvqhrg","pricing_plan_id":"cebpf4jnsgd1na2vs0mg"},{"bike_id":"0bb0599a-1b51-43aa-9831-6c7fbfee4f54","system_id":"levelo_inurba_marseille","lat":43.22922,"lon":5.35374,"is_reserved":false,"is_disabled":false,"rental_uris":{"android":"levelo://app?vid=0bb0599a-1b51-43aa-9831-6c7fbfee4f54","ios":"levelo://app?vid=0bb0599a-1b51-43aa-9831-6c7fbfee4f54"},"vehicle_type_id":"4","last_reported":1731859776,"current_range_meters":32800,"station_id":"cpo3532slgdg3j2ikp40","pricing_plan_id":"cebpf4jnsgd1na2vs0mg"},{"bike_id":"cd94b270-9c48-48dd-945e-e03fd2b466d2","system_id":"levelo_inurba_marseille","lat":43.26214,"lon":5.37443,"is_reserved":false,"is_disabled":false,"rental_uris":{"android":"levelo://app?vid=cd94b270-9c48-48dd-945e-e03fd2b466d2","ios":"levelo://app?vid=cd94b270-9c48-48dd-945e-e03fd2b466d2"},"vehicle_type_id":"4","last_reported":1731859776,"current_range_meters":38000,"station_id":"ce4bhgp2rcd13ifvqfc0","pricing_plan_id":"cebpf4jnsgd1na2vs0mg"},{"bike_id":"c5ac1e70-74c7-4b45-a33d-4b66cb54ea4f","system_id":"levelo_inurba_marseille","lat":43.241855,"lon":5.39731,"is_reserved":false,"is_disabled":false,"rental_uris":{"android":"levelo://app?vid=c5ac1e70-74c7-4b45-a33d-4b66cb54ea4f","ios":"levelo://app?vid=c5ac1e70-74c7-4b45-a33d-4b66cb54ea4f"},"vehicle_type_id":"4","last_reported":1731859776,"current_range_meters":38800,"station_id":"ce4bhn12rcd13ifvqgpg","pricing_plan_id":"cebpf4jnsgd1na2vs0mg"},{"bike_id":"920761c7-a344-48d6-ba5a-094e0f224ace","system_id":"levelo_inurba_marseille","lat":43.28836,"lon":5.39295,"is_reserved":false,"is_disabled":false,"rental_uris":{"android":"levelo://app?vid=920761c7-a344-48d6-ba5a-094e0f224ace","ios":"levelo://app?vid=920761c7-a344-48d6-ba5a-094e0f224ace"},"vehicle_type_id":"4","last_reported":1731859776,"current_range_meters":30800,"station_id":"ce4bh2p2rcd13ifvqdi0","pricing_plan_id":"cebpf4jnsgd1na2vs0mg"},{"bike_id":"2afa5e80-e30d-4374-a77d-b7abb852ffeb","system_id":"levelo_inurba_marseille","lat":43.33725,"lon":5.35583,"is_reserved":false,"is_disabled":false,"rental_uris":{"android":"levelo://app?vid=2afa5e80-e30d-4374-a77d-b7abb852ffeb","ios":"levelo://app?vid=2afa5e80-e30d-4374-a77d-b7abb852ffeb"},"vehicle_type_id":"4","last_reported":1731859776,"current_range_meters":8000,"station_id":"","pricing_plan_id":"cebpf4jnsgd1na2vs0mg"},{"bike_id":"e25ece26-7d9b-410c-88bd-4a21f05906d5","system_id":"levelo_inurba_marseille","lat":43.28702,"lon":5.39988,"is_reserved":false,"is_disabled":false,"rental_uris":{"android":"levelo://app?vid=e25ece26-7d9b-410c-88bd-4a21f05906d5","ios":"levelo://app?vid=e25ece26-7d9b-410c-88bd-4a21f05906d5"},"vehicle_type_id":"4","last_reported":1731859776,"current_range_meters":30800,"station_id":"ce4bho92rcd13ifvqh3g","pricing_plan_id":"cebpf4jnsgd1na2vs0mg"},{"bike_id":"cb50ec3f-4b1f-452f-ae6e-8cf427647386","system_id":"levelo_inurba_marseille","lat":43.29017,"lon":5.356773,"is_reserved":false,"is_disabled":false,"rental_uris":{"android":"levelo://app?vid=cb50ec3f-4b1f-452f-ae6e-8cf427647386","ios":"levelo://app?vid=cb50ec3f-4b1f-452f-ae6e-8cf427647386"},"vehicle_type_id":"4","last_reported":1731859776,"current_range_meters":4400,"station_id":"","pricing_plan_id":"cebpf4jnsgd1na2vs0mg"},{"bike_id":"8fb36b7c-fa61-4cd7-af3c-09ba7446abf0","system_id":"levelo_inurba_marseille","lat":43.33733,"lon":5.37491,"is_reserved":false,"is_disabled":false,"rental_uris":{"android":"levelo://app?vid=8fb36b7c-fa61-4cd7-af3c-09ba7446abf0","ios":"levelo://app?vid=8fb36b7c-fa61-4cd7-af3c-09ba7446abf0"},"vehicle_type_id":"4","last_reported":1731859776,"current_range_meters":32800,"station_id":"","pricing_plan_id":"cebpf4jnsgd1na2vs0mg"},{"bike_id":"2d8b574b-344c-429e-a2b3-9ade85291bc0","system_id":"levelo_inurba_marseille","lat":43.299013,"lon":5.43669,"is_reserved":false,"is_disabled":false,"rental_uris":{"android":"levelo://app?vid=2d8b574b-344c-429e-a2b3-9ade85291bc0","ios":"levelo://app?vid=2d8b574b-344c-429e-a2b3-9ade85291bc0"},"vehicle_type_id":"4","last_reported":1731859776,"current_range_meters":12800,"station_id":"ce4bhpp2rcd13ifvqhfg","pricing_plan_id":"cebpf4jnsgd1na2vs0mg"},{"bike_id":"40a26d71-2431-484e-8d51-2dad2f11e01e","system_id":"levelo_inurba_marseille","lat":43.34139,"lon":5.40899,"is_reserved":false,"is_disabled":false,"rental_uris":{"android":"levelo://app?vid=40a26d71-2431-484e-8d51-2dad2f11e01e","ios":"levelo://app?vid=40a26d71-2431-484e-8d51-2dad2f11e01e"},"vehicle_type_id":"4","last_reported":1731859776,"current_range_meters":36000,"station_id":"ce4bhqh2rcd13ifvqhlg","pricing_plan_id":"cebpf4jnsgd1na2vs0mg"},{"bike_id":"fe706531-6d3a-41b4-ba51-696d5a3c61e6","system_id":"levelo_inurba_marseille","lat":43.24076,"lon":5.37735,"is_reserved":false,"is_disabled":false,"rental_uris":{"android":"levelo://app?vid=fe706531-6d3a-41b4-ba51-696d5a3c61e6","ios":"levelo://app?vid=fe706531-6d3a-41b4-ba51-696d5a3c61e6"},"vehicle_type_id":"4","last_reported":1731859776,"current_range_meters":19200,"station_id":"ce4bhnp2rcd13ifvqgvg","pricing_plan_id":"cebpf4jnsgd1na2vs0mg"},{"bike_id":"e808a191-68fe-47c2-95b2-a06b3d4416cf","system_id":"levelo_inurba_marseille","lat":43.31336,"lon":5.36726,"is_reserved":false,"is_disabled":false,"rental_uris":{"android":"levelo://app?vid=e808a191-68fe-47c2-95b2-a06b3d4416cf","ios":"levelo://app?vid=e808a191-68fe-47c2-95b2-a06b3d4416cf"},"vehicle_type_id":"4","last_reported":1731859776,"current_range_meters":16800,"station_id":"ce4bgr92rcd13ifvqc6g","pricing_plan_id":"cebpf4jnsgd1na2vs0mg"},{"bike_id":"d2f08fe1-0966-4bcd-b8c6-aaa682bd5381","system_id":"levelo_inurba_marseille","lat":43.299009,"lon":5.363864,"is_reserved":false,"is_disabled":false,"rental_uris":{"android":"levelo://app?vid=d2f08fe1-0966-4bcd-b8c6-aaa682bd5381","ios":"levelo://app?vid=d2f08fe1-0966-4bcd-b8c6-aaa682bd5381"},"vehicle_type_id":"4","last_reported":1731859776,"current_range_meters":3200,"station_id":"ce4bh0h2rcd13ifvqd50","pricing_plan_id":"cebpf4jnsgd1na2vs0mg"},{"bike_id":"5cf6e2ac-788e-45f4-892a-ba521b4c7b23","system_id":"levelo_inurba_marseille","lat":43.3171,"lon":5.43706,"is_reserved":false,"is_disabled":false,"rental_uris":{"android":"levelo://app?vid=5cf6e2ac-788e-45f4-892a-ba521b4c7b23","ios":"levelo://app?vid=5cf6e2ac-788e-45f4-892a-ba521b4c7b23"},"vehicle_type_id":"4","last_reported":1731859776,"current_range_meters":38800,"station_id":"ce4bhp92rcd13ifvqhcg","pricing_plan_id":"cebpf4jnsgd1na2vs0mg"},{"bike_id":"212f73ee-0293-4440-9eaf-8f6f500034ba","system_id":"levelo_inurba_marseille","lat":43.33606,"lon":5.4103,"is_reserved":false,"is_disabled":false,"rental_uris":{"android":"levelo://app?vid=212f73ee-0293-4440-9eaf-8f6f500034ba","ios":"levelo://app?vid=212f73ee-0293-4440-9eaf-8f6f500034ba"},"vehicle_type_id":"4","last_reported":1731859776,"current_range_meters":27600,"station_id":"ce4bhqh2rcd13ifvqhmg","pricing_plan_id":"cebpf4jnsgd1na2vs0mg"},{"bike_id":"03c20290-84c0-4a6a-a3a5-e569cd38b225","system_id":"levelo_inurba_marseille","lat":43.337444,"lon":5.374475,"is_reserved":false,"is_disabled":false,"rental_uris":{"android":"levelo://app?vid=03c20290-84c0-4a6a-a3a5-e569cd38b225","ios":"levelo://app?vid=03c20290-84c0-4a6a-a3a5-e569cd38b225"},"vehicle_type_id":"4","last_reported":1731859776,"current_range_meters":32400,"station_id":"","pricing_plan_id":"cebpf4jnsgd1na2vs0mg"},{"bike_id":"5ae82ffe-74b1-4bc1-871e-ea7d8d4960fc","system_id":"levelo_inurba_marseille","lat":43.22952,"lon":5.35358,"is_reserved":false,"is_disabled":false,"rental_uris":{"android":"levelo://app?vid=5ae82ffe-74b1-4bc1-871e-ea7d8d4960fc","ios":"levelo://app?vid=5ae82ffe-74b1-4bc1-871e-ea7d8d4960fc"},"vehicle_type_id":"4","last_reported":1731859776,"current_range_meters":38800,"station_id":"cpo3532slgdg3j2ikp40","pricing_plan_id":"cebpf4jnsgd1na2vs0mg"},{"bike_id":"21628e29-3c9d-4eae-af10-61f4ae144d15","system_id":"levelo_inurba_marseille","lat":43.25718,"lon":5.41122,"is_reserved":false,"is_disabled":false,"rental_uris":{"android":"levelo://app?vid=21628e29-3c9d-4eae-af10-61f4ae144d15","ios":"levelo://app?vid=21628e29-3c9d-4eae-af10-61f4ae144d15"},"vehicle_type_id":"4","last_reported":1731859776,"current_range_meters":31200,"station_id":"ce4bhkp2rcd13ifvqgd0","pricing_plan_id":"cebpf4jnsgd1na2vs0mg"},{"bike_id":"7d5bb5bd-87b3-4a9e-be94-d3acbb76f1ce","system_id":"levelo_inurba_marseille","lat":43.23197,"lon":5.35555,"is_reserved":false,"is_disabled":false,"rental_uris":{"android":"levelo://app?vid=7d5bb5bd-87b3-4a9e-be94-d3acbb76f1ce","ios":"levelo://app?vid=7d5bb5bd-87b3-4a9e-be94-d3acbb76f1ce"},"vehicle_type_id":"4","last_reported":1731859776,"current_range_meters":14000,"station_id":"ce4bhu92rcd13ifvqi70","pricing_plan_id":"cebpf4jnsgd1na2vs0mg"},{"bike_id":"2c48c9ba-1d21-437d-bc89-395739feb3e3","system_id":"levelo_inurba_marseille","lat":43.22922,"lon":5.35374,"is_reserved":false,"is_disabled":false,"rental_uris":{"android":"levelo://app?vid=2c48c9ba-1d21-437d-bc89-395739feb3e3","ios":"levelo://app?vid=2c48c9ba-1d21-437d-bc89-395739feb3e3"},"vehicle_type_id":"4","last_reported":1731859776,"current_range_meters":11200,"station_id":"cpo3532slgdg3j2ikp40","pricing_plan_id":"cebpf4jnsgd1na2vs0mg"},{"bike_id":"2a607d8b-c1a2-489f-9ee0-f36ddbb081a7","system_id":"levelo_inurba_marseille","lat":43.22927,"lon":5.35379,"is_reserved":false,"is_disabled":false,"rental_uris":{"android":"levelo://app?vid=2a607d8b-c1a2-489f-9ee0-f36ddbb081a7","ios":"levelo://app?vid=2a607d8b-c1a2-489f-9ee0-f36ddbb081a7"},"vehicle_type_id":"4","last_reported":1731859776,"current_range_meters":38800,"station_id":"cpo3532slgdg3j2ikp40","pricing_plan_id":"cebpf4jnsgd1na2vs0mg"},{"bike_id":"4b302f39-13a3-49eb-9941-9cc534f49651","system_id":"levelo_inurba_marseille","lat":43.29001,"lon":5.35613,"is_reserved":false,"is_disabled":false,"rental_uris":{"android":"levelo://app?vid=4b302f39-13a3-49eb-9941-9cc534f49651","ios":"levelo://app?vid=4b302f39-13a3-49eb-9941-9cc534f49651"},"vehicle_type_id":"4","last_reported":1731859776,"current_range_meters":14000,"station_id":"ce4bhb92rcd13ifvqen0","pricing_plan_id":"cebpf4jnsgd1na2vs0mg"},{"bike_id":"af820847-5b5c-4b04-a707-3dd3e257f55c","system_id":"levelo_inurba_marseille","lat":43.27064,"lon":5.40253,"is_reserved":false,"is_disabled":false,"rental_uris":{"android":"levelo://app?vid=af820847-5b5c-4b04-a707-3dd3e257f55c","ios":"levelo://app?vid=af820847-5b5c-4b04-a707-3dd3e257f55c"},"vehicle_type_id":"4","last_reported":1731859776,"current_range_meters":9200,"station_id":"ce4bhk92rcd13ifvqgc0","pricing_plan_id":"cebpf4jnsgd1na2vs0mg"},{"bike_id":"7804b485-ff76-4ef8-95df-77599f8ac310","system_id":"levelo_inurba_marseille","lat":43.30214,"lon":5.39471,"is_reserved":false,"is_disabled":false,"rental_uris":{"android":"levelo://app?vid=7804b485-ff76-4ef8-95df-77599f8ac310","ios":"levelo://app?vid=7804b485-ff76-4ef8-95df-77599f8ac310"},"vehicle_type_id":"4","last_reported":1731859776,"current_range_meters":12000,"station_id":"ce4bh0p2rcd13ifvqd70","pricing_plan_id":"cebpf4jnsgd1na2vs0mg"},{"bike_id":"c4b5a41a-60e1-43ec-95da-8cf41ded018f","system_id":"levelo_inurba_marseille","lat":43.33723,"lon":5.39189,"is_reserved":false,"is_disabled":false,"rental_uris":{"android":"levelo://app?vid=c4b5a41a-60e1-43ec-95da-8cf41ded018f","ios":"levelo://app?vid=c4b5a41a-60e1-43ec-95da-8cf41ded018f"},"vehicle_type_id":"4","last_reported":1731859776,"current_range_meters":38800,"station_id":"ce4bhr92rcd13ifvqhsg","pricing_plan_id":"cebpf4jnsgd1na2vs0mg"},{"bike_id":"1669fe4c-89b7-427f-980a-18add1cf9da3","system_id":"levelo_inurba_marseille","lat":43.337444,"lon":5.374475,"is_reserved":false,"is_disabled":false,"rental_uris":{"android":"levelo://app?vid=1669fe4c-89b7-427f-980a-18add1cf9da3","ios":"levelo://app?vid=1669fe4c-89b7-427f-980a-18add1cf9da3"},"vehicle_type_id":"4","last_reported":1731859776,"current_range_meters":31200,"station_id":"","pricing_plan_id":"cebpf4jnsgd1na2vs0mg"},{"bike_id":"43ade182-2e7c-445e-b9bb-534f9e796e41","system_id":"levelo_inurba_marseille","lat":43.31715,"lon":5.43716,"is_reserved":false,"is_disabled":false,"rental_uris":{"android":"levelo://app?vid=43ade182-2e7c-445e-b9bb-534f9e796e41","ios":"levelo://app?vid=43ade182-2e7c-445e-b9bb-534f9e796e41"},"vehicle_type_id":"4","last_reported":1731859776,"current_range_meters":18000,"station_id":"ce4bhp92rcd13ifvqhcg","pricing_plan_id":"cebpf4jnsgd1na2vs0mg"},{"bike_id":"c963f150-4e9c-4b50-957d-1658b4700d19","system_id":"levelo_inurba_marseille","lat":43.23197,"lon":5.35555,"is_reserved":false,"is_disabled":false,"rental_uris":{"android":"levelo://app?vid=c963f150-4e9c-4b50-957d-1658b4700d19","ios":"levelo://app?vid=c963f150-4e9c-4b50-957d-1658b4700d19"},"vehicle_type_id":"4","last_reported":1731859776,"current_range_meters":25200,"station_id":"ce4bhu92rcd13ifvqi70","pricing_plan_id":"cebpf4jnsgd1na2vs0mg"},{"bike_id":"7f6be50c-4a83-4f42-802b-d52b54a6a9c5","system_id":"levelo_inurba_marseille","lat":43.33768,"lon":5.3739,"is_reserved":false,"is_disabled":false,"rental_uris":{"android":"levelo://app?vid=7f6be50c-4a83-4f42-802b-d52b54a6a9c5","ios":"levelo://app?vid=7f6be50c-4a83-4f42-802b-d52b54a6a9c5"},"vehicle_type_id":"4","last_reported":1731859776,"current_range_meters":6400,"station_id":"","pricing_plan_id":"cebpf4jnsgd1na2vs0mg"},{"bike_id":"b5430264-007e-4910-8da8-ffabba2e9776","system_id":"levelo_inurba_marseille","lat":43.29802,"lon":5.40401,"is_reserved":false,"is_disabled":false,"rental_uris":{"android":"levelo://app?vid=b5430264-007e-4910-8da8-ffabba2e9776","ios":"levelo://app?vid=b5430264-007e-4910-8da8-ffabba2e9776"},"vehicle_type_id":"4","last_reported":1731859776,"current_range_meters":9600,"station_id":"ce4bh112rcd13ifvqd90","pricing_plan_id":"cebpf4jnsgd1na2vs0mg"},{"bike_id":"86209e5e-a7c5-43c5-8505-d3f500109552","system_id":"levelo_inurba_marseille","lat":43.28484,"lon":5.38421,"is_reserved":false,"is_disabled":false,"rental_uris":{"android":"levelo://app?vid=86209e5e-a7c5-43c5-8505-d3f500109552","ios":"levelo://app?vid=86209e5e-a7c5-43c5-8505-d3f500109552"},"vehicle_type_id":"4","last_reported":1731859776,"current_range_meters":37600,"station_id":"ce4bh512rcd13ifvqe3g","pricing_plan_id":"cebpf4jnsgd1na2vs0mg"},{"bike_id":"ae083948-40da-420d-85fa-d161ffe5f0d4","system_id":"levelo_inurba_marseille","lat":43.29914,"lon":5.37459,"is_reserved":false,"is_disabled":false,"rental_uris":{"android":"levelo://app?vid=ae083948-40da-420d-85fa-d161ffe5f0d4","ios":"levelo://app?vid=ae083948-40da-420d-85fa-d161ffe5f0d4"},"vehicle_type_id":"4","last_reported":1731859776,"current_range_meters":38800,"station_id":"ce4bgjh2rcd13ifvqbg0","pricing_plan_id":"cebpf4jnsgd1na2vs0mg"},{"bike_id":"bfebf715-fb7b-4f65-9c0a-c1555deabaca","system_id":"levelo_inurba_marseille","lat":43.303772,"lon":5.426976,"is_reserved":false,"is_disabled":false,"rental_uris":{"android":"levelo://app?vid=bfebf715-fb7b-4f65-9c0a-c1555deabaca","ios":"levelo://app?vid=bfebf715-fb7b-4f65-9c0a-c1555deabaca"},"vehicle_type_id":"4","last_reported":1731859776,"current_range_meters":30000,"station_id":"ce4bhop2rcd13ifvqh7g","pricing_plan_id":"cebpf4jnsgd1na2vs0mg"},{"bike_id":"60bba9ca-8e3f-4439-893b-1045b6e23c69","system_id":"levelo_inurba_marseille","lat":43.29536,"lon":5.37505,"is_reserved":false,"is_disabled":false,"rental_uris":{"android":"levelo://app?vid=60bba9ca-8e3f-4439-893b-1045b6e23c69","ios":"levelo://app?vid=60bba9ca-8e3f-4439-893b-1045b6e23c69"},"vehicle_type_id":"4","last_reported":1731859776,"current_range_meters":38400,"station_id":"ce4bgkp2rcd13ifvqbmg","pricing_plan_id":"cebpf4jnsgd1na2vs0mg"},{"bike_id":"1ba5b58e-0101-4521-bae8-226ab95b3270","system_id":"levelo_inurba_marseille","lat":43.24078,"lon":5.3776,"is_reserved":false,"is_disabled":false,"rental_uris":{"android":"levelo://app?vid=1ba5b58e-0101-4521-bae8-226ab95b3270","ios":"levelo://app?vid=1ba5b58e-0101-4521-bae8-226ab95b3270"},"vehicle_type_id":"4","last_reported":1731859776,"current_range_meters":9600,"station_id":"ce4bhnp2rcd13ifvqgvg","pricing_plan_id":"cebpf4jnsgd1na2vs0mg"},{"bike_id":"fc386c93-aadf-4f13-9ed6-f077e8e4b08f","system_id":"levelo_inurba_marseille","lat":43.24167,"lon":5.36396,"is_reserved":false,"is_disabled":false,"rental_uris":{"android":"levelo://app?vid=fc386c93-aadf-4f13-9ed6-f077e8e4b08f","ios":"levelo://app?vid=fc386c93-aadf-4f13-9ed6-f077e8e4b08f"},