{"last_updated":1781550841,"ttl":60,"version":"2.2","data":{"bikes":[{"bike_id":"a01f69c1-4d52-4c5e-a7ec-e3322fdec9e3","system_id":"levelo_inurba_marseille","lat":43.337444,"lon":5.374475,"is_reserved":false,"is_disabled":false,"rental_uris":{"android":"levelo://app?vid=a01f69c1-4d52-4c5e-a7ec-e3322fdec9e3","ios":"levelo://app?vid=a01f69c1-4d52-4c5e-a7ec-e3322fdec9e3"},"vehicle_type_id":"4","last_reported":1781550843,"current_range_meters":0,"station_id":"","pricing_plan_id":"cebpf4jnsgd1na2vs0mg"},{"bike_id":"9c3499d6-0c57-4637-ba62-31b662196c6b","system_id":"levelo_inurba_marseille","lat":43.29063,"lon":5.3714,"is_reserved":false,"is_disabled":false,"rental_uris":{"android":"levelo://app?vid=9c3499d6-0c57-4637-ba62-31b662196c6b","ios":"levelo://app?vid=9c3499d6-0c57-4637-ba62-31b662196c6b"},"vehicle_type_id":"4","last_reported":1781550843,"current_range_meters":2800,"station_id":"ce4bh5p2rcd13ifvqe4g","pricing_plan_id":"cebpf4jnsgd1na2vs0mg"},{"bike_id":"5da99a32-07d7-40a0-97d8-566652287f41","system_id":"levelo_inurba_marseille","lat":43.30599,"lon":5.39348,"is_reserved":false,"is_disabled":false,"rental_uris":{"android":"levelo://app?vid=5da99a32-07d7-40a0-97d8-566652287f41","ios":"levelo://app?vid=5da99a32-07d7-40a0-97d8-566652287f41"},"vehicle_type_id":"4","last_reported":1781550843,"current_range_meters":2800,"station_id":"ce4bh0p2rcd13ifvqd80","pricing_plan_id":"cebpf4jnsgd1na2vs0mg"},{"bike_id":"e916a59a-4c8f-400c-94f7-79a5c5391667","system_id":"levelo_inurba_marseille","lat":43.31326,"lon":5.39699,"is_reserved":false,"is_disabled":false,"rental_uris":{"android":"levelo://app?vid=e916a59a-4c8f-400c-94f7-79a5c5391667","ios":"levelo://app?vid=e916a59a-4c8f-400c-94f7-79a5c5391667"},"vehicle_type_id":"4","last_reported":1781550843,"current_range_meters":2800,"station_id":"ce4bgvp2rcd13ifvqcu0","pricing_plan_id":"cebpf4jnsgd1na2vs0mg"},{"bike_id":"fb911599-b695-4fca-90f3-ca2af5ed36e8","system_id":"levelo_inurba_marseille","lat":43.27089,"lon":5.42249,"is_reserved":false,"is_disabled":false,"rental_uris":{"android":"levelo://app?vid=fb911599-b695-4fca-90f3-ca2af5ed36e8","ios":"levelo://app?vid=fb911599-b695-4fca-90f3-ca2af5ed36e8"},"vehicle_type_id":"4","last_reported":1781550843,"current_range_meters":2800,"station_id":"ce4bhk92rcd13ifvqgb0","pricing_plan_id":"cebpf4jnsgd1na2vs0mg"},{"bike_id":"c466c8b2-6c2a-49da-9758-ff6436a3d685","system_id":"levelo_inurba_marseille","lat":43.27502,"lon":5.43973,"is_reserved":false,"is_disabled":false,"rental_uris":{"android":"levelo://app?vid=c466c8b2-6c2a-49da-9758-ff6436a3d685","ios":"levelo://app?vid=c466c8b2-6c2a-49da-9758-ff6436a3d685"},"vehicle_type_id":"4","last_reported":1781550843,"current_range_meters":2800,"station_id":"","pricing_plan_id":"cebpf4jnsgd1na2vs0mg"},{"bike_id":"4aaddf6a-5870-424e-8f7b-a90e1a548aeb","system_id":"levelo_inurba_marseille","lat":43.28699,"lon":5.39986,"is_reserved":false,"is_disabled":false,"rental_uris":{"android":"levelo://app?vid=4aaddf6a-5870-424e-8f7b-a90e1a548aeb","ios":"levelo://app?vid=4aaddf6a-5870-424e-8f7b-a90e1a548aeb"},"vehicle_type_id":"4","last_reported":1781550843,"current_range_meters":2800,"station_id":"ce4bho92rcd13ifvqh3g","pricing_plan_id":"cebpf4jnsgd1na2vs0mg"},{"bike_id":"2dd80d1c-c165-478e-8d12-9f9afc293232","system_id":"levelo_inurba_marseille","lat":43.28684,"lon":5.38671,"is_reserved":false,"is_disabled":false,"rental_uris":{"android":"levelo://app?vid=2dd80d1c-c165-478e-8d12-9f9afc293232","ios":"levelo://app?vid=2dd80d1c-c165-478e-8d12-9f9afc293232"},"vehicle_type_id":"4","last_reported":1781550843,"current_range_meters":3200,"station_id":"ce4bh492rcd13ifvqdug","pricing_plan_id":"cebpf4jnsgd1na2vs0mg"},{"bike_id":"f25101d4-2b35-4d2b-a648-b6ae04bc1c8f","system_id":"levelo_inurba_marseille","lat":43.27803,"lon":5.40705,"is_reserved":false,"is_disabled":false,"rental_uris":{"android":"levelo://app?vid=f25101d4-2b35-4d2b-a648-b6ae04bc1c8f","ios":"levelo://app?vid=f25101d4-2b35-4d2b-a648-b6ae04bc1c8f"},"vehicle_type_id":"4","last_reported":1781550843,"current_range_meters":3200,"station_id":"ce4bhnh2rcd13ifvqgtg","pricing_plan_id":"cebpf4jnsgd1na2vs0mg"},{"bike_id":"7eeed1c9-3363-4427-9681-1b77313d9956","system_id":"levelo_inurba_marseille","lat":43.26983,"lon":5.39281,"is_reserved":false,"is_disabled":false,"rental_uris":{"android":"levelo://app?vid=7eeed1c9-3363-4427-9681-1b77313d9956","ios":"levelo://app?vid=7eeed1c9-3363-4427-9681-1b77313d9956"},"vehicle_type_id":"4","last_reported":1781550843,"current_range_meters":3200,"station_id":"","pricing_plan_id":"cebpf4jnsgd1na2vs0mg"},{"bike_id":"3c0a05a5-a657-420e-a7b1-ebeddbb457fc","system_id":"levelo_inurba_marseille","lat":43.27908,"lon":5.3798,"is_reserved":false,"is_disabled":false,"rental_uris":{"android":"levelo://app?vid=3c0a05a5-a657-420e-a7b1-ebeddbb457fc","ios":"levelo://app?vid=3c0a05a5-a657-420e-a7b1-ebeddbb457fc"},"vehicle_type_id":"4","last_reported":1781550843,"current_range_meters":3200,"station_id":"ce4bhf92rcd13ifvqf50","pricing_plan_id":"cebpf4jnsgd1na2vs0mg"},{"bike_id":"ca8f582c-466d-46df-93b3-4b687b4b7d47","system_id":"levelo_inurba_marseille","lat":43.2516,"lon":5.37488,"is_reserved":false,"is_disabled":false,"rental_uris":{"android":"levelo://app?vid=ca8f582c-466d-46df-93b3-4b687b4b7d47","ios":"levelo://app?vid=ca8f582c-466d-46df-93b3-4b687b4b7d47"},"vehicle_type_id":"4","last_reported":1781550843,"current_range_meters":3200,"station_id":"","pricing_plan_id":"cebpf4jnsgd1na2vs0mg"},{"bike_id":"42a93172-847b-4c57-905f-c92664f09ce8","system_id":"levelo_inurba_marseille","lat":43.25356,"lon":5.42147,"is_reserved":false,"is_disabled":true,"rental_uris":{"android":"levelo://app?vid=42a93172-847b-4c57-905f-c92664f09ce8","ios":"levelo://app?vid=42a93172-847b-4c57-905f-c92664f09ce8"},"vehicle_type_id":"4","last_reported":1781550843,"current_range_meters":3200,"station_id":"st_d2m65c5bi1j21697t3ng","pricing_plan_id":"cebpf4jnsgd1na2vs0mg"},{"bike_id":"895cef19-60bc-4eed-af31-a4c847ec1a1a","system_id":"levelo_inurba_marseille","lat":43.282678,"lon":5.350584,"is_reserved":false,"is_disabled":false,"rental_uris":{"android":"levelo://app?vid=895cef19-60bc-4eed-af31-a4c847ec1a1a","ios":"levelo://app?vid=895cef19-60bc-4eed-af31-a4c847ec1a1a"},"vehicle_type_id":"4","last_reported":1781550843,"current_range_meters":3200,"station_id":"ce4bhbp2rcd13ifvqerg","pricing_plan_id":"cebpf4jnsgd1na2vs0mg"},{"bike_id":"3ddc29a0-2ccb-4dc6-91b0-cb2b017ed9b0","system_id":"levelo_inurba_marseille","lat":43.28608,"lon":5.39896,"is_reserved":false,"is_disabled":false,"rental_uris":{"android":"levelo://app?vid=3ddc29a0-2ccb-4dc6-91b0-cb2b017ed9b0","ios":"levelo://app?vid=3ddc29a0-2ccb-4dc6-91b0-cb2b017ed9b0"},"vehicle_type_id":"4","last_reported":1781550843,"current_range_meters":3200,"station_id":"ce4bho92rcd13ifvqh3g","pricing_plan_id":"cebpf4jnsgd1na2vs0mg"},{"bike_id":"bbc40090-10fc-4f4d-9337-29190786690d","system_id":"levelo_inurba_marseille","lat":43.29097,"lon":5.38127,"is_reserved":false,"is_disabled":false,"rental_uris":{"android":"levelo://app?vid=bbc40090-10fc-4f4d-9337-29190786690d","ios":"levelo://app?vid=bbc40090-10fc-4f4d-9337-29190786690d"},"vehicle_type_id":"4","last_reported":1781550843,"current_range_meters":3200,"station_id":"ce4bh512rcd13ifvqe2g","pricing_plan_id":"cebpf4jnsgd1na2vs0mg"},{"bike_id":"4987fdcc-ee89-445a-9372-ad14340ddb6c","system_id":"levelo_inurba_marseille","lat":43.22269,"lon":5.40493,"is_reserved":false,"is_disabled":false,"rental_uris":{"android":"levelo://app?vid=4987fdcc-ee89-445a-9372-ad14340ddb6c","ios":"levelo://app?vid=4987fdcc-ee89-445a-9372-ad14340ddb6c"},"vehicle_type_id":"4","last_reported":1781550843,"current_range_meters":3200,"station_id":"","pricing_plan_id":"cebpf4jnsgd1na2vs0mg"},{"bike_id":"c96bdf51-8d21-4ae8-bd4e-5adc2f51ee66","system_id":"levelo_inurba_marseille","lat":43.28706,"lon":5.39981,"is_reserved":false,"is_disabled":false,"rental_uris":{"android":"levelo://app?vid=c96bdf51-8d21-4ae8-bd4e-5adc2f51ee66","ios":"levelo://app?vid=c96bdf51-8d21-4ae8-bd4e-5adc2f51ee66"},"vehicle_type_id":"4","last_reported":1781550843,"current_range_meters":3200,"station_id":"ce4bho92rcd13ifvqh3g","pricing_plan_id":"cebpf4jnsgd1na2vs0mg"},{"bike_id":"8fa567e2-2168-4914-9309-5b757d2ffc35","system_id":"levelo_inurba_marseille","lat":43.25115,"lon":5.40329,"is_reserved":false,"is_disabled":false,"rental_uris":{"android":"levelo://app?vid=8fa567e2-2168-4914-9309-5b757d2ffc35","ios":"levelo://app?vid=8fa567e2-2168-4914-9309-5b757d2ffc35"},"vehicle_type_id":"4","last_reported":1781550843,"current_range_meters":3200,"station_id":"ce4bhlh2rcd13ifvqgig","pricing_plan_id":"cebpf4jnsgd1na2vs0mg"},{"bike_id":"c65772ee-c010-4523-8d92-355141ae0307","system_id":"levelo_inurba_marseille","lat":43.28728,"lon":5.36064,"is_reserved":false,"is_disabled":false,"rental_uris":{"android":"levelo://app?vid=c65772ee-c010-4523-8d92-355141ae0307","ios":"levelo://app?vid=c65772ee-c010-4523-8d92-355141ae0307"},"vehicle_type_id":"4","last_reported":1781550843,"current_range_meters":3200,"station_id":"cki0cbj6b192h4jlfktg","pricing_plan_id":"cebpf4jnsgd1na2vs0mg"},{"bike_id":"f3fef316-6297-43a0-bdc0-5f5741b4f6f6","system_id":"levelo_inurba_marseille","lat":43.24476,"lon":5.42518,"is_reserved":false,"is_disabled":false,"rental_uris":{"android":"levelo://app?vid=f3fef316-6297-43a0-bdc0-5f5741b4f6f6","ios":"levelo://app?vid=f3fef316-6297-43a0-bdc0-5f5741b4f6f6"},"vehicle_type_id":"4","last_reported":1781550843,"current_range_meters":3200,"station_id":"st_d4a3vfp97mjs738cd8kg","pricing_plan_id":"cebpf4jnsgd1na2vs0mg"},{"bike_id":"6a4c8fd6-60ee-49b6-8975-e839260444f5","system_id":"levelo_inurba_marseille","lat":43.29899,"lon":5.40937,"is_reserved":false,"is_disabled":false,"rental_uris":{"android":"levelo://app?vid=6a4c8fd6-60ee-49b6-8975-e839260444f5","ios":"levelo://app?vid=6a4c8fd6-60ee-49b6-8975-e839260444f5"},"vehicle_type_id":"4","last_reported":1781550843,"current_range_meters":3200,"station_id":"","pricing_plan_id":"cebpf4jnsgd1na2vs0mg"},{"bike_id":"4c3c21b4-fb26-4444-b571-f1e26309daac","system_id":"levelo_inurba_marseille","lat":43.29259,"lon":5.409,"is_reserved":false,"is_disabled":false,"rental_uris":{"android":"levelo://app?vid=4c3c21b4-fb26-4444-b571-f1e26309daac","ios":"levelo://app?vid=4c3c21b4-fb26-4444-b571-f1e26309daac"},"vehicle_type_id":"4","last_reported":1781550843,"current_range_meters":3200,"station_id":"ce4bh192rcd13ifvqdc0","pricing_plan_id":"cebpf4jnsgd1na2vs0mg"},{"bike_id":"61c7cb86-d0f9-47a1-ae5a-6ea9ddb95f69","system_id":"levelo_inurba_marseille","lat":43.28851,"lon":5.35854,"is_reserved":false,"is_disabled":false,"rental_uris":{"android":"levelo://app?vid=61c7cb86-d0f9-47a1-ae5a-6ea9ddb95f69","ios":"levelo://app?vid=61c7cb86-d0f9-47a1-ae5a-6ea9ddb95f69"},"vehicle_type_id":"4","last_reported":1781550843,"current_range_meters":3600,"station_id":"ce4bhb12rcd13ifvqem0","pricing_plan_id":"cebpf4jnsgd1na2vs0mg"},{"bike_id":"558a5184-0ea9-405a-97b7-8e331fcbdb8b","system_id":"levelo_inurba_marseille","lat":43.24544,"lon":5.41146,"is_reserved":false,"is_disabled":true,"rental_uris":{"android":"levelo://app?vid=558a5184-0ea9-405a-97b7-8e331fcbdb8b","ios":"levelo://app?vid=558a5184-0ea9-405a-97b7-8e331fcbdb8b"},"vehicle_type_id":"4","last_reported":1781550843,"current_range_meters":3600,"station_id":"","pricing_plan_id":"cebpf4jnsgd1na2vs0mg"},{"bike_id":"c799e829-076f-4182-b605-67222339dd23","system_id":"levelo_inurba_marseille","lat":43.29985,"lon":5.37569,"is_reserved":false,"is_disabled":false,"rental_uris":{"android":"levelo://app?vid=c799e829-076f-4182-b605-67222339dd23","ios":"levelo://app?vid=c799e829-076f-4182-b605-67222339dd23"},"vehicle_type_id":"4","last_reported":1781550843,"current_range_meters":3600,"station_id":"","pricing_plan_id":"cebpf4jnsgd1na2vs0mg"},{"bike_id":"b8f10d9c-7a25-43d0-ac95-8e048eb9cf75","system_id":"levelo_inurba_marseille","lat":43.2623,"lon":5.3884,"is_reserved":false,"is_disabled":false,"rental_uris":{"android":"levelo://app?vid=b8f10d9c-7a25-43d0-ac95-8e048eb9cf75","ios":"levelo://app?vid=b8f10d9c-7a25-43d0-ac95-8e048eb9cf75"},"vehicle_type_id":"4","last_reported":1781550843,"current_range_meters":3600,"station_id":"","pricing_plan_id":"cebpf4jnsgd1na2vs0mg"},{"bike_id":"a60dfc0f-b9f2-4a62-84b2-a659ed75a1ae","system_id":"levelo_inurba_marseille","lat":43.29633,"lon":5.39061,"is_reserved":false,"is_disabled":false,"rental_uris":{"android":"levelo://app?vid=a60dfc0f-b9f2-4a62-84b2-a659ed75a1ae","ios":"levelo://app?vid=a60dfc0f-b9f2-4a62-84b2-a659ed75a1ae"},"vehicle_type_id":"4","last_reported":1781550843,"current_range_meters":3600,"station_id":"","pricing_plan_id":"cebpf4jnsgd1na2vs0mg"},{"bike_id":"1215d35d-3985-48bc-9a58-48c5109e206b","system_id":"levelo_inurba_marseille","lat":43.27899,"lon":5.38017,"is_reserved":false,"is_disabled":false,"rental_uris":{"android":"levelo://app?vid=1215d35d-3985-48bc-9a58-48c5109e206b","ios":"levelo://app?vid=1215d35d-3985-48bc-9a58-48c5109e206b"},"vehicle_type_id":"4","last_reported":1781550843,"current_range_meters":3600,"station_id":"ce4bhf92rcd13ifvqf50","pricing_plan_id":"cebpf4jnsgd1na2vs0mg"},{"bike_id":"d9680b4a-f13c-433d-b9a7-da7e7c80d2ed","system_id":"levelo_inurba_marseille","lat":43.29625,"lon":5.406,"is_reserved":false,"is_disabled":false,"rental_uris":{"android":"levelo://app?vid=d9680b4a-f13c-433d-b9a7-da7e7c80d2ed","ios":"levelo://app?vid=d9680b4a-f13c-433d-b9a7-da7e7c80d2ed"},"vehicle_type_id":"4","last_reported":1781550843,"current_range_meters":3600,"station_id":"ce4bh0h2rcd13ifvqd60","pricing_plan_id":"cebpf4jnsgd1na2vs0mg"},{"bike_id":"0a6a5bc5-8d46-4617-ac82-c8bfb1f342f9","system_id":"levelo_inurba_marseille","lat":43.255053,"lon":5.3765,"is_reserved":false,"is_disabled":false,"rental_uris":{"android":"levelo://app?vid=0a6a5bc5-8d46-4617-ac82-c8bfb1f342f9","ios":"levelo://app?vid=0a6a5bc5-8d46-4617-ac82-c8bfb1f342f9"},"vehicle_type_id":"4","last_reported":1781550843,"current_range_meters":3600,"station_id":"ce4bhh12rcd13ifvqff0","pricing_plan_id":"cebpf4jnsgd1na2vs0mg"},{"bike_id":"8070557e-e3c0-4e1a-a82e-0b2b1f129cfd","system_id":"levelo_inurba_marseille","lat":43.22545,"lon":5.34821,"is_reserved":false,"is_disabled":false,"rental_uris":{"android":"levelo://app?vid=8070557e-e3c0-4e1a-a82e-0b2b1f129cfd","ios":"levelo://app?vid=8070557e-e3c0-4e1a-a82e-0b2b1f129cfd"},"vehicle_type_id":"4","last_reported":1781550843,"current_range_meters":3600,"station_id":"st_cvj5dfep6f1abm77gieg","pricing_plan_id":"cebpf4jnsgd1na2vs0mg"},{"bike_id":"b6247077-4f92-4a61-af5a-418f37cb0488","system_id":"levelo_inurba_marseille","lat":43.279027,"lon":5.380115,"is_reserved":false,"is_disabled":false,"rental_uris":{"android":"levelo://app?vid=b6247077-4f92-4a61-af5a-418f37cb0488","ios":"levelo://app?vid=b6247077-4f92-4a61-af5a-418f37cb0488"},"vehicle_type_id":"4","last_reported":1781550843,"current_range_meters":3600,"station_id":"ce4bhf92rcd13ifvqf50","pricing_plan_id":"cebpf4jnsgd1na2vs0mg"},{"bike_id":"afa77d6f-ce78-4eee-9727-eb59efef4334","system_id":"levelo_inurba_marseille","lat":43.2257,"lon":5.41619,"is_reserved":false,"is_disabled":false,"rental_uris":{"android":"levelo://app?vid=afa77d6f-ce78-4eee-9727-eb59efef4334","ios":"levelo://app?vid=afa77d6f-ce78-4eee-9727-eb59efef4334"},"vehicle_type_id":"4","last_reported":1781550843,"current_range_meters":3600,"station_id":"st_d2o4gvlbi1j2169b742g","pricing_plan_id":"cebpf4jnsgd1na2vs0mg"},{"bike_id":"8bbcd48e-8342-4a7e-85dc-1ebd147c41f1","system_id":"levelo_inurba_marseille","lat":43.225316,"lon":5.348504,"is_reserved":false,"is_disabled":false,"rental_uris":{"android":"levelo://app?vid=8bbcd48e-8342-4a7e-85dc-1ebd147c41f1","ios":"levelo://app?vid=8bbcd48e-8342-4a7e-85dc-1ebd147c41f1"},"vehicle_type_id":"4","last_reported":1781550843,"current_range_meters":3600,"station_id":"st_cvj5dfep6f1abm77gieg","pricing_plan_id":"cebpf4jnsgd1na2vs0mg"},{"bike_id":"c4a34a8a-39a4-4da1-85bf-f3caaca80c28","system_id":"levelo_inurba_marseille","lat":43.335434,"lon":5.374709,"is_reserved":false,"is_disabled":false,"rental_uris":{"android":"levelo://app?vid=c4a34a8a-39a4-4da1-85bf-f3caaca80c28","ios":"levelo://app?vid=c4a34a8a-39a4-4da1-85bf-f3caaca80c28"},"vehicle_type_id":"4","last_reported":1781550843,"current_range_meters":3600,"station_id":"st_d46tts09ee8s73dlu43g","pricing_plan_id":"cebpf4jnsgd1na2vs0mg"},{"bike_id":"da5d8d1c-8084-46da-b65d-4193194e5c0a","system_id":"levelo_inurba_marseille","lat":43.28502,"lon":5.48411,"is_reserved":false,"is_disabled":false,"rental_uris":{"android":"levelo://app?vid=da5d8d1c-8084-46da-b65d-4193194e5c0a","ios":"levelo://app?vid=da5d8d1c-8084-46da-b65d-4193194e5c0a"},"vehicle_type_id":"4","last_reported":1781550843,"current_range_meters":4000,"station_id":"st_d3svhcjqgbts73a3dn0g","pricing_plan_id":"cebpf4jnsgd1na2vs0mg"},{"bike_id":"f5e3fe38-0b54-4fb8-b6ff-82082ca10e76","system_id":"levelo_inurba_marseille","lat":43.29014,"lon":5.3812,"is_reserved":false,"is_disabled":false,"rental_uris":{"android":"levelo://app?vid=f5e3fe38-0b54-4fb8-b6ff-82082ca10e76","ios":"levelo://app?vid=f5e3fe38-0b54-4fb8-b6ff-82082ca10e76"},"vehicle_type_id":"4","last_reported":1781550843,"current_range_meters":4000,"station_id":"ce4bh4p2rcd13ifvqe1g","pricing_plan_id":"cebpf4jnsgd1na2vs0mg"},{"bike_id":"01638761-63b8-4ba5-9400-c329e22fd3b6","system_id":"levelo_inurba_marseille","lat":43.26228,"lon":5.38774,"is_reserved":false,"is_disabled":false,"rental_uris":{"android":"levelo://app?vid=01638761-63b8-4ba5-9400-c329e22fd3b6","ios":"levelo://app?vid=01638761-63b8-4ba5-9400-c329e22fd3b6"},"vehicle_type_id":"4","last_reported":1781550843,"current_range_meters":4000,"station_id":"st_d8gjfg747rts73coq3b0","pricing_plan_id":"cebpf4jnsgd1na2vs0mg"},{"bike_id":"7dcca18e-31a7-4216-94a1-ad877193a64e","system_id":"levelo_inurba_marseille","lat":43.31354,"lon":5.38503,"is_reserved":false,"is_disabled":false,"rental_uris":{"android":"levelo://app?vid=7dcca18e-31a7-4216-94a1-ad877193a64e","ios":"levelo://app?vid=7dcca18e-31a7-4216-94a1-ad877193a64e"},"vehicle_type_id":"4","last_reported":1781550843,"current_range_meters":4000,"station_id":"ce4bgt92rcd13ifvqcf0","pricing_plan_id":"cebpf4jnsgd1na2vs0mg"},{"bike_id":"37dd415c-b67c-4c8e-bfdc-3028eb0cf289","system_id":"levelo_inurba_marseille","lat":43.278385,"lon":5.392058,"is_reserved":false,"is_disabled":false,"rental_uris":{"android":"levelo://app?vid=37dd415c-b67c-4c8e-bfdc-3028eb0cf289","ios":"levelo://app?vid=37dd415c-b67c-4c8e-bfdc-3028eb0cf289"},"vehicle_type_id":"4","last_reported":1781550843,"current_range_meters":4000,"station_id":"ce4bhjp2rcd13ifvqga0","pricing_plan_id":"cebpf4jnsgd1na2vs0mg"},{"bike_id":"0e951f2f-6a72-40e9-85bc-379c9bf54e91","system_id":"levelo_inurba_marseille","lat":43.30295,"lon":5.39198,"is_reserved":false,"is_disabled":false,"rental_uris":{"android":"levelo://app?vid=0e951f2f-6a72-40e9-85bc-379c9bf54e91","ios":"levelo://app?vid=0e951f2f-6a72-40e9-85bc-379c9bf54e91"},"vehicle_type_id":"4","last_reported":1781550843,"current_range_meters":4000,"station_id":"ce4bgkh2rcd13ifvqbk0","pricing_plan_id":"cebpf4jnsgd1na2vs0mg"},{"bike_id":"2eb4f64c-a480-4406-ba82-54a4f97c0aed","system_id":"levelo_inurba_marseille","lat":43.29065,"lon":5.3713,"is_reserved":false,"is_disabled":true,"rental_uris":{"android":"levelo://app?vid=2eb4f64c-a480-4406-ba82-54a4f97c0aed","ios":"levelo://app?vid=2eb4f64c-a480-4406-ba82-54a4f97c0aed"},"vehicle_type_id":"4","last_reported":1781550843,"current_range_meters":4000,"station_id":"ce4bh5p2rcd13ifvqe4g","pricing_plan_id":"cebpf4jnsgd1na2vs0mg"},{"bike_id":"9a1cc2c6-f125-4427-9576-1ea54006fd27","system_id":"levelo_inurba_marseille","lat":43.28333,"lon":5.38818,"is_reserved":false,"is_disabled":false,"rental_uris":{"android":"levelo://app?vid=9a1cc2c6-f125-4427-9576-1ea54006fd27","ios":"levelo://app?vid=9a1cc2c6-f125-4427-9576-1ea54006fd27"},"vehicle_type_id":"4","last_reported":1781550843,"current_range_meters":4000,"station_id":"","pricing_plan_id":"cebpf4jnsgd1na2vs0mg"},{"bike_id":"b2ea6d31-3125-4c8f-9bbf-89e8f92228e9","system_id":"levelo_inurba_marseille","lat":43.29936,"lon":5.38174,"is_reserved":false,"is_disabled":false,"rental_uris":{"android":"levelo://app?vid=b2ea6d31-3125-4c8f-9bbf-89e8f92228e9","ios":"levelo://app?vid=b2ea6d31-3125-4c8f-9bbf-89e8f92228e9"},"vehicle_type_id":"4","last_reported":1781550843,"current_range_meters":4000,"station_id":"ce4bgj12rcd13ifvqbc0","pricing_plan_id":"cebpf4jnsgd1na2vs0mg"},{"bike_id":"58a8a04c-82f0-4000-aeeb-b9b3d034255a","system_id":"levelo_inurba_marseille","lat":43.29053,"lon":5.43973,"is_reserved":false,"is_disabled":false,"rental_uris":{"android":"levelo://app?vid=58a8a04c-82f0-4000-aeeb-b9b3d034255a","ios":"levelo://app?vid=58a8a04c-82f0-4000-aeeb-b9b3d034255a"},"vehicle_type_id":"4","last_reported":1781550843,"current_range_meters":4000,"station_id":"","pricing_plan_id":"cebpf4jnsgd1na2vs0mg"},{"bike_id":"a00cbfd3-d45d-4967-bf26-d821e82e9ca3","system_id":"levelo_inurba_marseille","lat":43.26496,"lon":5.39548,"is_reserved":false,"is_disabled":false,"rental_uris":{"android":"levelo://app?vid=a00cbfd3-d45d-4967-bf26-d821e82e9ca3","ios":"levelo://app?vid=a00cbfd3-d45d-4967-bf26-d821e82e9ca3"},"vehicle_type_id":"4","last_reported":1781550843,"current_range_meters":4000,"station_id":"ce4bhi12rcd13ifvqfq0","pricing_plan_id":"cebpf4jnsgd1na2vs0mg"},{"bike_id":"f6615619-2d25-4189-bcb5-12ad464a7c08","system_id":"levelo_inurba_marseille","lat":43.31479,"lon":5.38574,"is_reserved":false,"is_disabled":false,"rental_uris":{"android":"levelo://app?vid=f6615619-2d25-4189-bcb5-12ad464a7c08","ios":"levelo://app?vid=f6615619-2d25-4189-bcb5-12ad464a7c08"},"vehicle_type_id":"4","last_reported":1781550843,"current_range_meters":4400,"station_id":"","pricing_plan_id":"cebpf4jnsgd1na2vs0mg"},{"bike_id":"d0e687e2-d20a-45a3-9426-b5631dc5dae4","system_id":"levelo_inurba_marseille","lat":43.31924,"lon":5.36769,"is_reserved":false,"is_disabled":false,"rental_uris":{"android":"levelo://app?vid=d0e687e2-d20a-45a3-9426-b5631dc5dae4","ios":"levelo://app?vid=d0e687e2-d20a-45a3-9426-b5631dc5dae4"},"vehicle_type_id":"4","last_reported":1781550843,"current_range_meters":4400,"station_id":"st_d6o2h0d0559c73evc1b0","pricing_plan_id":"cebpf4jnsgd1na2vs0mg"},{"bike_id":"9b8180d1-5de8-4b06-a649-5b9887f66a0d","system_id":"levelo_inurba_marseille","lat":43.32462,"lon":5.38349,"is_reserved":false,"is_disabled":false,"rental_uris":{"android":"levelo://app?vid=9b8180d1-5de8-4b06-a649-5b9887f66a0d","ios":"levelo://app?vid=9b8180d1-5de8-4b06-a649-5b9887f66a0d"},"vehicle_type_id":"4","last_reported":1781550843,"current_range_meters":4400,"station_id":"","pricing_plan_id":"cebpf4jnsgd1na2vs0mg"},{"bike_id":"cf6805a6-6f9c-4862-9067-853782c81024","system_id":"levelo_inurba_marseille","lat":43.3144,"lon":5.3739,"is_reserved":false,"is_disabled":false,"rental_uris":{"android":"levelo://app?vid=cf6805a6-6f9c-4862-9067-853782c81024","ios":"levelo://app?vid=cf6805a6-6f9c-4862-9067-853782c81024"},"vehicle_type_id":"4","last_reported":1781550843,"current_range_meters":4400,"station_id":"","pricing_plan_id":"cebpf4jnsgd1na2vs0mg"},{"bike_id":"ecb13e5f-b21f-43d0-b5cf-eebfab7c2616","system_id":"levelo_inurba_marseille","lat":43.25589,"lon":5.38196,"is_reserved":false,"is_disabled":false,"rental_uris":{"android":"levelo://app?vid=ecb13e5f-b21f-43d0-b5cf-eebfab7c2616","ios":"levelo://app?vid=ecb13e5f-b21f-43d0-b5cf-eebfab7c2616"},"vehicle_type_id":"4","last_reported":1781550843,"current_range_meters":4400,"station_id":"ce4bhih2rcd13ifvqfs0","pricing_plan_id":"cebpf4jnsgd1na2vs0mg"},{"bike_id":"731979a3-bc68-4c96-92fd-1f561806c240","system_id":"levelo_inurba_marseille","lat":43.303128,"lon":5.369038,"is_reserved":false,"is_disabled":true,"rental_uris":{"android":"levelo://app?vid=731979a3-bc68-4c96-92fd-1f561806c240","ios":"levelo://app?vid=731979a3-bc68-4c96-92fd-1f561806c240"},"vehicle_type_id":"4","last_reported":1781550843,"current_range_meters":4400,"station_id":"ce4bhgh2rcd13ifvqfb0","pricing_plan_id":"cebpf4jnsgd1na2vs0mg"},{"bike_id":"efe86296-843c-47d1-abf7-44fe56da5375","system_id":"levelo_inurba_marseille","lat":43.28581,"lon":5.35014,"is_reserved":false,"is_disabled":false,"rental_uris":{"android":"levelo://app?vid=efe86296-843c-47d1-abf7-44fe56da5375","ios":"levelo://app?vid=efe86296-843c-47d1-abf7-44fe56da5375"},"vehicle_type_id":"4","last_reported":1781550843,"current_range_meters":4400,"station_id":"","pricing_plan_id":"cebpf4jnsgd1na2vs0mg"},{"bike_id":"f12b692b-f1b2-43c8-8309-4b487cabc646","system_id":"levelo_inurba_marseille","lat":43.29173,"lon":5.3852,"is_reserved":false,"is_disabled":false,"rental_uris":{"android":"levelo://app?vid=f12b692b-f1b2-43c8-8309-4b487cabc646","ios":"levelo://app?vid=f12b692b-f1b2-43c8-8309-4b487cabc646"},"vehicle_type_id":"4","last_reported":1781550843,"current_range_meters":4400,"station_id":"","pricing_plan_id":"cebpf4jnsgd1na2vs0mg"},{"bike_id":"8ed01824-88a4-4d11-9491-91231461a64a","system_id":"levelo_inurba_marseille","lat":43.22536,"lon":5.3482,"is_reserved":false,"is_disabled":false,"rental_uris":{"android":"levelo://app?vid=8ed01824-88a4-4d11-9491-91231461a64a","ios":"levelo://app?vid=8ed01824-88a4-4d11-9491-91231461a64a"},"vehicle_type_id":"4","last_reported":1781550843,"current_range_meters":4400,"station_id":"st_cvj5dfep6f1abm77gieg","pricing_plan_id":"cebpf4jnsgd1na2vs0mg"},{"bike_id":"c19fb9c2-349c-48e3-8780-585b6749c07b","system_id":"levelo_inurba_marseille","lat":43.25173,"lon":5.37464,"is_reserved":false,"is_disabled":false,"rental_uris":{"android":"levelo://app?vid=c19fb9c2-349c-48e3-8780-585b6749c07b","ios":"levelo://app?vid=c19fb9c2-349c-48e3-8780-585b6749c07b"},"vehicle_type_id":"4","last_reported":1781550843,"current_range_meters":4400,"station_id":"","pricing_plan_id":"cebpf4jnsgd1na2vs0mg"},{"bike_id":"e0925a2d-6406-470b-969a-b294c24295d9","system_id":"levelo_inurba_marseille","lat":43.304323,"lon":5.388828,"is_reserved":false,"is_disabled":false,"rental_uris":{"android":"levelo://app?vid=e0925a2d-6406-470b-969a-b294c24295d9","ios":"levelo://app?vid=e0925a2d-6406-470b-969a-b294c24295d9"},"vehicle_type_id":"4","last_reported":1781550843,"current_range_meters":4400,"station_id":"ce4bgk12rcd13ifvqbi0","pricing_plan_id":"cebpf4jnsgd1na2vs0mg"},{"bike_id":"00d735c0-e01d-4bde-bdd2-41758b5e6d74","system_id":"levelo_inurba_marseille","lat":43.29616,"lon":5.38096,"is_reserved":false,"is_disabled":false,"rental_uris":{"android":"levelo://app?vid=00d735c0-e01d-4bde-bdd2-41758b5e6d74","ios":"levelo://app?vid=00d735c0-e01d-4bde-bdd2-41758b5e6d74"},"vehicle_type_id":"4","last_reported":1781550843,"current_range_meters":4800,"station_id":"ce4bgl12rcd13ifvqbo0","pricing_plan_id":"cebpf4jnsgd1na2vs0mg"},{"bike_id":"aae1128c-de11-4114-8f67-ae5282eca02e","system_id":"levelo_inurba_marseille","lat":43.23746,"lon":5.37765,"is_reserved":false,"is_disabled":false,"rental_uris":{"android":"levelo://app?vid=aae1128c-de11-4114-8f67-ae5282eca02e","ios":"levelo://app?vid=aae1128c-de11-4114-8f67-ae5282eca02e"},"vehicle_type_id":"4","last_reported":1781550843,"current_range_meters":4800,"station_id":"","pricing_plan_id":"cebpf4jnsgd1na2vs0mg"},{"bike_id":"ea9bb616-3f61-479d-b8ff-09986d22f8d6","system_id":"levelo_inurba_marseille","lat":43.279131,"lon":5.380404,"is_reserved":false,"is_disabled":false,"rental_uris":{"android":"levelo://app?vid=ea9bb616-3f61-479d-b8ff-09986d22f8d6","ios":"levelo://app?vid=ea9bb616-3f61-479d-b8ff-09986d22f8d6"},"vehicle_type_id":"4","last_reported":1781550843,"current_range_meters":4800,"station_id":"ce4bhf92rcd13ifvqf50","pricing_plan_id":"cebpf4jnsgd1na2vs0mg"},{"bike_id":"d3b3f6e4-d339-4845-a2d4-dbb0be4ffede","system_id":"levelo_inurba_marseille","lat":43.26777,"lon":5.39404,"is_reserved":false,"is_disabled":false,"rental_uris":{"android":"levelo://app?vid=d3b3f6e4-d339-4845-a2d4-dbb0be4ffede","ios":"levelo://app?vid=d3b3f6e4-d339-4845-a2d4-dbb0be4ffede"},"vehicle_type_id":"4","last_reported":1781550843,"current_range_meters":4800,"station_id":"ce4bhh12rcd13ifvqfg0","pricing_plan_id":"cebpf4jnsgd1na2vs0mg"},{"bike_id":"c1f68980-2c23-4bea-a5b7-10eab983fb1d","system_id":"levelo_inurba_marseille","lat":43.29228,"lon":5.36033,"is_reserved":false,"is_disabled":true,"rental_uris":{"android":"levelo://app?vid=c1f68980-2c23-4bea-a5b7-10eab983fb1d","ios":"levelo://app?vid=c1f68980-2c23-4bea-a5b7-10eab983fb1d"},"vehicle_type_id":"4","last_reported":1781550843,"current_range_meters":4800,"station_id":"ce4bhbh2rcd13ifvqeqg","pricing_plan_id":"cebpf4jnsgd1na2vs0mg"},{"bike_id":"ad217642-a219-426e-918a-6ed138c4547e","system_id":"levelo_inurba_marseille","lat":43.2921,"lon":5.36023,"is_reserved":false,"is_disabled":false,"rental_uris":{"android":"levelo://app?vid=ad217642-a219-426e-918a-6ed138c4547e","ios":"levelo://app?vid=ad217642-a219-426e-918a-6ed138c4547e"},"vehicle_type_id":"4","last_reported":1781550843,"current_range_meters":4800,"station_id":"ce4bhbh2rcd13ifvqeqg","pricing_plan_id":"cebpf4jnsgd1na2vs0mg"},{"bike_id":"98ab1956-4acb-488e-a7f1-0334d6f147ee","system_id":"levelo_inurba_marseille","lat":43.31361,"lon":5.38476,"is_reserved":false,"is_disabled":false,"rental_uris":{"android":"levelo://app?vid=98ab1956-4acb-488e-a7f1-0334d6f147ee","ios":"levelo://app?vid=98ab1956-4acb-488e-a7f1-0334d6f147ee"},"vehicle_type_id":"4","last_reported":1781550843,"current_range_meters":4800,"station_id":"ce4bgt92rcd13ifvqcf0","pricing_plan_id":"cebpf4jnsgd1na2vs0mg"},{"bike_id":"9e780a07-5609-4021-8fe1-465144d05c90","system_id":"levelo_inurba_marseille","lat":43.2871,"lon":5.37703,"is_reserved":false,"is_disabled":false,"rental_uris":{"android":"levelo://app?vid=9e780a07-5609-4021-8fe1-465144d05c90","ios":"levelo://app?vid=9e780a07-5609-4021-8fe1-465144d05c90"},"vehicle_type_id":"4","last_reported":1781550843,"current_range_meters":4800,"station_id":"","pricing_plan_id":"cebpf4jnsgd1na2vs0mg"},{"bike_id":"cc88ac88-6fa6-4664-9c80-b91e0849a824","system_id":"levelo_inurba_marseille","lat":43.23886,"lon":5.36518,"is_reserved":false,"is_disabled":false,"rental_uris":{"android":"levelo://app?vid=cc88ac88-6fa6-4664-9c80-b91e0849a824","ios":"levelo://app?vid=cc88ac88-6fa6-4664-9c80-b91e0849a824"},"vehicle_type_id":"4","last_reported":1781550843,"current_range_meters":4800,"station_id":"","pricing_plan_id":"cebpf4jnsgd1na2vs0mg"},{"bike_id":"928ddb80-8db9-42c3-9070-4ced6814c293","system_id":"levelo_inurba_marseille","lat":43.29569,"lon":5.42275,"is_reserved":false,"is_disabled":false,"rental_uris":{"android":"levelo://app?vid=928ddb80-8db9-42c3-9070-4ced6814c293","ios":"levelo://app?vid=928ddb80-8db9-42c3-9070-4ced6814c293"},"vehicle_type_id":"4","last_reported":1781550843,"current_range_meters":4800,"station_id":"ce4bhph2rcd13ifvqhdg","pricing_plan_id":"cebpf4jnsgd1na2vs0mg"},{"bike_id":"28f37462-c747-41b1-a5df-a57c25150207","system_id":"levelo_inurba_marseille","lat":43.2861,"lon":5.37055,"is_reserved":false,"is_disabled":false,"rental_uris":{"android":"levelo://app?vid=28f37462-c747-41b1-a5df-a57c25150207","ios":"levelo://app?vid=28f37462-c747-41b1-a5df-a57c25150207"},"vehicle_type_id":"4","last_reported":1781550843,"current_range_meters":4800,"station_id":"ce4bht12rcd13ifvqi60","pricing_plan_id":"cebpf4jnsgd1na2vs0mg"},{"bike_id":"67673a61-485e-4b57-b6dd-3fdcede3eb72","system_id":"levelo_inurba_marseille","lat":43.29546,"lon":5.38541,"is_reserved":false,"is_disabled":false,"rental_uris":{"android":"levelo://app?vid=67673a61-485e-4b57-b6dd-3fdcede3eb72","ios":"levelo://app?vid=67673a61-485e-4b57-b6dd-3fdcede3eb72"},"vehicle_type_id":"4","last_reported":1781550843,"current_range_meters":4800,"station_id":"ce4bgih2rcd13ifvqba0","pricing_plan_id":"cebpf4jnsgd1na2vs0mg"},{"bike_id":"0a9dda99-214d-4ac8-bbbf-8b202af42219","system_id":"levelo_inurba_marseille","lat":43.28935,"lon":5.384,"is_reserved":false,"is_disabled":false,"rental_uris":{"android":"levelo://app?vid=0a9dda99-214d-4ac8-bbbf-8b202af42219","ios":"levelo://app?vid=0a9dda99-214d-4ac8-bbbf-8b202af42219"},"vehicle_type_id":"4","last_reported":1781550843,"current_range_meters":4800,"station_id":"ce4bh612rcd13ifvqe6g","pricing_plan_id":"cebpf4jnsgd1na2vs0mg"},{"bike_id":"25baf129-7bee-40b4-8dee-5b36cf5181d1","system_id":"levelo_inurba_marseille","lat":43.27429,"lon":5.39376,"is_reserved":false,"is_disabled":true,"rental_uris":{"android":"levelo://app?vid=25baf129-7bee-40b4-8dee-5b36cf5181d1","ios":"levelo://app?vid=25baf129-7bee-40b4-8dee-5b36cf5181d1"},"vehicle_type_id":"4","last_reported":1781550843,"current_range_meters":5600,"station_id":"ce4bhdp2rcd13ifvqf20","pricing_plan_id":"cebpf4jnsgd1na2vs0mg"},{"bike_id":"90ee0f01-1530-4896-b0b7-84917d85e2c3","system_id":"levelo_inurba_marseille","lat":43.28014,"lon":5.3999,"is_reserved":false,"is_disabled":false,"rental_uris":{"android":"levelo://app?vid=90ee0f01-1530-4896-b0b7-84917d85e2c3","ios":"levelo://app?vid=90ee0f01-1530-4896-b0b7-84917d85e2c3"},"vehicle_type_id":"4","last_reported":1781550843,"current_range_meters":5600,"station_id":"ce4bho92rcd13ifvqh4g","pricing_plan_id":"cebpf4jnsgd1na2vs0mg"},{"bike_id":"4028198a-9e81-483c-8ef9-7423981e50fe","system_id":"levelo_inurba_marseille","lat":43.29613,"lon":5.38119,"is_reserved":false,"is_disabled":true,"rental_uris":{"android":"levelo://app?vid=4028198a-9e81-483c-8ef9-7423981e50fe","ios":"levelo://app?vid=4028198a-9e81-483c-8ef9-7423981e50fe"},"vehicle_type_id":"4","last_reported":1781550843,"current_range_meters":5600,"station_id":"ce4bgl12rcd13ifvqbo0","pricing_plan_id":"cebpf4jnsgd1na2vs0mg"},{"bike_id":"898e24cd-99b5-473a-86d2-3c5d60a94605","system_id":"levelo_inurba_marseille","lat":43.296177,"lon":5.380267,"is_reserved":false,"is_disabled":false,"rental_uris":{"android":"levelo://app?vid=898e24cd-99b5-473a-86d2-3c5d60a94605","ios":"levelo://app?vid=898e24cd-99b5-473a-86d2-3c5d60a94605"},"vehicle_type_id":"4","last_reported":1781550843,"current_range_meters":5600,"station_id":"","pricing_plan_id":"cebpf4jnsgd1na2vs0mg"},{"bike_id":"d50528a5-fefe-4ae8-ac8a-a3b213073c1f","system_id":"levelo_inurba_marseille","lat":43.30281,"lon":5.37701,"is_reserved":false,"is_disabled":true,"rental_uris":{"android":"levelo://app?vid=d50528a5-fefe-4ae8-ac8a-a3b213073c1f","ios":"levelo://app?vid=d50528a5-fefe-4ae8-ac8a-a3b213073c1f"},"vehicle_type_id":"4","last_reported":1781550843,"current_range_meters":5600,"station_id":"ce4bguh2rcd13ifvqcj0","pricing_plan_id":"cebpf4jnsgd1na2vs0mg"},{"bike_id":"0446f76e-d64a-473c-99f2-97e231f834a8","system_id":"levelo_inurba_marseille","lat":43.26209,"lon":5.37442,"is_reserved":false,"is_disabled":false,"rental_uris":{"android":"levelo://app?vid=0446f76e-d64a-473c-99f2-97e231f834a8","ios":"levelo://app?vid=0446f76e-d64a-473c-99f2-97e231f834a8"},"vehicle_type_id":"4","last_reported":1781550843,"current_range_meters":5600,"station_id":"ce4bhgp2rcd13ifvqfc0","pricing_plan_id":"cebpf4jnsgd1na2vs0mg"},{"bike_id":"da0be67b-b8b1-4e87-aae7-77c540e2eb4c","system_id":"levelo_inurba_marseille","lat":43.25506,"lon":5.37647,"is_reserved":false,"is_disabled":false,"rental_uris":{"android":"levelo://app?vid=da0be67b-b8b1-4e87-aae7-77c540e2eb4c","ios":"levelo://app?vid=da0be67b-b8b1-4e87-aae7-77c540e2eb4c"},"vehicle_type_id":"4","last_reported":1781550843,"current_range_meters":5600,"station_id":"ce4bhh12rcd13ifvqff0","pricing_plan_id":"cebpf4jnsgd1na2vs0mg"},{"bike_id":"b154b0db-799b-455f-882e-6d5608114467","system_id":"levelo_inurba_marseille","lat":43.32065,"lon":5.41511,"is_reserved":false,"is_disabled":false,"rental_uris":{"android":"levelo://app?vid=b154b0db-799b-455f-882e-6d5608114467","ios":"levelo://app?vid=b154b0db-799b-455f-882e-6d5608114467"},"vehicle_type_id":"4","last_reported":1781550843,"current_range_meters":5600,"station_id":"ce4bhq92rcd13ifvqhkg","pricing_plan_id":"cebpf4jnsgd1na2vs0mg"},{"bike_id":"d687948e-ed06-40fd-ab0e-1aa0824c6ef3","system_id":"levelo_inurba_marseille","lat":43.24263,"lon":5.36775,"is_reserved":false,"is_disabled":false,"rental_uris":{"android":"levelo://app?vid=d687948e-ed06-40fd-ab0e-1aa0824c6ef3","ios":"levelo://app?vid=d687948e-ed06-40fd-ab0e-1aa0824c6ef3"},"vehicle_type_id":"4","last_reported":1781550843,"current_range_meters":5600,"station_id":"","pricing_plan_id":"cebpf4jnsgd1na2vs0mg"},{"bike_id":"e657e152-9d2e-425d-bd3d-f11204da70a6","system_id":"levelo_inurba_marseille","lat":43.27096,"lon":5.4227,"is_reserved":false,"is_disabled":false,"rental_uris":{"android":"levelo://app?vid=e657e152-9d2e-425d-bd3d-f11204da70a6","ios":"levelo://app?vid=e657e152-9d2e-425d-bd3d-f11204da70a6"},"vehicle_type_id":"4","last_reported":1781550843,"current_range_meters":5600,"station_id":"ce4bhk92rcd13ifvqgb0","pricing_plan_id":"cebpf4jnsgd1na2vs0mg"},{"bike_id":"00b9e272-757b-4ad7-8d45-e1e6ab66a9e6","system_id":"levelo_inurba_marseille","lat":43.255167,"lon":5.37651,"is_reserved":false,"is_disabled":false,"rental_uris":{"android":"levelo://app?vid=00b9e272-757b-4ad7-8d45-e1e6ab66a9e6","ios":"levelo://app?vid=00b9e272-757b-4ad7-8d45-e1e6ab66a9e6"},"vehicle_type_id":"4","last_reported":1781550843,"current_range_meters":5600,"station_id":"ce4bhh12rcd13ifvqff0","pricing_plan_id":"cebpf4jnsgd1na2vs0mg"},{"bike_id":"d30a92c1-7926-49c3-ad10-c7d59d947835","system_id":"levelo_inurba_marseille","lat":43.30305,"lon":5.39201,"is_reserved":false,"is_disabled":false,"rental_uris":{"android":"levelo://app?vid=d30a92c1-7926-49c3-ad10-c7d59d947835","ios":"levelo://app?vid=d30a92c1-7926-49c3-ad10-c7d59d947835"},"vehicle_type_id":"4","last_reported":1781550843,"current_range_meters":5600,"station_id":"ce4bgkh2rcd13ifvqbk0","pricing_plan_id":"cebpf4jnsgd1na2vs0mg"},{"bike_id":"f70d3549-be27-4605-85f6-ad4923d8b4de","system_id":"levelo_inurba_marseille","lat":43.25824,"lon":5.39421,"is_reserved":false,"is_disabled":false,"rental_uris":{"android":"levelo://app?vid=f70d3549-be27-4605-85f6-ad4923d8b4de","ios":"levelo://app?vid=f70d3549-be27-4605-85f6-ad4923d8b4de"},"vehicle_type_id":"4","last_reported":1781550843,"current_range_meters":5600,"station_id":"ce4bhip2rcd13ifvqft0","pricing_plan_id":"cebpf4jnsgd1na2vs0mg"},{"bike_id":"a1a38277-f994-4bb1-afab-6b21b53b5c63","system_id":"levelo_inurba_marseille","lat":43.25072,"lon":5.39495,"is_reserved":false,"is_disabled":false,"rental_uris":{"android":"levelo://app?vid=a1a38277-f994-4bb1-afab-6b21b53b5c63","ios":"levelo://app?vid=a1a38277-f994-4bb1-afab-6b21b53b5c63"},"vehicle_type_id":"4","last_reported":1781550843,"current_range_meters":5600,"station_id":"ce4bhm12rcd13ifvqgkg","pricing_plan_id":"cebpf4jnsgd1na2vs0mg"},{"bike_id":"4115eb0c-08e4-4e8d-aadc-935e7aca0a80","system_id":"levelo_inurba_marseille","lat":43.24379,"lon":5.36944,"is_reserved":false,"is_disabled":false,"rental_uris":{"android":"levelo://app?vid=4115eb0c-08e4-4e8d-aadc-935e7aca0a80","ios":"levelo://app?vid=4115eb0c-08e4-4e8d-aadc-935e7aca0a80"},"vehicle_type_id":"4","last_reported":1781550843,"current_range_meters":5600,"station_id":"","pricing_plan_id":"cebpf4jnsgd1na2vs0mg"},{"bike_id":"01b45927-ee3c-440c-975d-aeef504de959","system_id":"levelo_inurba_marseille","lat":43.28166,"lon":5.42653,"is_reserved":false,"is_disabled":false,"rental_uris":{"android":"levelo://app?vid=01b45927-ee3c-440c-975d-aeef504de959","ios":"levelo://app?vid=01b45927-ee3c-440c-975d-aeef504de959"},"vehicle_type_id":"4","last_reported":1781550843,"current_range_meters":5600,"station_id":"ce4bhnh2rcd13ifvqgug","pricing_plan_id":"cebpf4jnsgd1na2vs0mg"},{"bike_id":"67efd4a7-c572-451a-8083-ea5d5c0e3496","system_id":"levelo_inurba_marseille","lat":43.3028,"lon":5.37697,"is_reserved":false,"is_disabled":false,"rental_uris":{"android":"levelo://app?vid=67efd4a7-c572-451a-8083-ea5d5c0e3496","ios":"levelo://app?vid=67efd4a7-c572-451a-8083-ea5d5c0e3496"},"vehicle_type_id":"4","last_reported":1781550843,"current_range_meters":6000,"station_id":"ce4bguh2rcd13ifvqcj0","pricing_plan_id":"cebpf4jnsgd1na2vs0mg"},{"bike_id":"6225e59b-2173-4399-8526-6e53294205a7","system_id":"levelo_inurba_marseille","lat":43.29531,"lon":5.38538,"is_reserved":false,"is_disabled":false,"rental_uris":{"android":"levelo://app?vid=6225e59b-2173-4399-8526-6e53294205a7","ios":"levelo://app?vid=6225e59b-2173-4399-8526-6e53294205a7"},"vehicle_type_id":"4","last_reported":1781550843,"current_range_meters":6000,"station_id":"ce4bgih2rcd13ifvqba0","pricing_plan_id":"cebpf4jnsgd1na2vs0mg"},{"bike_id":"5b15569f-29ee-4137-9d5b-76fb77ec565f","system_id":"levelo_inurba_marseille","lat":43.27718,"lon":5.39628,"is_reserved":false,"is_disabled":false,"rental_uris":{"android":"levelo://app?vid=5b15569f-29ee-4137-9d5b-76fb77ec565f","ios":"levelo://app?vid=5b15569f-29ee-4137-9d5b-76fb77ec565f"},"vehicle_type_id":"4","last_reported":1781550843,"current_range_meters":6000,"station_id":"","pricing_plan_id":"cebpf4jnsgd1na2vs0mg"},{"bike_id":"86d3e13b-e744-40cf-914c-091c3931bc83","system_id":"levelo_inurba_marseille","lat":43.32355,"lon":5.36748,"is_reserved":false,"is_disabled":false,"rental_uris":{"android":"levelo://app?vid=86d3e13b-e744-40cf-914c-091c3931bc83","ios":"levelo://app?vid=86d3e13b-e744-40cf-914c-091c3931bc83"},"vehicle_type_id":"4","last_reported":1781550843,"current_range_meters":6000,"station_id":"ce4bhsh2rcd13ifvqi2g","pricing_plan_id":"cebpf4jnsgd1na2vs0mg"},{"bike_id":"d26b57ff-d875-4335-9808-23eb8ac8bbd5","system_id":"levelo_inurba_marseille","lat":43.2994,"lon":5.3854,"is_reserved":false,"is_disabled":false,"rental_uris":{"android":"levelo://app?vid=d26b57ff-d875-4335-9808-23eb8ac8bbd5","ios":"levelo://app?vid=d26b57ff-d875-4335-9808-23eb8ac8bbd5"},"vehicle_type_id":"4","last_reported":1781550843,"current_range_meters":6000,"station_id":"","pricing_plan_id":"cebpf4jnsgd1na2vs0mg"},{"bike_id":"667d37c1-3972-4595-80ce-f8cb999a93c1","system_id":"levelo_inurba_marseille","lat":43.29643,"lon":5.40127,"is_reserved":false,"is_disabled":false,"rental_uris":{"android":"levelo://app?vid=667d37c1-3972-4595-80ce-f8cb999a93c1","ios":"levelo://app?vid=667d37c1-3972-4595-80ce-f8cb999a93c1"},"vehicle_type_id":"4","last_reported":1781550843,"current_range_meters":6000,"station_id":"","pricing_plan_id":"cebpf4jnsgd1na2vs0mg"},{"bike_id":"fc4dda04-7313-4525-af8e-84d6fdabe8ab","system_id":"levelo_inurba_marseille","lat":43.24465,"lon":5.4254,"is_reserved":false,"is_disabled":true,"rental_uris":{"android":"levelo://app?vid=fc4dda04-7313-4525-af8e-84d6fdabe8ab","ios":"levelo://app?vid=fc4dda04-7313-4525-af8e-84d6fdabe8ab"},"vehicle_type_id":"4","last_reported":1781550843,"current_range_meters":6000,"station_id":"st_d4a3vfp97mjs738cd8kg","pricing_plan_id":"cebpf4jnsgd1na2vs0mg"},{"bike_id":"57e0cdb7-800e-4839-a4dd-8be41a76a04e","system_id":"levelo_inurba_marseille","lat":43.2174,"lon":5.346,"is_reserved":false,"is_disabled":true,"rental_uris":{"android":"levelo://app?vid=57e0cdb7-800e-4839-a4dd-8be41a76a04e","ios":"levelo://app?vid=57e0cdb7-800e-4839-a4dd-8be41a76a04e"},"vehicle_type_id":"4","last_reported":1781550843,"current_range_meters":6000,"station_id":"st_cvj6r9ubvosntc0bgbag","pricing_plan_id":"cebpf4jnsgd1na2vs0mg"},{"bike_id":"df5530a7-21fa-4b46-8240-706d85d915cf","system_id":"levelo_inurba_marseille","lat":43.29229,"lon":5.38199,"is_reserved":false,"is_disabled":false,"rental_uris":{"android":"levelo://app?vid=df5530a7-21fa-4b46-8240-706d85d915cf","ios":"levelo://app?vid=df5530a7-21fa-4b46-8240-706d85d915cf"},"vehicle_type_id":"4","last_reported":1781550843,"current_range_meters":6000,"station_id":"","pricing_plan_id":"cebpf4jnsgd1na2vs0mg"},{"bike_id":"08cd673e-c1eb-4686-a213-901aa7f159a4","system_id":"levelo_inurba_marseille","lat":43.26193,"lon":5.37466,"is_reserved":false,"is_disabled":false,"rental_uris":{"android":"levelo://app?vid=08cd673e-c1eb-4686-a213-901aa7f159a4","ios":"levelo://app?vid=08cd673e-c1eb-4686-a213-901aa7f159a4"},"vehicle_type_id":"4","last_reported":1781550843,"current_range_meters":6000,"station_id":"ce4bhgp2rcd13ifvqfc0","pricing_plan_id":"cebpf4jnsgd1na2vs0mg"},{"bike_id":"18dd5a61-21c6-4084-b646-913ebd7479f2","system_id":"levelo_inurba_marseille","lat":43.29715,"lon":5.36612,"is_reserved":false,"is_disabled":true,"rental_uris":{"android":"levelo://app?vid=18dd5a61-21c6-4084-b646-913ebd7479f2","ios":"levelo://app?vid=18dd5a61-21c6-4084-b646-913ebd7479f2"},"vehicle_type_id":"4","last_reported":1781550843,"current_range_meters":6000,"station_id":"ce4bgn12rcd13ifvqbt0","pricing_plan_id":"cebpf4jnsgd1na2vs0mg"},{"bike_id":"54f2d078-6439-4ce6-8725-248b8420e9cc","system_id":"levelo_inurba_marseille","lat":43.29381,"lon":5.37857,"is_reserved":false,"is_disabled":true,"rental_uris":{"android":"levelo://app?vid=54f2d078-6439-4ce6-8725-248b8420e9cc","ios":"levelo://app?vid=54f2d078-6439-4ce6-8725-248b8420e9cc"},"vehicle_type_id":"4","last_reported":1781550843,"current_range_meters":6000,"station_id":"ce4bgjh2rcd13ifvqbf0","pricing_plan_id":"cebpf4jnsgd1na2vs0mg"},{"bike_id":"a2d385f4-d23c-4418-9ef4-2bc3da1cdaee","system_id":"levelo_inurba_marseille","lat":43.28499,"lon":5.3855,"is_reserved":false,"is_disabled":false,"rental_uris":{"android":"levelo://app?vid=a2d385f4-d23c-4418-9ef4-2bc3da1cdaee","ios":"levelo://app?vid=a2d385f4-d23c-4418-9ef4-2bc3da1cdaee"},"vehicle_type_id":"4","last_reported":1781550843,"current_range_meters":6000,"station_id":"","pricing_plan_id":"cebpf4jnsgd1na2vs0mg"},{"bike_id":"2384406c-73f9-4040-9407-d6b11ac0d4cc","system_id":"levelo_inurba_marseille","lat":43.225344,"lon":5.348326,"is_reserved":false,"is_disabled":false,"rental_uris":{"android":"levelo://app?vid=2384406c-73f9-4040-9407-d6b11ac0d4cc","ios":"levelo://app?vid=2384406c-73f9-4040-9407-d6b11ac0d4cc"},"vehicle_type_id":"4","last_reported":1781550843,"current_range_meters":6000,"station_id":"st_cvj5dfep6f1abm77gieg","pricing_plan_id":"cebpf4jnsgd1na2vs0mg"},{"bike_id":"5a63f7d3-5d71-4ee7-9556-3a2928da16e7","system_id":"levelo_inurba_marseille","lat":43.28619,"lon":5.3988,"is_reserved":false,"is_disabled":true,"rental_uris":{"android":"levelo://app?vid=5a63f7d3-5d71-4ee7-9556-3a2928da16e7","ios":"levelo://app?vid=5a63f7d3-5d71-4ee7-9556-3a2928da16e7"},"vehicle_type_id":"4","last_reported":1781550843,"current_range_meters":6000,"station_id":"ce4bho92rcd13ifvqh3g","pricing_plan_id":"cebpf4jnsgd1na2vs0mg"},{"bike_id":"1ead2d7d-dfbd-4bed-a78b-5bcc66861a2e","system_id":"levelo_inurba_marseille","lat":43.29059,"lon":5.37156,"is_reserved":false,"is_disabled":false,"rental_uris":{"android":"levelo://app?vid=1ead2d7d-dfbd-4bed-a78b-5bcc66861a2e","ios":"levelo://app?vid=1ead2d7d-dfbd-4bed-a78b-5bcc66861a2e"},"vehicle_type_id":"4","last_reported":1781550843,"current_range_meters":6000,"station_id":"ce4bh5p2rcd13ifvqe4g","pricing_plan_id":"cebpf4jnsgd1na2vs0mg"},{"bike_id":"fdb5b8b6-5e5b-4247-a153-64f403e939b4","system_id":"levelo_inurba_marseille","lat":43.32198,"lon":5.44021,"is_reserved":false,"is_disabled":false,"rental_uris":{"android":"levelo://app?vid=fdb5b8b6-5e5b-4247-a153-64f403e939b4","ios":"levelo://app?vid=fdb5b8b6-5e5b-4247-a153-64f403e939b4"},"vehicle_type_id":"4","last_reported":1781550843,"current_range_meters":6000,"station_id":"","pricing_plan_id":"cebpf4jnsgd1na2vs0mg"},{"bike_id":"32a62c44-fac0-41e2-8f75-481da5c60c6a","system_id":"levelo_inurba_marseille","lat":43.29201,"lon":5.393212,"is_reserved":false,"is_disabled":false,"rental_uris":{"android":"levelo://app?vid=32a62c44-fac0-41e2-8f75-481da5c60c6a","ios":"levelo://app?vid=32a62c44-fac0-41e2-8f75-481da5c60c6a"},"vehicle_type_id":"4","last_reported":1781550843,"current_range_meters":6000,"station_id":"ce4bh192rcd13ifvqdd0","pricing_plan_id":"cebpf4jnsgd1na2vs0mg"},{"bike_id":"38082bc5-7809-41a1-80f7-7e8c604607e6","system_id":"levelo_inurba_marseille","lat":43.29371,"lon":5.37857,"is_reserved":false,"is_disabled":false,"rental_uris":{"android":"levelo://app?vid=38082bc5-7809-41a1-80f7-7e8c604607e6","ios":"levelo://app?vid=38082bc5-7809-41a1-80f7-7e8c604607e6"},"vehicle_type_id":"4","last_reported":1781550843,"current_range_meters":6000,"station_id":"ce4bgjh2rcd13ifvqbf0","pricing_plan_id":"cebpf4jnsgd1na2vs0mg"},{"bike_id":"5c35d71a-ca25-4c82-91d8-783744c6fbea","system_id":"levelo_inurba_marseille","lat":43.29259,"lon":5.38026,"is_reserved":false,"is_disabled":false,"rental_uris":{"android":"levelo://app?vid=5c35d71a-ca25-4c82-91d8-783744c6fbea","ios":"levelo://app?vid=5c35d71a-ca25-4c82-91d8-783744c6fbea"},"vehicle_type_id":"4","last_reported":1781550843,"current_range_meters":6000,"station_id":"","pricing_plan_id":"cebpf4jnsgd1na2vs0mg"},{"bike_id":"2a75b4c1-1355-42fd-8af8-d3faacd768b7","system_id":"levelo_inurba_marseille","lat":43.29506,"lon":5.39031,"is_reserved":false,"is_disabled":false,"rental_uris":{"android":"levelo://app?vid=2a75b4c1-1355-42fd-8af8-d3faacd768b7","ios":"levelo://app?vid=2a75b4c1-1355-42fd-8af8-d3faacd768b7"},"vehicle_type_id":"4","last_reported":1781550843,"current_range_meters":6000,"station_id":"ce4bh3p2rcd13ifvqdp0","pricing_plan_id":"cebpf4jnsgd1na2vs0mg"},{"bike_id":"8fe205ea-e0d9-45b9-9efa-d26fb8adf724","system_id":"levelo_inurba_marseille","lat":43.30129,"lon":5.39873,"is_reserved":false,"is_disabled":false,"rental_uris":{"android":"levelo://app?vid=8fe205ea-e0d9-45b9-9efa-d26fb8adf724","ios":"levelo://app?vid=8fe205ea-e0d9-45b9-9efa-d26fb8adf724"},"vehicle_type_id":"4","last_reported":1781550843,"current_range_meters":6000,"station_id":"ce4bh0h2rcd13ifvqd40","pricing_plan_id":"cebpf4jnsgd1na2vs0mg"},{"bike_id":"da25fc4e-fc53-4ce8-bb93-f6b8cdba7e72","system_id":"levelo_inurba_marseille","lat":43.30324,"lon":5.40427,"is_reserved":false,"is_disabled":false,"rental_uris":{"android":"levelo://app?vid=da25fc4e-fc53-4ce8-bb93-f6b8cdba7e72","ios":"levelo://app?vid=da25fc4e-fc53-4ce8-bb93-f6b8cdba7e72"},"vehicle_type_id":"4","last_reported":1781550843,"current_range_meters":6400,"station_id":"ce4bh012rcd13ifvqd10","pricing_plan_id":"cebpf4jnsgd1na2vs0mg"},{"bike_id":"5a46bc5f-00c5-447a-91e8-806beef338a5","system_id":"levelo_inurba_marseille","lat":43.33132,"lon":5.37906,"is_reserved":false,"is_disabled":false,"rental_uris":{"android":"levelo://app?vid=5a46bc5f-00c5-447a-91e8-806beef338a5","ios":"levelo://app?vid=5a46bc5f-00c5-447a-91e8-806beef338a5"},"vehicle_type_id":"4","last_reported":1781550843,"current_range_meters":6400,"station_id":"","pricing_plan_id":"cebpf4jnsgd1na2vs0mg"},{"bike_id":"ddde1337-9567-477d-9abd-7b5d8b0673f8","system_id":"levelo_inurba_marseille","lat":43.30792,"lon":5.38156,"is_reserved":false,"is_disabled":false,"rental_uris":{"android":"levelo://app?vid=ddde1337-9567-477d-9abd-7b5d8b0673f8","ios":"levelo://app?vid=ddde1337-9567-477d-9abd-7b5d8b0673f8"},"vehicle_type_id":"4","last_reported":1781550843,"current_range_meters":6400,"station_id":"ce4bgt12rcd13ifvqce0","pricing_plan_id":"cebpf4jnsgd1na2vs0mg"},{"bike_id":"b3721fa9-0aa2-4bed-b018-8c4f714bca9b","system_id":"levelo_inurba_marseille","lat":43.23197,"lon":5.35563,"is_reserved":false,"is_disabled":false,"rental_uris":{"android":"levelo://app?vid=b3721fa9-0aa2-4bed-b018-8c4f714bca9b","ios":"levelo://app?vid=b3721fa9-0aa2-4bed-b018-8c4f714bca9b"},"vehicle_type_id":"4","last_reported":1781550843,"current_range_meters":6400,"station_id":"ce4bhu92rcd13ifvqi70","pricing_plan_id":"cebpf4jnsgd1na2vs0mg"},{"bike_id":"ac066f64-8327-4d73-a61a-d9741b95b715","system_id":"levelo_inurba_marseille","lat":43.24669,"lon":5.38153,"is_reserved":false,"is_disabled":false,"rental_uris":{"android":"levelo://app?vid=ac066f64-8327-4d73-a61a-d9741b95b715","ios":"levelo://app?vid=ac066f64-8327-4d73-a61a-d9741b95b715"},"vehicle_type_id":"4","last_reported":1781550843,"current_range_meters":6400,"station_id":"ce4bhih2rcd13ifvqfr0","pricing_plan_id":"cebpf4jnsgd1na2vs0mg"},{"bike_id":"52ad14f9-2cd2-403b-956e-bb5713f6d5cd","system_id":"levelo_inurba_marseille","lat":43.27968,"lon":5.38721,"is_reserved":false,"is_disabled":true,"rental_uris":{"android":"levelo://app?vid=52ad14f9-2cd2-403b-956e-bb5713f6d5cd","ios":"levelo://app?vid=52ad14f9-2cd2-403b-956e-bb5713f6d5cd"},"vehicle_type_id":"4","last_reported":1781550843,"current_range_meters":6400,"station_id":"ce4bhg12rcd13ifvqf80","pricing_plan_id":"cebpf4jnsgd1na2vs0mg"},{"bike_id":"f78c900c-397f-446c-bf5a-14f01e6bbf8e","system_id":"levelo_inurba_marseille","lat":43.23187,"lon":5.35554,"is_reserved":false,"is_disabled":false,"rental_uris":{"android":"levelo://app?vid=f78c900c-397f-446c-bf5a-14f01e6bbf8e","ios":"levelo://app?vid=f78c900c-397f-446c-bf5a-14f01e6bbf8e"},"vehicle_type_id":"4","last_reported":1781550843,"current_range_meters":6400,"station_id":"ce4bhu92rcd13ifvqi70","pricing_plan_id":"cebpf4jnsgd1na2vs0mg"},{"bike_id":"13b4fe53-76d0-47eb-98ad-442f57727bde","system_id":"levelo_inurba_marseille","lat":43.29529,"lon":5.3855,"is_reserved":false,"is_disabled":false,"rental_uris":{"android":"levelo://app?vid=13b4fe53-76d0-47eb-98ad-442f57727bde","ios":"levelo://app?vid=13b4fe53-76d0-47eb-98ad-442f57727bde"},"vehicle_type_id":"4","last_reported":1781550843,"current_range_meters":6400,"station_id":"ce4bgih2rcd13ifvqba0","pricing_plan_id":"cebpf4jnsgd1na2vs0mg"},{"bike_id":"2e454989-510c-4d0d-9c6e-63b50339aee2","system_id":"levelo_inurba_marseille","lat":43.31719,"lon":5.37748,"is_reserved":false,"is_disabled":false,"rental_uris":{"android":"levelo://app?vid=2e454989-510c-4d0d-9c6e-63b50339aee2","ios":"levelo://app?vid=2e454989-510c-4d0d-9c6e-63b50339aee2"},"vehicle_type_id":"4","last_reported":1781550843,"current_range_meters":6400,"station_id":"ce4bgth2rcd13ifvqch0","pricing_plan_id":"cebpf4jnsgd1na2vs0mg"},{"bike_id":"223a3ce5-f549-4e85-a6cc-909446f1e745","system_id":"levelo_inurba_marseille","lat":43.2989,"lon":5.39733,"is_reserved":false,"is_disabled":false,"rental_uris":{"android":"levelo://app?vid=223a3ce5-f549-4e85-a6cc-909446f1e745","ios":"levelo://app?vid=223a3ce5-f549-4e85-a6cc-909446f1e745"},"vehicle_type_id":"4","last_reported":1781550843,"current_range_meters":6400,"station_id":"ce4bh0h2rcd13ifvqd50","pricing_plan_id":"cebpf4jnsgd1na2vs0mg"},{"bike_id":"264256c6-f907-4b20-8b1b-1ec6a19ebc37","system_id":"levelo_inurba_marseille","lat":43.2338,"lon":5.43584,"is_reserved":false,"is_disabled":false,"rental_uris":{"android":"levelo://app?vid=264256c6-f907-4b20-8b1b-1ec6a19ebc37","ios":"levelo://app?vid=264256c6-f907-4b20-8b1b-1ec6a19ebc37"},"vehicle_type_id":"4","last_reported":1781550843,"current_range_meters":6400,"station_id":"","pricing_plan_id":"cebpf4jnsgd1na2vs0mg"},{"bike_id":"d9b79bb6-96f5-4c1e-884f-f35383075c50","system_id":"levelo_inurba_marseille","lat":43.27623,"lon":5.36098,"is_reserved":false,"is_disabled":false,"rental_uris":{"android":"levelo://app?vid=d9b79bb6-96f5-4c1e-884f-f35383075c50","ios":"levelo://app?vid=d9b79bb6-96f5-4c1e-884f-f35383075c50"},"vehicle_type_id":"4","last_reported":1781550843,"current_range_meters":6400,"station_id":"ce4bgj92rcd13ifvqbe0","pricing_plan_id":"cebpf4jnsgd1na2vs0mg"},{"bike_id":"0ae515a4-152b-4613-bceb-744adefbb17b","system_id":"levelo_inurba_marseille","lat":43.28843,"lon":5.39309,"is_reserved":false,"is_disabled":true,"rental_uris":{"android":"levelo://app?vid=0ae515a4-152b-4613-bceb-744adefbb17b","ios":"levelo://app?vid=0ae515a4-152b-4613-bceb-744adefbb17b"},"vehicle_type_id":"4","last_reported":1781550843,"current_range_meters":6400,"station_id":"ce4bh2p2rcd13ifvqdi0","pricing_plan_id":"cebpf4jnsgd1na2vs0mg"},{"bike_id":"9bad4062-ef09-473a-b8b5-df859d18a7cb","system_id":"levelo_inurba_marseille","lat":43.3013,"lon":5.38779,"is_reserved":false,"is_disabled":false,"rental_uris":{"android":"levelo://app?vid=9bad4062-ef09-473a-b8b5-df859d18a7cb","ios":"levelo://app?vid=9bad4062-ef09-473a-b8b5-df859d18a7cb"},"vehicle_type_id":"4","last_reported":1781550843,"current_range_meters":6400,"station_id":"ce4bghh2rcd13ifvqb60","pricing_plan_id":"cebpf4jnsgd1na2vs0mg"},{"bike_id":"08c1038f-e698-4ff6-a3dd-a9cbeeb0d16f","system_id":"levelo_inurba_marseille","lat":43.26572,"lon":5.39008,"is_reserved":false,"is_disabled":false,"rental_uris":{"android":"levelo://app?vid=08c1038f-e698-4ff6-a3dd-a9cbeeb0d16f","ios":"levelo://app?vid=08c1038f-e698-4ff6-a3dd-a9cbeeb0d16f"},"vehicle_type_id":"4","last_reported":1781550843,"current_range_meters":6800,"station_id":"ce4bhe12rcd13ifvqf30","pricing_plan_id":"cebpf4jnsgd1na2vs0mg"},{"bike_id":"4239410f-b893-4d50-bfb4-3019b4224f36","system_id":"levelo_inurba_marseille","lat":43.24809,"lon":5.37451,"is_reserved":false,"is_disabled":false,"rental_uris":{"android":"levelo://app?vid=4239410f-b893-4d50-bfb4-3019b4224f36","ios":"levelo://app?vid=4239410f-b893-4d50-bfb4-3019b4224f36"},"vehicle_type_id":"4","last_reported":1781550843,"current_range_meters":6800,"station_id":"ce4bhgh2rcd13ifvqfb0","pricing_plan_id":"cebpf4jnsgd1na2vs0mg"},{"bike_id":"4469bc20-06c8-4eb7-bd1c-bed3289e0fcc","system_id":"levelo_inurba_marseille","lat":43.25398,"lon":5.42781,"is_reserved":false,"is_disabled":false,"rental_uris":{"android":"levelo://app?vid=4469bc20-06c8-4eb7-bd1c-bed3289e0fcc","ios":"levelo://app?vid=4469bc20-06c8-4eb7-bd1c-bed3289e0fcc"},"vehicle_type_id":"4","last_reported":1781550843,"current_range_meters":6800,"station_id":"","pricing_plan_id":"cebpf4jnsgd1na2vs0mg"},{"bike_id":"fffd48a5-ee48-4940-b365-edd09f9ad2bd","system_id":"levelo_inurba_marseille","lat":43.337533,"lon":5.374474,"is_reserved":false,"is_disabled":false,"rental_uris":{"android":"levelo://app?vid=fffd48a5-ee48-4940-b365-edd09f9ad2bd","ios":"levelo://app?vid=fffd48a5-ee48-4940-b365-edd09f9ad2bd"},"vehicle_type_id":"4","last_reported":1781550843,"current_range_meters":6800,"station_id":"","pricing_plan_id":"cebpf4jnsgd1na2vs0mg"},{"bike_id":"68120737-e53b-4fbf-9761-76a3a966a5b9","system_id":"levelo_inurba_marseille","lat":43.28411,"lon":5.37504,"is_reserved":false,"is_disabled":false,"rental_uris":{"android":"levelo://app?vid=68120737-e53b-4fbf-9761-76a3a966a5b9","ios":"levelo://app?vid=68120737-e53b-4fbf-9761-76a3a966a5b9"},"vehicle_type_id":"4","last_reported":1781550843,"current_range_meters":6800,"station_id":"ce4bh412rcd13ifvqds0","pricing_plan_id":"cebpf4jnsgd1na2vs0mg"},{"bike_id":"7fe290d5-9940-4b04-b205-5c0a09e79ab1","system_id":"levelo_inurba_marseille","lat":43.28487,"lon":5.38553,"is_reserved":false,"is_disabled":false,"rental_uris":{"android":"levelo://app?vid=7fe290d5-9940-4b04-b205-5c0a09e79ab1","ios":"levelo://app?vid=7fe290d5-9940-4b04-b205-5c0a09e79ab1"},"vehicle_type_id":"4","last_reported":1781550843,"current_range_meters":6800,"station_id":"ce4bh8p2rcd13ifvqeb0","pricing_plan_id":"cebpf4jnsgd1na2vs0mg"},{"bike_id":"c348c5c7-00b9-4bb5-ab51-2a5a4908764c","system_id":"levelo_inurba_marseille","lat":43.23941,"lon":5.36691,"is_reserved":false,"is_disabled":false,"rental_uris":{"android":"levelo://app?vid=c348c5c7-00b9-4bb5-ab51-2a5a4908764c","ios":"levelo://app?vid=c348c5c7-00b9-4bb5-ab51-2a5a4908764c"},"vehicle_type_id":"4","last_reported":1781550843,"current_range_meters":6800,"station_id":"","pricing_plan_id":"cebpf4jnsgd1na2vs0mg"},{"bike_id":"b0d3c448-bf22-4300-8fe2-0e701618f036","system_id":"levelo_inurba_marseille","lat":43.2737,"lon":5.36259,"is_reserved":false,"is_disabled":false,"rental_uris":{"android":"levelo://app?vid=b0d3c448-bf22-4300-8fe2-0e701618f036","ios":"levelo://app?vid=b0d3c448-bf22-4300-8fe2-0e701618f036"},"vehicle_type_id":"4","last_reported":1781550843,"current_range_meters":6800,"station_id":"ce4bhbh2rcd13ifvqeo0","pricing_plan_id":"cebpf4jnsgd1na2vs0mg"},{"bike_id":"514ad5a1-61ae-4009-b8a5-32c8e7c6f63e","system_id":"levelo_inurba_marseille","lat":43.28478,"lon":5.48391,"is_reserved":false,"is_disabled":false,"rental_uris":{"android":"levelo://app?vid=514ad5a1-61ae-4009-b8a5-32c8e7c6f63e","ios":"levelo://app?vid=514ad5a1-61ae-4009-b8a5-32c8e7c6f63e"},"vehicle_type_id":"4","last_reported":1781550843,"current_range_meters":6800,"station_id":"st_d3svhcjqgbts73a3dn0g","pricing_plan_id":"cebpf4jnsgd1na2vs0mg"},{"bike_id":"a8b1da20-8c09-45b1-86bd-2a0fcd1602bb","system_id":"levelo_inurba_marseille","lat":43.27989,"lon":5.41658,"is_reserved":false,"is_disabled":false,"rental_uris":{"android":"levelo://app?vid=a8b1da20-8c09-45b1-86bd-2a0fcd1602bb","ios":"levelo://app?vid=a8b1da20-8c09-45b1-86bd-2a0fcd1602bb"},"vehicle_type_id":"4","last_reported":1781550843,"current_range_meters":6800,"station_id":"ce4bho12rcd13ifvqh1g","pricing_plan_id":"cebpf4jnsgd1na2vs0mg"},{"bike_id":"03c1c7ad-ca54-4ddc-822b-fce926c89717","system_id":"levelo_inurba_marseille","lat":43.33096,"lon":5.43754,"is_reserved":false,"is_disabled":false,"rental_uris":{"android":"levelo://app?vid=03c1c7ad-ca54-4ddc-822b-fce926c89717","ios":"levelo://app?vid=03c1c7ad-ca54-4ddc-822b-fce926c89717"},"vehicle_type_id":"4","last_reported":1781550843,"current_range_meters":6800,"station_id":"","pricing_plan_id":"cebpf4jnsgd1na2vs0mg"},{"bike_id":"59eb5f6a-d750-47b1-b136-3f8193d39faf","system_id":"levelo_inurba_marseille","lat":43.30135,"lon":5.43121,"is_reserved":false,"is_disabled":false,"rental_uris":{"android":"levelo://app?vid=59eb5f6a-d750-47b1-b136-3f8193d39faf","ios":"levelo://app?vid=59eb5f6a-d750-47b1-b136-3f8193d39faf"},"vehicle_type_id":"4","last_reported":1781550843,"current_range_meters":6800,"station_id":"st_d3js3co5814s73ftftug","pricing_plan_id":"cebpf4jnsgd1na2vs0mg"},{"bike_id":"b915dcf7-afdc-44ac-8933-b1781538d337","system_id":"levelo_inurba_marseille","lat":43.30208,"lon":5.41776,"is_reserved":false,"is_disabled":false,"rental_uris":{"android":"levelo://app?vid=b915dcf7-afdc-44ac-8933-b1781538d337","ios":"levelo://app?vid=b915dcf7-afdc-44ac-8933-b1781538d337"},"vehicle_type_id":"4","last_reported":1781550843,"current_range_meters":6800,"station_id":"","pricing_plan_id":"cebpf4jnsgd1na2vs0mg"},{"bike_id":"d0c4ccc0-2850-4510-8522-3b7c3fc7b013","system_id":"levelo_inurba_marseille","lat":43.23055,"lon":5.35482,"is_reserved":false,"is_disabled":true,"rental_uris":{"android":"levelo://app?vid=d0c4ccc0-2850-4510-8522-3b7c3fc7b013","ios":"levelo://app?vid=d0c4ccc0-2850-4510-8522-3b7c3fc7b013"},"vehicle_type_id":"4","last_reported":1781550843,"current_range_meters":6800,"station_id":"cpo3342slgdg3j2ifvpg","pricing_plan_id":"cebpf4jnsgd1na2vs0mg"},{"bike_id":"317f59d6-759f-412e-ab00-d2f7e2c3881f","system_id":"levelo_inurba_marseille","lat":43.28034,"lon":5.35324,"is_reserved":false,"is_disabled":true,"rental_uris":{"android":"levelo://app?vid=317f59d6-759f-412e-ab00-d2f7e2c3881f","ios":"levelo://app?vid=317f59d6-759f-412e-ab00-d2f7e2c3881f"},"vehicle_type_id":"4","last_reported":1781550843,"current_range_meters":6800,"station_id":"","pricing_plan_id":"cebpf4jnsgd1na2vs0mg"},{"bike_id":"bcbb94d1-81d7-4f6a-8461-e666eb2d4934","system_id":"levelo_inurba_marseille","lat":43.29027,"lon":5.38641,"is_reserved":false,"is_disabled":false,"rental_uris":{"android":"levelo://app?vid=bcbb94d1-81d7-4f6a-8461-e666eb2d4934","ios":"levelo://app?vid=bcbb94d1-81d7-4f6a-8461-e666eb2d4934"},"vehicle_type_id":"4","last_reported":1781550843,"current_range_meters":6800,"station_id":"ce4bh4p2rcd13ifvqe0g","pricing_plan_id":"cebpf4jnsgd1na2vs0mg"},{"bike_id":"d34ae922-d7d3-4471-a834-c93efa1516d8","system_id":"levelo_inurba_marseille","lat":43.24471,"lon":5.43992,"is_reserved":false,"is_disabled":false,"rental_uris":{"android":"levelo://app?vid=d34ae922-d7d3-4471-a834-c93efa1516d8","ios":"levelo://app?vid=d34ae922-d7d3-4471-a834-c93efa1516d8"},"vehicle_type_id":"4","last_reported":1781550843,"current_range_meters":6800,"station_id":"","pricing_plan_id":"cebpf4jnsgd1na2vs0mg"},{"bike_id":"941b2836-70ee-4806-805c-3b24d0ea4cd0","system_id":"levelo_inurba_marseille","lat":43.291709,"lon":5.371795,"is_reserved":false,"is_disabled":false,"rental_uris":{"android":"levelo://app?vid=941b2836-70ee-4806-805c-3b24d0ea4cd0","ios":"levelo://app?vid=941b2836-70ee-4806-805c-3b24d0ea4cd0"},"vehicle_type_id":"4","last_reported":1781550843,"current_range_meters":6800,"station_id":"ce4bha92rcd13ifvqeh0","pricing_plan_id":"cebpf4jnsgd1na2vs0mg"},{"bike_id":"6accb6a8-fdf2-4b2c-ae33-7a7ff7593d6d","system_id":"levelo_inurba_marseille","lat":43.28699,"lon":5.46905,"is_reserved":false,"is_disabled":false,"rental_uris":{"android":"levelo://app?vid=6accb6a8-fdf2-4b2c-ae33-7a7ff7593d6d","ios":"levelo://app?vid=6accb6a8-fdf2-4b2c-ae33-7a7ff7593d6d"},"vehicle_type_id":"4","last_reported":1781550843,"current_range_meters":6800,"station_id":"","pricing_plan_id":"cebpf4jnsgd1na2vs0mg"},{"bike_id":"8d2b85d4-013b-4169-8c19-6392b742f75d","system_id":"levelo_inurba_marseille","lat":43.28997,"lon":5.42826,"is_reserved":false,"is_disabled":false,"rental_uris":{"android":"levelo://app?vid=8d2b85d4-013b-4169-8c19-6392b742f75d","ios":"levelo://app?vid=8d2b85d4-013b-4169-8c19-6392b742f75d"},"vehicle_type_id":"4","last_reported":1781550843,"current_range_meters":6800,"station_id":"","pricing_plan_id":"cebpf4jnsgd1na2vs0mg"},{"bike_id":"55c3bea9-af9e-44f5-a863-28fab08e9f63","system_id":"levelo_inurba_marseille","lat":43.28425,"lon":5.34981,"is_reserved":false,"is_disabled":false,"rental_uris":{"android":"levelo://app?vid=55c3bea9-af9e-44f5-a863-28fab08e9f63","ios":"levelo://app?vid=55c3bea9-af9e-44f5-a863-28fab08e9f63"},"vehicle_type_id":"4","last_reported":1781550843,"current_range_meters":6800,"station_id":"ce4bhbh2rcd13ifvqepg","pricing_plan_id":"cebpf4jnsgd1na2vs0mg"},{"bike_id":"a2bcd7d7-7693-4c84-8123-dd6729dbb89b","system_id":"levelo_inurba_marseille","lat":43.29488,"lon":5.43299,"is_reserved":false,"is_disabled":false,"rental_uris":{"android":"levelo://app?vid=a2bcd7d7-7693-4c84-8123-dd6729dbb89b","ios":"levelo://app?vid=a2bcd7d7-7693-4c84-8123-dd6729dbb89b"},"vehicle_type_id":"4","last_reported":1781550843,"current_range_meters":6800,"station_id":"st_d3j5ugp08ojc73fj9d10","pricing_plan_id":"cebpf4jnsgd1na2vs0mg"},{"bike_id":"7abce733-51e5-4857-85a3-3c384760651f","system_id":"levelo_inurba_marseille","lat":43.28387,"lon":5.46007,"is_reserved":false,"is_disabled":false,"rental_uris":{"android":"levelo://app?vid=7abce733-51e5-4857-85a3-3c384760651f","ios":"levelo://app?vid=7abce733-51e5-4857-85a3-3c384760651f"},"vehicle_type_id":"4","last_reported":1781550843,"current_range_meters":6800,"station_id":"","pricing_plan_id":"cebpf4jnsgd1na2vs0mg"},{"bike_id":"154c4fb7-4af1-426c-9374-3447bed736a3","system_id":"levelo_inurba_marseille","lat":43.29098,"lon":5.3814,"is_reserved":false,"is_disabled":false,"rental_uris":{"android":"levelo://app?vid=154c4fb7-4af1-426c-9374-3447bed736a3","ios":"levelo://app?vid=154c4fb7-4af1-426c-9374-3447bed736a3"},"vehicle_type_id":"4","last_reported":1781550843,"current_range_meters":6800,"station_id":"ce4bh512rcd13ifvqe2g","pricing_plan_id":"cebpf4jnsgd1na2vs0mg"},{"bike_id":"87b5fba3-8c43-4167-b739-b1bed7145e08","system_id":"levelo_inurba_marseille","lat":43.29265,"lon":5.37617,"is_reserved":false,"is_disabled":false,"rental_uris":{"android":"levelo://app?vid=87b5fba3-8c43-4167-b739-b1bed7145e08","ios":"levelo://app?vid=87b5fba3-8c43-4167-b739-b1bed7145e08"},"vehicle_type_id":"4","last_reported":1781550843,"current_range_meters":6800,"station_id":"ce4bgi12rcd13ifvqb80","pricing_plan_id":"cebpf4jnsgd1na2vs0mg"},{"bike_id":"587923b2-7007-4d95-914c-cbf06d424ef9","system_id":"levelo_inurba_marseille","lat":43.29065,"lon":5.37128,"is_reserved":false,"is_disabled":false,"rental_uris":{"android":"levelo://app?vid=587923b2-7007-4d95-914c-cbf06d424ef9","ios":"levelo://app?vid=587923b2-7007-4d95-914c-cbf06d424ef9"},"vehicle_type_id":"4","last_reported":1781550843,"current_range_meters":6800,"station_id":"ce4bh5p2rcd13ifvqe4g","pricing_plan_id":"cebpf4jnsgd1na2vs0mg"},{"bike_id":"91e1501e-e8b1-4669-b8db-896969b7b9a8","system_id":"levelo_inurba_marseille","lat":43.24469,"lon":5.42531,"is_reserved":false,"is_disabled":false,"rental_uris":{"android":"levelo://app?vid=91e1501e-e8b1-4669-b8db-896969b7b9a8","ios":"levelo://app?vid=91e1501e-e8b1-4669-b8db-896969b7b9a8"},"vehicle_type_id":"4","last_reported":1781550843,"current_range_meters":6800,"station_id":"st_d4a3vfp97mjs738cd8kg","pricing_plan_id":"cebpf4jnsgd1na2vs0mg"},{"bike_id":"7f5cf6e2-9a0e-47db-b44a-328b79f3ac7d","system_id":"levelo_inurba_marseille","lat":43.31198,"lon":5.36825,"is_reserved":false,"is_disabled":true,"rental_uris":{"android":"levelo://app?vid=7f5cf6e2-9a0e-47db-b44a-328b79f3ac7d","ios":"levelo://app?vid=7f5cf6e2-9a0e-47db-b44a-328b79f3ac7d"},"vehicle_type_id":"4","last_reported":1781550843,"current_range_meters":6800,"station_id":"ce4bgl92rcd13ifvqbq0","pricing_plan_id":"cebpf4jnsgd1na2vs0mg"},{"bike_id":"d0ca3541-2406-4469-9fb1-54ad9239d57a","system_id":"levelo_inurba_marseille","lat":43.29596,"lon":5.38106,"is_reserved":false,"is_disabled":true,"rental_uris":{"android":"levelo://app?vid=d0ca3541-2406-4469-9fb1-54ad9239d57a","ios":"levelo://app?vid=d0ca3541-2406-4469-9fb1-54ad9239d57a"},"vehicle_type_id":"4","last_reported":1781550843,"current_range_meters":6800,"station_id":"ce4bgl12rcd13ifvqbo0","pricing_plan_id":"cebpf4jnsgd1na2vs0mg"},{"bike_id":"581ed491-d1c5-40b7-83c6-b01d6e0b909d","system_id":"levelo_inurba_marseille","lat":43.22702,"lon":5.34784,"is_reserved":false,"is_disabled":false,"rental_uris":{"android":"levelo://app?vid=581ed491-d1c5-40b7-83c6-b01d6e0b909d","ios":"levelo://app?vid=581ed491-d1c5-40b7-83c6-b01d6e0b909d"},"vehicle_type_id":"4","last_reported":1781550843,"current_range_meters":6800,"station_id":"","pricing_plan_id":"cebpf4jnsgd1na2vs0mg"},{"bike_id":"2e387dff-fefe-4f0a-8707-69db60928bfa","system_id":"levelo_inurba_marseille","lat":43.29547,"lon":5.39418,"is_reserved":false,"is_disabled":false,"rental_uris":{"android":"levelo://app?vid=2e387dff-fefe-4f0a-8707-69db60928bfa","ios":"levelo://app?vid=2e387dff-fefe-4f0a-8707-69db60928bfa"},"vehicle_type_id":"4","last_reported":1781550843,"current_range_meters":7200,"station_id":"ce4bh292rcd13ifvqdf0","pricing_plan_id":"cebpf4jnsgd1na2vs0mg"},{"bike_id":"d95c489e-c400-401c-a53c-2650f37461f4","system_id":"levelo_inurba_marseille","lat":43.26487,"lon":5.39547,"is_reserved":false,"is_disabled":false,"rental_uris":{"android":"levelo://app?vid=d95c489e-c400-401c-a53c-2650f37461f4","ios":"levelo://app?vid=d95c489e-c400-401c-a53c-2650f37461f4"},"vehicle_type_id":"4","last_reported":1781550843,"current_range_meters":7200,"station_id":"ce4bhi12rcd13ifvqfq0","pricing_plan_id":"cebpf4jnsgd1na2vs0mg"},{"bike_id":"a8e8fb9c-4b6a-4d39-89bd-53c9c7bc0c72","system_id":"levelo_inurba_marseille","lat":43.29515,"lon":5.39015,"is_reserved":false,"is_disabled":false,"rental_uris":{"android":"levelo://app?vid=a8e8fb9c-4b6a-4d39-89bd-53c9c7bc0c72","ios":"levelo://app?vid=a8e8fb9c-4b6a-4d39-89bd-53c9c7bc0c72"},"vehicle_type_id":"4","last_reported":1781550843,"current_range_meters":7200,"station_id":"ce4bh3p2rcd13ifvqdp0","pricing_plan_id":"cebpf4jnsgd1na2vs0mg"},{"bike_id":"aee75bf6-71a6-43d1-91b2-09056927aa11","system_id":"levelo_inurba_marseille","lat":43.27397,"lon":5.36237,"is_reserved":false,"is_disabled":false,"rental_uris":{"android":"levelo://app?vid=aee75bf6-71a6-43d1-91b2-09056927aa11","ios":"levelo://app?vid=aee75bf6-71a6-43d1-91b2-09056927aa11"},"vehicle_type_id":"4","last_reported":1781550843,"current_range_meters":7200,"station_id":"ce4bhbh2rcd13ifvqeo0","pricing_plan_id":"cebpf4jnsgd1na2vs0mg"},{"bike_id":"049c55d9-6e0c-44de-b4bd-8d75c4cbee67","system_id":"levelo_inurba_marseille","lat":43.28612,"lon":5.37055,"is_reserved":false,"is_disabled":false,"rental_uris":{"android":"levelo://app?vid=049c55d9-6e0c-44de-b4bd-8d75c4cbee67","ios":"levelo://app?vid=049c55d9-6e0c-44de-b4bd-8d75c4cbee67"},"vehicle_type_id":"4","last_reported":1781550843,"current_range_meters":7200,"station_id":"ce4bht12rcd13ifvqi60","pricing_plan_id":"cebpf4jnsgd1na2vs0mg"},{"bike_id":"dd23a176-ce91-429a-824b-b471d0079845","system_id":"levelo_inurba_marseille","lat":43.29527,"lon":5.37501,"is_reserved":false,"is_disabled":false,"rental_uris":{"android":"levelo://app?vid=dd23a176-ce91-429a-824b-b471d0079845","ios":"levelo://app?vid=dd23a176-ce91-429a-824b-b471d0079845"},"vehicle_type_id":"4","last_reported":1781550843,"current_range_meters":7200,"station_id":"ce4bgkp2rcd13ifvqbmg","pricing_plan_id":"cebpf4jnsgd1na2vs0mg"},{"bike_id":"f66181f8-75e3-4b11-97af-c94918a9b217","system_id":"levelo_inurba_marseille","lat":43.28112,"lon":5.37834,"is_reserved":false,"is_disabled":false,"rental_uris":{"android":"levelo://app?vid=f66181f8-75e3-4b11-97af-c94918a9b217","ios":"levelo://app?vid=f66181f8-75e3-4b11-97af-c94918a9b217"},"vehicle_type_id":"4","last_reported":1781550843,"current_range_meters":7200,"station_id":"ce4bha12rcd13ifvqee0","pricing_plan_id":"cebpf4jnsgd1na2vs0mg"},{"bike_id":"c4291419-3c6e-43b5-aad7-4b8b119e37dc","system_id":"levelo_inurba_marseille","lat":43.28093,"lon":5.37821,"is_reserved":false,"is_disabled":false,"rental_uris":{"android":"levelo://app?vid=c4291419-3c6e-43b5-aad7-4b8b119e37dc","ios":"levelo://app?vid=c4291419-3c6e-43b5-aad7-4b8b119e37dc"},"vehicle_type_id":"4","last_reported":1781550843,"current_range_meters":7200,"station_id":"ce4bha12rcd13ifvqee0","pricing_plan_id":"cebpf4jnsgd1na2vs0mg"},{"bike_id":"eccd1f27-52db-47b0-a383-ef7f274a50ce","system_id":"levelo_inurba_marseille","lat":43.2718,"lon":5.39209,"is_reserved":false,"is_disabled":true,"rental_uris":{"android":"levelo://app?vid=eccd1f27-52db-47b0-a383-ef7f274a50ce","ios":"levelo://app?vid=eccd1f27-52db-47b0-a383-ef7f274a50ce"},"vehicle_type_id":"4","last_reported":1781550843,"current_range_meters":7200,"station_id":"ce4bhhp2rcd13ifvqfm0","pricing_plan_id":"cebpf4jnsgd1na2vs0mg"},{"bike_id":"9b01f73c-21da-4ef4-8ec9-9599640630d0","system_id":"levelo_inurba_marseille","lat":43.26224,"lon":5.38764,"is_reserved":false,"is_disabled":false,"rental_uris":{"android":"levelo://app?vid=9b01f73c-21da-4ef4-8ec9-9599640630d0","ios":"levelo://app?vid=9b01f73c-21da-4ef4-8ec9-9599640630d0"},"vehicle_type_id":"4","last_reported":1781550843,"current_range_meters":7200,"station_id":"st_d8gjfg747rts73coq3b0","pricing_plan_id":"cebpf4jnsgd1na2vs0mg"},{"bike_id":"1d68dcb9-80ac-4872-a700-9c872564ad32","system_id":"levelo_inurba_marseille","lat":43.3136,"lon":5.38476,"is_reserved":false,"is_disabled":false,"rental_uris":{"android":"levelo://app?vid=1d68dcb9-80ac-4872-a700-9c872564ad32","ios":"levelo://app?vid=1d68dcb9-80ac-4872-a700-9c872564ad32"},"vehicle_type_id":"4","last_reported":1781550843,"current_range_meters":7200,"station_id":"ce4bgt92rcd13ifvqcf0","pricing_plan_id":"cebpf4jnsgd1na2vs0mg"},{"bike_id":"4dbbaebf-3e89-43c9-90c8-426e0e06f02e","system_id":"levelo_inurba_marseille","lat":43.25081,"lon":5.39506,"is_reserved":false,"is_disabled":false,"rental_uris":{"android":"levelo://app?vid=4dbbaebf-3e89-43c9-90c8-426e0e06f02e","ios":"levelo://app?vid=4dbbaebf-3e89-43c9-90c8-426e0e06f02e"},"vehicle_type_id":"4","last_reported":1781550843,"current_range_meters":7200,"station_id":"ce4bhm12rcd13ifvqgkg","pricing_plan_id":"cebpf4jnsgd1na2vs0mg"},{"bike_id":"425fd772-cd58-4358-9f8d-671e7767099f","system_id":"levelo_inurba_marseille","lat":43.28817,"lon":5.35249,"is_reserved":false,"is_disabled":false,"rental_uris":{"android":"levelo://app?vid=425fd772-cd58-4358-9f8d-671e7767099f","ios":"levelo://app?vid=425fd772-cd58-4358-9f8d-671e7767099f"},"vehicle_type_id":"4","last_reported":1781550843,"current_range_meters":7200,"station_id":"","pricing_plan_id":"cebpf4jnsgd1na2vs0mg"},{"bike_id":"5673cc33-ef56-4446-9a25-7697c6486684","system_id":"levelo_inurba_marseille","lat":43.25515,"lon":5.37632,"is_reserved":false,"is_disabled":false,"rental_uris":{"android":"levelo://app?vid=5673cc33-ef56-4446-9a25-7697c6486684","ios":"levelo://app?vid=5673cc33-ef56-4446-9a25-7697c6486684"},"vehicle_type_id":"4","last_reported":1781550843,"current_range_meters":7200,"station_id":"ce4bhh12rcd13ifvqff0","pricing_plan_id":"cebpf4jnsgd1na2vs0mg"},{"bike_id":"889fedd5-d832-4837-945e-185bc17008ce","system_id":"levelo_inurba_marseille","lat":43.304339,"lon":5.397469,"is_reserved":false,"is_disabled":false,"rental_uris":{"android":"levelo://app?vid=889fedd5-d832-4837-945e-185bc17008ce","ios":"levelo://app?vid=889fedd5-d832-4837-945e-185bc17008ce"},"vehicle_type_id":"4","last_reported":1781550843,"current_range_meters":7200,"station_id":"ce4bh092rcd13ifvqd20","pricing_plan_id":"cebpf4jnsgd1na2vs0mg"},{"bike_id":"2bfdb5e6-738c-4163-aea0-66a012500424","system_id":"levelo_inurba_marseille","lat":43.25874,"lon":5.39885,"is_reserved":false,"is_disabled":false,"rental_uris":{"android":"levelo://app?vid=2bfdb5e6-738c-4163-aea0-66a012500424","ios":"levelo://app?vid=2bfdb5e6-738c-4163-aea0-66a012500424"},"vehicle_type_id":"4","last_reported":1781550843,"current_range_meters":7200,"station_id":"ce4bhl92rcd13ifvqghg","pricing_plan_id":"cebpf4jnsgd1na2vs0mg"},{"bike_id":"a10ac536-0911-4259-a26c-5f3cb6d4d462","system_id":"levelo_inurba_marseille","lat":43.27393,"lon":5.36225,"is_reserved":false,"is_disabled":false,"rental_uris":{"android":"levelo://app?vid=a10ac536-0911-4259-a26c-5f3cb6d4d462","ios":"levelo://app?vid=a10ac536-0911-4259-a26c-5f3cb6d4d462"},"vehicle_type_id":"4","last_reported":1781550843,"current_range_meters":7200,"station_id":"ce4bhbh2rcd13ifvqeo0","pricing_plan_id":"cebpf4jnsgd1na2vs0mg"},{"bike_id":"f8df55f8-4db2-404d-b864-f4552faa75ed","system_id":"levelo_inurba_marseille","lat":43.26503,"lon":5.40718,"is_reserved":false,"is_disabled":false,"rental_uris":{"android":"levelo://app?vid=f8df55f8-4db2-404d-b864-f4552faa75ed","ios":"levelo://app?vid=f8df55f8-4db2-404d-b864-f4552faa75ed"},"vehicle_type_id":"4","last_reported":1781550843,"current_range_meters":7200,"station_id":"","pricing_plan_id":"cebpf4jnsgd1na2vs0mg"},{"bike_id":"8ef7ead6-704f-42ea-9f47-94a7bfde697f","system_id":"levelo_inurba_marseille","lat":43.30188,"lon":5.39827,"is_reserved":false,"is_disabled":false,"rental_uris":{"android":"levelo://app?vid=8ef7ead6-704f-42ea-9f47-94a7bfde697f","ios":"levelo://app?vid=8ef7ead6-704f-42ea-9f47-94a7bfde697f"},"vehicle_type_id":"4","last_reported":1781550843,"current_range_meters":7200,"station_id":"","pricing_plan_id":"cebpf4jnsgd1na2vs0mg"},{"bike_id":"d6c18096-06f4-414d-a613-c52edc68c5b8","system_id":"levelo_inurba_marseille","lat":43.29585,"lon":5.37495,"is_reserved":false,"is_disabled":false,"rental_uris":{"android":"levelo://app?vid=d6c18096-06f4-414d-a613-c52edc68c5b8","ios":"levelo://app?vid=d6c18096-06f4-414d-a613-c52edc68c5b8"},"vehicle_type_id":"4","last_reported":1781550843,"current_range_meters":7200,"station_id":"ce4bgh92rcd13ifvqb50","pricing_plan_id":"cebpf4jnsgd1na2vs0mg"},{"bike_id":"07129178-a5ef-4a64-9ce7-16768644bd37","system_id":"levelo_inurba_marseille","lat":43.24392,"lon":5.37023,"is_reserved":false,"is_disabled":false,"rental_uris":{"android":"levelo://app?vid=07129178-a5ef-4a64-9ce7-16768644bd37","ios":"levelo://app?vid=07129178-a5ef-4a64-9ce7-16768644bd37"},"vehicle_type_id":"4","last_reported":1781550843,"current_range_meters":7200,"station_id":"ce4bhhh2rcd13ifvqfk0","pricing_plan_id":"cebpf4jnsgd1na2vs0mg"},{"bike_id":"b9ffec59-db46-4a84-b2b2-d0f3d7cc4311","system_id":"levelo_inurba_marseille","lat":43.28711,"lon":5.39971,"is_reserved":false,"is_disabled":false,"rental_uris":{"android":"levelo://app?vid=b9ffec59-db46-4a84-b2b2-d0f3d7cc4311","ios":"levelo://app?vid=b9ffec59-db46-4a84-b2b2-d0f3d7cc4311"},"vehicle_type_id":"4","last_reported":1781550843,"current_range_meters":7200,"station_id":"ce4bho92rcd13ifvqh3g","pricing_plan_id":"cebpf4jnsgd1na2vs0mg"},{"bike_id":"63bc1fb1-b7f9-4b2d-8c90-39b05e53e9ac","system_id":"levelo_inurba_marseille","lat":43.25819,"lon":5.39414,"is_reserved":false,"is_disabled":false,"rental_uris":{"android":"levelo://app?vid=63bc1fb1-b7f9-4b2d-8c90-39b05e53e9ac","ios":"levelo://app?vid=63bc1fb1-b7f9-4b2d-8c90-39b05e53e9ac"},"vehicle_type_id":"4","last_reported":1781550843,"current_range_meters":7200,"station_id":"ce4bhip2rcd13ifvqft0","pricing_plan_id":"cebpf4jnsgd1na2vs0mg"},{"bike_id":"c56a031f-85c4-401b-9e02-cd83c3e055fb","system_id":"levelo_inurba_marseille","lat":43.23058,"lon":5.35462,"is_reserved":false,"is_disabled":false,"rental_uris":{"android":"levelo://app?vid=c56a031f-85c4-401b-9e02-cd83c3e055fb","ios":"levelo://app?vid=c56a031f-85c4-401b-9e02-cd83c3e055fb"},"vehicle_type_id":"4","last_reported":1781550843,"current_range_meters":7200,"station_id":"cpo3342slgdg3j2ifvpg","pricing_plan_id":"cebpf4jnsgd1na2vs0mg"},{"bike_id":"4966c351-7735-4136-972b-305d3767d7d7","system_id":"levelo_inurba_marseille","lat":43.29537,"lon":5.38543,"is_reserved":false,"is_disabled":false,"rental_uris":{"android":"levelo://app?vid=4966c351-7735-4136-972b-305d3767d7d7","ios":"levelo://app?vid=4966c351-7735-4136-972b-305d3767d7d7"},"vehicle_type_id":"4","last_reported":1781550843,"current_range_meters":7200,"station_id":"ce4bgih2rcd13ifvqba0","pricing_plan_id":"cebpf4jnsgd1na2vs0mg"},{"bike_id":"c26438ac-2ef4-4370-8452-6da7292e16f8","system_id":"levelo_inurba_marseille","lat":43.24957,"lon":5.40502,"is_reserved":false,"is_disabled":false,"rental_uris":{"android":"levelo://app?vid=c26438ac-2ef4-4370-8452-6da7292e16f8","ios":"levelo://app?vid=c26438ac-2ef4-4370-8452-6da7292e16f8"},"vehicle_type_id":"4","last_reported":1781550843,"current_range_meters":7200,"station_id":"st_d2ngiaodas8pm72gd1h0","pricing_plan_id":"cebpf4jnsgd1na2vs0mg"},{"bike_id":"110554fd-d52e-4d6b-9b57-7d395db7f6d9","system_id":"levelo_inurba_marseille","lat":43.22554,"lon":5.41622,"is_reserved":false,"is_disabled":false,"rental_uris":{"android":"levelo://app?vid=110554fd-d52e-4d6b-9b57-7d395db7f6d9","ios":"levelo://app?vid=110554fd-d52e-4d6b-9b57-7d395db7f6d9"},"vehicle_type_id":"4","last_reported":1781550843,"current_range_meters":8000,"station_id":"st_d2o4gvlbi1j2169b742g","pricing_plan_id":"cebpf4jnsgd1na2vs0mg"},{"bike_id":"49949243-0b77-4a9b-a244-b64c01cfe212","system_id":"levelo_inurba_marseille","lat":43.27616,"lon":5.3611,"is_reserved":false,"is_disabled":false,"rental_uris":{"android":"levelo://app?vid=49949243-0b77-4a9b-a244-b64c01cfe212","ios":"levelo://app?vid=49949243-0b77-4a9b-a244-b64c01cfe212"},"vehicle_type_id":"4","last_reported":1781550843,"current_range_meters":8000,"station_id":"ce4bgj92rcd13ifvqbe0","pricing_plan_id":"cebpf4jnsgd1na2vs0mg"},{"bike_id":"3efa5af3-e60a-4d85-b853-1bb517733053","system_id":"levelo_inurba_marseille","lat":43.297831,"lon":5.371209,"is_reserved":false,"is_disabled":false,"rental_uris":{"android":"levelo://app?vid=3efa5af3-e60a-4d85-b853-1bb517733053","ios":"levelo://app?vid=3efa5af3-e60a-4d85-b853-1bb517733053"},"vehicle_type_id":"4","last_reported":1781550843,"current_range_meters":8000,"station_id":"ce4bgop2rcd13ifvqc1g","pricing_plan_id":"cebpf4jnsgd1na2vs0mg"},{"bike_id":"dd8b163b-5579-41e9-9872-dbd053ccb45c","system_id":"levelo_inurba_marseille","lat":43.27495,"lon":5.4246,"is_reserved":false,"is_disabled":false,"rental_uris":{"android":"levelo://app?vid=dd8b163b-5579-41e9-9872-dbd053ccb45c","ios":"levelo://app?vid=dd8b163b-5579-41e9-9872-dbd053ccb45c"},"vehicle_type_id":"4","last_reported":1781550843,"current_range_meters":8000,"station_id":"ce4bhn92rcd13ifvqgrg","pricing_plan_id":"cebpf4jnsgd1na2vs0mg"},{"bike_id":"27cd54cb-40ab-41d3-bf86-67c6c0385086","system_id":"levelo_inurba_marseille","lat":43.28612,"lon":5.37053,"is_reserved":false,"is_disabled":false,"rental_uris":{"android":"levelo://app?vid=27cd54cb-40ab-41d3-bf86-67c6c0385086","ios":"levelo://app?vid=27cd54cb-40ab-41d3-bf86-67c6c0385086"},"vehicle_type_id":"4","last_reported":1781550843,"current_range_meters":8000,"station_id":"ce4bht12rcd13ifvqi60","pricing_plan_id":"cebpf4jnsgd1na2vs0mg"},{"bike_id":"ae4c351c-9c0d-4f23-89df-10839fd7ad8b","system_id":"levelo_inurba_marseille","lat":43.24389,"lon":5.37057,"is_reserved":false,"is_disabled":false,"rental_uris":{"android":"levelo://app?vid=ae4c351c-9c0d-4f23-89df-10839fd7ad8b","ios":"levelo://app?vid=ae4c351c-9c0d-4f23-89df-10839fd7ad8b"},"vehicle_type_id":"4","last_reported":1781550843,"current_range_meters":8000,"station_id":"ce4bhhh2rcd13ifvqfk0","pricing_plan_id":"cebpf4jnsgd1na2vs0mg"},{"bike_id":"7cb0c3fa-34a4-4af6-b055-18103afda2e8","system_id":"levelo_inurba_marseille","lat":43.24731,"lon":5.39479,"is_reserved":false,"is_disabled":false,"rental_uris":{"android":"levelo://app?vid=7cb0c3fa-34a4-4af6-b055-18103afda2e8","ios":"levelo://app?vid=7cb0c3fa-34a4-4af6-b055-18103afda2e8"},"vehicle_type_id":"4","last_reported":1781550843,"current_range_meters":8000,"station_id":"","pricing_plan_id":"cebpf4jnsgd1na2vs0mg"},{"bike_id":"0aeecc6e-2f2d-4254-833a-49b6e9ee10a4","system_id":"levelo_inurba_marseille","lat":43.2845,"lon":5.37184,"is_reserved":false,"is_disabled":true,"rental_uris":{"android":"levelo://app?vid=0aeecc6e-2f2d-4254-833a-49b6e9ee10a4","ios":"levelo://app?vid=0aeecc6e-2f2d-4254-833a-49b6e9ee10a4"},"vehicle_type_id":"4","last_reported":1781550843,"current_range_meters":8000,"station_id":"","pricing_plan_id":"cebpf4jnsgd1na2vs0mg"},{"bike_id":"ecbd56fd-d934-4008-ad36-c0df5a5b00b3","system_id":"levelo_inurba_marseille","lat":43.22557,"lon":5.41628,"is_reserved":false,"is_disabled":false,"rental_uris":{"android":"levelo://app?vid=ecbd56fd-d934-4008-ad36-c0df5a5b00b3","ios":"levelo://app?vid=ecbd56fd-d934-4008-ad36-c0df5a5b00b3"},"vehicle_type_id":"4","last_reported":1781550843,"current_range_meters":8000,"station_id":"st_d2o4gvlbi1j2169b742g","pricing_plan_id":"cebpf4jnsgd1na2vs0mg"},{"bike_id":"b60fc35f-5157-40f6-9a74-f3097bb2511c","system_id":"levelo_inurba_marseille","lat":43.28938,"lon":5.36383,"is_reserved":false,"is_disabled":true,"rental_uris":{"android":"levelo://app?vid=b60fc35f-5157-40f6-9a74-f3097bb2511c","ios":"levelo://app?vid=b60fc35f-5157-40f6-9a74-f3097bb2511c"},"vehicle_type_id":"4","last_reported":1781550843,"current_range_meters":8000,"station_id":"ce4bhc92rcd13ifvqetg","pricing_plan_id":"cebpf4jnsgd1na2vs0mg"},{"bike_id":"27efd5ea-6f5d-4cc5-8f81-e356e8a750c5","system_id":"levelo_inurba_marseille","lat":43.31989,"lon":5.38173,"is_reserved":false,"is_disabled":false,"rental_uris":{"android":"levelo://app?vid=27efd5ea-6f5d-4cc5-8f81-e356e8a750c5","ios":"levelo://app?vid=27efd5ea-6f5d-4cc5-8f81-e356e8a750c5"},"vehicle_type_id":"4","last_reported":1781550843,"current_range_meters":8000,"station_id":"ce4bhr12rcd13ifvqhpg","pricing_plan_id":"cebpf4jnsgd1na2vs0mg"},{"bike_id":"6c8cf44d-935a-4a8f-88e0-f709dfd927d0","system_id":"levelo_inurba_marseille","lat":43.29196,"lon":5.39318,"is_reserved":false,"is_disabled":true,"rental_uris":{"android":"levelo://app?vid=6c8cf44d-935a-4a8f-88e0-f709dfd927d0","ios":"levelo://app?vid=6c8cf44d-935a-4a8f-88e0-f709dfd927d0"},"vehicle_type_id":"4","last_reported":1781550843,"current_range_meters":8000,"station_id":"ce4bh192rcd13ifvqdd0","pricing_plan_id":"cebpf4jnsgd1na2vs0mg"},{"bike_id":"0c195c54-93c2-41c2-b970-fee608b9aaec","system_id":"levelo_inurba_marseille","lat":43.29564,"lon":5.37491,"is_reserved":false,"is_disabled":true,"rental_uris":{"android":"levelo://app?vid=0c195c54-93c2-41c2-b970-fee608b9aaec","ios":"levelo://app?vid=0c195c54-93c2-41c2-b970-fee608b9aaec"},"vehicle_type_id":"4","last_reported":1781550843,"current_range_meters":8000,"station_id":"ce4bgh92rcd13ifvqb50","pricing_plan_id":"cebpf4jnsgd1na2vs0mg"},{"bike_id":"bb743b8d-7673-4fd3-bbbd-202ed6ded04e","system_id":"levelo_inurba_marseille","lat":43.28135,"lon":5.38912,"is_reserved":false,"is_disabled":false,"rental_uris":{"android":"levelo://app?vid=bb743b8d-7673-4fd3-bbbd-202ed6ded04e","ios":"levelo://app?vid=bb743b8d-7673-4fd3-bbbd-202ed6ded04e"},"vehicle_type_id":"4","last_reported":1781550843,"current_range_meters":8000,"station_id":"","pricing_plan_id":"cebpf4jnsgd1na2vs0mg"},{"bike_id":"53442996-0dcd-44a0-9e9f-40b126812086","system_id":"levelo_inurba_marseille","lat":43.26395,"lon":5.4105,"is_reserved":false,"is_disabled":false,"rental_uris":{"android":"levelo://app?vid=53442996-0dcd-44a0-9e9f-40b126812086","ios":"levelo://app?vid=53442996-0dcd-44a0-9e9f-40b126812086"},"vehicle_type_id":"4","last_reported":1781550843,"current_range_meters":8000,"station_id":"st_d4e5ca6na9uc73bfl5fg","pricing_plan_id":"cebpf4jnsgd1na2vs0mg"},{"bike_id":"bd03edea-670b-4d39-97b4-deda15de52f7","system_id":"levelo_inurba_marseille","lat":43.28483,"lon":5.48407,"is_reserved":false,"is_disabled":false,"rental_uris":{"android":"levelo://app?vid=bd03edea-670b-4d39-97b4-deda15de52f7","ios":"levelo://app?vid=bd03edea-670b-4d39-97b4-deda15de52f7"},"vehicle_type_id":"4","last_reported":1781550843,"current_range_meters":8000,"station_id":"st_d3svhcjqgbts73a3dn0g","pricing_plan_id":"cebpf4jnsgd1na2vs0mg"},{"bike_id":"310ce947-3c40-456a-b56c-0041bafa5a73","system_id":"levelo_inurba_marseille","lat":43.297079,"lon":5.376977,"is_reserved":false,"is_disabled":true,"rental_uris":{"android":"levelo://app?vid=310ce947-3c40-456a-b56c-0041bafa5a73","ios":"levelo://app?vid=310ce947-3c40-456a-b56c-0041bafa5a73"},"vehicle_type_id":"4","last_reported":1781550843,"current_range_meters":8000,"station_id":"","pricing_plan_id":"cebpf4jnsgd1na2vs0mg"},{"bike_id":"8a911aab-0874-4b37-83bd-3da10c1d9db3","system_id":"levelo_inurba_marseille","lat":43.27056,"lon":5.38309,"is_reserved":false,"is_disabled":false,"rental_uris":{"android":"levelo://app?vid=8a911aab-0874-4b37-83bd-3da10c1d9db3","ios":"levelo://app?vid=8a911aab-0874-4b37-83bd-3da10c1d9db3"},"vehicle_type_id":"4","last_reported":1781550843,"current_range_meters":8000,"station_id":"st_d3n2fo6cfp8s73cte1j0","pricing_plan_id":"cebpf4jnsgd1na2vs0mg"},{"bike_id":"b8410065-a252-40fa-af7a-be9d4bd6ace4","system_id":"levelo_inurba_marseille","lat":43.31226,"lon":5.36867,"is_reserved":false,"is_disabled":true,"rental_uris":{"android":"levelo://app?vid=b8410065-a252-40fa-af7a-be9d4bd6ace4","ios":"levelo://app?vid=b8410065-a252-40fa-af7a-be9d4bd6ace4"},"vehicle_type_id":"4","last_reported":1781550843,"current_range_meters":8000,"station_id":"ce4bgl92rcd13ifvqbq0","pricing_plan_id":"cebpf4jnsgd1na2vs0mg"},{"bike_id":"da88a5d6-793e-45d5-a088-becc8fe30c27","system_id":"levelo_inurba_marseille","lat":43.30456,"lon":5.37896,"is_reserved":false,"is_disabled":true,"rental_uris":{"android":"levelo://app?vid=da88a5d6-793e-45d5-a088-becc8fe30c27","ios":"levelo://app?vid=da88a5d6-793e-45d5-a088-becc8fe30c27"},"vehicle_type_id":"4","last_reported":1781550843,"current_range_meters":8000,"station_id":"ce4bgup2rcd13ifvqcn0","pricing_plan_id":"cebpf4jnsgd1na2vs0mg"},{"bike_id":"d16797a9-fe2f-4ff7-b41c-f8edc916e4fa","system_id":"levelo_inurba_marseille","lat":43.28411,"lon":5.34939,"is_reserved":false,"is_disabled":false,"rental_uris":{"android":"levelo://app?vid=d16797a9-fe2f-4ff7-b41c-f8edc916e4fa","ios":"levelo://app?vid=d16797a9-fe2f-4ff7-b41c-f8edc916e4fa"},"vehicle_type_id":"4","last_reported":1781550843,"current_range_meters":8000,"station_id":"ce4bhbh2rcd13ifvqepg","pricing_plan_id":"cebpf4jnsgd1na2vs0mg"},{"bike_id":"4873709b-fab3-4914-bf90-19fef5a192f2","system_id":"levelo_inurba_marseille","lat":43.30337,"lon":5.40398,"is_reserved":false,"is_disabled":false,"rental_uris":{"android":"levelo://app?vid=4873709b-fab3-4914-bf90-19fef5a192f2","ios":"levelo://app?vid=4873709b-fab3-4914-bf90-19fef5a192f2"},"vehicle_type_id":"4","last_reported":1781550843,"current_range_meters":8000,"station_id":"ce4bh012rcd13ifvqd10","pricing_plan_id":"cebpf4jnsgd1na2vs0mg"},{"bike_id":"dcb6561b-78aa-45a7-9bf7-146e23e15e61","system_id":"levelo_inurba_marseille","lat":43.30026,"lon":5.40063,"is_reserved":false,"is_disabled":false,"rental_uris":{"android":"levelo://app?vid=dcb6561b-78aa-45a7-9bf7-146e23e15e61","ios":"levelo://app?vid=dcb6561b-78aa-45a7-9bf7-146e23e15e61"},"vehicle_type_id":"4","last_reported":1781550843,"current_range_meters":8000,"station_id":"","pricing_plan_id":"cebpf4jnsgd1na2vs0mg"},{"bike_id":"46c5a5f7-f299-41b3-a76e-689a8bf9de44","system_id":"levelo_inurba_marseille","lat":43.30936,"lon":5.40132,"is_reserved":false,"is_disabled":false,"rental_uris":{"android":"levelo://app?vid=46c5a5f7-f299-41b3-a76e-689a8bf9de44","ios":"levelo://app?vid=46c5a5f7-f299-41b3-a76e-689a8bf9de44"},"vehicle_type_id":"4","last_reported":1781550843,"current_range_meters":8000,"station_id":"ce4bgvp2rcd13ifvqct0","pricing_plan_id":"cebpf4jnsgd1na2vs0mg"},{"bike_id":"58d30c08-5b17-429e-b1be-ce3f65070e4b","system_id":"levelo_inurba_marseille","lat":43.279981,"lon":5.400106,"is_reserved":false,"is_disabled":false,"rental_uris":{"android":"levelo://app?vid=58d30c08-5b17-429e-b1be-ce3f65070e4b","ios":"levelo://app?vid=58d30c08-5b17-429e-b1be-ce3f65070e4b"},"vehicle_type_id":"4","last_reported":1781550843,"current_range_meters":8000,"station_id":"ce4bho92rcd13ifvqh4g","pricing_plan_id":"cebpf4jnsgd1na2vs0mg"},{"bike_id":"169cc997-30a5-455e-990a-0267fd700a7d","system_id":"levelo_inurba_marseille","lat":43.23162,"lon":5.40458,"is_reserved":false,"is_disabled":false,"rental_uris":{"android":"levelo://app?vid=169cc997-30a5-455e-990a-0267fd700a7d","ios":"levelo://app?vid=169cc997-30a5-455e-990a-0267fd700a7d"},"vehicle_type_id":"4","last_reported":1781550843,"current_range_meters":8000,"station_id":"","pricing_plan_id":"cebpf4jnsgd1na2vs0mg"},{"bike_id":"9040ae45-fc44-422b-9839-69a825cb7e67","system_id":"levelo_inurba_marseille","lat":43.29691,"lon":5.37752,"is_reserved":false,"is_disabled":false,"rental_uris":{"android":"levelo://app?vid=9040ae45-fc44-422b-9839-69a825cb7e67","ios":"levelo://app?vid=9040ae45-fc44-422b-9839-69a825cb7e67"},"vehicle_type_id":"4","last_reported":1781550843,"current_range_meters":8400,"station_id":"","pricing_plan_id":"cebpf4jnsgd1na2vs0mg"},{"bike_id":"8b598326-a664-42a6-90e1-fb46e9309d77","system_id":"levelo_inurba_marseille","lat":43.29226,"lon":5.36089,"is_reserved":false,"is_disabled":false,"rental_uris":{"android":"levelo://app?vid=8b598326-a664-42a6-90e1-fb46e9309d77","ios":"levelo://app?vid=8b598326-a664-42a6-90e1-fb46e9309d77"},"vehicle_type_id":"4","last_reported":1781550843,"current_range_meters":8400,"station_id":"ce4bhbh2rcd13ifvqeqg","pricing_plan_id":"cebpf4jnsgd1na2vs0mg"},{"bike_id":"ae47b893-7970-4918-bb67-ec1a0bddc3cd","system_id":"levelo_inurba_marseille","lat":43.22673,"lon":5.34795,"is_reserved":false,"is_disabled":false,"rental_uris":{"android":"levelo://app?vid=ae47b893-7970-4918-bb67-ec1a0bddc3cd","ios":"levelo://app?vid=ae47b893-7970-4918-bb67-ec1a0bddc3cd"},"vehicle_type_id":"4","last_reported":1781550843,"current_range_meters":8400,"station_id":"","pricing_plan_id":"cebpf4jnsgd1na2vs0mg"},{"bike_id":"51c71e8a-4ac6-49c5-ac6d-b78d14157d0b","system_id":"levelo_inurba_marseille","lat":43.282625,"lon":5.350596,"is_reserved":false,"is_disabled":false,"rental_uris":{"android":"levelo://app?vid=51c71e8a-4ac6-49c5-ac6d-b78d14157d0b","ios":"levelo://app?vid=51c71e8a-4ac6-49c5-ac6d-b78d14157d0b"},"vehicle_type_id":"4","last_reported":1781550843,"current_range_meters":8400,"station_id":"ce4bhbp2rcd13ifvqerg","pricing_plan_id":"cebpf4jnsgd1na2vs0mg"},{"bike_id":"08bdf124-a4df-42b7-939d-850df152549d","system_id":"levelo_inurba_marseille","lat":43.31515,"lon":5.40125,"is_reserved":false,"is_disabled":false,"rental_uris":{"android":"levelo://app?vid=08bdf124-a4df-42b7-939d-850df152549d","ios":"levelo://app?vid=08bdf124-a4df-42b7-939d-850df152549d"},"vehicle_type_id":"4","last_reported":1781550843,"current_range_meters":8400,"station_id":"","pricing_plan_id":"cebpf4jnsgd1na2vs0mg"},{"bike_id":"4200d919-84ce-4ede-bdba-9b4bc44d19fe","system_id":"levelo_inurba_marseille","lat":43.30464,"lon":5.37905,"is_reserved":false,"is_disabled":false,"rental_uris":{"android":"levelo://app?vid=4200d919-84ce-4ede-bdba-9b4bc44d19fe","ios":"levelo://app?vid=4200d919-84ce-4ede-bdba-9b4bc44d19fe"},"vehicle_type_id":"4","last_reported":1781550843,"current_range_meters":8400,"station_id":"ce4bgup2rcd13ifvqcn0","pricing_plan_id":"cebpf4jnsgd1na2vs0mg"},{"bike_id":"d1eca450-adbb-446f-937d-137a8ef08dcf","system_id":"levelo_inurba_marseille","lat":43.246333,"lon":5.43149,"is_reserved":false,"is_disabled":false,"rental_uris":{"android":"levelo://app?vid=d1eca450-adbb-446f-937d-137a8ef08dcf","ios":"levelo://app?vid=d1eca450-adbb-446f-937d-137a8ef08dcf"},"vehicle_type_id":"4","last_reported":1781550843,"current_range_meters":8400,"station_id":"st_d2m6c4gdas8pm72e190g","pricing_plan_id":"cebpf4jnsgd1na2vs0mg"},{"bike_id":"4316cb23-67c1-4a56-ba6f-de73454b9dd5","system_id":"levelo_inurba_marseille","lat":43.30801,"lon":5.38145,"is_reserved":false,"is_disabled":false,"rental_uris":{"android":"levelo://app?vid=4316cb23-67c1-4a56-ba6f-de73454b9dd5","ios":"levelo://app?vid=4316cb23-67c1-4a56-ba6f-de73454b9dd5"},"vehicle_type_id":"4","last_reported":1781550843,"current_range_meters":8400,"station_id":"ce4bgt12rcd13ifvqce0","pricing_plan_id":"cebpf4jnsgd1na2vs0mg"},{"bike_id":"cca94b05-029a-4769-9817-cc024fa2cfd9","system_id":"levelo_inurba_marseille","lat":43.23196,"lon":5.35617,"is_reserved":false,"is_disabled":false,"rental_uris":{"android":"levelo://app?vid=cca94b05-029a-4769-9817-cc024fa2cfd9","ios":"levelo://app?vid=cca94b05-029a-4769-9817-cc024fa2cfd9"},"vehicle_type_id":"4","last_reported":1781550843,"current_range_meters":8400,"station_id":"ce4bhu92rcd13ifvqi70","pricing_plan_id":"cebpf4jnsgd1na2vs0mg"},{"bike_id":"4e80dce1-0110-40c2-95a6-afb150d62431","system_id":"levelo_inurba_marseille","lat":43.28407,"lon":5.37506,"is_reserved":false,"is_disabled":false,"rental_uris":{"android":"levelo://app?vid=4e80dce1-0110-40c2-95a6-afb150d62431","ios":"levelo://app?vid=4e80dce1-0110-40c2-95a6-afb150d62431"},"vehicle_type_id":"4","last_reported":1781550843,"current_range_meters":8400,"station_id":"ce4bh412rcd13ifvqds0","pricing_plan_id":"cebpf4jnsgd1na2vs0mg"},{"bike_id":"4884a04c-e7a7-4a32-acf5-7e6093433058","system_id":"levelo_inurba_marseille","lat":43.26206,"lon":5.37457,"is_reserved":false,"is_disabled":true,"rental_uris":{"android":"levelo://app?vid=4884a04c-e7a7-4a32-acf5-7e6093433058","ios":"levelo://app?vid=4884a04c-e7a7-4a32-acf5-7e6093433058"},"vehicle_type_id":"4","last_reported":1781550843,"current_range_meters":8400,"station_id":"ce4bhgp2rcd13ifvqfc0","pricing_plan_id":"cebpf4jnsgd1na2vs0mg"},{"bike_id":"1e4f23de-0d88-44c0-8681-5d4b4a0cfe3d","system_id":"levelo_inurba_marseille","lat":43.26224,"lon":5.37452,"is_reserved":false,"is_disabled":false,"rental_uris":{"android":"levelo://app?vid=1e4f23de-0d88-44c0-8681-5d4b4a0cfe3d","ios":"levelo://app?vid=1e4f23de-0d88-44c0-8681-5d4b4a0cfe3d"},"vehicle_type_id":"4","last_reported":1781550843,"current_range_meters":8400,"station_id":"","pricing_plan_id":"cebpf4jnsgd1na2vs0mg"},{"bike_id":"47131da1-9972-4582-b17d-a80fce453854","system_id":"levelo_inurba_marseille","lat":43.28493,"lon":5.48387,"is_reserved":false,"is_disabled":false,"rental_uris":{"android":"levelo://app?vid=47131da1-9972-4582-b17d-a80fce453854","ios":"levelo://app?vid=47131da1-9972-4582-b17d-a80fce453854"},"vehicle_type_id":"4","last_reported":1781550843,"current_range_meters":8400,"station_id":"st_d3svhcjqgbts73a3dn0g","pricing_plan_id":"cebpf4jnsgd1na2vs0mg"},{"bike_id":"395041f3-9b09-45a7-9f88-4277312b25b5","system_id":"levelo_inurba_marseille","lat":43.29194,"lon":5.35725,"is_reserved":false,"is_disabled":false,"rental_uris":{"android":"levelo://app?vid=395041f3-9b09-45a7-9f88-4277312b25b5","ios":"levelo://app?vid=395041f3-9b09-45a7-9f88-4277312b25b5"},"vehicle_type_id":"4","last_reported":1781550843,"current_range_meters":8400,"station_id":"","pricing_plan_id":"cebpf4jnsgd1na2vs0mg"},{"bike_id":"229d85ab-6fac-468a-8508-05236003a077","system_id":"levelo_inurba_marseille","lat":43.295135,"lon":5.375033,"is_reserved":false,"is_disabled":false,"rental_uris":{"android":"levelo://app?vid=229d85ab-6fac-468a-8508-05236003a077","ios":"levelo://app?vid=229d85ab-6fac-468a-8508-05236003a077"},"vehicle_type_id":"4","last_reported":1781550843,"current_range_meters":8400,"station_id":"ce4bgkp2rcd13ifvqbmg","pricing_plan_id":"cebpf4jnsgd1na2vs0mg"},{"bike_id":"4e52468c-419e-4d6d-96fb-88f58d6e5cec","system_id":"levelo_inurba_marseille","lat":43.25086,"lon":5.39512,"is_reserved":false,"is_disabled":false,"rental_uris":{"android":"levelo://app?vid=4e52468c-419e-4d6d-96fb-88f58d6e5cec","ios":"levelo://app?vid=4e52468c-419e-4d6d-96fb-88f58d6e5cec"},"vehicle_type_id":"4","last_reported":1781550843,"current_range_meters":8400,"station_id":"ce4bhm12rcd13ifvqgkg","pricing_plan_id":"cebpf4jnsgd1na2vs0mg"},