{"last_updated":1747681668,"ttl":60,"version":"2.2","data":{"bikes":[{"bike_id":"c0b9fd4f-e181-46ce-b0bf-f5119973334f","system_id":"levelo_inurba_marseille","lat":43.33771,"lon":5.37424,"is_reserved":false,"is_disabled":true,"rental_uris":{"android":"levelo://app?vid=c0b9fd4f-e181-46ce-b0bf-f5119973334f","ios":"levelo://app?vid=c0b9fd4f-e181-46ce-b0bf-f5119973334f"},"vehicle_type_id":"4","last_reported":1747681668,"current_range_meters":0,"station_id":"","pricing_plan_id":"cebpf4jnsgd1na2vs0mg"},{"bike_id":"25b4f69a-1726-4c58-a89d-ca45327456b0","system_id":"levelo_inurba_marseille","lat":43.272761,"lon":5.362841,"is_reserved":false,"is_disabled":true,"rental_uris":{"android":"levelo://app?vid=25b4f69a-1726-4c58-a89d-ca45327456b0","ios":"levelo://app?vid=25b4f69a-1726-4c58-a89d-ca45327456b0"},"vehicle_type_id":"4","last_reported":1747681668,"current_range_meters":0,"station_id":"","pricing_plan_id":"cebpf4jnsgd1na2vs0mg"},{"bike_id":"fc2577e7-1497-425b-9d4f-ab8d7dc843c6","system_id":"levelo_inurba_marseille","lat":43.33771,"lon":5.37485,"is_reserved":false,"is_disabled":true,"rental_uris":{"android":"levelo://app?vid=fc2577e7-1497-425b-9d4f-ab8d7dc843c6","ios":"levelo://app?vid=fc2577e7-1497-425b-9d4f-ab8d7dc843c6"},"vehicle_type_id":"4","last_reported":1747681668,"current_range_meters":0,"station_id":"","pricing_plan_id":"cebpf4jnsgd1na2vs0mg"},{"bike_id":"54f092b8-cedd-4199-a79a-5d67b6a6e719","system_id":"levelo_inurba_marseille","lat":43.30918,"lon":5.37278,"is_reserved":false,"is_disabled":true,"rental_uris":{"android":"levelo://app?vid=54f092b8-cedd-4199-a79a-5d67b6a6e719","ios":"levelo://app?vid=54f092b8-cedd-4199-a79a-5d67b6a6e719"},"vehicle_type_id":"4","last_reported":1747681668,"current_range_meters":0,"station_id":"","pricing_plan_id":"cebpf4jnsgd1na2vs0mg"},{"bike_id":"522a6fa9-3b0f-41ae-92d4-659155b9e6e8","system_id":"levelo_inurba_marseille","lat":43.239272,"lon":5.36185,"is_reserved":false,"is_disabled":true,"rental_uris":{"android":"levelo://app?vid=522a6fa9-3b0f-41ae-92d4-659155b9e6e8","ios":"levelo://app?vid=522a6fa9-3b0f-41ae-92d4-659155b9e6e8"},"vehicle_type_id":"4","last_reported":1747681668,"current_range_meters":0,"station_id":"","pricing_plan_id":"cebpf4jnsgd1na2vs0mg"},{"bike_id":"8f3685e3-183d-4c98-9513-bfeeb8fbc041","system_id":"levelo_inurba_marseille","lat":43.27941,"lon":5.41222,"is_reserved":false,"is_disabled":true,"rental_uris":{"android":"levelo://app?vid=8f3685e3-183d-4c98-9513-bfeeb8fbc041","ios":"levelo://app?vid=8f3685e3-183d-4c98-9513-bfeeb8fbc041"},"vehicle_type_id":"4","last_reported":1747681668,"current_range_meters":0,"station_id":"","pricing_plan_id":"cebpf4jnsgd1na2vs0mg"},{"bike_id":"54255574-d73a-48d1-85ed-ee6fbfc41d57","system_id":"levelo_inurba_marseille","lat":43.26402,"lon":5.37276,"is_reserved":false,"is_disabled":true,"rental_uris":{"android":"levelo://app?vid=54255574-d73a-48d1-85ed-ee6fbfc41d57","ios":"levelo://app?vid=54255574-d73a-48d1-85ed-ee6fbfc41d57"},"vehicle_type_id":"4","last_reported":1747681668,"current_range_meters":0,"station_id":"","pricing_plan_id":"cebpf4jnsgd1na2vs0mg"},{"bike_id":"80b49949-2015-46f6-95ad-3d3616eb898e","system_id":"levelo_inurba_marseille","lat":43.33776,"lon":5.37439,"is_reserved":false,"is_disabled":true,"rental_uris":{"android":"levelo://app?vid=80b49949-2015-46f6-95ad-3d3616eb898e","ios":"levelo://app?vid=80b49949-2015-46f6-95ad-3d3616eb898e"},"vehicle_type_id":"4","last_reported":1747681668,"current_range_meters":0,"station_id":"","pricing_plan_id":"cebpf4jnsgd1na2vs0mg"},{"bike_id":"e9dd3aa4-b5e7-4480-926d-d7f537719bfa","system_id":"levelo_inurba_marseille","lat":43.23029,"lon":5.40202,"is_reserved":false,"is_disabled":true,"rental_uris":{"android":"levelo://app?vid=e9dd3aa4-b5e7-4480-926d-d7f537719bfa","ios":"levelo://app?vid=e9dd3aa4-b5e7-4480-926d-d7f537719bfa"},"vehicle_type_id":"4","last_reported":1747681668,"current_range_meters":0,"station_id":"","pricing_plan_id":"cebpf4jnsgd1na2vs0mg"},{"bike_id":"342007ab-9b19-423a-96ba-90ebfd2719c8","system_id":"levelo_inurba_marseille","lat":43.28202,"lon":5.39057,"is_reserved":false,"is_disabled":true,"rental_uris":{"android":"levelo://app?vid=342007ab-9b19-423a-96ba-90ebfd2719c8","ios":"levelo://app?vid=342007ab-9b19-423a-96ba-90ebfd2719c8"},"vehicle_type_id":"4","last_reported":1747681668,"current_range_meters":0,"station_id":"","pricing_plan_id":"cebpf4jnsgd1na2vs0mg"},{"bike_id":"346797f7-3c02-40ed-8669-8ff5e07b7c93","system_id":"levelo_inurba_marseille","lat":43.29189,"lon":5.39344,"is_reserved":false,"is_disabled":true,"rental_uris":{"android":"levelo://app?vid=346797f7-3c02-40ed-8669-8ff5e07b7c93","ios":"levelo://app?vid=346797f7-3c02-40ed-8669-8ff5e07b7c93"},"vehicle_type_id":"4","last_reported":1747681668,"current_range_meters":0,"station_id":"ce4bh192rcd13ifvqdd0","pricing_plan_id":"cebpf4jnsgd1na2vs0mg"},{"bike_id":"e0837187-854c-400e-88b5-a3905958ed02","system_id":"levelo_inurba_marseille","lat":43.29039,"lon":5.39958,"is_reserved":false,"is_disabled":true,"rental_uris":{"android":"levelo://app?vid=e0837187-854c-400e-88b5-a3905958ed02","ios":"levelo://app?vid=e0837187-854c-400e-88b5-a3905958ed02"},"vehicle_type_id":"4","last_reported":1747681668,"current_range_meters":0,"station_id":"ce4bh392rcd13ifvqdm0","pricing_plan_id":"cebpf4jnsgd1na2vs0mg"},{"bike_id":"cabc3ba3-d79c-44f0-b71f-3932a2db2e48","system_id":"levelo_inurba_marseille","lat":43.23156,"lon":5.43709,"is_reserved":false,"is_disabled":true,"rental_uris":{"android":"levelo://app?vid=cabc3ba3-d79c-44f0-b71f-3932a2db2e48","ios":"levelo://app?vid=cabc3ba3-d79c-44f0-b71f-3932a2db2e48"},"vehicle_type_id":"4","last_reported":1747681668,"current_range_meters":0,"station_id":"ce4bhmp2rcd13ifvqgog","pricing_plan_id":"cebpf4jnsgd1na2vs0mg"},{"bike_id":"cfa3ecf7-291a-4748-a6af-be0c6120ac5c","system_id":"levelo_inurba_marseille","lat":43.27811,"lon":5.40711,"is_reserved":false,"is_disabled":true,"rental_uris":{"android":"levelo://app?vid=cfa3ecf7-291a-4748-a6af-be0c6120ac5c","ios":"levelo://app?vid=cfa3ecf7-291a-4748-a6af-be0c6120ac5c"},"vehicle_type_id":"4","last_reported":1747681668,"current_range_meters":0,"station_id":"ce4bhnh2rcd13ifvqgtg","pricing_plan_id":"cebpf4jnsgd1na2vs0mg"},{"bike_id":"b94f5520-00f9-4b41-92b7-8bbfcfc6c2ca","system_id":"levelo_inurba_marseille","lat":43.28153,"lon":5.42638,"is_reserved":false,"is_disabled":true,"rental_uris":{"android":"levelo://app?vid=b94f5520-00f9-4b41-92b7-8bbfcfc6c2ca","ios":"levelo://app?vid=b94f5520-00f9-4b41-92b7-8bbfcfc6c2ca"},"vehicle_type_id":"4","last_reported":1747681668,"current_range_meters":0,"station_id":"ce4bhnh2rcd13ifvqgug","pricing_plan_id":"cebpf4jnsgd1na2vs0mg"},{"bike_id":"a4418bc9-de3a-44da-943d-744dd19271d3","system_id":"levelo_inurba_marseille","lat":43.28937,"lon":5.36387,"is_reserved":false,"is_disabled":true,"rental_uris":{"android":"levelo://app?vid=a4418bc9-de3a-44da-943d-744dd19271d3","ios":"levelo://app?vid=a4418bc9-de3a-44da-943d-744dd19271d3"},"vehicle_type_id":"4","last_reported":1747681668,"current_range_meters":400,"station_id":"ce4bhc92rcd13ifvqetg","pricing_plan_id":"cebpf4jnsgd1na2vs0mg"},{"bike_id":"b4cc126e-9040-4d3b-b566-08f060bd6e4d","system_id":"levelo_inurba_marseille","lat":43.25113,"lon":5.40323,"is_reserved":false,"is_disabled":false,"rental_uris":{"android":"levelo://app?vid=b4cc126e-9040-4d3b-b566-08f060bd6e4d","ios":"levelo://app?vid=b4cc126e-9040-4d3b-b566-08f060bd6e4d"},"vehicle_type_id":"4","last_reported":1747681668,"current_range_meters":400,"station_id":"ce4bhlh2rcd13ifvqgig","pricing_plan_id":"cebpf4jnsgd1na2vs0mg"},{"bike_id":"252dba7f-9bbd-48d2-a90d-e1c85b5e3d0c","system_id":"levelo_inurba_marseille","lat":43.26569,"lon":5.40333,"is_reserved":false,"is_disabled":true,"rental_uris":{"android":"levelo://app?vid=252dba7f-9bbd-48d2-a90d-e1c85b5e3d0c","ios":"levelo://app?vid=252dba7f-9bbd-48d2-a90d-e1c85b5e3d0c"},"vehicle_type_id":"4","last_reported":1747681668,"current_range_meters":800,"station_id":"","pricing_plan_id":"cebpf4jnsgd1na2vs0mg"},{"bike_id":"1a5a5635-4df7-4617-9d04-d1486a314d94","system_id":"levelo_inurba_marseille","lat":43.313554,"lon":5.384921,"is_reserved":false,"is_disabled":true,"rental_uris":{"android":"levelo://app?vid=1a5a5635-4df7-4617-9d04-d1486a314d94","ios":"levelo://app?vid=1a5a5635-4df7-4617-9d04-d1486a314d94"},"vehicle_type_id":"4","last_reported":1747681668,"current_range_meters":800,"station_id":"ce4bgt92rcd13ifvqcf0","pricing_plan_id":"cebpf4jnsgd1na2vs0mg"},{"bike_id":"990f4649-418d-41f6-b2bd-7c16d4028e57","system_id":"levelo_inurba_marseille","lat":43.28154,"lon":5.42645,"is_reserved":false,"is_disabled":true,"rental_uris":{"android":"levelo://app?vid=990f4649-418d-41f6-b2bd-7c16d4028e57","ios":"levelo://app?vid=990f4649-418d-41f6-b2bd-7c16d4028e57"},"vehicle_type_id":"4","last_reported":1747681668,"current_range_meters":800,"station_id":"ce4bhnh2rcd13ifvqgug","pricing_plan_id":"cebpf4jnsgd1na2vs0mg"},{"bike_id":"7937cd54-d643-44f8-9ef3-b97cef1fb20e","system_id":"levelo_inurba_marseille","lat":43.29965,"lon":5.38499,"is_reserved":false,"is_disabled":false,"rental_uris":{"android":"levelo://app?vid=7937cd54-d643-44f8-9ef3-b97cef1fb20e","ios":"levelo://app?vid=7937cd54-d643-44f8-9ef3-b97cef1fb20e"},"vehicle_type_id":"4","last_reported":1747681668,"current_range_meters":1200,"station_id":"ce4bgj92rcd13ifvqbd0","pricing_plan_id":"cebpf4jnsgd1na2vs0mg"},{"bike_id":"a59bcf47-a80e-467c-945f-7b2602a2a54e","system_id":"levelo_inurba_marseille","lat":43.28158,"lon":5.42647,"is_reserved":false,"is_disabled":true,"rental_uris":{"android":"levelo://app?vid=a59bcf47-a80e-467c-945f-7b2602a2a54e","ios":"levelo://app?vid=a59bcf47-a80e-467c-945f-7b2602a2a54e"},"vehicle_type_id":"4","last_reported":1747681668,"current_range_meters":1200,"station_id":"ce4bhnh2rcd13ifvqgug","pricing_plan_id":"cebpf4jnsgd1na2vs0mg"},{"bike_id":"ddc86658-e6b1-4149-aff1-47f436b7442e","system_id":"levelo_inurba_marseille","lat":43.29628,"lon":5.40595,"is_reserved":false,"is_disabled":true,"rental_uris":{"android":"levelo://app?vid=ddc86658-e6b1-4149-aff1-47f436b7442e","ios":"levelo://app?vid=ddc86658-e6b1-4149-aff1-47f436b7442e"},"vehicle_type_id":"4","last_reported":1747681668,"current_range_meters":1600,"station_id":"ce4bh0h2rcd13ifvqd60","pricing_plan_id":"cebpf4jnsgd1na2vs0mg"},{"bike_id":"8968876f-ee68-47ae-b85d-ccccff310145","system_id":"levelo_inurba_marseille","lat":43.31719,"lon":5.43718,"is_reserved":false,"is_disabled":true,"rental_uris":{"android":"levelo://app?vid=8968876f-ee68-47ae-b85d-ccccff310145","ios":"levelo://app?vid=8968876f-ee68-47ae-b85d-ccccff310145"},"vehicle_type_id":"4","last_reported":1747681668,"current_range_meters":1600,"station_id":"ce4bhp92rcd13ifvqhcg","pricing_plan_id":"cebpf4jnsgd1na2vs0mg"},{"bike_id":"a32710ca-189d-4719-b095-885a7a8e5314","system_id":"levelo_inurba_marseille","lat":43.28856,"lon":5.393139,"is_reserved":false,"is_disabled":false,"rental_uris":{"android":"levelo://app?vid=a32710ca-189d-4719-b095-885a7a8e5314","ios":"levelo://app?vid=a32710ca-189d-4719-b095-885a7a8e5314"},"vehicle_type_id":"4","last_reported":1747681668,"current_range_meters":2000,"station_id":"ce4bh2p2rcd13ifvqdi0","pricing_plan_id":"cebpf4jnsgd1na2vs0mg"},{"bike_id":"fe3186e2-9fe5-4228-a6f6-0d97100efe96","system_id":"levelo_inurba_marseille","lat":43.21752,"lon":5.34617,"is_reserved":false,"is_disabled":true,"rental_uris":{"android":"levelo://app?vid=fe3186e2-9fe5-4228-a6f6-0d97100efe96","ios":"levelo://app?vid=fe3186e2-9fe5-4228-a6f6-0d97100efe96"},"vehicle_type_id":"4","last_reported":1747681668,"current_range_meters":2000,"station_id":"st_cvj6r9ubvosntc0bgbag","pricing_plan_id":"cebpf4jnsgd1na2vs0mg"},{"bike_id":"38d43936-3f25-44b1-bc40-f0748f1c81bb","system_id":"levelo_inurba_marseille","lat":43.23322,"lon":5.36158,"is_reserved":false,"is_disabled":false,"rental_uris":{"android":"levelo://app?vid=38d43936-3f25-44b1-bc40-f0748f1c81bb","ios":"levelo://app?vid=38d43936-3f25-44b1-bc40-f0748f1c81bb"},"vehicle_type_id":"4","last_reported":1747681668,"current_range_meters":2800,"station_id":"","pricing_plan_id":"cebpf4jnsgd1na2vs0mg"},{"bike_id":"25efd7d8-fd8b-4c49-b03c-fe55321b94d4","system_id":"levelo_inurba_marseille","lat":43.30959,"lon":5.37272,"is_reserved":false,"is_disabled":false,"rental_uris":{"android":"levelo://app?vid=25efd7d8-fd8b-4c49-b03c-fe55321b94d4","ios":"levelo://app?vid=25efd7d8-fd8b-4c49-b03c-fe55321b94d4"},"vehicle_type_id":"4","last_reported":1747681668,"current_range_meters":3200,"station_id":"","pricing_plan_id":"cebpf4jnsgd1na2vs0mg"},{"bike_id":"87dddb43-e14d-4211-a2c5-e788c5296776","system_id":"levelo_inurba_marseille","lat":43.21839,"lon":5.34683,"is_reserved":false,"is_disabled":false,"rental_uris":{"android":"levelo://app?vid=87dddb43-e14d-4211-a2c5-e788c5296776","ios":"levelo://app?vid=87dddb43-e14d-4211-a2c5-e788c5296776"},"vehicle_type_id":"4","last_reported":1747681668,"current_range_meters":3200,"station_id":"","pricing_plan_id":"cebpf4jnsgd1na2vs0mg"},{"bike_id":"828091e5-7ee1-4ca7-afef-a1e8a42c07e9","system_id":"levelo_inurba_marseille","lat":43.29979,"lon":5.37183,"is_reserved":false,"is_disabled":false,"rental_uris":{"android":"levelo://app?vid=828091e5-7ee1-4ca7-afef-a1e8a42c07e9","ios":"levelo://app?vid=828091e5-7ee1-4ca7-afef-a1e8a42c07e9"},"vehicle_type_id":"4","last_reported":1747681668,"current_range_meters":3200,"station_id":"ce4bgr92rcd13ifvqc7g","pricing_plan_id":"cebpf4jnsgd1na2vs0mg"},{"bike_id":"ed6c8191-ede6-4772-9036-425e3fbf5c45","system_id":"levelo_inurba_marseille","lat":43.30593,"lon":5.39354,"is_reserved":false,"is_disabled":false,"rental_uris":{"android":"levelo://app?vid=ed6c8191-ede6-4772-9036-425e3fbf5c45","ios":"levelo://app?vid=ed6c8191-ede6-4772-9036-425e3fbf5c45"},"vehicle_type_id":"4","last_reported":1747681668,"current_range_meters":3200,"station_id":"ce4bh0p2rcd13ifvqd80","pricing_plan_id":"cebpf4jnsgd1na2vs0mg"},{"bike_id":"a0bee6b3-c94f-4580-b8bd-acf53b81d8eb","system_id":"levelo_inurba_marseille","lat":43.250793,"lon":5.395235,"is_reserved":false,"is_disabled":false,"rental_uris":{"android":"levelo://app?vid=a0bee6b3-c94f-4580-b8bd-acf53b81d8eb","ios":"levelo://app?vid=a0bee6b3-c94f-4580-b8bd-acf53b81d8eb"},"vehicle_type_id":"4","last_reported":1747681668,"current_range_meters":3200,"station_id":"ce4bhm12rcd13ifvqgkg","pricing_plan_id":"cebpf4jnsgd1na2vs0mg"},{"bike_id":"fded4721-5fb7-4998-ba86-f25db785d99a","system_id":"levelo_inurba_marseille","lat":43.27499,"lon":5.42449,"is_reserved":false,"is_disabled":false,"rental_uris":{"android":"levelo://app?vid=fded4721-5fb7-4998-ba86-f25db785d99a","ios":"levelo://app?vid=fded4721-5fb7-4998-ba86-f25db785d99a"},"vehicle_type_id":"4","last_reported":1747681668,"current_range_meters":3600,"station_id":"ce4bhn92rcd13ifvqgrg","pricing_plan_id":"cebpf4jnsgd1na2vs0mg"},{"bike_id":"14603e41-b2dd-4757-a53c-2e366aa4f983","system_id":"levelo_inurba_marseille","lat":43.269972,"lon":5.428293,"is_reserved":false,"is_disabled":false,"rental_uris":{"android":"levelo://app?vid=14603e41-b2dd-4757-a53c-2e366aa4f983","ios":"levelo://app?vid=14603e41-b2dd-4757-a53c-2e366aa4f983"},"vehicle_type_id":"4","last_reported":1747681668,"current_range_meters":4000,"station_id":"","pricing_plan_id":"cebpf4jnsgd1na2vs0mg"},{"bike_id":"2b27667f-523b-4d45-9c56-36e1c51f0f85","system_id":"levelo_inurba_marseille","lat":43.28847,"lon":5.35856,"is_reserved":false,"is_disabled":false,"rental_uris":{"android":"levelo://app?vid=2b27667f-523b-4d45-9c56-36e1c51f0f85","ios":"levelo://app?vid=2b27667f-523b-4d45-9c56-36e1c51f0f85"},"vehicle_type_id":"4","last_reported":1747681668,"current_range_meters":4400,"station_id":"ce4bhb12rcd13ifvqem0","pricing_plan_id":"cebpf4jnsgd1na2vs0mg"},{"bike_id":"f3b8cdd5-26a7-4bea-a9e4-a32323dd8d3c","system_id":"levelo_inurba_marseille","lat":43.27811,"lon":5.40713,"is_reserved":false,"is_disabled":false,"rental_uris":{"android":"levelo://app?vid=f3b8cdd5-26a7-4bea-a9e4-a32323dd8d3c","ios":"levelo://app?vid=f3b8cdd5-26a7-4bea-a9e4-a32323dd8d3c"},"vehicle_type_id":"4","last_reported":1747681668,"current_range_meters":4400,"station_id":"ce4bhnh2rcd13ifvqgtg","pricing_plan_id":"cebpf4jnsgd1na2vs0mg"},{"bike_id":"e310e500-58bc-4d9a-9269-1c451ac39fe2","system_id":"levelo_inurba_marseille","lat":43.29975,"lon":5.3717,"is_reserved":false,"is_disabled":false,"rental_uris":{"android":"levelo://app?vid=e310e500-58bc-4d9a-9269-1c451ac39fe2","ios":"levelo://app?vid=e310e500-58bc-4d9a-9269-1c451ac39fe2"},"vehicle_type_id":"4","last_reported":1747681668,"current_range_meters":4800,"station_id":"ce4bgr92rcd13ifvqc7g","pricing_plan_id":"cebpf4jnsgd1na2vs0mg"},{"bike_id":"9361de48-9d96-47dc-b873-89c3f18ed989","system_id":"levelo_inurba_marseille","lat":43.29509,"lon":5.39403,"is_reserved":false,"is_disabled":false,"rental_uris":{"android":"levelo://app?vid=9361de48-9d96-47dc-b873-89c3f18ed989","ios":"levelo://app?vid=9361de48-9d96-47dc-b873-89c3f18ed989"},"vehicle_type_id":"4","last_reported":1747681668,"current_range_meters":4800,"station_id":"ce4bh292rcd13ifvqdf0","pricing_plan_id":"cebpf4jnsgd1na2vs0mg"},{"bike_id":"71f1e8f7-59ae-4d6f-a2fc-6aff15afa3cb","system_id":"levelo_inurba_marseille","lat":43.29569,"lon":5.39964,"is_reserved":false,"is_disabled":false,"rental_uris":{"android":"levelo://app?vid=71f1e8f7-59ae-4d6f-a2fc-6aff15afa3cb","ios":"levelo://app?vid=71f1e8f7-59ae-4d6f-a2fc-6aff15afa3cb"},"vehicle_type_id":"4","last_reported":1747681668,"current_range_meters":4800,"station_id":"ce4bh312rcd13ifvqdj0","pricing_plan_id":"cebpf4jnsgd1na2vs0mg"},{"bike_id":"db1748d3-f373-44b4-9bba-8fb12d9584f5","system_id":"levelo_inurba_marseille","lat":43.28936,"lon":5.36393,"is_reserved":false,"is_disabled":false,"rental_uris":{"android":"levelo://app?vid=db1748d3-f373-44b4-9bba-8fb12d9584f5","ios":"levelo://app?vid=db1748d3-f373-44b4-9bba-8fb12d9584f5"},"vehicle_type_id":"4","last_reported":1747681668,"current_range_meters":5600,"station_id":"ce4bhc92rcd13ifvqetg","pricing_plan_id":"cebpf4jnsgd1na2vs0mg"},{"bike_id":"b5df4361-8fa9-4b8b-b1ad-cea9da2f893d","system_id":"levelo_inurba_marseille","lat":43.25118,"lon":5.40318,"is_reserved":false,"is_disabled":false,"rental_uris":{"android":"levelo://app?vid=b5df4361-8fa9-4b8b-b1ad-cea9da2f893d","ios":"levelo://app?vid=b5df4361-8fa9-4b8b-b1ad-cea9da2f893d"},"vehicle_type_id":"4","last_reported":1747681668,"current_range_meters":5600,"station_id":"ce4bhlh2rcd13ifvqgig","pricing_plan_id":"cebpf4jnsgd1na2vs0mg"},{"bike_id":"d1c14842-221d-4ac5-8965-eecc6e119ed4","system_id":"levelo_inurba_marseille","lat":43.27814,"lon":5.40717,"is_reserved":false,"is_disabled":false,"rental_uris":{"android":"levelo://app?vid=d1c14842-221d-4ac5-8965-eecc6e119ed4","ios":"levelo://app?vid=d1c14842-221d-4ac5-8965-eecc6e119ed4"},"vehicle_type_id":"4","last_reported":1747681668,"current_range_meters":5600,"station_id":"ce4bhnh2rcd13ifvqgtg","pricing_plan_id":"cebpf4jnsgd1na2vs0mg"},{"bike_id":"f19bc63a-b3e0-4dfb-a5d8-644ca2ea77d7","system_id":"levelo_inurba_marseille","lat":43.31072,"lon":5.38354,"is_reserved":false,"is_disabled":false,"rental_uris":{"android":"levelo://app?vid=f19bc63a-b3e0-4dfb-a5d8-644ca2ea77d7","ios":"levelo://app?vid=f19bc63a-b3e0-4dfb-a5d8-644ca2ea77d7"},"vehicle_type_id":"4","last_reported":1747681668,"current_range_meters":6000,"station_id":"ce4bgv92rcd13ifvqcr0","pricing_plan_id":"cebpf4jnsgd1na2vs0mg"},{"bike_id":"be31da2a-8106-41fb-8cb4-1474647558c2","system_id":"levelo_inurba_marseille","lat":43.2905,"lon":5.38663,"is_reserved":false,"is_disabled":false,"rental_uris":{"android":"levelo://app?vid=be31da2a-8106-41fb-8cb4-1474647558c2","ios":"levelo://app?vid=be31da2a-8106-41fb-8cb4-1474647558c2"},"vehicle_type_id":"4","last_reported":1747681668,"current_range_meters":6000,"station_id":"ce4bh4p2rcd13ifvqe0g","pricing_plan_id":"cebpf4jnsgd1na2vs0mg"},{"bike_id":"c4696db2-bb75-4ef4-955a-19424723217e","system_id":"levelo_inurba_marseille","lat":43.250977,"lon":5.403376,"is_reserved":false,"is_disabled":false,"rental_uris":{"android":"levelo://app?vid=c4696db2-bb75-4ef4-955a-19424723217e","ios":"levelo://app?vid=c4696db2-bb75-4ef4-955a-19424723217e"},"vehicle_type_id":"4","last_reported":1747681668,"current_range_meters":6000,"station_id":"ce4bhlh2rcd13ifvqgig","pricing_plan_id":"cebpf4jnsgd1na2vs0mg"},{"bike_id":"f00e4c85-4b74-4b78-914c-e4ecaf8cbdf9","system_id":"levelo_inurba_marseille","lat":43.274912,"lon":5.42447,"is_reserved":false,"is_disabled":false,"rental_uris":{"android":"levelo://app?vid=f00e4c85-4b74-4b78-914c-e4ecaf8cbdf9","ios":"levelo://app?vid=f00e4c85-4b74-4b78-914c-e4ecaf8cbdf9"},"vehicle_type_id":"4","last_reported":1747681668,"current_range_meters":6000,"station_id":"ce4bhn92rcd13ifvqgrg","pricing_plan_id":"cebpf4jnsgd1na2vs0mg"},{"bike_id":"787d7d9a-590d-4f02-a0b4-e85d2f7f6d12","system_id":"levelo_inurba_marseille","lat":43.24067,"lon":5.37728,"is_reserved":false,"is_disabled":false,"rental_uris":{"android":"levelo://app?vid=787d7d9a-590d-4f02-a0b4-e85d2f7f6d12","ios":"levelo://app?vid=787d7d9a-590d-4f02-a0b4-e85d2f7f6d12"},"vehicle_type_id":"4","last_reported":1747681668,"current_range_meters":6000,"station_id":"ce4bhnp2rcd13ifvqgvg","pricing_plan_id":"cebpf4jnsgd1na2vs0mg"},{"bike_id":"017665e8-cbfc-4f22-82a6-ebd511f34de2","system_id":"levelo_inurba_marseille","lat":43.31174,"lon":5.38728,"is_reserved":false,"is_disabled":false,"rental_uris":{"android":"levelo://app?vid=017665e8-cbfc-4f22-82a6-ebd511f34de2","ios":"levelo://app?vid=017665e8-cbfc-4f22-82a6-ebd511f34de2"},"vehicle_type_id":"4","last_reported":1747681668,"current_range_meters":6400,"station_id":"ce4bgv12rcd13ifvqcp0","pricing_plan_id":"cebpf4jnsgd1na2vs0mg"},{"bike_id":"4a0aef1d-d419-42d2-8ad0-0f2ca212b5ce","system_id":"levelo_inurba_marseille","lat":43.28667,"lon":5.38664,"is_reserved":false,"is_disabled":false,"rental_uris":{"android":"levelo://app?vid=4a0aef1d-d419-42d2-8ad0-0f2ca212b5ce","ios":"levelo://app?vid=4a0aef1d-d419-42d2-8ad0-0f2ca212b5ce"},"vehicle_type_id":"4","last_reported":1747681668,"current_range_meters":6400,"station_id":"ce4bh492rcd13ifvqdug","pricing_plan_id":"cebpf4jnsgd1na2vs0mg"},{"bike_id":"d03cf0f7-3897-4bb6-8d3e-077b5c7b8f0b","system_id":"levelo_inurba_marseille","lat":43.23974,"lon":5.36628,"is_reserved":false,"is_disabled":false,"rental_uris":{"android":"levelo://app?vid=d03cf0f7-3897-4bb6-8d3e-077b5c7b8f0b","ios":"levelo://app?vid=d03cf0f7-3897-4bb6-8d3e-077b5c7b8f0b"},"vehicle_type_id":"4","last_reported":1747681668,"current_range_meters":6400,"station_id":"ce4bhi12rcd13ifvqfp0","pricing_plan_id":"cebpf4jnsgd1na2vs0mg"},{"bike_id":"0eb7f958-813c-4599-a947-cc188a070eb3","system_id":"levelo_inurba_marseille","lat":43.2509,"lon":5.40384,"is_reserved":false,"is_disabled":false,"rental_uris":{"android":"levelo://app?vid=0eb7f958-813c-4599-a947-cc188a070eb3","ios":"levelo://app?vid=0eb7f958-813c-4599-a947-cc188a070eb3"},"vehicle_type_id":"4","last_reported":1747681668,"current_range_meters":6400,"station_id":"ce4bhlh2rcd13ifvqgig","pricing_plan_id":"cebpf4jnsgd1na2vs0mg"},{"bike_id":"a5069c23-eea7-40f4-9d9a-11b963aa48ad","system_id":"levelo_inurba_marseille","lat":43.23186,"lon":5.39984,"is_reserved":false,"is_disabled":false,"rental_uris":{"android":"levelo://app?vid=a5069c23-eea7-40f4-9d9a-11b963aa48ad","ios":"levelo://app?vid=a5069c23-eea7-40f4-9d9a-11b963aa48ad"},"vehicle_type_id":"4","last_reported":1747681668,"current_range_meters":6400,"station_id":"ce4bhn12rcd13ifvqgqg","pricing_plan_id":"cebpf4jnsgd1na2vs0mg"},{"bike_id":"a293b151-dfcc-4378-bce5-acf2ebbc444d","system_id":"levelo_inurba_marseille","lat":43.27613,"lon":5.36138,"is_reserved":false,"is_disabled":false,"rental_uris":{"android":"levelo://app?vid=a293b151-dfcc-4378-bce5-acf2ebbc444d","ios":"levelo://app?vid=a293b151-dfcc-4378-bce5-acf2ebbc444d"},"vehicle_type_id":"4","last_reported":1747681668,"current_range_meters":6800,"station_id":"ce4bgj92rcd13ifvqbe0","pricing_plan_id":"cebpf4jnsgd1na2vs0mg"},{"bike_id":"d4db9e4e-e1ba-47e2-9914-83ac550b990c","system_id":"levelo_inurba_marseille","lat":43.30935,"lon":5.40141,"is_reserved":false,"is_disabled":false,"rental_uris":{"android":"levelo://app?vid=d4db9e4e-e1ba-47e2-9914-83ac550b990c","ios":"levelo://app?vid=d4db9e4e-e1ba-47e2-9914-83ac550b990c"},"vehicle_type_id":"4","last_reported":1747681668,"current_range_meters":6800,"station_id":"ce4bgvp2rcd13ifvqct0","pricing_plan_id":"cebpf4jnsgd1na2vs0mg"},{"bike_id":"2a679746-6340-4d7a-979d-7c1378368966","system_id":"levelo_inurba_marseille","lat":43.28845,"lon":5.35858,"is_reserved":false,"is_disabled":false,"rental_uris":{"android":"levelo://app?vid=2a679746-6340-4d7a-979d-7c1378368966","ios":"levelo://app?vid=2a679746-6340-4d7a-979d-7c1378368966"},"vehicle_type_id":"4","last_reported":1747681668,"current_range_meters":6800,"station_id":"ce4bhb12rcd13ifvqem0","pricing_plan_id":"cebpf4jnsgd1na2vs0mg"},{"bike_id":"8018deb1-33f3-4a74-9b79-63ac400dc93e","system_id":"levelo_inurba_marseille","lat":43.27899,"lon":5.38014,"is_reserved":false,"is_disabled":false,"rental_uris":{"android":"levelo://app?vid=8018deb1-33f3-4a74-9b79-63ac400dc93e","ios":"levelo://app?vid=8018deb1-33f3-4a74-9b79-63ac400dc93e"},"vehicle_type_id":"4","last_reported":1747681668,"current_range_meters":6800,"station_id":"ce4bhf92rcd13ifvqf50","pricing_plan_id":"cebpf4jnsgd1na2vs0mg"},{"bike_id":"112859ad-81f7-4052-93b7-e7f8a1fa1d1d","system_id":"levelo_inurba_marseille","lat":43.26498,"lon":5.39542,"is_reserved":false,"is_disabled":false,"rental_uris":{"android":"levelo://app?vid=112859ad-81f7-4052-93b7-e7f8a1fa1d1d","ios":"levelo://app?vid=112859ad-81f7-4052-93b7-e7f8a1fa1d1d"},"vehicle_type_id":"4","last_reported":1747681668,"current_range_meters":6800,"station_id":"ce4bhi12rcd13ifvqfq0","pricing_plan_id":"cebpf4jnsgd1na2vs0mg"},{"bike_id":"97723e00-4376-4a64-8dc5-2131b7297576","system_id":"levelo_inurba_marseille","lat":43.24075,"lon":5.37762,"is_reserved":false,"is_disabled":false,"rental_uris":{"android":"levelo://app?vid=97723e00-4376-4a64-8dc5-2131b7297576","ios":"levelo://app?vid=97723e00-4376-4a64-8dc5-2131b7297576"},"vehicle_type_id":"4","last_reported":1747681668,"current_range_meters":6800,"station_id":"ce4bhnp2rcd13ifvqgvg","pricing_plan_id":"cebpf4jnsgd1na2vs0mg"},{"bike_id":"606f724a-1c53-443b-9378-c589b2767e9c","system_id":"levelo_inurba_marseille","lat":43.264861,"lon":5.395432,"is_reserved":false,"is_disabled":false,"rental_uris":{"android":"levelo://app?vid=606f724a-1c53-443b-9378-c589b2767e9c","ios":"levelo://app?vid=606f724a-1c53-443b-9378-c589b2767e9c"},"vehicle_type_id":"4","last_reported":1747681668,"current_range_meters":7200,"station_id":"","pricing_plan_id":"cebpf4jnsgd1na2vs0mg"},{"bike_id":"efb3468d-b0b8-407b-93e9-744974dca7b4","system_id":"levelo_inurba_marseille","lat":43.30186,"lon":5.36626,"is_reserved":false,"is_disabled":false,"rental_uris":{"android":"levelo://app?vid=efb3468d-b0b8-407b-93e9-744974dca7b4","ios":"levelo://app?vid=efb3468d-b0b8-407b-93e9-744974dca7b4"},"vehicle_type_id":"4","last_reported":1747681668,"current_range_meters":7200,"station_id":"ce4bgrh2rcd13ifvqc8g","pricing_plan_id":"cebpf4jnsgd1na2vs0mg"},{"bike_id":"aa94a4a1-e2d2-4147-9da4-b69769bc7be0","system_id":"levelo_inurba_marseille","lat":43.28717,"lon":5.37939,"is_reserved":false,"is_disabled":false,"rental_uris":{"android":"levelo://app?vid=aa94a4a1-e2d2-4147-9da4-b69769bc7be0","ios":"levelo://app?vid=aa94a4a1-e2d2-4147-9da4-b69769bc7be0"},"vehicle_type_id":"4","last_reported":1747681668,"current_range_meters":7200,"station_id":"ce4bh9p2rcd13ifvqec0","pricing_plan_id":"cebpf4jnsgd1na2vs0mg"},{"bike_id":"9098acce-4a9e-40d8-ba71-76f7509c9d2b","system_id":"levelo_inurba_marseille","lat":43.26554,"lon":5.37295,"is_reserved":false,"is_disabled":false,"rental_uris":{"android":"levelo://app?vid=9098acce-4a9e-40d8-ba71-76f7509c9d2b","ios":"levelo://app?vid=9098acce-4a9e-40d8-ba71-76f7509c9d2b"},"vehicle_type_id":"4","last_reported":1747681668,"current_range_meters":7200,"station_id":"ce4bhg12rcd13ifvqf70","pricing_plan_id":"cebpf4jnsgd1na2vs0mg"},{"bike_id":"0814fc28-7c82-4444-bf57-b7589c01a901","system_id":"levelo_inurba_marseille","lat":43.24998,"lon":5.38936,"is_reserved":false,"is_disabled":false,"rental_uris":{"android":"levelo://app?vid=0814fc28-7c82-4444-bf57-b7589c01a901","ios":"levelo://app?vid=0814fc28-7c82-4444-bf57-b7589c01a901"},"vehicle_type_id":"4","last_reported":1747681668,"current_range_meters":7200,"station_id":"ce4bhgp2rcd13ifvqfd0","pricing_plan_id":"cebpf4jnsgd1na2vs0mg"},{"bike_id":"fefa3ad1-29a6-4d50-af49-b905b6a48898","system_id":"levelo_inurba_marseille","lat":43.28146,"lon":5.42643,"is_reserved":false,"is_disabled":false,"rental_uris":{"android":"levelo://app?vid=fefa3ad1-29a6-4d50-af49-b905b6a48898","ios":"levelo://app?vid=fefa3ad1-29a6-4d50-af49-b905b6a48898"},"vehicle_type_id":"4","last_reported":1747681668,"current_range_meters":7200,"station_id":"ce4bhnh2rcd13ifvqgug","pricing_plan_id":"cebpf4jnsgd1na2vs0mg"},{"bike_id":"a34829af-4cdb-46b1-80e7-3c3e378ce87c","system_id":"levelo_inurba_marseille","lat":43.31028,"lon":5.38563,"is_reserved":false,"is_disabled":false,"rental_uris":{"android":"levelo://app?vid=a34829af-4cdb-46b1-80e7-3c3e378ce87c","ios":"levelo://app?vid=a34829af-4cdb-46b1-80e7-3c3e378ce87c"},"vehicle_type_id":"4","last_reported":1747681668,"current_range_meters":8000,"station_id":"","pricing_plan_id":"cebpf4jnsgd1na2vs0mg"},{"bike_id":"d641236d-2988-44c6-a9fe-b5416b4bf3f1","system_id":"levelo_inurba_marseille","lat":43.28412,"lon":5.37505,"is_reserved":false,"is_disabled":false,"rental_uris":{"android":"levelo://app?vid=d641236d-2988-44c6-a9fe-b5416b4bf3f1","ios":"levelo://app?vid=d641236d-2988-44c6-a9fe-b5416b4bf3f1"},"vehicle_type_id":"4","last_reported":1747681668,"current_range_meters":8000,"station_id":"ce4bh412rcd13ifvqds0","pricing_plan_id":"cebpf4jnsgd1na2vs0mg"},{"bike_id":"e845222c-f21c-4f93-b9f0-dccdd5c3f39e","system_id":"levelo_inurba_marseille","lat":43.26557,"lon":5.39035,"is_reserved":false,"is_disabled":false,"rental_uris":{"android":"levelo://app?vid=e845222c-f21c-4f93-b9f0-dccdd5c3f39e","ios":"levelo://app?vid=e845222c-f21c-4f93-b9f0-dccdd5c3f39e"},"vehicle_type_id":"4","last_reported":1747681668,"current_range_meters":8000,"station_id":"ce4bhe12rcd13ifvqf30","pricing_plan_id":"cebpf4jnsgd1na2vs0mg"},{"bike_id":"9d801651-1c0a-42c3-8f5f-0c8779da438d","system_id":"levelo_inurba_marseille","lat":43.25497,"lon":5.376476,"is_reserved":false,"is_disabled":false,"rental_uris":{"android":"levelo://app?vid=9d801651-1c0a-42c3-8f5f-0c8779da438d","ios":"levelo://app?vid=9d801651-1c0a-42c3-8f5f-0c8779da438d"},"vehicle_type_id":"4","last_reported":1747681668,"current_range_meters":8000,"station_id":"ce4bhh12rcd13ifvqff0","pricing_plan_id":"cebpf4jnsgd1na2vs0mg"},{"bike_id":"0daaca7e-f0cc-42a5-9eaf-568c1b9aff1c","system_id":"levelo_inurba_marseille","lat":43.2746,"lon":5.384749,"is_reserved":false,"is_disabled":false,"rental_uris":{"android":"levelo://app?vid=0daaca7e-f0cc-42a5-9eaf-568c1b9aff1c","ios":"levelo://app?vid=0daaca7e-f0cc-42a5-9eaf-568c1b9aff1c"},"vehicle_type_id":"4","last_reported":1747681668,"current_range_meters":8000,"station_id":"ce4bhh92rcd13ifvqfi0","pricing_plan_id":"cebpf4jnsgd1na2vs0mg"},{"bike_id":"1f7dea22-24a3-45e9-b0c2-bb2b4d863d65","system_id":"levelo_inurba_marseille","lat":43.23193,"lon":5.3999,"is_reserved":false,"is_disabled":false,"rental_uris":{"android":"levelo://app?vid=1f7dea22-24a3-45e9-b0c2-bb2b4d863d65","ios":"levelo://app?vid=1f7dea22-24a3-45e9-b0c2-bb2b4d863d65"},"vehicle_type_id":"4","last_reported":1747681668,"current_range_meters":8000,"station_id":"ce4bhn12rcd13ifvqgqg","pricing_plan_id":"cebpf4jnsgd1na2vs0mg"},{"bike_id":"92a6af25-c13e-41f1-9234-7144ec89b7a9","system_id":"levelo_inurba_marseille","lat":43.23167,"lon":5.39996,"is_reserved":false,"is_disabled":false,"rental_uris":{"android":"levelo://app?vid=92a6af25-c13e-41f1-9234-7144ec89b7a9","ios":"levelo://app?vid=92a6af25-c13e-41f1-9234-7144ec89b7a9"},"vehicle_type_id":"4","last_reported":1747681668,"current_range_meters":8000,"station_id":"ce4bhn12rcd13ifvqgqg","pricing_plan_id":"cebpf4jnsgd1na2vs0mg"},{"bike_id":"b16d00ef-9246-4df4-8b70-60f9f27e8eb3","system_id":"levelo_inurba_marseille","lat":43.280007,"lon":5.400185,"is_reserved":false,"is_disabled":false,"rental_uris":{"android":"levelo://app?vid=b16d00ef-9246-4df4-8b70-60f9f27e8eb3","ios":"levelo://app?vid=b16d00ef-9246-4df4-8b70-60f9f27e8eb3"},"vehicle_type_id":"4","last_reported":1747681668,"current_range_meters":8000,"station_id":"ce4bho92rcd13ifvqh4g","pricing_plan_id":"cebpf4jnsgd1na2vs0mg"},{"bike_id":"22f2d5e4-f531-47c9-a214-d1f290f53e03","system_id":"levelo_inurba_marseille","lat":43.32046,"lon":5.41545,"is_reserved":false,"is_disabled":false,"rental_uris":{"android":"levelo://app?vid=22f2d5e4-f531-47c9-a214-d1f290f53e03","ios":"levelo://app?vid=22f2d5e4-f531-47c9-a214-d1f290f53e03"},"vehicle_type_id":"4","last_reported":1747681668,"current_range_meters":8000,"station_id":"ce4bhq92rcd13ifvqhkg","pricing_plan_id":"cebpf4jnsgd1na2vs0mg"},{"bike_id":"e34d6e81-0ca5-487b-8d40-cd70f8f1db72","system_id":"levelo_inurba_marseille","lat":43.29878,"lon":5.38896,"is_reserved":false,"is_disabled":false,"rental_uris":{"android":"levelo://app?vid=e34d6e81-0ca5-487b-8d40-cd70f8f1db72","ios":"levelo://app?vid=e34d6e81-0ca5-487b-8d40-cd70f8f1db72"},"vehicle_type_id":"4","last_reported":1747681668,"current_range_meters":8400,"station_id":"ce4bh392rcd13ifvqdl0","pricing_plan_id":"cebpf4jnsgd1na2vs0mg"},{"bike_id":"bfcab3d5-67dd-4d5a-aefa-429eaf459571","system_id":"levelo_inurba_marseille","lat":43.28693,"lon":5.37394,"is_reserved":false,"is_disabled":false,"rental_uris":{"android":"levelo://app?vid=bfcab3d5-67dd-4d5a-aefa-429eaf459571","ios":"levelo://app?vid=bfcab3d5-67dd-4d5a-aefa-429eaf459571"},"vehicle_type_id":"4","last_reported":1747681668,"current_range_meters":8400,"station_id":"ce4bh3p2rcd13ifvqdq0","pricing_plan_id":"cebpf4jnsgd1na2vs0mg"},{"bike_id":"1a391a2e-9dc6-4154-b08c-5008af76bb22","system_id":"levelo_inurba_marseille","lat":43.26552,"lon":5.37284,"is_reserved":false,"is_disabled":false,"rental_uris":{"android":"levelo://app?vid=1a391a2e-9dc6-4154-b08c-5008af76bb22","ios":"levelo://app?vid=1a391a2e-9dc6-4154-b08c-5008af76bb22"},"vehicle_type_id":"4","last_reported":1747681668,"current_range_meters":8400,"station_id":"ce4bhg12rcd13ifvqf70","pricing_plan_id":"cebpf4jnsgd1na2vs0mg"},{"bike_id":"d9acd5d6-143a-429f-9ae1-1a4bd6d62d16","system_id":"levelo_inurba_marseille","lat":43.24804,"lon":5.37455,"is_reserved":false,"is_disabled":false,"rental_uris":{"android":"levelo://app?vid=d9acd5d6-143a-429f-9ae1-1a4bd6d62d16","ios":"levelo://app?vid=d9acd5d6-143a-429f-9ae1-1a4bd6d62d16"},"vehicle_type_id":"4","last_reported":1747681668,"current_range_meters":8400,"station_id":"ce4bhgh2rcd13ifvqfb0","pricing_plan_id":"cebpf4jnsgd1na2vs0mg"},{"bike_id":"d58894d7-0839-4402-827f-71fc925bf23a","system_id":"levelo_inurba_marseille","lat":43.2595,"lon":5.40897,"is_reserved":false,"is_disabled":false,"rental_uris":{"android":"levelo://app?vid=d58894d7-0839-4402-827f-71fc925bf23a","ios":"levelo://app?vid=d58894d7-0839-4402-827f-71fc925bf23a"},"vehicle_type_id":"4","last_reported":1747681668,"current_range_meters":8400,"station_id":"ce4bhm92rcd13ifvqglg","pricing_plan_id":"cebpf4jnsgd1na2vs0mg"},{"bike_id":"f61eb94e-1e62-4ef6-ad8b-232d3e5c7942","system_id":"levelo_inurba_marseille","lat":43.27815,"lon":5.40709,"is_reserved":false,"is_disabled":false,"rental_uris":{"android":"levelo://app?vid=f61eb94e-1e62-4ef6-ad8b-232d3e5c7942","ios":"levelo://app?vid=f61eb94e-1e62-4ef6-ad8b-232d3e5c7942"},"vehicle_type_id":"4","last_reported":1747681668,"current_range_meters":8400,"station_id":"ce4bhnh2rcd13ifvqgtg","pricing_plan_id":"cebpf4jnsgd1na2vs0mg"},{"bike_id":"85dfae1b-64c4-41d9-aeae-cb5d23409f7d","system_id":"levelo_inurba_marseille","lat":43.30177,"lon":5.36627,"is_reserved":false,"is_disabled":false,"rental_uris":{"android":"levelo://app?vid=85dfae1b-64c4-41d9-aeae-cb5d23409f7d","ios":"levelo://app?vid=85dfae1b-64c4-41d9-aeae-cb5d23409f7d"},"vehicle_type_id":"4","last_reported":1747681668,"current_range_meters":8800,"station_id":"ce4bgrh2rcd13ifvqc8g","pricing_plan_id":"cebpf4jnsgd1na2vs0mg"},{"bike_id":"12a3fa80-b3f2-4f6f-b60f-512c2387f29f","system_id":"levelo_inurba_marseille","lat":43.30133,"lon":5.39869,"is_reserved":false,"is_disabled":false,"rental_uris":{"android":"levelo://app?vid=12a3fa80-b3f2-4f6f-b60f-512c2387f29f","ios":"levelo://app?vid=12a3fa80-b3f2-4f6f-b60f-512c2387f29f"},"vehicle_type_id":"4","last_reported":1747681668,"current_range_meters":8800,"station_id":"ce4bh0h2rcd13ifvqd40","pricing_plan_id":"cebpf4jnsgd1na2vs0mg"},{"bike_id":"9c854ff7-316a-457c-9b29-685f5b0010b8","system_id":"levelo_inurba_marseille","lat":43.24808,"lon":5.3746,"is_reserved":false,"is_disabled":false,"rental_uris":{"android":"levelo://app?vid=9c854ff7-316a-457c-9b29-685f5b0010b8","ios":"levelo://app?vid=9c854ff7-316a-457c-9b29-685f5b0010b8"},"vehicle_type_id":"4","last_reported":1747681668,"current_range_meters":8800,"station_id":"ce4bhgh2rcd13ifvqfb0","pricing_plan_id":"cebpf4jnsgd1na2vs0mg"},{"bike_id":"7934c004-91e1-4cad-8800-2ae76602e17f","system_id":"levelo_inurba_marseille","lat":43.24812,"lon":5.3745,"is_reserved":false,"is_disabled":false,"rental_uris":{"android":"levelo://app?vid=7934c004-91e1-4cad-8800-2ae76602e17f","ios":"levelo://app?vid=7934c004-91e1-4cad-8800-2ae76602e17f"},"vehicle_type_id":"4","last_reported":1747681668,"current_range_meters":8800,"station_id":"ce4bhgh2rcd13ifvqfb0","pricing_plan_id":"cebpf4jnsgd1na2vs0mg"},{"bike_id":"b7ce7f8b-ba36-4e4d-a12a-d89ce35110f0","system_id":"levelo_inurba_marseille","lat":43.2442,"lon":5.37056,"is_reserved":false,"is_disabled":false,"rental_uris":{"android":"levelo://app?vid=b7ce7f8b-ba36-4e4d-a12a-d89ce35110f0","ios":"levelo://app?vid=b7ce7f8b-ba36-4e4d-a12a-d89ce35110f0"},"vehicle_type_id":"4","last_reported":1747681668,"current_range_meters":8800,"station_id":"ce4bhhh2rcd13ifvqfk0","pricing_plan_id":"cebpf4jnsgd1na2vs0mg"},{"bike_id":"fdbcb080-de86-408c-b4a8-7300b93393a6","system_id":"levelo_inurba_marseille","lat":43.2319,"lon":5.39994,"is_reserved":false,"is_disabled":false,"rental_uris":{"android":"levelo://app?vid=fdbcb080-de86-408c-b4a8-7300b93393a6","ios":"levelo://app?vid=fdbcb080-de86-408c-b4a8-7300b93393a6"},"vehicle_type_id":"4","last_reported":1747681668,"current_range_meters":8800,"station_id":"ce4bhn12rcd13ifvqgqg","pricing_plan_id":"cebpf4jnsgd1na2vs0mg"},{"bike_id":"d308410e-c9fc-45ce-858b-c8aa376c4f5e","system_id":"levelo_inurba_marseille","lat":43.29173,"lon":5.37156,"is_reserved":false,"is_disabled":false,"rental_uris":{"android":"levelo://app?vid=d308410e-c9fc-45ce-858b-c8aa376c4f5e","ios":"levelo://app?vid=d308410e-c9fc-45ce-858b-c8aa376c4f5e"},"vehicle_type_id":"4","last_reported":1747681668,"current_range_meters":9200,"station_id":"ce4bha92rcd13ifvqeh0","pricing_plan_id":"cebpf4jnsgd1na2vs0mg"},{"bike_id":"06e452b4-00bd-4194-8cf0-97e51cbae02e","system_id":"levelo_inurba_marseille","lat":43.23205,"lon":5.39987,"is_reserved":false,"is_disabled":false,"rental_uris":{"android":"levelo://app?vid=06e452b4-00bd-4194-8cf0-97e51cbae02e","ios":"levelo://app?vid=06e452b4-00bd-4194-8cf0-97e51cbae02e"},"vehicle_type_id":"4","last_reported":1747681668,"current_range_meters":9200,"station_id":"ce4bhn12rcd13ifvqgqg","pricing_plan_id":"cebpf4jnsgd1na2vs0mg"},{"bike_id":"46a18fd8-b647-46e7-8c36-c2045f680fe0","system_id":"levelo_inurba_marseille","lat":43.29905,"lon":5.38159,"is_reserved":false,"is_disabled":false,"rental_uris":{"android":"levelo://app?vid=46a18fd8-b647-46e7-8c36-c2045f680fe0","ios":"levelo://app?vid=46a18fd8-b647-46e7-8c36-c2045f680fe0"},"vehicle_type_id":"4","last_reported":1747681668,"current_range_meters":9600,"station_id":"ce4bgj12rcd13ifvqbc0","pricing_plan_id":"cebpf4jnsgd1na2vs0mg"},{"bike_id":"dbf8222a-eea0-42f0-80c2-a4791ac4ed58","system_id":"levelo_inurba_marseille","lat":43.250018,"lon":5.389317,"is_reserved":false,"is_disabled":false,"rental_uris":{"android":"levelo://app?vid=dbf8222a-eea0-42f0-80c2-a4791ac4ed58","ios":"levelo://app?vid=dbf8222a-eea0-42f0-80c2-a4791ac4ed58"},"vehicle_type_id":"4","last_reported":1747681668,"current_range_meters":9600,"station_id":"ce4bhgp2rcd13ifvqfd0","pricing_plan_id":"cebpf4jnsgd1na2vs0mg"},{"bike_id":"3de7473f-5f7d-4426-9c6a-13bff4df6c84","system_id":"levelo_inurba_marseille","lat":43.2784,"lon":5.39205,"is_reserved":false,"is_disabled":false,"rental_uris":{"android":"levelo://app?vid=3de7473f-5f7d-4426-9c6a-13bff4df6c84","ios":"levelo://app?vid=3de7473f-5f7d-4426-9c6a-13bff4df6c84"},"vehicle_type_id":"4","last_reported":1747681668,"current_range_meters":9600,"station_id":"ce4bhjp2rcd13ifvqga0","pricing_plan_id":"cebpf4jnsgd1na2vs0mg"},{"bike_id":"0ed934a5-f846-4226-a605-82f12f967b47","system_id":"levelo_inurba_marseille","lat":43.25116,"lon":5.40327,"is_reserved":false,"is_disabled":false,"rental_uris":{"android":"levelo://app?vid=0ed934a5-f846-4226-a605-82f12f967b47","ios":"levelo://app?vid=0ed934a5-f846-4226-a605-82f12f967b47"},"vehicle_type_id":"4","last_reported":1747681668,"current_range_meters":9600,"station_id":"ce4bhlh2rcd13ifvqgig","pricing_plan_id":"cebpf4jnsgd1na2vs0mg"},{"bike_id":"ffe6d238-6026-4e0e-a599-949c46ef6d5a","system_id":"levelo_inurba_marseille","lat":43.25126,"lon":5.40313,"is_reserved":false,"is_disabled":false,"rental_uris":{"android":"levelo://app?vid=ffe6d238-6026-4e0e-a599-949c46ef6d5a","ios":"levelo://app?vid=ffe6d238-6026-4e0e-a599-949c46ef6d5a"},"vehicle_type_id":"4","last_reported":1747681668,"current_range_meters":9600,"station_id":"ce4bhlh2rcd13ifvqgig","pricing_plan_id":"cebpf4jnsgd1na2vs0mg"},{"bike_id":"a283b2fd-ff3f-48d1-abab-7a3c52921152","system_id":"levelo_inurba_marseille","lat":43.28156,"lon":5.42653,"is_reserved":false,"is_disabled":false,"rental_uris":{"android":"levelo://app?vid=a283b2fd-ff3f-48d1-abab-7a3c52921152","ios":"levelo://app?vid=a283b2fd-ff3f-48d1-abab-7a3c52921152"},"vehicle_type_id":"4","last_reported":1747681668,"current_range_meters":9600,"station_id":"ce4bhnh2rcd13ifvqgug","pricing_plan_id":"cebpf4jnsgd1na2vs0mg"},{"bike_id":"67abd4ca-2cde-4910-b9ac-9f166a4696ae","system_id":"levelo_inurba_marseille","lat":43.28085,"lon":5.39671,"is_reserved":false,"is_disabled":false,"rental_uris":{"android":"levelo://app?vid=67abd4ca-2cde-4910-b9ac-9f166a4696ae","ios":"levelo://app?vid=67abd4ca-2cde-4910-b9ac-9f166a4696ae"},"vehicle_type_id":"4","last_reported":1747681668,"current_range_meters":9600,"station_id":"ce4bho12rcd13ifvqh2g","pricing_plan_id":"cebpf4jnsgd1na2vs0mg"},{"bike_id":"b2a8a085-4afe-4995-b62f-39dc8b761b89","system_id":"levelo_inurba_marseille","lat":43.21197,"lon":5.35074,"is_reserved":false,"is_disabled":false,"rental_uris":{"android":"levelo://app?vid=b2a8a085-4afe-4995-b62f-39dc8b761b89","ios":"levelo://app?vid=b2a8a085-4afe-4995-b62f-39dc8b761b89"},"vehicle_type_id":"4","last_reported":1747681668,"current_range_meters":9600,"station_id":"st_cvj6sg6p6f1abm77japg","pricing_plan_id":"cebpf4jnsgd1na2vs0mg"},{"bike_id":"bcbdbd69-7be8-42f8-a855-a4358565de8f","system_id":"levelo_inurba_marseille","lat":43.27726,"lon":5.41396,"is_reserved":false,"is_disabled":false,"rental_uris":{"android":"levelo://app?vid=bcbdbd69-7be8-42f8-a855-a4358565de8f","ios":"levelo://app?vid=bcbdbd69-7be8-42f8-a855-a4358565de8f"},"vehicle_type_id":"4","last_reported":1747681668,"current_range_meters":10000,"station_id":"","pricing_plan_id":"cebpf4jnsgd1na2vs0mg"},{"bike_id":"a5893543-9471-468d-976c-951e313d09e5","system_id":"levelo_inurba_marseille","lat":43.26567,"lon":5.40316,"is_reserved":false,"is_disabled":false,"rental_uris":{"android":"levelo://app?vid=a5893543-9471-468d-976c-951e313d09e5","ios":"levelo://app?vid=a5893543-9471-468d-976c-951e313d09e5"},"vehicle_type_id":"4","last_reported":1747681668,"current_range_meters":10000,"station_id":"","pricing_plan_id":"cebpf4jnsgd1na2vs0mg"},{"bike_id":"e081f946-cf0b-4891-9260-61475c0dd94d","system_id":"levelo_inurba_marseille","lat":43.29861,"lon":5.39747,"is_reserved":false,"is_disabled":false,"rental_uris":{"android":"levelo://app?vid=e081f946-cf0b-4891-9260-61475c0dd94d","ios":"levelo://app?vid=e081f946-cf0b-4891-9260-61475c0dd94d"},"vehicle_type_id":"4","last_reported":1747681668,"current_range_meters":10000,"station_id":"ce4bh0h2rcd13ifvqd50","pricing_plan_id":"cebpf4jnsgd1na2vs0mg"},{"bike_id":"a871e624-6f76-4685-bed9-9c5e7a540287","system_id":"levelo_inurba_marseille","lat":43.286103,"lon":5.351059,"is_reserved":false,"is_disabled":false,"rental_uris":{"android":"levelo://app?vid=a871e624-6f76-4685-bed9-9c5e7a540287","ios":"levelo://app?vid=a871e624-6f76-4685-bed9-9c5e7a540287"},"vehicle_type_id":"4","last_reported":1747681668,"current_range_meters":10000,"station_id":"ce4bhch2rcd13ifvqeug","pricing_plan_id":"cebpf4jnsgd1na2vs0mg"},{"bike_id":"87794296-e567-4a3f-b4ed-6fd8bd5100d8","system_id":"levelo_inurba_marseille","lat":43.25726,"lon":5.41112,"is_reserved":false,"is_disabled":false,"rental_uris":{"android":"levelo://app?vid=87794296-e567-4a3f-b4ed-6fd8bd5100d8","ios":"levelo://app?vid=87794296-e567-4a3f-b4ed-6fd8bd5100d8"},"vehicle_type_id":"4","last_reported":1747681668,"current_range_meters":10000,"station_id":"ce4bhkp2rcd13ifvqgd0","pricing_plan_id":"cebpf4jnsgd1na2vs0mg"},{"bike_id":"829f9f17-8e4d-4675-8105-3ee910c5e2cb","system_id":"levelo_inurba_marseille","lat":43.30677,"lon":5.38285,"is_reserved":false,"is_disabled":false,"rental_uris":{"android":"levelo://app?vid=829f9f17-8e4d-4675-8105-3ee910c5e2cb","ios":"levelo://app?vid=829f9f17-8e4d-4675-8105-3ee910c5e2cb"},"vehicle_type_id":"4","last_reported":1747681668,"current_range_meters":10800,"station_id":"","pricing_plan_id":"cebpf4jnsgd1na2vs0mg"},{"bike_id":"0a2c916c-70c6-4b9b-9ee7-3a75e1addb9d","system_id":"levelo_inurba_marseille","lat":43.2953,"lon":5.38555,"is_reserved":false,"is_disabled":false,"rental_uris":{"android":"levelo://app?vid=0a2c916c-70c6-4b9b-9ee7-3a75e1addb9d","ios":"levelo://app?vid=0a2c916c-70c6-4b9b-9ee7-3a75e1addb9d"},"vehicle_type_id":"4","last_reported":1747681668,"current_range_meters":10800,"station_id":"ce4bgih2rcd13ifvqba0","pricing_plan_id":"cebpf4jnsgd1na2vs0mg"},{"bike_id":"01f253e5-d779-4222-aea2-c2e014906b39","system_id":"levelo_inurba_marseille","lat":43.29239,"lon":5.40916,"is_reserved":false,"is_disabled":false,"rental_uris":{"android":"levelo://app?vid=01f253e5-d779-4222-aea2-c2e014906b39","ios":"levelo://app?vid=01f253e5-d779-4222-aea2-c2e014906b39"},"vehicle_type_id":"4","last_reported":1747681668,"current_range_meters":10800,"station_id":"ce4bh192rcd13ifvqdc0","pricing_plan_id":"cebpf4jnsgd1na2vs0mg"},{"bike_id":"528128fb-8dbe-4dd8-a338-61e65aaa78f5","system_id":"levelo_inurba_marseille","lat":43.29204,"lon":5.39315,"is_reserved":false,"is_disabled":false,"rental_uris":{"android":"levelo://app?vid=528128fb-8dbe-4dd8-a338-61e65aaa78f5","ios":"levelo://app?vid=528128fb-8dbe-4dd8-a338-61e65aaa78f5"},"vehicle_type_id":"4","last_reported":1747681668,"current_range_meters":10800,"station_id":"ce4bh192rcd13ifvqdd0","pricing_plan_id":"cebpf4jnsgd1na2vs0mg"},{"bike_id":"d697058e-547e-42bd-afb5-b3a876e0999f","system_id":"levelo_inurba_marseille","lat":43.29526,"lon":5.39408,"is_reserved":false,"is_disabled":false,"rental_uris":{"android":"levelo://app?vid=d697058e-547e-42bd-afb5-b3a876e0999f","ios":"levelo://app?vid=d697058e-547e-42bd-afb5-b3a876e0999f"},"vehicle_type_id":"4","last_reported":1747681668,"current_range_meters":10800,"station_id":"ce4bh292rcd13ifvqdf0","pricing_plan_id":"cebpf4jnsgd1na2vs0mg"},{"bike_id":"5dc12272-c022-4597-a5e3-9255d349e01f","system_id":"levelo_inurba_marseille","lat":43.24395,"lon":5.37055,"is_reserved":false,"is_disabled":false,"rental_uris":{"android":"levelo://app?vid=5dc12272-c022-4597-a5e3-9255d349e01f","ios":"levelo://app?vid=5dc12272-c022-4597-a5e3-9255d349e01f"},"vehicle_type_id":"4","last_reported":1747681668,"current_range_meters":10800,"station_id":"ce4bhhh2rcd13ifvqfk0","pricing_plan_id":"cebpf4jnsgd1na2vs0mg"},{"bike_id":"19d18007-3762-4f89-ae22-78f001ecc4ed","system_id":"levelo_inurba_marseille","lat":43.28156,"lon":5.42645,"is_reserved":false,"is_disabled":false,"rental_uris":{"android":"levelo://app?vid=19d18007-3762-4f89-ae22-78f001ecc4ed","ios":"levelo://app?vid=19d18007-3762-4f89-ae22-78f001ecc4ed"},"vehicle_type_id":"4","last_reported":1747681668,"current_range_meters":10800,"station_id":"ce4bhnh2rcd13ifvqgug","pricing_plan_id":"cebpf4jnsgd1na2vs0mg"},{"bike_id":"0bee8310-e3c6-4566-aecb-00d86829bb71","system_id":"levelo_inurba_marseille","lat":43.28152,"lon":5.42655,"is_reserved":false,"is_disabled":false,"rental_uris":{"android":"levelo://app?vid=0bee8310-e3c6-4566-aecb-00d86829bb71","ios":"levelo://app?vid=0bee8310-e3c6-4566-aecb-00d86829bb71"},"vehicle_type_id":"4","last_reported":1747681668,"current_range_meters":10800,"station_id":"ce4bhnh2rcd13ifvqgug","pricing_plan_id":"cebpf4jnsgd1na2vs0mg"},{"bike_id":"5fbc1e7a-a641-41a8-8487-50b908e3b4db","system_id":"levelo_inurba_marseille","lat":43.27932,"lon":5.41058,"is_reserved":false,"is_disabled":false,"rental_uris":{"android":"levelo://app?vid=5fbc1e7a-a641-41a8-8487-50b908e3b4db","ios":"levelo://app?vid=5fbc1e7a-a641-41a8-8487-50b908e3b4db"},"vehicle_type_id":"4","last_reported":1747681668,"current_range_meters":10800,"station_id":"ce4bhnp2rcd13ifvqh0g","pricing_plan_id":"cebpf4jnsgd1na2vs0mg"},{"bike_id":"60393716-8180-42eb-a367-cc5098e8bc92","system_id":"levelo_inurba_marseille","lat":43.28016,"lon":5.4001,"is_reserved":false,"is_disabled":false,"rental_uris":{"android":"levelo://app?vid=60393716-8180-42eb-a367-cc5098e8bc92","ios":"levelo://app?vid=60393716-8180-42eb-a367-cc5098e8bc92"},"vehicle_type_id":"4","last_reported":1747681668,"current_range_meters":10800,"station_id":"ce4bho92rcd13ifvqh4g","pricing_plan_id":"cebpf4jnsgd1na2vs0mg"},{"bike_id":"38b5c13c-ecfe-476a-abb0-33b1528de2bb","system_id":"levelo_inurba_marseille","lat":43.29966,"lon":5.41327,"is_reserved":false,"is_disabled":false,"rental_uris":{"android":"levelo://app?vid=38b5c13c-ecfe-476a-abb0-33b1528de2bb","ios":"levelo://app?vid=38b5c13c-ecfe-476a-abb0-33b1528de2bb"},"vehicle_type_id":"4","last_reported":1747681668,"current_range_meters":10800,"station_id":"ce4bhp12rcd13ifvqh9g","pricing_plan_id":"cebpf4jnsgd1na2vs0mg"},{"bike_id":"c076ad54-d589-4eeb-ac51-e1376a33ec39","system_id":"levelo_inurba_marseille","lat":43.29564,"lon":5.42295,"is_reserved":false,"is_disabled":false,"rental_uris":{"android":"levelo://app?vid=c076ad54-d589-4eeb-ac51-e1376a33ec39","ios":"levelo://app?vid=c076ad54-d589-4eeb-ac51-e1376a33ec39"},"vehicle_type_id":"4","last_reported":1747681668,"current_range_meters":10800,"station_id":"ce4bhph2rcd13ifvqhdg","pricing_plan_id":"cebpf4jnsgd1na2vs0mg"},{"bike_id":"b69e9525-f9fe-475a-a8d8-418ab1b45f8d","system_id":"levelo_inurba_marseille","lat":43.28731,"lon":5.36077,"is_reserved":false,"is_disabled":false,"rental_uris":{"android":"levelo://app?vid=b69e9525-f9fe-475a-a8d8-418ab1b45f8d","ios":"levelo://app?vid=b69e9525-f9fe-475a-a8d8-418ab1b45f8d"},"vehicle_type_id":"4","last_reported":1747681668,"current_range_meters":10800,"station_id":"cki0cbj6b192h4jlfktg","pricing_plan_id":"cebpf4jnsgd1na2vs0mg"},{"bike_id":"4364f4b9-60eb-4dbc-b154-1fd99cd09335","system_id":"levelo_inurba_marseille","lat":43.29318,"lon":5.37171,"is_reserved":false,"is_disabled":false,"rental_uris":{"android":"levelo://app?vid=4364f4b9-60eb-4dbc-b154-1fd99cd09335","ios":"levelo://app?vid=4364f4b9-60eb-4dbc-b154-1fd99cd09335"},"vehicle_type_id":"4","last_reported":1747681668,"current_range_meters":11200,"station_id":"ce4bgh92rcd13ifvqb40","pricing_plan_id":"cebpf4jnsgd1na2vs0mg"},{"bike_id":"4f3d2f19-1dc4-41a7-92a5-f2fa79b9d7aa","system_id":"levelo_inurba_marseille","lat":43.2963,"lon":5.40595,"is_reserved":false,"is_disabled":false,"rental_uris":{"android":"levelo://app?vid=4f3d2f19-1dc4-41a7-92a5-f2fa79b9d7aa","ios":"levelo://app?vid=4f3d2f19-1dc4-41a7-92a5-f2fa79b9d7aa"},"vehicle_type_id":"4","last_reported":1747681668,"current_range_meters":11200,"station_id":"ce4bh0h2rcd13ifvqd60","pricing_plan_id":"cebpf4jnsgd1na2vs0mg"},{"bike_id":"89e75d22-2829-4276-bd50-349663c80965","system_id":"levelo_inurba_marseille","lat":43.25111,"lon":5.40323,"is_reserved":false,"is_disabled":false,"rental_uris":{"android":"levelo://app?vid=89e75d22-2829-4276-bd50-349663c80965","ios":"levelo://app?vid=89e75d22-2829-4276-bd50-349663c80965"},"vehicle_type_id":"4","last_reported":1747681668,"current_range_meters":11200,"station_id":"ce4bhlh2rcd13ifvqgig","pricing_plan_id":"cebpf4jnsgd1na2vs0mg"},{"bike_id":"7ddabab5-fb9d-431e-bb65-ee4d4e122759","system_id":"levelo_inurba_marseille","lat":43.28144,"lon":5.42646,"is_reserved":false,"is_disabled":false,"rental_uris":{"android":"levelo://app?vid=7ddabab5-fb9d-431e-bb65-ee4d4e122759","ios":"levelo://app?vid=7ddabab5-fb9d-431e-bb65-ee4d4e122759"},"vehicle_type_id":"4","last_reported":1747681668,"current_range_meters":11200,"station_id":"ce4bhnh2rcd13ifvqgug","pricing_plan_id":"cebpf4jnsgd1na2vs0mg"},{"bike_id":"bf0f734e-7db4-4909-bee4-1c076f1b6d92","system_id":"levelo_inurba_marseille","lat":43.28156,"lon":5.4264,"is_reserved":false,"is_disabled":false,"rental_uris":{"android":"levelo://app?vid=bf0f734e-7db4-4909-bee4-1c076f1b6d92","ios":"levelo://app?vid=bf0f734e-7db4-4909-bee4-1c076f1b6d92"},"vehicle_type_id":"4","last_reported":1747681668,"current_range_meters":11200,"station_id":"ce4bhnh2rcd13ifvqgug","pricing_plan_id":"cebpf4jnsgd1na2vs0mg"},{"bike_id":"5f12a118-6c49-40f2-b212-0b923ca9cb59","system_id":"levelo_inurba_marseille","lat":43.28001,"lon":5.40018,"is_reserved":false,"is_disabled":false,"rental_uris":{"android":"levelo://app?vid=5f12a118-6c49-40f2-b212-0b923ca9cb59","ios":"levelo://app?vid=5f12a118-6c49-40f2-b212-0b923ca9cb59"},"vehicle_type_id":"4","last_reported":1747681668,"current_range_meters":11200,"station_id":"ce4bho92rcd13ifvqh4g","pricing_plan_id":"cebpf4jnsgd1na2vs0mg"},{"bike_id":"3f71e9e2-fd33-425c-bb87-745767b39cbf","system_id":"levelo_inurba_marseille","lat":43.30605,"lon":5.37222,"is_reserved":false,"is_disabled":false,"rental_uris":{"android":"levelo://app?vid=3f71e9e2-fd33-425c-bb87-745767b39cbf","ios":"levelo://app?vid=3f71e9e2-fd33-425c-bb87-745767b39cbf"},"vehicle_type_id":"4","last_reported":1747681668,"current_range_meters":11600,"station_id":"ce4bgqh2rcd13ifvqc4g","pricing_plan_id":"cebpf4jnsgd1na2vs0mg"},{"bike_id":"81060b73-88f2-46ee-b799-4895d0b4b313","system_id":"levelo_inurba_marseille","lat":43.30892,"lon":5.37193,"is_reserved":false,"is_disabled":false,"rental_uris":{"android":"levelo://app?vid=81060b73-88f2-46ee-b799-4895d0b4b313","ios":"levelo://app?vid=81060b73-88f2-46ee-b799-4895d0b4b313"},"vehicle_type_id":"4","last_reported":1747681668,"current_range_meters":11600,"station_id":"ce4bguh2rcd13ifvqckg","pricing_plan_id":"cebpf4jnsgd1na2vs0mg"},{"bike_id":"edc76007-c1c7-4cc9-abfd-aaac5afbe46b","system_id":"levelo_inurba_marseille","lat":43.30591,"lon":5.39354,"is_reserved":false,"is_disabled":false,"rental_uris":{"android":"levelo://app?vid=edc76007-c1c7-4cc9-abfd-aaac5afbe46b","ios":"levelo://app?vid=edc76007-c1c7-4cc9-abfd-aaac5afbe46b"},"vehicle_type_id":"4","last_reported":1747681668,"current_range_meters":11600,"station_id":"ce4bh0p2rcd13ifvqd80","pricing_plan_id":"cebpf4jnsgd1na2vs0mg"},{"bike_id":"32c7a27c-b72b-4b8b-93aa-a651966f633f","system_id":"levelo_inurba_marseille","lat":43.29524,"lon":5.39403,"is_reserved":false,"is_disabled":false,"rental_uris":{"android":"levelo://app?vid=32c7a27c-b72b-4b8b-93aa-a651966f633f","ios":"levelo://app?vid=32c7a27c-b72b-4b8b-93aa-a651966f633f"},"vehicle_type_id":"4","last_reported":1747681668,"current_range_meters":11600,"station_id":"ce4bh292rcd13ifvqdf0","pricing_plan_id":"cebpf4jnsgd1na2vs0mg"},{"bike_id":"40d5f946-42f0-423c-82a6-7cd8e3c0679d","system_id":"levelo_inurba_marseille","lat":43.28428,"lon":5.37491,"is_reserved":false,"is_disabled":false,"rental_uris":{"android":"levelo://app?vid=40d5f946-42f0-423c-82a6-7cd8e3c0679d","ios":"levelo://app?vid=40d5f946-42f0-423c-82a6-7cd8e3c0679d"},"vehicle_type_id":"4","last_reported":1747681668,"current_range_meters":11600,"station_id":"ce4bh412rcd13ifvqds0","pricing_plan_id":"cebpf4jnsgd1na2vs0mg"},{"bike_id":"75cb7a19-5149-4370-adef-68f1df212651","system_id":"levelo_inurba_marseille","lat":43.29443,"lon":5.38636,"is_reserved":false,"is_disabled":false,"rental_uris":{"android":"levelo://app?vid=75cb7a19-5149-4370-adef-68f1df212651","ios":"levelo://app?vid=75cb7a19-5149-4370-adef-68f1df212651"},"vehicle_type_id":"4","last_reported":1747681668,"current_range_meters":12000,"station_id":"ce4bh2h2rcd13ifvqdh0","pricing_plan_id":"cebpf4jnsgd1na2vs0mg"},{"bike_id":"b4b15575-a401-4b8c-b577-39a250ba6f7f","system_id":"levelo_inurba_marseille","lat":43.28686,"lon":5.37434,"is_reserved":false,"is_disabled":false,"rental_uris":{"android":"levelo://app?vid=b4b15575-a401-4b8c-b577-39a250ba6f7f","ios":"levelo://app?vid=b4b15575-a401-4b8c-b577-39a250ba6f7f"},"vehicle_type_id":"4","last_reported":1747681668,"current_range_meters":12000,"station_id":"ce4bh3p2rcd13ifvqdq0","pricing_plan_id":"cebpf4jnsgd1na2vs0mg"},{"bike_id":"33ce00b6-fef9-4bb6-bddb-96d5cbd7946e","system_id":"levelo_inurba_marseille","lat":43.27811,"lon":5.40724,"is_reserved":false,"is_disabled":false,"rental_uris":{"android":"levelo://app?vid=33ce00b6-fef9-4bb6-bddb-96d5cbd7946e","ios":"levelo://app?vid=33ce00b6-fef9-4bb6-bddb-96d5cbd7946e"},"vehicle_type_id":"4","last_reported":1747681668,"current_range_meters":12000,"station_id":"ce4bhnh2rcd13ifvqgtg","pricing_plan_id":"cebpf4jnsgd1na2vs0mg"},{"bike_id":"9764d64f-0f5a-4e28-855f-fb9774594893","system_id":"levelo_inurba_marseille","lat":43.279949,"lon":5.400121,"is_reserved":false,"is_disabled":false,"rental_uris":{"android":"levelo://app?vid=9764d64f-0f5a-4e28-855f-fb9774594893","ios":"levelo://app?vid=9764d64f-0f5a-4e28-855f-fb9774594893"},"vehicle_type_id":"4","last_reported":1747681668,"current_range_meters":12000,"station_id":"ce4bho92rcd13ifvqh4g","pricing_plan_id":"cebpf4jnsgd1na2vs0mg"},{"bike_id":"e58b1b8d-e063-4c4e-8514-80ba8763c424","system_id":"levelo_inurba_marseille","lat":43.27995,"lon":5.40011,"is_reserved":false,"is_disabled":false,"rental_uris":{"android":"levelo://app?vid=e58b1b8d-e063-4c4e-8514-80ba8763c424","ios":"levelo://app?vid=e58b1b8d-e063-4c4e-8514-80ba8763c424"},"vehicle_type_id":"4","last_reported":1747681668,"current_range_meters":12000,"station_id":"ce4bho92rcd13ifvqh4g","pricing_plan_id":"cebpf4jnsgd1na2vs0mg"},{"bike_id":"62cc9606-27cf-4d01-a783-632efaef6296","system_id":"levelo_inurba_marseille","lat":43.28725,"lon":5.36092,"is_reserved":false,"is_disabled":false,"rental_uris":{"android":"levelo://app?vid=62cc9606-27cf-4d01-a783-632efaef6296","ios":"levelo://app?vid=62cc9606-27cf-4d01-a783-632efaef6296"},"vehicle_type_id":"4","last_reported":1747681668,"current_range_meters":12000,"station_id":"cki0cbj6b192h4jlfktg","pricing_plan_id":"cebpf4jnsgd1na2vs0mg"},{"bike_id":"7b4ebcee-a823-442f-a8fb-bd9eabc7a6ed","system_id":"levelo_inurba_marseille","lat":43.25094,"lon":5.38812,"is_reserved":false,"is_disabled":false,"rental_uris":{"android":"levelo://app?vid=7b4ebcee-a823-442f-a8fb-bd9eabc7a6ed","ios":"levelo://app?vid=7b4ebcee-a823-442f-a8fb-bd9eabc7a6ed"},"vehicle_type_id":"4","last_reported":1747681668,"current_range_meters":12400,"station_id":"","pricing_plan_id":"cebpf4jnsgd1na2vs0mg"},{"bike_id":"bffbaf88-357a-4e87-a68c-a9a27a6e01e6","system_id":"levelo_inurba_marseille","lat":43.26236,"lon":5.42132,"is_reserved":false,"is_disabled":false,"rental_uris":{"android":"levelo://app?vid=bffbaf88-357a-4e87-a68c-a9a27a6e01e6","ios":"levelo://app?vid=bffbaf88-357a-4e87-a68c-a9a27a6e01e6"},"vehicle_type_id":"4","last_reported":1747681668,"current_range_meters":12400,"station_id":"","pricing_plan_id":"cebpf4jnsgd1na2vs0mg"},{"bike_id":"79479be0-76d5-4e25-b88e-ed5efad725d8","system_id":"levelo_inurba_marseille","lat":43.2977,"lon":5.3711,"is_reserved":false,"is_disabled":false,"rental_uris":{"android":"levelo://app?vid=79479be0-76d5-4e25-b88e-ed5efad725d8","ios":"levelo://app?vid=79479be0-76d5-4e25-b88e-ed5efad725d8"},"vehicle_type_id":"4","last_reported":1747681668,"current_range_meters":12400,"station_id":"ce4bgop2rcd13ifvqc1g","pricing_plan_id":"cebpf4jnsgd1na2vs0mg"},{"bike_id":"a42e957d-9b1e-4a1f-b33d-e24f8341a7c6","system_id":"levelo_inurba_marseille","lat":43.28853,"lon":5.39319,"is_reserved":false,"is_disabled":false,"rental_uris":{"android":"levelo://app?vid=a42e957d-9b1e-4a1f-b33d-e24f8341a7c6","ios":"levelo://app?vid=a42e957d-9b1e-4a1f-b33d-e24f8341a7c6"},"vehicle_type_id":"4","last_reported":1747681668,"current_range_meters":12400,"station_id":"ce4bh2p2rcd13ifvqdi0","pricing_plan_id":"cebpf4jnsgd1na2vs0mg"},{"bike_id":"d6390f49-bf8e-40a9-b02e-28d21b9244a6","system_id":"levelo_inurba_marseille","lat":43.29031,"lon":5.38635,"is_reserved":false,"is_disabled":false,"rental_uris":{"android":"levelo://app?vid=d6390f49-bf8e-40a9-b02e-28d21b9244a6","ios":"levelo://app?vid=d6390f49-bf8e-40a9-b02e-28d21b9244a6"},"vehicle_type_id":"4","last_reported":1747681668,"current_range_meters":12400,"station_id":"ce4bh4p2rcd13ifvqe0g","pricing_plan_id":"cebpf4jnsgd1na2vs0mg"},{"bike_id":"ca51947a-d1b7-4f5e-b01b-015df89c772e","system_id":"levelo_inurba_marseille","lat":43.27822,"lon":5.40716,"is_reserved":false,"is_disabled":false,"rental_uris":{"android":"levelo://app?vid=ca51947a-d1b7-4f5e-b01b-015df89c772e","ios":"levelo://app?vid=ca51947a-d1b7-4f5e-b01b-015df89c772e"},"vehicle_type_id":"4","last_reported":1747681668,"current_range_meters":12400,"station_id":"ce4bhnh2rcd13ifvqgtg","pricing_plan_id":"cebpf4jnsgd1na2vs0mg"},{"bike_id":"c40b2fd9-f981-40cf-89f2-80a57a8a7189","system_id":"levelo_inurba_marseille","lat":43.2799,"lon":5.41663,"is_reserved":false,"is_disabled":false,"rental_uris":{"android":"levelo://app?vid=c40b2fd9-f981-40cf-89f2-80a57a8a7189","ios":"levelo://app?vid=c40b2fd9-f981-40cf-89f2-80a57a8a7189"},"vehicle_type_id":"4","last_reported":1747681668,"current_range_meters":12400,"station_id":"ce4bho12rcd13ifvqh1g","pricing_plan_id":"cebpf4jnsgd1na2vs0mg"},{"bike_id":"694e756b-8459-4489-a68d-cc972e68cada","system_id":"levelo_inurba_marseille","lat":43.32276,"lon":5.38291,"is_reserved":false,"is_disabled":false,"rental_uris":{"android":"levelo://app?vid=694e756b-8459-4489-a68d-cc972e68cada","ios":"levelo://app?vid=694e756b-8459-4489-a68d-cc972e68cada"},"vehicle_type_id":"4","last_reported":1747681668,"current_range_meters":12800,"station_id":"","pricing_plan_id":"cebpf4jnsgd1na2vs0mg"},{"bike_id":"52a39732-f389-4238-8320-12a8ecb43bc9","system_id":"levelo_inurba_marseille","lat":43.33764,"lon":5.37488,"is_reserved":false,"is_disabled":false,"rental_uris":{"android":"levelo://app?vid=52a39732-f389-4238-8320-12a8ecb43bc9","ios":"levelo://app?vid=52a39732-f389-4238-8320-12a8ecb43bc9"},"vehicle_type_id":"4","last_reported":1747681668,"current_range_meters":12800,"station_id":"","pricing_plan_id":"cebpf4jnsgd1na2vs0mg"},{"bike_id":"88ca128f-95aa-471a-8d6e-d0983532e50f","system_id":"levelo_inurba_marseille","lat":43.29529,"lon":5.38546,"is_reserved":false,"is_disabled":false,"rental_uris":{"android":"levelo://app?vid=88ca128f-95aa-471a-8d6e-d0983532e50f","ios":"levelo://app?vid=88ca128f-95aa-471a-8d6e-d0983532e50f"},"vehicle_type_id":"4","last_reported":1747681668,"current_range_meters":12800,"station_id":"ce4bgih2rcd13ifvqba0","pricing_plan_id":"cebpf4jnsgd1na2vs0mg"},{"bike_id":"36981ab0-680a-4403-84a1-609e073415ae","system_id":"levelo_inurba_marseille","lat":43.295178,"lon":5.374532,"is_reserved":false,"is_disabled":false,"rental_uris":{"android":"levelo://app?vid=36981ab0-680a-4403-84a1-609e073415ae","ios":"levelo://app?vid=36981ab0-680a-4403-84a1-609e073415ae"},"vehicle_type_id":"4","last_reported":1747681668,"current_range_meters":12800,"station_id":"ce4bgkh2rcd13ifvqbl0","pricing_plan_id":"cebpf4jnsgd1na2vs0mg"},{"bike_id":"87defc5e-738a-40a1-97c7-f674fa5ffab7","system_id":"levelo_inurba_marseille","lat":43.28414,"lon":5.37514,"is_reserved":false,"is_disabled":false,"rental_uris":{"android":"levelo://app?vid=87defc5e-738a-40a1-97c7-f674fa5ffab7","ios":"levelo://app?vid=87defc5e-738a-40a1-97c7-f674fa5ffab7"},"vehicle_type_id":"4","last_reported":1747681668,"current_range_meters":12800,"station_id":"ce4bh412rcd13ifvqds0","pricing_plan_id":"cebpf4jnsgd1na2vs0mg"},{"bike_id":"9eff51d2-941e-43a0-a251-88df6306a705","system_id":"levelo_inurba_marseille","lat":43.30139,"lon":5.39876,"is_reserved":false,"is_disabled":false,"rental_uris":{"android":"levelo://app?vid=9eff51d2-941e-43a0-a251-88df6306a705","ios":"levelo://app?vid=9eff51d2-941e-43a0-a251-88df6306a705"},"vehicle_type_id":"4","last_reported":1747681668,"current_range_meters":13600,"station_id":"ce4bh0h2rcd13ifvqd40","pricing_plan_id":"cebpf4jnsgd1na2vs0mg"},{"bike_id":"df226044-ae71-4884-8afb-ce7cb2751862","system_id":"levelo_inurba_marseille","lat":43.29172,"lon":5.37157,"is_reserved":false,"is_disabled":false,"rental_uris":{"android":"levelo://app?vid=df226044-ae71-4884-8afb-ce7cb2751862","ios":"levelo://app?vid=df226044-ae71-4884-8afb-ce7cb2751862"},"vehicle_type_id":"4","last_reported":1747681668,"current_range_meters":13600,"station_id":"ce4bha92rcd13ifvqeh0","pricing_plan_id":"cebpf4jnsgd1na2vs0mg"},{"bike_id":"2aeaf632-8f44-4284-bf3b-9782c3bf4f04","system_id":"levelo_inurba_marseille","lat":43.27177,"lon":5.40996,"is_reserved":false,"is_disabled":false,"rental_uris":{"android":"levelo://app?vid=2aeaf632-8f44-4284-bf3b-9782c3bf4f04","ios":"levelo://app?vid=2aeaf632-8f44-4284-bf3b-9782c3bf4f04"},"vehicle_type_id":"4","last_reported":1747681668,"current_range_meters":13600,"station_id":"ce4bhl12rcd13ifvqgf0","pricing_plan_id":"cebpf4jnsgd1na2vs0mg"},{"bike_id":"4cf252d5-ad53-42b6-99d0-afef2e5a7b0d","system_id":"levelo_inurba_marseille","lat":43.25113,"lon":5.40321,"is_reserved":false,"is_disabled":false,"rental_uris":{"android":"levelo://app?vid=4cf252d5-ad53-42b6-99d0-afef2e5a7b0d","ios":"levelo://app?vid=4cf252d5-ad53-42b6-99d0-afef2e5a7b0d"},"vehicle_type_id":"4","last_reported":1747681668,"current_range_meters":13600,"station_id":"ce4bhlh2rcd13ifvqgig","pricing_plan_id":"cebpf4jnsgd1na2vs0mg"},{"bike_id":"598900bc-cc96-46f3-b8f9-32958f862dd5","system_id":"levelo_inurba_marseille","lat":43.3042,"lon":5.36785,"is_reserved":false,"is_disabled":false,"rental_uris":{"android":"levelo://app?vid=598900bc-cc96-46f3-b8f9-32958f862dd5","ios":"levelo://app?vid=598900bc-cc96-46f3-b8f9-32958f862dd5"},"vehicle_type_id":"4","last_reported":1747681668,"current_range_meters":14000,"station_id":"","pricing_plan_id":"cebpf4jnsgd1na2vs0mg"},{"bike_id":"1b31bf37-a912-4364-8591-6b0c720766eb","system_id":"levelo_inurba_marseille","lat":43.29935,"lon":5.3655,"is_reserved":false,"is_disabled":false,"rental_uris":{"android":"levelo://app?vid=1b31bf37-a912-4364-8591-6b0c720766eb","ios":"levelo://app?vid=1b31bf37-a912-4364-8591-6b0c720766eb"},"vehicle_type_id":"4","last_reported":1747681668,"current_range_meters":14000,"station_id":"ce4bgm92rcd13ifvqbr0","pricing_plan_id":"cebpf4jnsgd1na2vs0mg"},{"bike_id":"24dbe563-5dda-406b-b0f8-c10d8dbdd999","system_id":"levelo_inurba_marseille","lat":43.31167,"lon":5.38713,"is_reserved":false,"is_disabled":false,"rental_uris":{"android":"levelo://app?vid=24dbe563-5dda-406b-b0f8-c10d8dbdd999","ios":"levelo://app?vid=24dbe563-5dda-406b-b0f8-c10d8dbdd999"},"vehicle_type_id":"4","last_reported":1747681668,"current_range_meters":14000,"station_id":"ce4bgv12rcd13ifvqcp0","pricing_plan_id":"cebpf4jnsgd1na2vs0mg"},{"bike_id":"d6bce87a-b10b-4960-ba8c-ffc855db5e84","system_id":"levelo_inurba_marseille","lat":43.29573,"lon":5.39975,"is_reserved":false,"is_disabled":false,"rental_uris":{"android":"levelo://app?vid=d6bce87a-b10b-4960-ba8c-ffc855db5e84","ios":"levelo://app?vid=d6bce87a-b10b-4960-ba8c-ffc855db5e84"},"vehicle_type_id":"4","last_reported":1747681668,"current_range_meters":14000,"station_id":"ce4bh312rcd13ifvqdj0","pricing_plan_id":"cebpf4jnsgd1na2vs0mg"},{"bike_id":"3532affc-a16c-4c55-aef2-438c57750ba1","system_id":"levelo_inurba_marseille","lat":43.289433,"lon":5.363973,"is_reserved":false,"is_disabled":false,"rental_uris":{"android":"levelo://app?vid=3532affc-a16c-4c55-aef2-438c57750ba1","ios":"levelo://app?vid=3532affc-a16c-4c55-aef2-438c57750ba1"},"vehicle_type_id":"4","last_reported":1747681668,"current_range_meters":14000,"station_id":"ce4bhc92rcd13ifvqetg","pricing_plan_id":"cebpf4jnsgd1na2vs0mg"},{"bike_id":"b7cb1705-6b5a-49c6-8905-4f8177d4379a","system_id":"levelo_inurba_marseille","lat":43.23181,"lon":5.39993,"is_reserved":false,"is_disabled":false,"rental_uris":{"android":"levelo://app?vid=b7cb1705-6b5a-49c6-8905-4f8177d4379a","ios":"levelo://app?vid=b7cb1705-6b5a-49c6-8905-4f8177d4379a"},"vehicle_type_id":"4","last_reported":1747681668,"current_range_meters":14000,"station_id":"ce4bhn12rcd13ifvqgqg","pricing_plan_id":"cebpf4jnsgd1na2vs0mg"},{"bike_id":"08129706-0840-4cc7-a7e9-4dbc2d7407ba","system_id":"levelo_inurba_marseille","lat":43.23199,"lon":5.39995,"is_reserved":false,"is_disabled":false,"rental_uris":{"android":"levelo://app?vid=08129706-0840-4cc7-a7e9-4dbc2d7407ba","ios":"levelo://app?vid=08129706-0840-4cc7-a7e9-4dbc2d7407ba"},"vehicle_type_id":"4","last_reported":1747681668,"current_range_meters":14000,"station_id":"ce4bhn12rcd13ifvqgqg","pricing_plan_id":"cebpf4jnsgd1na2vs0mg"},{"bike_id":"2e360916-7ce5-402e-87af-c4ca7b6b1b94","system_id":"levelo_inurba_marseille","lat":43.28151,"lon":5.42655,"is_reserved":false,"is_disabled":false,"rental_uris":{"android":"levelo://app?vid=2e360916-7ce5-402e-87af-c4ca7b6b1b94","ios":"levelo://app?vid=2e360916-7ce5-402e-87af-c4ca7b6b1b94"},"vehicle_type_id":"4","last_reported":1747681668,"current_range_meters":14000,"station_id":"ce4bhnh2rcd13ifvqgug","pricing_plan_id":"cebpf4jnsgd1na2vs0mg"},{"bike_id":"0f5e51c5-c8d7-47f5-8b06-dfdcf1c9042a","system_id":"levelo_inurba_marseille","lat":43.2978,"lon":5.39317,"is_reserved":false,"is_disabled":false,"rental_uris":{"android":"levelo://app?vid=0f5e51c5-c8d7-47f5-8b06-dfdcf1c9042a","ios":"levelo://app?vid=0f5e51c5-c8d7-47f5-8b06-dfdcf1c9042a"},"vehicle_type_id":"4","last_reported":1747681668,"current_range_meters":14000,"station_id":"chh1huq6cuj3fo74tm60","pricing_plan_id":"cebpf4jnsgd1na2vs0mg"},{"bike_id":"42873080-f9e3-47ba-b353-a90896a97271","system_id":"levelo_inurba_marseille","lat":43.301252,"lon":5.398625,"is_reserved":false,"is_disabled":false,"rental_uris":{"android":"levelo://app?vid=42873080-f9e3-47ba-b353-a90896a97271","ios":"levelo://app?vid=42873080-f9e3-47ba-b353-a90896a97271"},"vehicle_type_id":"4","last_reported":1747681668,"current_range_meters":14400,"station_id":"","pricing_plan_id":"cebpf4jnsgd1na2vs0mg"},{"bike_id":"ae02875b-e754-46d0-9a26-7aad8679d0ba","system_id":"levelo_inurba_marseille","lat":43.30318,"lon":5.40449,"is_reserved":false,"is_disabled":false,"rental_uris":{"android":"levelo://app?vid=ae02875b-e754-46d0-9a26-7aad8679d0ba","ios":"levelo://app?vid=ae02875b-e754-46d0-9a26-7aad8679d0ba"},"vehicle_type_id":"4","last_reported":1747681668,"current_range_meters":14400,"station_id":"ce4bh012rcd13ifvqd10","pricing_plan_id":"cebpf4jnsgd1na2vs0mg"},{"bike_id":"cd3ddaf2-4c0e-4d4a-9304-872103694cba","system_id":"levelo_inurba_marseille","lat":43.28841,"lon":5.35865,"is_reserved":false,"is_disabled":false,"rental_uris":{"android":"levelo://app?vid=cd3ddaf2-4c0e-4d4a-9304-872103694cba","ios":"levelo://app?vid=cd3ddaf2-4c0e-4d4a-9304-872103694cba"},"vehicle_type_id":"4","last_reported":1747681668,"current_range_meters":14400,"station_id":"ce4bhb12rcd13ifvqem0","pricing_plan_id":"cebpf4jnsgd1na2vs0mg"},{"bike_id":"58edc354-c183-4da4-b527-1ba0f2d395e0","system_id":"levelo_inurba_marseille","lat":43.27681,"lon":5.35743,"is_reserved":false,"is_disabled":false,"rental_uris":{"android":"levelo://app?vid=58edc354-c183-4da4-b527-1ba0f2d395e0","ios":"levelo://app?vid=58edc354-c183-4da4-b527-1ba0f2d395e0"},"vehicle_type_id":"4","last_reported":1747681668,"current_range_meters":14800,"station_id":"","pricing_plan_id":"cebpf4jnsgd1na2vs0mg"},{"bike_id":"e8162579-a5ad-485f-ad83-fec8a2ebe7e1","system_id":"levelo_inurba_marseille","lat":43.26826,"lon":5.39099,"is_reserved":false,"is_disabled":false,"rental_uris":{"android":"levelo://app?vid=e8162579-a5ad-485f-ad83-fec8a2ebe7e1","ios":"levelo://app?vid=e8162579-a5ad-485f-ad83-fec8a2ebe7e1"},"vehicle_type_id":"4","last_reported":1747681668,"current_range_meters":14800,"station_id":"","pricing_plan_id":"cebpf4jnsgd1na2vs0mg"},{"bike_id":"5c5a00b5-fb99-4e85-8127-37a584ab780b","system_id":"levelo_inurba_marseille","lat":43.28414,"lon":5.37519,"is_reserved":false,"is_disabled":false,"rental_uris":{"android":"levelo://app?vid=5c5a00b5-fb99-4e85-8127-37a584ab780b","ios":"levelo://app?vid=5c5a00b5-fb99-4e85-8127-37a584ab780b"},"vehicle_type_id":"4","last_reported":1747681668,"current_range_meters":14800,"station_id":"ce4bh412rcd13ifvqds0","pricing_plan_id":"cebpf4jnsgd1na2vs0mg"},{"bike_id":"4d4d050d-116a-4924-b698-5e2b6f9a6583","system_id":"levelo_inurba_marseille","lat":43.29172,"lon":5.37156,"is_reserved":false,"is_disabled":false,"rental_uris":{"android":"levelo://app?vid=4d4d050d-116a-4924-b698-5e2b6f9a6583","ios":"levelo://app?vid=4d4d050d-116a-4924-b698-5e2b6f9a6583"},"vehicle_type_id":"4","last_reported":1747681668,"current_range_meters":14800,"station_id":"ce4bha92rcd13ifvqeh0","pricing_plan_id":"cebpf4jnsgd1na2vs0mg"},{"bike_id":"3a830f17-9930-4703-ac78-6f1f30850c4f","system_id":"levelo_inurba_marseille","lat":43.29016,"lon":5.35595,"is_reserved":false,"is_disabled":false,"rental_uris":{"android":"levelo://app?vid=3a830f17-9930-4703-ac78-6f1f30850c4f","ios":"levelo://app?vid=3a830f17-9930-4703-ac78-6f1f30850c4f"},"vehicle_type_id":"4","last_reported":1747681668,"current_range_meters":14800,"station_id":"ce4bhb92rcd13ifvqen0","pricing_plan_id":"cebpf4jnsgd1na2vs0mg"},{"bike_id":"f9bd452a-300d-4454-890a-c716cf8ab1c5","system_id":"levelo_inurba_marseille","lat":43.25023,"lon":5.38941,"is_reserved":false,"is_disabled":false,"rental_uris":{"android":"levelo://app?vid=f9bd452a-300d-4454-890a-c716cf8ab1c5","ios":"levelo://app?vid=f9bd452a-300d-4454-890a-c716cf8ab1c5"},"vehicle_type_id":"4","last_reported":1747681668,"current_range_meters":14800,"station_id":"ce4bhgp2rcd13ifvqfd0","pricing_plan_id":"cebpf4jnsgd1na2vs0mg"},{"bike_id":"0d48e835-4b26-458e-8d5d-5460f06ea70f","system_id":"levelo_inurba_marseille","lat":43.278353,"lon":5.392097,"is_reserved":false,"is_disabled":false,"rental_uris":{"android":"levelo://app?vid=0d48e835-4b26-458e-8d5d-5460f06ea70f","ios":"levelo://app?vid=0d48e835-4b26-458e-8d5d-5460f06ea70f"},"vehicle_type_id":"4","last_reported":1747681668,"current_range_meters":14800,"station_id":"ce4bhjp2rcd13ifvqga0","pricing_plan_id":"cebpf4jnsgd1na2vs0mg"},{"bike_id":"47674173-1469-4239-b40e-572d37b406ef","system_id":"levelo_inurba_marseille","lat":43.28149,"lon":5.42642,"is_reserved":false,"is_disabled":false,"rental_uris":{"android":"levelo://app?vid=47674173-1469-4239-b40e-572d37b406ef","ios":"levelo://app?vid=47674173-1469-4239-b40e-572d37b406ef"},"vehicle_type_id":"4","last_reported":1747681668,"current_range_meters":14800,"station_id":"ce4bhnh2rcd13ifvqgug","pricing_plan_id":"cebpf4jnsgd1na2vs0mg"},{"bike_id":"0f9d6bdf-1d4f-466e-aa63-557c75d3adc2","system_id":"levelo_inurba_marseille","lat":43.28042,"lon":5.36941,"is_reserved":false,"is_disabled":false,"rental_uris":{"android":"levelo://app?vid=0f9d6bdf-1d4f-466e-aa63-557c75d3adc2","ios":"levelo://app?vid=0f9d6bdf-1d4f-466e-aa63-557c75d3adc2"},"vehicle_type_id":"4","last_reported":1747681668,"current_range_meters":15200,"station_id":"ce4bha12rcd13ifvqef0","pricing_plan_id":"cebpf4jnsgd1na2vs0mg"},{"bike_id":"7ddd82f2-75df-464b-8c03-766d7fbb61de","system_id":"levelo_inurba_marseille","lat":43.29264,"lon":5.40912,"is_reserved":false,"is_disabled":false,"rental_uris":{"android":"levelo://app?vid=7ddd82f2-75df-464b-8c03-766d7fbb61de","ios":"levelo://app?vid=7ddd82f2-75df-464b-8c03-766d7fbb61de"},"vehicle_type_id":"4","last_reported":1747681668,"current_range_meters":16000,"station_id":"ce4bh192rcd13ifvqdc0","pricing_plan_id":"cebpf4jnsgd1na2vs0mg"},{"bike_id":"e2e3a6f6-0f08-4185-b27b-75bc9500a96d","system_id":"levelo_inurba_marseille","lat":43.21191,"lon":5.35072,"is_reserved":false,"is_disabled":false,"rental_uris":{"android":"levelo://app?vid=e2e3a6f6-0f08-4185-b27b-75bc9500a96d","ios":"levelo://app?vid=e2e3a6f6-0f08-4185-b27b-75bc9500a96d"},"vehicle_type_id":"4","last_reported":1747681668,"current_range_meters":16000,"station_id":"st_cvj6sg6p6f1abm77japg","pricing_plan_id":"cebpf4jnsgd1na2vs0mg"},{"bike_id":"3552fbf2-b43a-446f-93f5-d695fc251b73","system_id":"levelo_inurba_marseille","lat":43.25188,"lon":5.37523,"is_reserved":false,"is_disabled":false,"rental_uris":{"android":"levelo://app?vid=3552fbf2-b43a-446f-93f5-d695fc251b73","ios":"levelo://app?vid=3552fbf2-b43a-446f-93f5-d695fc251b73"},"vehicle_type_id":"4","last_reported":1747681668,"current_range_meters":16400,"station_id":"","pricing_plan_id":"cebpf4jnsgd1na2vs0mg"},{"bike_id":"41d22d97-83cd-47f1-8818-b5e928f9e6d5","system_id":"levelo_inurba_marseille","lat":43.29871,"lon":5.39732,"is_reserved":false,"is_disabled":false,"rental_uris":{"android":"levelo://app?vid=41d22d97-83cd-47f1-8818-b5e928f9e6d5","ios":"levelo://app?vid=41d22d97-83cd-47f1-8818-b5e928f9e6d5"},"vehicle_type_id":"4","last_reported":1747681668,"current_range_meters":16400,"station_id":"ce4bh0h2rcd13ifvqd50","pricing_plan_id":"cebpf4jnsgd1na2vs0mg"},{"bike_id":"feceb32c-1a66-4f40-8574-08dc6eea81bc","system_id":"levelo_inurba_marseille","lat":43.29808,"lon":5.40405,"is_reserved":false,"is_disabled":false,"rental_uris":{"android":"levelo://app?vid=feceb32c-1a66-4f40-8574-08dc6eea81bc","ios":"levelo://app?vid=feceb32c-1a66-4f40-8574-08dc6eea81bc"},"vehicle_type_id":"4","last_reported":1747681668,"current_range_meters":16400,"station_id":"ce4bh112rcd13ifvqd90","pricing_plan_id":"cebpf4jnsgd1na2vs0mg"},{"bike_id":"556f14c3-bd96-43ad-8909-a176e855011f","system_id":"levelo_inurba_marseille","lat":43.29528,"lon":5.3904,"is_reserved":false,"is_disabled":false,"rental_uris":{"android":"levelo://app?vid=556f14c3-bd96-43ad-8909-a176e855011f","ios":"levelo://app?vid=556f14c3-bd96-43ad-8909-a176e855011f"},"vehicle_type_id":"4","last_reported":1747681668,"current_range_meters":16400,"station_id":"ce4bh3p2rcd13ifvqdp0","pricing_plan_id":"cebpf4jnsgd1na2vs0mg"},{"bike_id":"b4092363-ce05-481e-b8a5-74f257327df5","system_id":"levelo_inurba_marseille","lat":43.250869,"lon":5.395242,"is_reserved":false,"is_disabled":false,"rental_uris":{"android":"levelo://app?vid=b4092363-ce05-481e-b8a5-74f257327df5","ios":"levelo://app?vid=b4092363-ce05-481e-b8a5-74f257327df5"},"vehicle_type_id":"4","last_reported":1747681668,"current_range_meters":16400,"station_id":"ce4bhm12rcd13ifvqgkg","pricing_plan_id":"cebpf4jnsgd1na2vs0mg"},{"bike_id":"c3c11b11-8507-45b4-bd48-1e3bdd46fbbe","system_id":"levelo_inurba_marseille","lat":43.23184,"lon":5.39985,"is_reserved":false,"is_disabled":false,"rental_uris":{"android":"levelo://app?vid=c3c11b11-8507-45b4-bd48-1e3bdd46fbbe","ios":"levelo://app?vid=c3c11b11-8507-45b4-bd48-1e3bdd46fbbe"},"vehicle_type_id":"4","last_reported":1747681668,"current_range_meters":16400,"station_id":"ce4bhn12rcd13ifvqgqg","pricing_plan_id":"cebpf4jnsgd1na2vs0mg"},{"bike_id":"5b1dc0dd-a67c-4cd7-ae9e-8baf958b5dab","system_id":"levelo_inurba_marseille","lat":43.28155,"lon":5.42659,"is_reserved":false,"is_disabled":false,"rental_uris":{"android":"levelo://app?vid=5b1dc0dd-a67c-4cd7-ae9e-8baf958b5dab","ios":"levelo://app?vid=5b1dc0dd-a67c-4cd7-ae9e-8baf958b5dab"},"vehicle_type_id":"4","last_reported":1747681668,"current_range_meters":16400,"station_id":"ce4bhnh2rcd13ifvqgug","pricing_plan_id":"cebpf4jnsgd1na2vs0mg"},{"bike_id":"8cdd073a-e8df-449a-afb9-12ee118845c7","system_id":"levelo_inurba_marseille","lat":43.29788,"lon":5.39343,"is_reserved":false,"is_disabled":false,"rental_uris":{"android":"levelo://app?vid=8cdd073a-e8df-449a-afb9-12ee118845c7","ios":"levelo://app?vid=8cdd073a-e8df-449a-afb9-12ee118845c7"},"vehicle_type_id":"4","last_reported":1747681668,"current_range_meters":16400,"station_id":"chh1huq6cuj3fo74tm60","pricing_plan_id":"cebpf4jnsgd1na2vs0mg"},{"bike_id":"a77299a9-0afc-4000-817b-f97ca1eaadca","system_id":"levelo_inurba_marseille","lat":43.28824,"lon":5.45958,"is_reserved":false,"is_disabled":false,"rental_uris":{"android":"levelo://app?vid=a77299a9-0afc-4000-817b-f97ca1eaadca","ios":"levelo://app?vid=a77299a9-0afc-4000-817b-f97ca1eaadca"},"vehicle_type_id":"4","last_reported":1747681668,"current_range_meters":16800,"station_id":"","pricing_plan_id":"cebpf4jnsgd1na2vs0mg"},{"bike_id":"6386b301-5c5b-41dc-9be6-064d845d26a2","system_id":"levelo_inurba_marseille","lat":43.28624,"lon":5.40666,"is_reserved":false,"is_disabled":false,"rental_uris":{"android":"levelo://app?vid=6386b301-5c5b-41dc-9be6-064d845d26a2","ios":"levelo://app?vid=6386b301-5c5b-41dc-9be6-064d845d26a2"},"vehicle_type_id":"4","last_reported":1747681668,"current_range_meters":16800,"station_id":"","pricing_plan_id":"cebpf4jnsgd1na2vs0mg"},{"bike_id":"8f9ad8e5-2995-4373-82e2-2e6740189ba1","system_id":"levelo_inurba_marseille","lat":43.30193,"lon":5.36606,"is_reserved":false,"is_disabled":false,"rental_uris":{"android":"levelo://app?vid=8f9ad8e5-2995-4373-82e2-2e6740189ba1","ios":"levelo://app?vid=8f9ad8e5-2995-4373-82e2-2e6740189ba1"},"vehicle_type_id":"4","last_reported":1747681668,"current_range_meters":16800,"station_id":"ce4bgrh2rcd13ifvqc8g","pricing_plan_id":"cebpf4jnsgd1na2vs0mg"},{"bike_id":"e6fa5cfc-9e2a-4166-9cc1-a428d636b66d","system_id":"levelo_inurba_marseille","lat":43.30178,"lon":5.36627,"is_reserved":false,"is_disabled":false,"rental_uris":{"android":"levelo://app?vid=e6fa5cfc-9e2a-4166-9cc1-a428d636b66d","ios":"levelo://app?vid=e6fa5cfc-9e2a-4166-9cc1-a428d636b66d"},"vehicle_type_id":"4","last_reported":1747681668,"current_range_meters":16800,"station_id":"ce4bgrh2rcd13ifvqc8g","pricing_plan_id":"cebpf4jnsgd1na2vs0mg"},{"bike_id":"08ea18f2-dc53-4ee0-8fd1-93801ba6e874","system_id":"levelo_inurba_marseille","lat":43.31066,"lon":5.38349,"is_reserved":false,"is_disabled":false,"rental_uris":{"android":"levelo://app?vid=08ea18f2-dc53-4ee0-8fd1-93801ba6e874","ios":"levelo://app?vid=08ea18f2-dc53-4ee0-8fd1-93801ba6e874"},"vehicle_type_id":"4","last_reported":1747681668,"current_range_meters":16800,"station_id":"ce4bgv92rcd13ifvqcr0","pricing_plan_id":"cebpf4jnsgd1na2vs0mg"},{"bike_id":"3551cd1d-d0a1-4606-adb3-1afc1b9fa011","system_id":"levelo_inurba_marseille","lat":43.29023,"lon":5.3814,"is_reserved":false,"is_disabled":false,"rental_uris":{"android":"levelo://app?vid=3551cd1d-d0a1-4606-adb3-1afc1b9fa011","ios":"levelo://app?vid=3551cd1d-d0a1-4606-adb3-1afc1b9fa011"},"vehicle_type_id":"4","last_reported":1747681668,"current_range_meters":16800,"station_id":"ce4bh4p2rcd13ifvqe1g","pricing_plan_id":"cebpf4jnsgd1na2vs0mg"},{"bike_id":"fd8fbd0c-daa0-407f-8485-61ddfeb88986","system_id":"levelo_inurba_marseille","lat":43.28945,"lon":5.36634,"is_reserved":false,"is_disabled":false,"rental_uris":{"android":"levelo://app?vid=fd8fbd0c-daa0-407f-8485-61ddfeb88986","ios":"levelo://app?vid=fd8fbd0c-daa0-407f-8485-61ddfeb88986"},"vehicle_type_id":"4","last_reported":1747681668,"current_range_meters":16800,"station_id":"ce4bhap2rcd13ifvqek0","pricing_plan_id":"cebpf4jnsgd1na2vs0mg"},{"bike_id":"5a018635-0861-40ca-99c5-49eb76b7c409","system_id":"levelo_inurba_marseille","lat":43.25868,"lon":5.39899,"is_reserved":false,"is_disabled":false,"rental_uris":{"android":"levelo://app?vid=5a018635-0861-40ca-99c5-49eb76b7c409","ios":"levelo://app?vid=5a018635-0861-40ca-99c5-49eb76b7c409"},"vehicle_type_id":"4","last_reported":1747681668,"current_range_meters":16800,"station_id":"ce4bhl92rcd13ifvqghg","pricing_plan_id":"cebpf4jnsgd1na2vs0mg"},{"bike_id":"0c75e290-2f49-4428-9202-02a35670787a","system_id":"levelo_inurba_marseille","lat":43.23179,"lon":5.40001,"is_reserved":false,"is_disabled":false,"rental_uris":{"android":"levelo://app?vid=0c75e290-2f49-4428-9202-02a35670787a","ios":"levelo://app?vid=0c75e290-2f49-4428-9202-02a35670787a"},"vehicle_type_id":"4","last_reported":1747681668,"current_range_meters":16800,"station_id":"ce4bhn12rcd13ifvqgqg","pricing_plan_id":"cebpf4jnsgd1na2vs0mg"},{"bike_id":"8888e192-8eba-4ff4-bcb4-a2e79438368b","system_id":"levelo_inurba_marseille","lat":43.27817,"lon":5.40706,"is_reserved":false,"is_disabled":false,"rental_uris":{"android":"levelo://app?vid=8888e192-8eba-4ff4-bcb4-a2e79438368b","ios":"levelo://app?vid=8888e192-8eba-4ff4-bcb4-a2e79438368b"},"vehicle_type_id":"4","last_reported":1747681668,"current_range_meters":16800,"station_id":"ce4bhnh2rcd13ifvqgtg","pricing_plan_id":"cebpf4jnsgd1na2vs0mg"},{"bike_id":"75dee7d2-0f48-4cd8-b326-0e219910beed","system_id":"levelo_inurba_marseille","lat":43.30808,"lon":5.43532,"is_reserved":false,"is_disabled":false,"rental_uris":{"android":"levelo://app?vid=75dee7d2-0f48-4cd8-b326-0e219910beed","ios":"levelo://app?vid=75dee7d2-0f48-4cd8-b326-0e219910beed"},"vehicle_type_id":"4","last_reported":1747681668,"current_range_meters":17200,"station_id":"ce4bhph2rcd13ifvqheg","pricing_plan_id":"cebpf4jnsgd1na2vs0mg"},{"bike_id":"52e5a0fd-9a82-4a4a-8f0b-b92665327644","system_id":"levelo_inurba_marseille","lat":43.30798,"lon":5.43531,"is_reserved":false,"is_disabled":false,"rental_uris":{"android":"levelo://app?vid=52e5a0fd-9a82-4a4a-8f0b-b92665327644","ios":"levelo://app?vid=52e5a0fd-9a82-4a4a-8f0b-b92665327644"},"vehicle_type_id":"4","last_reported":1747681668,"current_range_meters":17200,"station_id":"ce4bhph2rcd13ifvqheg","pricing_plan_id":"cebpf4jnsgd1na2vs0mg"},{"bike_id":"cba5ee50-87f1-49b7-b373-54abb830d812","system_id":"levelo_inurba_marseille","lat":43.24661,"lon":5.38907,"is_reserved":false,"is_disabled":false,"rental_uris":{"android":"levelo://app?vid=cba5ee50-87f1-49b7-b373-54abb830d812","ios":"levelo://app?vid=cba5ee50-87f1-49b7-b373-54abb830d812"},"vehicle_type_id":"4","last_reported":1747681668,"current_range_meters":17600,"station_id":"ce4bhg12rcd13ifvqf60","pricing_plan_id":"cebpf4jnsgd1na2vs0mg"},{"bike_id":"71817c77-e9f1-483d-89c1-16ca77de3122","system_id":"levelo_inurba_marseille","lat":43.250904,"lon":5.395197,"is_reserved":false,"is_disabled":false,"rental_uris":{"android":"levelo://app?vid=71817c77-e9f1-483d-89c1-16ca77de3122","ios":"levelo://app?vid=71817c77-e9f1-483d-89c1-16ca77de3122"},"vehicle_type_id":"4","last_reported":1747681668,"current_range_meters":17600,"station_id":"ce4bhm12rcd13ifvqgkg","pricing_plan_id":"cebpf4jnsgd1na2vs0mg"},{"bike_id":"bfadeaec-216b-47d1-99b4-74d81f9ee763","system_id":"levelo_inurba_marseille","lat":43.32122,"lon":5.36782,"is_reserved":false,"is_disabled":false,"rental_uris":{"android":"levelo://app?vid=bfadeaec-216b-47d1-99b4-74d81f9ee763","ios":"levelo://app?vid=bfadeaec-216b-47d1-99b4-74d81f9ee763"},"vehicle_type_id":"4","last_reported":1747681668,"current_range_meters":17600,"station_id":"ce4bhrh2rcd13ifvqhug","pricing_plan_id":"cebpf4jnsgd1na2vs0mg"},{"bike_id":"00f4fafd-b91e-4643-be3d-5d2f715443e7","system_id":"levelo_inurba_marseille","lat":43.29819,"lon":5.40403,"is_reserved":false,"is_disabled":false,"rental_uris":{"android":"levelo://app?vid=00f4fafd-b91e-4643-be3d-5d2f715443e7","ios":"levelo://app?vid=00f4fafd-b91e-4643-be3d-5d2f715443e7"},"vehicle_type_id":"4","last_reported":1747681668,"current_range_meters":18000,"station_id":"ce4bh112rcd13ifvqd90","pricing_plan_id":"cebpf4jnsgd1na2vs0mg"},{"bike_id":"b382ee40-568b-43b7-96f1-4ffc4397c109","system_id":"levelo_inurba_marseille","lat":43.29419,"lon":5.38623,"is_reserved":false,"is_disabled":false,"rental_uris":{"android":"levelo://app?vid=b382ee40-568b-43b7-96f1-4ffc4397c109","ios":"levelo://app?vid=b382ee40-568b-43b7-96f1-4ffc4397c109"},"vehicle_type_id":"4","last_reported":1747681668,"current_range_meters":18000,"station_id":"ce4bh2h2rcd13ifvqdh0","pricing_plan_id":"cebpf4jnsgd1na2vs0mg"},{"bike_id":"2995f5cf-ced2-4f74-a517-d5914e26322d","system_id":"levelo_inurba_marseille","lat":43.28676,"lon":5.37425,"is_reserved":false,"is_disabled":false,"rental_uris":{"android":"levelo://app?vid=2995f5cf-ced2-4f74-a517-d5914e26322d","ios":"levelo://app?vid=2995f5cf-ced2-4f74-a517-d5914e26322d"},"vehicle_type_id":"4","last_reported":1747681668,"current_range_meters":18000,"station_id":"ce4bh3p2rcd13ifvqdq0","pricing_plan_id":"cebpf4jnsgd1na2vs0mg"},{"bike_id":"49e3e4e0-3d49-4d07-929a-4d909cb98903","system_id":"levelo_inurba_marseille","lat":43.29184,"lon":5.37174,"is_reserved":false,"is_disabled":false,"rental_uris":{"android":"levelo://app?vid=49e3e4e0-3d49-4d07-929a-4d909cb98903","ios":"levelo://app?vid=49e3e4e0-3d49-4d07-929a-4d909cb98903"},"vehicle_type_id":"4","last_reported":1747681668,"current_range_meters":18000,"station_id":"ce4bha92rcd13ifvqeh0","pricing_plan_id":"cebpf4jnsgd1na2vs0mg"},{"bike_id":"1ffd9c81-d714-449b-b25f-ee94657f364d","system_id":"levelo_inurba_marseille","lat":43.291649,"lon":5.37171,"is_reserved":false,"is_disabled":false,"rental_uris":{"android":"levelo://app?vid=1ffd9c81-d714-449b-b25f-ee94657f364d","ios":"levelo://app?vid=1ffd9c81-d714-449b-b25f-ee94657f364d"},"vehicle_type_id":"4","last_reported":1747681668,"current_range_meters":18000,"station_id":"ce4bha92rcd13ifvqeh0","pricing_plan_id":"cebpf4jnsgd1na2vs0mg"},{"bike_id":"355fa922-9f86-4264-9051-ad322d8753e8","system_id":"levelo_inurba_marseille","lat":43.28937,"lon":5.3663,"is_reserved":false,"is_disabled":false,"rental_uris":{"android":"levelo://app?vid=355fa922-9f86-4264-9051-ad322d8753e8","ios":"levelo://app?vid=355fa922-9f86-4264-9051-ad322d8753e8"},"vehicle_type_id":"4","last_reported":1747681668,"current_range_meters":18000,"station_id":"ce4bhap2rcd13ifvqek0","pricing_plan_id":"cebpf4jnsgd1na2vs0mg"},{"bike_id":"b16edc84-e3ea-405b-af1d-0287d628e760","system_id":"levelo_inurba_marseille","lat":43.29007,"lon":5.35613,"is_reserved":false,"is_disabled":false,"rental_uris":{"android":"levelo://app?vid=b16edc84-e3ea-405b-af1d-0287d628e760","ios":"levelo://app?vid=b16edc84-e3ea-405b-af1d-0287d628e760"},"vehicle_type_id":"4","last_reported":1747681668,"current_range_meters":18000,"station_id":"ce4bhb92rcd13ifvqen0","pricing_plan_id":"cebpf4jnsgd1na2vs0mg"},{"bike_id":"e1d57822-ecc8-4c43-b3f2-6f5adecafb55","system_id":"levelo_inurba_marseille","lat":43.25084,"lon":5.39522,"is_reserved":false,"is_disabled":false,"rental_uris":{"android":"levelo://app?vid=e1d57822-ecc8-4c43-b3f2-6f5adecafb55","ios":"levelo://app?vid=e1d57822-ecc8-4c43-b3f2-6f5adecafb55"},"vehicle_type_id":"4","last_reported":1747681668,"current_range_meters":18000,"station_id":"ce4bhm12rcd13ifvqgkg","pricing_plan_id":"cebpf4jnsgd1na2vs0mg"},{"bike_id":"dc80936a-51b4-4ef9-b71e-e259b58f2ac3","system_id":"levelo_inurba_marseille","lat":43.231855,"lon":5.399815,"is_reserved":false,"is_disabled":false,"rental_uris":{"android":"levelo://app?vid=dc80936a-51b4-4ef9-b71e-e259b58f2ac3","ios":"levelo://app?vid=dc80936a-51b4-4ef9-b71e-e259b58f2ac3"},"vehicle_type_id":"4","last_reported":1747681668,"current_range_meters":18000,"station_id":"ce4bhn12rcd13ifvqgqg","pricing_plan_id":"cebpf4jnsgd1na2vs0mg"},{"bike_id":"dfb2470b-629c-47b8-b6f7-461c0e3eb94b","system_id":"levelo_inurba_marseille","lat":43.27846,"lon":5.40714,"is_reserved":false,"is_disabled":false,"rental_uris":{"android":"levelo://app?vid=dfb2470b-629c-47b8-b6f7-461c0e3eb94b","ios":"levelo://app?vid=dfb2470b-629c-47b8-b6f7-461c0e3eb94b"},"vehicle_type_id":"4","last_reported":1747681668,"current_range_meters":18000,"station_id":"ce4bhnh2rcd13ifvqgtg","pricing_plan_id":"cebpf4jnsgd1na2vs0mg"},{"bike_id":"ec2e7cdc-5a49-4257-b205-f17da4cbfbe8","system_id":"levelo_inurba_marseille","lat":43.28731,"lon":5.36074,"is_reserved":false,"is_disabled":false,"rental_uris":{"android":"levelo://app?vid=ec2e7cdc-5a49-4257-b205-f17da4cbfbe8","ios":"levelo://app?vid=ec2e7cdc-5a49-4257-b205-f17da4cbfbe8"},"vehicle_type_id":"4","last_reported":1747681668,"current_range_meters":18000,"station_id":"cki0cbj6b192h4jlfktg","pricing_plan_id":"cebpf4jnsgd1na2vs0mg"},{"bike_id":"eb50d7ba-bc17-4c3b-b391-7940c445d75f","system_id":"levelo_inurba_marseille","lat":43.29423,"lon":5.3862,"is_reserved":false,"is_disabled":false,"rental_uris":{"android":"levelo://app?vid=eb50d7ba-bc17-4c3b-b391-7940c445d75f","ios":"levelo://app?vid=eb50d7ba-bc17-4c3b-b391-7940c445d75f"},"vehicle_type_id":"4","last_reported":1747681668,"current_range_meters":18800,"station_id":"ce4bh2h2rcd13ifvqdh0","pricing_plan_id":"cebpf4jnsgd1na2vs0mg"},{"bike_id":"9b2aa40e-57c3-4408-94ac-4c591bc4a178","system_id":"levelo_inurba_marseille","lat":43.29454,"lon":5.3974,"is_reserved":false,"is_disabled":false,"rental_uris":{"android":"levelo://app?vid=9b2aa40e-57c3-4408-94ac-4c591bc4a178","ios":"levelo://app?vid=9b2aa40e-57c3-4408-94ac-4c591bc4a178"},"vehicle_type_id":"4","last_reported":1747681668,"current_range_meters":18800,"station_id":"ce4bh3h2rcd13ifvqdo0","pricing_plan_id":"cebpf4jnsgd1na2vs0mg"},{"bike_id":"0d0d9daa-54f5-4633-aaad-0a8d4917551c","system_id":"levelo_inurba_marseille","lat":43.28408,"lon":5.37516,"is_reserved":false,"is_disabled":false,"rental_uris":{"android":"levelo://app?vid=0d0d9daa-54f5-4633-aaad-0a8d4917551c","ios":"levelo://app?vid=0d0d9daa-54f5-4633-aaad-0a8d4917551c"},"vehicle_type_id":"4","last_reported":1747681668,"current_range_meters":18800,"station_id":"ce4bh412rcd13ifvqds0","pricing_plan_id":"cebpf4jnsgd1na2vs0mg"},{"bike_id":"f0100d69-0bcd-43e8-a0f2-23a3d83962a1","system_id":"levelo_inurba_marseille","lat":43.29163,"lon":5.37151,"is_reserved":false,"is_disabled":false,"rental_uris":{"android":"levelo://app?vid=f0100d69-0bcd-43e8-a0f2-23a3d83962a1","ios":"levelo://app?vid=f0100d69-0bcd-43e8-a0f2-23a3d83962a1"},"vehicle_type_id":"4","last_reported":1747681668,"current_range_meters":18800,"station_id":"ce4bha92rcd13ifvqeh0","pricing_plan_id":"cebpf4jnsgd1na2vs0mg"},{"bike_id":"09c8c0f2-9791-488d-8ff2-3e01c3552631","system_id":"levelo_inurba_marseille","lat":43.27375,"lon":5.3626,"is_reserved":false,"is_disabled":false,"rental_uris":{"android":"levelo://app?vid=09c8c0f2-9791-488d-8ff2-3e01c3552631","ios":"levelo://app?vid=09c8c0f2-9791-488d-8ff2-3e01c3552631"},"vehicle_type_id":"4","last_reported":1747681668,"current_range_meters":18800,"station_id":"ce4bhbh2rcd13ifvqeo0","pricing_plan_id":"cebpf4jnsgd1na2vs0mg"},{"bike_id":"094332af-7863-4c9b-b973-ff23daa8d0b7","system_id":"levelo_inurba_marseille","lat":43.24675,"lon":5.38157,"is_reserved":false,"is_disabled":false,"rental_uris":{"android":"levelo://app?vid=094332af-7863-4c9b-b973-ff23daa8d0b7","ios":"levelo://app?vid=094332af-7863-4c9b-b973-ff23daa8d0b7"},"vehicle_type_id":"4","last_reported":1747681668,"current_range_meters":18800,"station_id":"ce4bhih2rcd13ifvqfr0","pricing_plan_id":"cebpf4jnsgd1na2vs0mg"},{"bike_id":"21cee9db-20c3-4d69-a453-bfb413715ef9","system_id":"levelo_inurba_marseille","lat":43.25837,"lon":5.39412,"is_reserved":false,"is_disabled":false,"rental_uris":{"android":"levelo://app?vid=21cee9db-20c3-4d69-a453-bfb413715ef9","ios":"levelo://app?vid=21cee9db-20c3-4d69-a453-bfb413715ef9"},"vehicle_type_id":"4","last_reported":1747681668,"current_range_meters":18800,"station_id":"ce4bhip2rcd13ifvqft0","pricing_plan_id":"cebpf4jnsgd1na2vs0mg"},{"bike_id":"284cff7e-35b1-4b40-806f-07b7861c8f01","system_id":"levelo_inurba_marseille","lat":43.28572,"lon":5.39498,"is_reserved":false,"is_disabled":false,"rental_uris":{"android":"levelo://app?vid=284cff7e-35b1-4b40-806f-07b7861c8f01","ios":"levelo://app?vid=284cff7e-35b1-4b40-806f-07b7861c8f01"},"vehicle_type_id":"4","last_reported":1747681668,"current_range_meters":19200,"station_id":"ce4bh292rcd13ifvqdg0","pricing_plan_id":"cebpf4jnsgd1na2vs0mg"},{"bike_id":"9ba82ffc-6d23-469b-80da-73874fd23153","system_id":"levelo_inurba_marseille","lat":43.27077,"lon":5.42277,"is_reserved":false,"is_disabled":false,"rental_uris":{"android":"levelo://app?vid=9ba82ffc-6d23-469b-80da-73874fd23153","ios":"levelo://app?vid=9ba82ffc-6d23-469b-80da-73874fd23153"},"vehicle_type_id":"4","last_reported":1747681668,"current_range_meters":19200,"station_id":"ce4bhk92rcd13ifvqgb0","pricing_plan_id":"cebpf4jnsgd1na2vs0mg"},{"bike_id":"8112385f-309e-415a-a184-6310016f48ae","system_id":"levelo_inurba_marseille","lat":43.27829,"lon":5.40714,"is_reserved":false,"is_disabled":false,"rental_uris":{"android":"levelo://app?vid=8112385f-309e-415a-a184-6310016f48ae","ios":"levelo://app?vid=8112385f-309e-415a-a184-6310016f48ae"},"vehicle_type_id":"4","last_reported":1747681668,"current_range_meters":19200,"station_id":"ce4bhnh2rcd13ifvqgtg","pricing_plan_id":"cebpf4jnsgd1na2vs0mg"},{"bike_id":"3850eefb-5b71-4a1a-b547-7921c8dd251d","system_id":"levelo_inurba_marseille","lat":43.28001,"lon":5.40024,"is_reserved":false,"is_disabled":false,"rental_uris":{"android":"levelo://app?vid=3850eefb-5b71-4a1a-b547-7921c8dd251d","ios":"levelo://app?vid=3850eefb-5b71-4a1a-b547-7921c8dd251d"},"vehicle_type_id":"4","last_reported":1747681668,"current_range_meters":19200,"station_id":"ce4bho92rcd13ifvqh4g","pricing_plan_id":"cebpf4jnsgd1na2vs0mg"},{"bike_id":"5765434c-77b5-41b5-8b14-b978e4d6dd10","system_id":"levelo_inurba_marseille","lat":43.21192,"lon":5.35099,"is_reserved":false,"is_disabled":false,"rental_uris":{"android":"levelo://app?vid=5765434c-77b5-41b5-8b14-b978e4d6dd10","ios":"levelo://app?vid=5765434c-77b5-41b5-8b14-b978e4d6dd10"},"vehicle_type_id":"4","last_reported":1747681668,"current_range_meters":19200,"station_id":"st_cvj6sg6p6f1abm77japg","pricing_plan_id":"cebpf4jnsgd1na2vs0mg"},{"bike_id":"5f8d5d9c-831b-4782-a2bf-71766b707311","system_id":"levelo_inurba_marseille","lat":43.2981,"lon":5.40409,"is_reserved":false,"is_disabled":false,"rental_uris":{"android":"levelo://app?vid=5f8d5d9c-831b-4782-a2bf-71766b707311","ios":"levelo://app?vid=5f8d5d9c-831b-4782-a2bf-71766b707311"},"vehicle_type_id":"4","last_reported":1747681668,"current_range_meters":19600,"station_id":"ce4bh112rcd13ifvqd90","pricing_plan_id":"cebpf4jnsgd1na2vs0mg"},{"bike_id":"0d3ccb09-c68e-4638-8525-8137a3fe8e68","system_id":"levelo_inurba_marseille","lat":43.28848,"lon":5.39309,"is_reserved":false,"is_disabled":false,"rental_uris":{"android":"levelo://app?vid=0d3ccb09-c68e-4638-8525-8137a3fe8e68","ios":"levelo://app?vid=0d3ccb09-c68e-4638-8525-8137a3fe8e68"},"vehicle_type_id":"4","last_reported":1747681668,"current_range_meters":19600,"station_id":"ce4bh2p2rcd13ifvqdi0","pricing_plan_id":"cebpf4jnsgd1na2vs0mg"},{"bike_id":"fd7ded09-49a4-42ac-98bc-9097d4eb3df9","system_id":"levelo_inurba_marseille","lat":43.29025,"lon":5.38131,"is_reserved":false,"is_disabled":false,"rental_uris":{"android":"levelo://app?vid=fd7ded09-49a4-42ac-98bc-9097d4eb3df9","ios":"levelo://app?vid=fd7ded09-49a4-42ac-98bc-9097d4eb3df9"},"vehicle_type_id":"4","last_reported":1747681668,"current_range_meters":19600,"station_id":"ce4bh4p2rcd13ifvqe1g","pricing_plan_id":"cebpf4jnsgd1na2vs0mg"},{"bike_id":"697a9b19-19cf-408f-a646-3bcdb4d31625","system_id":"levelo_inurba_marseille","lat":43.24671,"lon":5.38163,"is_reserved":false,"is_disabled":false,"rental_uris":{"android":"levelo://app?vid=697a9b19-19cf-408f-a646-3bcdb4d31625","ios":"levelo://app?vid=697a9b19-19cf-408f-a646-3bcdb4d31625"},"vehicle_type_id":"4","last_reported":1747681668,"current_range_meters":19600,"station_id":"ce4bhih2rcd13ifvqfr0","pricing_plan_id":"cebpf4jnsgd1na2vs0mg"},{"bike_id":"3a78ca34-3310-4ba2-bd48-75f23e091e71","system_id":"levelo_inurba_marseille","lat":43.29787,"lon":5.39332,"is_reserved":false,"is_disabled":false,"rental_uris":{"android":"levelo://app?vid=3a78ca34-3310-4ba2-bd48-75f23e091e71","ios":"levelo://app?vid=3a78ca34-3310-4ba2-bd48-75f23e091e71"},"vehicle_type_id":"4","last_reported":1747681668,"current_range_meters":19600,"station_id":"chh1huq6cuj3fo74tm60","pricing_plan_id":"cebpf4jnsgd1na2vs0mg"},