{"last_updated":1771276698,"ttl":60,"version":"2.2","data":{"bikes":[{"bike_id":"d7118046-cefa-4587-89ed-6c45cd917a4f","system_id":"levelo_inurba_marseille","lat":43.23969,"lon":5.36631,"is_reserved":false,"is_disabled":false,"rental_uris":{"android":"levelo://app?vid=d7118046-cefa-4587-89ed-6c45cd917a4f","ios":"levelo://app?vid=d7118046-cefa-4587-89ed-6c45cd917a4f"},"vehicle_type_id":"4","last_reported":1771276699,"current_range_meters":39200,"station_id":"ce4bhi12rcd13ifvqfp0","pricing_plan_id":"cebpf4jnsgd1na2vs0mg"},{"bike_id":"9aa30411-4109-4d71-8b85-65127a6483db","system_id":"levelo_inurba_marseille","lat":43.27954,"lon":5.41051,"is_reserved":false,"is_disabled":true,"rental_uris":{"android":"levelo://app?vid=9aa30411-4109-4d71-8b85-65127a6483db","ios":"levelo://app?vid=9aa30411-4109-4d71-8b85-65127a6483db"},"vehicle_type_id":"4","last_reported":1771276699,"current_range_meters":28800,"station_id":"ce4bhnp2rcd13ifvqh0g","pricing_plan_id":"cebpf4jnsgd1na2vs0mg"},{"bike_id":"9fdfd435-ee1a-4566-9fad-8b87ca04be7e","system_id":"levelo_inurba_marseille","lat":43.31247,"lon":5.36841,"is_reserved":false,"is_disabled":false,"rental_uris":{"android":"levelo://app?vid=9fdfd435-ee1a-4566-9fad-8b87ca04be7e","ios":"levelo://app?vid=9fdfd435-ee1a-4566-9fad-8b87ca04be7e"},"vehicle_type_id":"4","last_reported":1771276699,"current_range_meters":18000,"station_id":"ce4bgl92rcd13ifvqbq0","pricing_plan_id":"cebpf4jnsgd1na2vs0mg"},{"bike_id":"6e07964d-6fe0-4880-a3fa-e2373dfa83a6","system_id":"levelo_inurba_marseille","lat":43.33161,"lon":5.37709,"is_reserved":false,"is_disabled":false,"rental_uris":{"android":"levelo://app?vid=6e07964d-6fe0-4880-a3fa-e2373dfa83a6","ios":"levelo://app?vid=6e07964d-6fe0-4880-a3fa-e2373dfa83a6"},"vehicle_type_id":"4","last_reported":1771276699,"current_range_meters":30000,"station_id":"st_d46cu089ee8s73dldbu0","pricing_plan_id":"cebpf4jnsgd1na2vs0mg"},{"bike_id":"e57f119f-8a24-4ef5-97d1-e242618f91a0","system_id":"levelo_inurba_marseille","lat":43.26229,"lon":5.40453,"is_reserved":false,"is_disabled":false,"rental_uris":{"android":"levelo://app?vid=e57f119f-8a24-4ef5-97d1-e242618f91a0","ios":"levelo://app?vid=e57f119f-8a24-4ef5-97d1-e242618f91a0"},"vehicle_type_id":"4","last_reported":1771276699,"current_range_meters":24400,"station_id":"ce4bhmh2rcd13ifvqgmg","pricing_plan_id":"cebpf4jnsgd1na2vs0mg"},{"bike_id":"33e04ab4-8566-4c76-a0fd-aad45455c18f","system_id":"levelo_inurba_marseille","lat":43.24831,"lon":5.37483,"is_reserved":false,"is_disabled":false,"rental_uris":{"android":"levelo://app?vid=33e04ab4-8566-4c76-a0fd-aad45455c18f","ios":"levelo://app?vid=33e04ab4-8566-4c76-a0fd-aad45455c18f"},"vehicle_type_id":"4","last_reported":1771276699,"current_range_meters":38000,"station_id":"","pricing_plan_id":"cebpf4jnsgd1na2vs0mg"},{"bike_id":"3975a841-e136-4ffc-9340-b611eb80ecaa","system_id":"levelo_inurba_marseille","lat":43.24553,"lon":5.39523,"is_reserved":false,"is_disabled":false,"rental_uris":{"android":"levelo://app?vid=3975a841-e136-4ffc-9340-b611eb80ecaa","ios":"levelo://app?vid=3975a841-e136-4ffc-9340-b611eb80ecaa"},"vehicle_type_id":"4","last_reported":1771276699,"current_range_meters":34800,"station_id":"ce4bhlp2rcd13ifvqgjg","pricing_plan_id":"cebpf4jnsgd1na2vs0mg"},{"bike_id":"b5d21b34-ba85-49a4-b964-e2def336368b","system_id":"levelo_inurba_marseille","lat":43.26545,"lon":5.37305,"is_reserved":false,"is_disabled":true,"rental_uris":{"android":"levelo://app?vid=b5d21b34-ba85-49a4-b964-e2def336368b","ios":"levelo://app?vid=b5d21b34-ba85-49a4-b964-e2def336368b"},"vehicle_type_id":"4","last_reported":1771276699,"current_range_meters":38800,"station_id":"ce4bhg12rcd13ifvqf70","pricing_plan_id":"cebpf4jnsgd1na2vs0mg"},{"bike_id":"21dad158-c679-436c-89c8-cc36c7b585be","system_id":"levelo_inurba_marseille","lat":43.2986,"lon":5.37364,"is_reserved":false,"is_disabled":true,"rental_uris":{"android":"levelo://app?vid=21dad158-c679-436c-89c8-cc36c7b585be","ios":"levelo://app?vid=21dad158-c679-436c-89c8-cc36c7b585be"},"vehicle_type_id":"4","last_reported":1771276699,"current_range_meters":10000,"station_id":"","pricing_plan_id":"cebpf4jnsgd1na2vs0mg"},{"bike_id":"3e966140-e94e-43e6-a5a5-d2e8198d6f0d","system_id":"levelo_inurba_marseille","lat":43.26061,"lon":5.39373,"is_reserved":false,"is_disabled":false,"rental_uris":{"android":"levelo://app?vid=3e966140-e94e-43e6-a5a5-d2e8198d6f0d","ios":"levelo://app?vid=3e966140-e94e-43e6-a5a5-d2e8198d6f0d"},"vehicle_type_id":"4","last_reported":1771276699,"current_range_meters":13600,"station_id":"ce4bhh92rcd13ifvqfj0","pricing_plan_id":"cebpf4jnsgd1na2vs0mg"},{"bike_id":"74515861-cbb7-4ce1-8e3a-ac2705263ef3","system_id":"levelo_inurba_marseille","lat":43.304207,"lon":5.412811,"is_reserved":false,"is_disabled":false,"rental_uris":{"android":"levelo://app?vid=74515861-cbb7-4ce1-8e3a-ac2705263ef3","ios":"levelo://app?vid=74515861-cbb7-4ce1-8e3a-ac2705263ef3"},"vehicle_type_id":"4","last_reported":1771276699,"current_range_meters":11200,"station_id":"ce4bhop2rcd13ifvqh8g","pricing_plan_id":"cebpf4jnsgd1na2vs0mg"},{"bike_id":"f5ff8aa9-673d-4e9f-b19d-9737360b0355","system_id":"levelo_inurba_marseille","lat":43.31397,"lon":5.38487,"is_reserved":false,"is_disabled":false,"rental_uris":{"android":"levelo://app?vid=f5ff8aa9-673d-4e9f-b19d-9737360b0355","ios":"levelo://app?vid=f5ff8aa9-673d-4e9f-b19d-9737360b0355"},"vehicle_type_id":"4","last_reported":1771276699,"current_range_meters":8000,"station_id":"ce4bgt92rcd13ifvqcf0","pricing_plan_id":"cebpf4jnsgd1na2vs0mg"},{"bike_id":"e73e918e-8d3c-4387-bd43-d5051294f257","system_id":"levelo_inurba_marseille","lat":43.27496,"lon":5.42459,"is_reserved":false,"is_disabled":false,"rental_uris":{"android":"levelo://app?vid=e73e918e-8d3c-4387-bd43-d5051294f257","ios":"levelo://app?vid=e73e918e-8d3c-4387-bd43-d5051294f257"},"vehicle_type_id":"4","last_reported":1771276699,"current_range_meters":30800,"station_id":"ce4bhn92rcd13ifvqgrg","pricing_plan_id":"cebpf4jnsgd1na2vs0mg"},{"bike_id":"f2f05234-5926-4d0a-9c36-64e06f4aa31d","system_id":"levelo_inurba_marseille","lat":43.24385,"lon":5.37108,"is_reserved":false,"is_disabled":false,"rental_uris":{"android":"levelo://app?vid=f2f05234-5926-4d0a-9c36-64e06f4aa31d","ios":"levelo://app?vid=f2f05234-5926-4d0a-9c36-64e06f4aa31d"},"vehicle_type_id":"4","last_reported":1771276699,"current_range_meters":14000,"station_id":"ce4bhhh2rcd13ifvqfk0","pricing_plan_id":"cebpf4jnsgd1na2vs0mg"},{"bike_id":"5aa51cda-865b-4c09-9e46-9bd7bffd076b","system_id":"levelo_inurba_marseille","lat":43.28407,"lon":5.37523,"is_reserved":false,"is_disabled":false,"rental_uris":{"android":"levelo://app?vid=5aa51cda-865b-4c09-9e46-9bd7bffd076b","ios":"levelo://app?vid=5aa51cda-865b-4c09-9e46-9bd7bffd076b"},"vehicle_type_id":"4","last_reported":1771276699,"current_range_meters":36400,"station_id":"ce4bh412rcd13ifvqds0","pricing_plan_id":"cebpf4jnsgd1na2vs0mg"},{"bike_id":"05410587-b482-4fdf-9b03-646f6d5cb761","system_id":"levelo_inurba_marseille","lat":43.23792,"lon":5.36647,"is_reserved":false,"is_disabled":false,"rental_uris":{"android":"levelo://app?vid=05410587-b482-4fdf-9b03-646f6d5cb761","ios":"levelo://app?vid=05410587-b482-4fdf-9b03-646f6d5cb761"},"vehicle_type_id":"4","last_reported":1771276699,"current_range_meters":32000,"station_id":"st_d3nk18o9ro0c73en2l3g","pricing_plan_id":"cebpf4jnsgd1na2vs0mg"},{"bike_id":"bee29b99-85a3-4bac-921c-887870ddb3a4","system_id":"levelo_inurba_marseille","lat":43.28464,"lon":5.35883,"is_reserved":false,"is_disabled":false,"rental_uris":{"android":"levelo://app?vid=bee29b99-85a3-4bac-921c-887870ddb3a4","ios":"levelo://app?vid=bee29b99-85a3-4bac-921c-887870ddb3a4"},"vehicle_type_id":"4","last_reported":1771276699,"current_range_meters":37600,"station_id":"ce4bhah2rcd13ifvqei0","pricing_plan_id":"cebpf4jnsgd1na2vs0mg"},{"bike_id":"9b8d0618-07fc-46a7-a3fe-13368a8eb2ed","system_id":"levelo_inurba_marseille","lat":43.29896,"lon":5.39747,"is_reserved":false,"is_disabled":false,"rental_uris":{"android":"levelo://app?vid=9b8d0618-07fc-46a7-a3fe-13368a8eb2ed","ios":"levelo://app?vid=9b8d0618-07fc-46a7-a3fe-13368a8eb2ed"},"vehicle_type_id":"4","last_reported":1771276699,"current_range_meters":39200,"station_id":"ce4bh0h2rcd13ifvqd50","pricing_plan_id":"cebpf4jnsgd1na2vs0mg"},{"bike_id":"4f189156-cde6-422f-b721-2da60291ecba","system_id":"levelo_inurba_marseille","lat":43.29772,"lon":5.38122,"is_reserved":false,"is_disabled":true,"rental_uris":{"android":"levelo://app?vid=4f189156-cde6-422f-b721-2da60291ecba","ios":"levelo://app?vid=4f189156-cde6-422f-b721-2da60291ecba"},"vehicle_type_id":"4","last_reported":1771276699,"current_range_meters":39200,"station_id":"ce4bgip2rcd13ifvqbb0","pricing_plan_id":"cebpf4jnsgd1na2vs0mg"},{"bike_id":"b74eb24a-bbac-4a24-8903-f7188ea07ddc","system_id":"levelo_inurba_marseille","lat":43.30217,"lon":5.36661,"is_reserved":false,"is_disabled":false,"rental_uris":{"android":"levelo://app?vid=b74eb24a-bbac-4a24-8903-f7188ea07ddc","ios":"levelo://app?vid=b74eb24a-bbac-4a24-8903-f7188ea07ddc"},"vehicle_type_id":"4","last_reported":1771276699,"current_range_meters":38400,"station_id":"ce4bgrh2rcd13ifvqc8g","pricing_plan_id":"cebpf4jnsgd1na2vs0mg"},{"bike_id":"96ba3f4f-0e70-4352-8e6b-4135d6897805","system_id":"levelo_inurba_marseille","lat":43.254936,"lon":5.376386,"is_reserved":false,"is_disabled":false,"rental_uris":{"android":"levelo://app?vid=96ba3f4f-0e70-4352-8e6b-4135d6897805","ios":"levelo://app?vid=96ba3f4f-0e70-4352-8e6b-4135d6897805"},"vehicle_type_id":"4","last_reported":1771276699,"current_range_meters":36400,"station_id":"ce4bhh12rcd13ifvqff0","pricing_plan_id":"cebpf4jnsgd1na2vs0mg"},{"bike_id":"36c72a3b-1570-442e-9c9f-46e9334ca723","system_id":"levelo_inurba_marseille","lat":43.27814,"lon":5.40722,"is_reserved":false,"is_disabled":false,"rental_uris":{"android":"levelo://app?vid=36c72a3b-1570-442e-9c9f-46e9334ca723","ios":"levelo://app?vid=36c72a3b-1570-442e-9c9f-46e9334ca723"},"vehicle_type_id":"4","last_reported":1771276699,"current_range_meters":32800,"station_id":"ce4bhnh2rcd13ifvqgtg","pricing_plan_id":"cebpf4jnsgd1na2vs0mg"},{"bike_id":"289093e1-a86d-4b45-8271-8c5a7a376576","system_id":"levelo_inurba_marseille","lat":43.289336,"lon":5.38378,"is_reserved":false,"is_disabled":false,"rental_uris":{"android":"levelo://app?vid=289093e1-a86d-4b45-8271-8c5a7a376576","ios":"levelo://app?vid=289093e1-a86d-4b45-8271-8c5a7a376576"},"vehicle_type_id":"4","last_reported":1771276699,"current_range_meters":33600,"station_id":"ce4bh612rcd13ifvqe6g","pricing_plan_id":"cebpf4jnsgd1na2vs0mg"},{"bike_id":"29127fb8-f523-47cc-86a6-886390860523","system_id":"levelo_inurba_marseille","lat":43.30614,"lon":5.37237,"is_reserved":false,"is_disabled":false,"rental_uris":{"android":"levelo://app?vid=29127fb8-f523-47cc-86a6-886390860523","ios":"levelo://app?vid=29127fb8-f523-47cc-86a6-886390860523"},"vehicle_type_id":"4","last_reported":1771276699,"current_range_meters":35600,"station_id":"ce4bgqh2rcd13ifvqc4g","pricing_plan_id":"cebpf4jnsgd1na2vs0mg"},{"bike_id":"3b6a304c-f8a3-4942-805d-a3b79cb2b45e","system_id":"levelo_inurba_marseille","lat":43.33556,"lon":5.37475,"is_reserved":false,"is_disabled":false,"rental_uris":{"android":"levelo://app?vid=3b6a304c-f8a3-4942-805d-a3b79cb2b45e","ios":"levelo://app?vid=3b6a304c-f8a3-4942-805d-a3b79cb2b45e"},"vehicle_type_id":"4","last_reported":1771276699,"current_range_meters":8000,"station_id":"st_d46tts09ee8s73dlu43g","pricing_plan_id":"cebpf4jnsgd1na2vs0mg"},{"bike_id":"fa28f09c-cb5a-43bc-b749-b8dba30042bb","system_id":"levelo_inurba_marseille","lat":43.31893,"lon":5.40753,"is_reserved":false,"is_disabled":false,"rental_uris":{"android":"levelo://app?vid=fa28f09c-cb5a-43bc-b749-b8dba30042bb","ios":"levelo://app?vid=fa28f09c-cb5a-43bc-b749-b8dba30042bb"},"vehicle_type_id":"4","last_reported":1771276699,"current_range_meters":38800,"station_id":"ce4bhq12rcd13ifvqhig","pricing_plan_id":"cebpf4jnsgd1na2vs0mg"},{"bike_id":"016ec4b9-5b18-4f93-bf29-7317575450df","system_id":"levelo_inurba_marseille","lat":43.24078,"lon":5.37744,"is_reserved":false,"is_disabled":false,"rental_uris":{"android":"levelo://app?vid=016ec4b9-5b18-4f93-bf29-7317575450df","ios":"levelo://app?vid=016ec4b9-5b18-4f93-bf29-7317575450df"},"vehicle_type_id":"4","last_reported":1771276699,"current_range_meters":39200,"station_id":"ce4bhnp2rcd13ifvqgvg","pricing_plan_id":"cebpf4jnsgd1na2vs0mg"},{"bike_id":"00a5fc08-06a6-42d8-bf56-2e882a941e0f","system_id":"levelo_inurba_marseille","lat":43.28412,"lon":5.37513,"is_reserved":false,"is_disabled":false,"rental_uris":{"android":"levelo://app?vid=00a5fc08-06a6-42d8-bf56-2e882a941e0f","ios":"levelo://app?vid=00a5fc08-06a6-42d8-bf56-2e882a941e0f"},"vehicle_type_id":"4","last_reported":1771276699,"current_range_meters":19200,"station_id":"ce4bh412rcd13ifvqds0","pricing_plan_id":"cebpf4jnsgd1na2vs0mg"},{"bike_id":"9779a971-131b-4b86-9ed0-0730c746efdb","system_id":"levelo_inurba_marseille","lat":43.28621,"lon":5.3516,"is_reserved":false,"is_disabled":false,"rental_uris":{"android":"levelo://app?vid=9779a971-131b-4b86-9ed0-0730c746efdb","ios":"levelo://app?vid=9779a971-131b-4b86-9ed0-0730c746efdb"},"vehicle_type_id":"4","last_reported":1771276699,"current_range_meters":20000,"station_id":"ce4bhch2rcd13ifvqeug","pricing_plan_id":"cebpf4jnsgd1na2vs0mg"},{"bike_id":"30112464-e399-49c5-9324-befbf3dfc5ec","system_id":"levelo_inurba_marseille","lat":43.27233,"lon":5.40967,"is_reserved":false,"is_disabled":false,"rental_uris":{"android":"levelo://app?vid=30112464-e399-49c5-9324-befbf3dfc5ec","ios":"levelo://app?vid=30112464-e399-49c5-9324-befbf3dfc5ec"},"vehicle_type_id":"4","last_reported":1771276699,"current_range_meters":38000,"station_id":"ce4bhl12rcd13ifvqgf0","pricing_plan_id":"cebpf4jnsgd1na2vs0mg"},{"bike_id":"87b53b9f-9982-41c4-b5ef-c881880c734e","system_id":"levelo_inurba_marseille","lat":43.24072,"lon":5.377,"is_reserved":false,"is_disabled":false,"rental_uris":{"android":"levelo://app?vid=87b53b9f-9982-41c4-b5ef-c881880c734e","ios":"levelo://app?vid=87b53b9f-9982-41c4-b5ef-c881880c734e"},"vehicle_type_id":"4","last_reported":1771276699,"current_range_meters":39200,"station_id":"ce4bhnp2rcd13ifvqgvg","pricing_plan_id":"cebpf4jnsgd1na2vs0mg"},{"bike_id":"3db9b689-5916-47f9-aaf5-b4714cd5e511","system_id":"levelo_inurba_marseille","lat":43.28218,"lon":5.39044,"is_reserved":false,"is_disabled":false,"rental_uris":{"android":"levelo://app?vid=3db9b689-5916-47f9-aaf5-b4714cd5e511","ios":"levelo://app?vid=3db9b689-5916-47f9-aaf5-b4714cd5e511"},"vehicle_type_id":"4","last_reported":1771276699,"current_range_meters":24800,"station_id":"ce4bhn92rcd13ifvqgsg","pricing_plan_id":"cebpf4jnsgd1na2vs0mg"},{"bike_id":"4257ce27-d4f9-4a49-a222-c5a5ef7fd7bc","system_id":"levelo_inurba_marseille","lat":43.28,"lon":5.4003,"is_reserved":false,"is_disabled":false,"rental_uris":{"android":"levelo://app?vid=4257ce27-d4f9-4a49-a222-c5a5ef7fd7bc","ios":"levelo://app?vid=4257ce27-d4f9-4a49-a222-c5a5ef7fd7bc"},"vehicle_type_id":"4","last_reported":1771276699,"current_range_meters":22000,"station_id":"ce4bho92rcd13ifvqh4g","pricing_plan_id":"cebpf4jnsgd1na2vs0mg"},{"bike_id":"504d0a5c-6d34-4e6e-b049-b85598e8a815","system_id":"levelo_inurba_marseille","lat":43.2922,"lon":5.36062,"is_reserved":false,"is_disabled":false,"rental_uris":{"android":"levelo://app?vid=504d0a5c-6d34-4e6e-b049-b85598e8a815","ios":"levelo://app?vid=504d0a5c-6d34-4e6e-b049-b85598e8a815"},"vehicle_type_id":"4","last_reported":1771276699,"current_range_meters":36800,"station_id":"ce4bhbh2rcd13ifvqeqg","pricing_plan_id":"cebpf4jnsgd1na2vs0mg"},{"bike_id":"8d6535f0-b219-41a9-a5bf-28d07bb13e74","system_id":"levelo_inurba_marseille","lat":43.31204,"lon":5.36836,"is_reserved":false,"is_disabled":false,"rental_uris":{"android":"levelo://app?vid=8d6535f0-b219-41a9-a5bf-28d07bb13e74","ios":"levelo://app?vid=8d6535f0-b219-41a9-a5bf-28d07bb13e74"},"vehicle_type_id":"4","last_reported":1771276699,"current_range_meters":16000,"station_id":"ce4bgl92rcd13ifvqbq0","pricing_plan_id":"cebpf4jnsgd1na2vs0mg"},{"bike_id":"f56b6e75-070e-4148-9d41-956869c01c1e","system_id":"levelo_inurba_marseille","lat":43.2922,"lon":5.36079,"is_reserved":false,"is_disabled":false,"rental_uris":{"android":"levelo://app?vid=f56b6e75-070e-4148-9d41-956869c01c1e","ios":"levelo://app?vid=f56b6e75-070e-4148-9d41-956869c01c1e"},"vehicle_type_id":"4","last_reported":1771276699,"current_range_meters":39200,"station_id":"ce4bhbh2rcd13ifvqeqg","pricing_plan_id":"cebpf4jnsgd1na2vs0mg"},{"bike_id":"ef43f5b3-0267-470e-a7be-73b400aa2eff","system_id":"levelo_inurba_marseille","lat":43.25138,"lon":5.40154,"is_reserved":false,"is_disabled":false,"rental_uris":{"android":"levelo://app?vid=ef43f5b3-0267-470e-a7be-73b400aa2eff","ios":"levelo://app?vid=ef43f5b3-0267-470e-a7be-73b400aa2eff"},"vehicle_type_id":"4","last_reported":1771276699,"current_range_meters":32800,"station_id":"ce4bhlh2rcd13ifvqgig","pricing_plan_id":"cebpf4jnsgd1na2vs0mg"},{"bike_id":"b0b27d44-1805-4226-9f29-7db67902ed5c","system_id":"levelo_inurba_marseille","lat":43.26551,"lon":5.39022,"is_reserved":false,"is_disabled":false,"rental_uris":{"android":"levelo://app?vid=b0b27d44-1805-4226-9f29-7db67902ed5c","ios":"levelo://app?vid=b0b27d44-1805-4226-9f29-7db67902ed5c"},"vehicle_type_id":"4","last_reported":1771276699,"current_range_meters":18800,"station_id":"ce4bhe12rcd13ifvqf30","pricing_plan_id":"cebpf4jnsgd1na2vs0mg"},{"bike_id":"eec2b693-13ce-4375-854a-cf1c0218edcf","system_id":"levelo_inurba_marseille","lat":43.32018,"lon":5.41551,"is_reserved":false,"is_disabled":false,"rental_uris":{"android":"levelo://app?vid=eec2b693-13ce-4375-854a-cf1c0218edcf","ios":"levelo://app?vid=eec2b693-13ce-4375-854a-cf1c0218edcf"},"vehicle_type_id":"4","last_reported":1771276699,"current_range_meters":38000,"station_id":"ce4bhq92rcd13ifvqhkg","pricing_plan_id":"cebpf4jnsgd1na2vs0mg"},{"bike_id":"3cad0590-8568-4569-97ba-0c9637f6f01f","system_id":"levelo_inurba_marseille","lat":43.32286,"lon":5.38279,"is_reserved":false,"is_disabled":false,"rental_uris":{"android":"levelo://app?vid=3cad0590-8568-4569-97ba-0c9637f6f01f","ios":"levelo://app?vid=3cad0590-8568-4569-97ba-0c9637f6f01f"},"vehicle_type_id":"4","last_reported":1771276699,"current_range_meters":39200,"station_id":"ce4bhr12rcd13ifvqhqg","pricing_plan_id":"cebpf4jnsgd1na2vs0mg"},{"bike_id":"8ea4ca7b-6594-418d-9806-5e7e471eb99e","system_id":"levelo_inurba_marseille","lat":43.28934,"lon":5.38399,"is_reserved":false,"is_disabled":true,"rental_uris":{"android":"levelo://app?vid=8ea4ca7b-6594-418d-9806-5e7e471eb99e","ios":"levelo://app?vid=8ea4ca7b-6594-418d-9806-5e7e471eb99e"},"vehicle_type_id":"4","last_reported":1771276699,"current_range_meters":34800,"station_id":"ce4bh612rcd13ifvqe6g","pricing_plan_id":"cebpf4jnsgd1na2vs0mg"},{"bike_id":"3b4377ca-fc09-4041-8519-6fa3dd2f3815","system_id":"levelo_inurba_marseille","lat":43.26058,"lon":5.39387,"is_reserved":false,"is_disabled":false,"rental_uris":{"android":"levelo://app?vid=3b4377ca-fc09-4041-8519-6fa3dd2f3815","ios":"levelo://app?vid=3b4377ca-fc09-4041-8519-6fa3dd2f3815"},"vehicle_type_id":"4","last_reported":1771276699,"current_range_meters":10000,"station_id":"ce4bhh92rcd13ifvqfj0","pricing_plan_id":"cebpf4jnsgd1na2vs0mg"},{"bike_id":"1db36d72-99e8-4e00-88f9-f9fb01bcde64","system_id":"levelo_inurba_marseille","lat":43.25851,"lon":5.3942,"is_reserved":false,"is_disabled":false,"rental_uris":{"android":"levelo://app?vid=1db36d72-99e8-4e00-88f9-f9fb01bcde64","ios":"levelo://app?vid=1db36d72-99e8-4e00-88f9-f9fb01bcde64"},"vehicle_type_id":"4","last_reported":1771276699,"current_range_meters":30800,"station_id":"ce4bhip2rcd13ifvqft0","pricing_plan_id":"cebpf4jnsgd1na2vs0mg"},{"bike_id":"a5440106-434a-4e67-a4cb-72bf9b881aba","system_id":"levelo_inurba_marseille","lat":43.30112,"lon":5.39082,"is_reserved":false,"is_disabled":false,"rental_uris":{"android":"levelo://app?vid=a5440106-434a-4e67-a4cb-72bf9b881aba","ios":"levelo://app?vid=a5440106-434a-4e67-a4cb-72bf9b881aba"},"vehicle_type_id":"4","last_reported":1771276699,"current_range_meters":29600,"station_id":"ce4bh192rcd13ifvqdb0","pricing_plan_id":"cebpf4jnsgd1na2vs0mg"},{"bike_id":"acf5c087-33f1-469f-8ec0-bd478f6eb4c3","system_id":"levelo_inurba_marseille","lat":43.29061,"lon":5.35876,"is_reserved":false,"is_disabled":false,"rental_uris":{"android":"levelo://app?vid=acf5c087-33f1-469f-8ec0-bd478f6eb4c3","ios":"levelo://app?vid=acf5c087-33f1-469f-8ec0-bd478f6eb4c3"},"vehicle_type_id":"4","last_reported":1771276699,"current_range_meters":40000,"station_id":"ce4bha92rcd13ifvqeg0","pricing_plan_id":"cebpf4jnsgd1na2vs0mg"},{"bike_id":"063f653a-a02e-48ab-b671-a1d0f66830cf","system_id":"levelo_inurba_marseille","lat":43.30552,"lon":5.3652,"is_reserved":false,"is_disabled":false,"rental_uris":{"android":"levelo://app?vid=063f653a-a02e-48ab-b671-a1d0f66830cf","ios":"levelo://app?vid=063f653a-a02e-48ab-b671-a1d0f66830cf"},"vehicle_type_id":"4","last_reported":1771276699,"current_range_meters":19200,"station_id":"","pricing_plan_id":"cebpf4jnsgd1na2vs0mg"},{"bike_id":"47f2ab0d-ecb4-43be-9bed-5badd8982cbb","system_id":"levelo_inurba_marseille","lat":43.31211,"lon":5.36827,"is_reserved":false,"is_disabled":false,"rental_uris":{"android":"levelo://app?vid=47f2ab0d-ecb4-43be-9bed-5badd8982cbb","ios":"levelo://app?vid=47f2ab0d-ecb4-43be-9bed-5badd8982cbb"},"vehicle_type_id":"4","last_reported":1771276699,"current_range_meters":38400,"station_id":"ce4bgl92rcd13ifvqbq0","pricing_plan_id":"cebpf4jnsgd1na2vs0mg"},{"bike_id":"3a8b0c7f-41cf-44c3-a8a9-08cd3e74cfd1","system_id":"levelo_inurba_marseille","lat":43.31499,"lon":5.37296,"is_reserved":false,"is_disabled":false,"rental_uris":{"android":"levelo://app?vid=3a8b0c7f-41cf-44c3-a8a9-08cd3e74cfd1","ios":"levelo://app?vid=3a8b0c7f-41cf-44c3-a8a9-08cd3e74cfd1"},"vehicle_type_id":"4","last_reported":1771276699,"current_range_meters":16400,"station_id":"ce4bgt12rcd13ifvqcd0","pricing_plan_id":"cebpf4jnsgd1na2vs0mg"},{"bike_id":"9a3c19aa-d5b5-4290-b356-d5a9a83b4ebe","system_id":"levelo_inurba_marseille","lat":43.274907,"lon":5.424528,"is_reserved":false,"is_disabled":false,"rental_uris":{"android":"levelo://app?vid=9a3c19aa-d5b5-4290-b356-d5a9a83b4ebe","ios":"levelo://app?vid=9a3c19aa-d5b5-4290-b356-d5a9a83b4ebe"},"vehicle_type_id":"4","last_reported":1771276699,"current_range_meters":8000,"station_id":"ce4bhn92rcd13ifvqgrg","pricing_plan_id":"cebpf4jnsgd1na2vs0mg"},{"bike_id":"4dcbf679-cdd4-4ee9-878d-44ab492dd40a","system_id":"levelo_inurba_marseille","lat":43.29225,"lon":5.36057,"is_reserved":false,"is_disabled":false,"rental_uris":{"android":"levelo://app?vid=4dcbf679-cdd4-4ee9-878d-44ab492dd40a","ios":"levelo://app?vid=4dcbf679-cdd4-4ee9-878d-44ab492dd40a"},"vehicle_type_id":"4","last_reported":1771276699,"current_range_meters":39200,"station_id":"ce4bhbh2rcd13ifvqeqg","pricing_plan_id":"cebpf4jnsgd1na2vs0mg"},{"bike_id":"496e30ca-4e9d-4753-8fb6-7f53826ad9e7","system_id":"levelo_inurba_marseille","lat":43.29274,"lon":5.38453,"is_reserved":false,"is_disabled":false,"rental_uris":{"android":"levelo://app?vid=496e30ca-4e9d-4753-8fb6-7f53826ad9e7","ios":"levelo://app?vid=496e30ca-4e9d-4753-8fb6-7f53826ad9e7"},"vehicle_type_id":"4","last_reported":1771276699,"current_range_meters":10000,"station_id":"ce4bh692rcd13ifvqea0","pricing_plan_id":"cebpf4jnsgd1na2vs0mg"},{"bike_id":"9a71aafb-3414-42bb-a93e-c329b1fce7db","system_id":"levelo_inurba_marseille","lat":43.25832,"lon":5.39446,"is_reserved":false,"is_disabled":false,"rental_uris":{"android":"levelo://app?vid=9a71aafb-3414-42bb-a93e-c329b1fce7db","ios":"levelo://app?vid=9a71aafb-3414-42bb-a93e-c329b1fce7db"},"vehicle_type_id":"4","last_reported":1771276699,"current_range_meters":31200,"station_id":"ce4bhip2rcd13ifvqft0","pricing_plan_id":"cebpf4jnsgd1na2vs0mg"},{"bike_id":"88301f0b-9114-4fa7-9465-175f31eb8a58","system_id":"levelo_inurba_marseille","lat":43.30449,"lon":5.388915,"is_reserved":false,"is_disabled":false,"rental_uris":{"android":"levelo://app?vid=88301f0b-9114-4fa7-9465-175f31eb8a58","ios":"levelo://app?vid=88301f0b-9114-4fa7-9465-175f31eb8a58"},"vehicle_type_id":"4","last_reported":1771276699,"current_range_meters":30000,"station_id":"ce4bgk12rcd13ifvqbi0","pricing_plan_id":"cebpf4jnsgd1na2vs0mg"},{"bike_id":"e87ad34e-b4b7-4a8f-8d1d-9fcdf7787f23","system_id":"levelo_inurba_marseille","lat":43.27497,"lon":5.4245,"is_reserved":false,"is_disabled":false,"rental_uris":{"android":"levelo://app?vid=e87ad34e-b4b7-4a8f-8d1d-9fcdf7787f23","ios":"levelo://app?vid=e87ad34e-b4b7-4a8f-8d1d-9fcdf7787f23"},"vehicle_type_id":"4","last_reported":1771276699,"current_range_meters":28800,"station_id":"ce4bhn92rcd13ifvqgrg","pricing_plan_id":"cebpf4jnsgd1na2vs0mg"},{"bike_id":"40a2d767-9a8e-4aa3-bded-343bcd3a8041","system_id":"levelo_inurba_marseille","lat":43.24166,"lon":5.36432,"is_reserved":false,"is_disabled":false,"rental_uris":{"android":"levelo://app?vid=40a2d767-9a8e-4aa3-bded-343bcd3a8041","ios":"levelo://app?vid=40a2d767-9a8e-4aa3-bded-343bcd3a8041"},"vehicle_type_id":"4","last_reported":1771276699,"current_range_meters":6800,"station_id":"cpo36qri1sfpv3e86is0","pricing_plan_id":"cebpf4jnsgd1na2vs0mg"},{"bike_id":"82724e13-9500-4101-a567-fc5a4b7838d1","system_id":"levelo_inurba_marseille","lat":43.26372,"lon":5.41089,"is_reserved":false,"is_disabled":false,"rental_uris":{"android":"levelo://app?vid=82724e13-9500-4101-a567-fc5a4b7838d1","ios":"levelo://app?vid=82724e13-9500-4101-a567-fc5a4b7838d1"},"vehicle_type_id":"4","last_reported":1771276699,"current_range_meters":10800,"station_id":"st_d4e5ca6na9uc73bfl5fg","pricing_plan_id":"cebpf4jnsgd1na2vs0mg"},{"bike_id":"20a150e4-0b5d-4bdc-83e9-21ce88af06ab","system_id":"levelo_inurba_marseille","lat":43.29203,"lon":5.36049,"is_reserved":false,"is_disabled":false,"rental_uris":{"android":"levelo://app?vid=20a150e4-0b5d-4bdc-83e9-21ce88af06ab","ios":"levelo://app?vid=20a150e4-0b5d-4bdc-83e9-21ce88af06ab"},"vehicle_type_id":"4","last_reported":1771276699,"current_range_meters":38400,"station_id":"ce4bhbh2rcd13ifvqeqg","pricing_plan_id":"cebpf4jnsgd1na2vs0mg"},{"bike_id":"0a8aa6fc-0cda-4fe6-9667-06217ff04dac","system_id":"levelo_inurba_marseille","lat":43.27072,"lon":5.38301,"is_reserved":false,"is_disabled":false,"rental_uris":{"android":"levelo://app?vid=0a8aa6fc-0cda-4fe6-9667-06217ff04dac","ios":"levelo://app?vid=0a8aa6fc-0cda-4fe6-9667-06217ff04dac"},"vehicle_type_id":"4","last_reported":1771276699,"current_range_meters":38400,"station_id":"st_d3n2fo6cfp8s73cte1j0","pricing_plan_id":"cebpf4jnsgd1na2vs0mg"},{"bike_id":"53022a12-fe7d-4e6a-8699-1199ba146b98","system_id":"levelo_inurba_marseille","lat":43.291977,"lon":5.357933,"is_reserved":false,"is_disabled":false,"rental_uris":{"android":"levelo://app?vid=53022a12-fe7d-4e6a-8699-1199ba146b98","ios":"levelo://app?vid=53022a12-fe7d-4e6a-8699-1199ba146b98"},"vehicle_type_id":"4","last_reported":1771276699,"current_range_meters":18000,"station_id":"ce4bhb12rcd13ifvqel0","pricing_plan_id":"cebpf4jnsgd1na2vs0mg"},{"bike_id":"55d2f36a-9a72-4961-bbdb-5937e41fb5f7","system_id":"levelo_inurba_marseille","lat":43.31044,"lon":5.37174,"is_reserved":false,"is_disabled":false,"rental_uris":{"android":"levelo://app?vid=55d2f36a-9a72-4961-bbdb-5937e41fb5f7","ios":"levelo://app?vid=55d2f36a-9a72-4961-bbdb-5937e41fb5f7"},"vehicle_type_id":"4","last_reported":1771276699,"current_range_meters":31200,"station_id":"st_d4kl2rp97mjs73e7tdfg","pricing_plan_id":"cebpf4jnsgd1na2vs0mg"},{"bike_id":"58da13b5-16bf-4d7b-9003-4c3c2e34513b","system_id":"levelo_inurba_marseille","lat":43.28975,"lon":5.35585,"is_reserved":false,"is_disabled":false,"rental_uris":{"android":"levelo://app?vid=58da13b5-16bf-4d7b-9003-4c3c2e34513b","ios":"levelo://app?vid=58da13b5-16bf-4d7b-9003-4c3c2e34513b"},"vehicle_type_id":"4","last_reported":1771276699,"current_range_meters":33600,"station_id":"ce4bhb92rcd13ifvqen0","pricing_plan_id":"cebpf4jnsgd1na2vs0mg"},{"bike_id":"8e4d0fb2-0b0a-434c-902e-d3ab3497cc31","system_id":"levelo_inurba_marseille","lat":43.28153,"lon":5.42643,"is_reserved":false,"is_disabled":false,"rental_uris":{"android":"levelo://app?vid=8e4d0fb2-0b0a-434c-902e-d3ab3497cc31","ios":"levelo://app?vid=8e4d0fb2-0b0a-434c-902e-d3ab3497cc31"},"vehicle_type_id":"4","last_reported":1771276699,"current_range_meters":39200,"station_id":"ce4bhnh2rcd13ifvqgug","pricing_plan_id":"cebpf4jnsgd1na2vs0mg"},{"bike_id":"9c9302ed-c2af-40cd-9047-f491de3d893a","system_id":"levelo_inurba_marseille","lat":43.24664,"lon":5.43175,"is_reserved":false,"is_disabled":false,"rental_uris":{"android":"levelo://app?vid=9c9302ed-c2af-40cd-9047-f491de3d893a","ios":"levelo://app?vid=9c9302ed-c2af-40cd-9047-f491de3d893a"},"vehicle_type_id":"4","last_reported":1771276699,"current_range_meters":15200,"station_id":"st_d2m6c4gdas8pm72e190g","pricing_plan_id":"cebpf4jnsgd1na2vs0mg"},{"bike_id":"0130734a-f9ff-4462-b2e0-96791c8b2893","system_id":"levelo_inurba_marseille","lat":43.28676,"lon":5.38654,"is_reserved":false,"is_disabled":false,"rental_uris":{"android":"levelo://app?vid=0130734a-f9ff-4462-b2e0-96791c8b2893","ios":"levelo://app?vid=0130734a-f9ff-4462-b2e0-96791c8b2893"},"vehicle_type_id":"4","last_reported":1771276699,"current_range_meters":30000,"station_id":"ce4bh492rcd13ifvqdug","pricing_plan_id":"cebpf4jnsgd1na2vs0mg"},{"bike_id":"addd33a1-5186-4324-b702-4ac89f3f7ce6","system_id":"levelo_inurba_marseille","lat":43.26067,"lon":5.39405,"is_reserved":false,"is_disabled":false,"rental_uris":{"android":"levelo://app?vid=addd33a1-5186-4324-b702-4ac89f3f7ce6","ios":"levelo://app?vid=addd33a1-5186-4324-b702-4ac89f3f7ce6"},"vehicle_type_id":"4","last_reported":1771276699,"current_range_meters":31200,"station_id":"ce4bhh92rcd13ifvqfj0","pricing_plan_id":"cebpf4jnsgd1na2vs0mg"},{"bike_id":"27980297-bf5f-4d64-811d-5e0f3f3b71dd","system_id":"levelo_inurba_marseille","lat":43.24685,"lon":5.38109,"is_reserved":false,"is_disabled":false,"rental_uris":{"android":"levelo://app?vid=27980297-bf5f-4d64-811d-5e0f3f3b71dd","ios":"levelo://app?vid=27980297-bf5f-4d64-811d-5e0f3f3b71dd"},"vehicle_type_id":"4","last_reported":1771276699,"current_range_meters":33600,"station_id":"ce4bhih2rcd13ifvqfr0","pricing_plan_id":"cebpf4jnsgd1na2vs0mg"},{"bike_id":"9b5505e5-e9dc-4184-902c-d7980dbe091f","system_id":"levelo_inurba_marseille","lat":43.25576,"lon":5.38247,"is_reserved":false,"is_disabled":false,"rental_uris":{"android":"levelo://app?vid=9b5505e5-e9dc-4184-902c-d7980dbe091f","ios":"levelo://app?vid=9b5505e5-e9dc-4184-902c-d7980dbe091f"},"vehicle_type_id":"4","last_reported":1771276699,"current_range_meters":24400,"station_id":"ce4bhih2rcd13ifvqfs0","pricing_plan_id":"cebpf4jnsgd1na2vs0mg"},{"bike_id":"e3ef2a1f-7053-49cd-8461-19f292512418","system_id":"levelo_inurba_marseille","lat":43.29027,"lon":5.38157,"is_reserved":false,"is_disabled":false,"rental_uris":{"android":"levelo://app?vid=e3ef2a1f-7053-49cd-8461-19f292512418","ios":"levelo://app?vid=e3ef2a1f-7053-49cd-8461-19f292512418"},"vehicle_type_id":"4","last_reported":1771276699,"current_range_meters":39200,"station_id":"ce4bh4p2rcd13ifvqe1g","pricing_plan_id":"cebpf4jnsgd1na2vs0mg"},{"bike_id":"88353c84-bf04-4df4-ba4f-667293e40e11","system_id":"levelo_inurba_marseille","lat":43.2793,"lon":5.38695,"is_reserved":false,"is_disabled":false,"rental_uris":{"android":"levelo://app?vid=88353c84-bf04-4df4-ba4f-667293e40e11","ios":"levelo://app?vid=88353c84-bf04-4df4-ba4f-667293e40e11"},"vehicle_type_id":"4","last_reported":1771276699,"current_range_meters":38000,"station_id":"","pricing_plan_id":"cebpf4jnsgd1na2vs0mg"},{"bike_id":"f9bdc2f1-c613-4e5a-92b7-25fb51c547a8","system_id":"levelo_inurba_marseille","lat":43.31017,"lon":5.36802,"is_reserved":false,"is_disabled":false,"rental_uris":{"android":"levelo://app?vid=f9bdc2f1-c613-4e5a-92b7-25fb51c547a8","ios":"levelo://app?vid=f9bdc2f1-c613-4e5a-92b7-25fb51c547a8"},"vehicle_type_id":"4","last_reported":1771276699,"current_range_meters":31200,"station_id":"","pricing_plan_id":"cebpf4jnsgd1na2vs0mg"},{"bike_id":"099ae8cc-79c3-4957-b851-779e2c6abde9","system_id":"levelo_inurba_marseille","lat":43.32355,"lon":5.38905,"is_reserved":false,"is_disabled":true,"rental_uris":{"android":"levelo://app?vid=099ae8cc-79c3-4957-b851-779e2c6abde9","ios":"levelo://app?vid=099ae8cc-79c3-4957-b851-779e2c6abde9"},"vehicle_type_id":"4","last_reported":1771276699,"current_range_meters":27600,"station_id":"ce4bhqp2rcd13ifvqhog","pricing_plan_id":"cebpf4jnsgd1na2vs0mg"},{"bike_id":"dcb46e53-479a-4eb4-80ee-4c4b8b773271","system_id":"levelo_inurba_marseille","lat":43.28701,"lon":5.35539,"is_reserved":false,"is_disabled":true,"rental_uris":{"android":"levelo://app?vid=dcb46e53-479a-4eb4-80ee-4c4b8b773271","ios":"levelo://app?vid=dcb46e53-479a-4eb4-80ee-4c4b8b773271"},"vehicle_type_id":"4","last_reported":1771276699,"current_range_meters":39200,"station_id":"","pricing_plan_id":"cebpf4jnsgd1na2vs0mg"},{"bike_id":"6d3a826c-88c9-4a8c-9c43-415d2b4390c4","system_id":"levelo_inurba_marseille","lat":43.26036,"lon":5.37535,"is_reserved":false,"is_disabled":false,"rental_uris":{"android":"levelo://app?vid=6d3a826c-88c9-4a8c-9c43-415d2b4390c4","ios":"levelo://app?vid=6d3a826c-88c9-4a8c-9c43-415d2b4390c4"},"vehicle_type_id":"4","last_reported":1771276699,"current_range_meters":38800,"station_id":"ce4bhgh2rcd13ifvqfa0","pricing_plan_id":"cebpf4jnsgd1na2vs0mg"},{"bike_id":"39c0bb6d-c266-41ba-b23c-298cf81c4a32","system_id":"levelo_inurba_marseille","lat":43.28271,"lon":5.35078,"is_reserved":false,"is_disabled":false,"rental_uris":{"android":"levelo://app?vid=39c0bb6d-c266-41ba-b23c-298cf81c4a32","ios":"levelo://app?vid=39c0bb6d-c266-41ba-b23c-298cf81c4a32"},"vehicle_type_id":"4","last_reported":1771276699,"current_range_meters":22000,"station_id":"ce4bhbp2rcd13ifvqerg","pricing_plan_id":"cebpf4jnsgd1na2vs0mg"},{"bike_id":"ddba2646-783b-4a45-9379-a692041ebbce","system_id":"levelo_inurba_marseille","lat":43.29297,"lon":5.38525,"is_reserved":false,"is_disabled":false,"rental_uris":{"android":"levelo://app?vid=ddba2646-783b-4a45-9379-a692041ebbce","ios":"levelo://app?vid=ddba2646-783b-4a45-9379-a692041ebbce"},"vehicle_type_id":"4","last_reported":1771276699,"current_range_meters":39200,"station_id":"","pricing_plan_id":"cebpf4jnsgd1na2vs0mg"},{"bike_id":"e8c782a2-38e1-49b2-9d0c-e0d2448ef51c","system_id":"levelo_inurba_marseille","lat":43.29168,"lon":5.37164,"is_reserved":false,"is_disabled":false,"rental_uris":{"android":"levelo://app?vid=e8c782a2-38e1-49b2-9d0c-e0d2448ef51c","ios":"levelo://app?vid=e8c782a2-38e1-49b2-9d0c-e0d2448ef51c"},"vehicle_type_id":"4","last_reported":1771276699,"current_range_meters":3600,"station_id":"ce4bha92rcd13ifvqeh0","pricing_plan_id":"cebpf4jnsgd1na2vs0mg"},{"bike_id":"ee520404-8764-4e6d-9db7-583906d777d1","system_id":"levelo_inurba_marseille","lat":43.28621,"lon":5.351,"is_reserved":false,"is_disabled":false,"rental_uris":{"android":"levelo://app?vid=ee520404-8764-4e6d-9db7-583906d777d1","ios":"levelo://app?vid=ee520404-8764-4e6d-9db7-583906d777d1"},"vehicle_type_id":"4","last_reported":1771276699,"current_range_meters":23200,"station_id":"ce4bhch2rcd13ifvqeug","pricing_plan_id":"cebpf4jnsgd1na2vs0mg"},{"bike_id":"d7b9bab2-8c15-4f04-b30d-9182fb77c28b","system_id":"levelo_inurba_marseille","lat":43.27462,"lon":5.42457,"is_reserved":false,"is_disabled":false,"rental_uris":{"android":"levelo://app?vid=d7b9bab2-8c15-4f04-b30d-9182fb77c28b","ios":"levelo://app?vid=d7b9bab2-8c15-4f04-b30d-9182fb77c28b"},"vehicle_type_id":"4","last_reported":1771276699,"current_range_meters":14400,"station_id":"ce4bhn92rcd13ifvqgrg","pricing_plan_id":"cebpf4jnsgd1na2vs0mg"},{"bike_id":"e88e9a36-a858-4e44-81a0-0062d41c944f","system_id":"levelo_inurba_marseille","lat":43.31534,"lon":5.38047,"is_reserved":false,"is_disabled":false,"rental_uris":{"android":"levelo://app?vid=e88e9a36-a858-4e44-81a0-0062d41c944f","ios":"levelo://app?vid=e88e9a36-a858-4e44-81a0-0062d41c944f"},"vehicle_type_id":"4","last_reported":1771276699,"current_range_meters":32000,"station_id":"ce4bhsp2rcd13ifvqi50","pricing_plan_id":"cebpf4jnsgd1na2vs0mg"},{"bike_id":"3cd8e674-f2df-4abf-b06c-c0245679bc5d","system_id":"levelo_inurba_marseille","lat":43.30892,"lon":5.36877,"is_reserved":false,"is_disabled":false,"rental_uris":{"android":"levelo://app?vid=3cd8e674-f2df-4abf-b06c-c0245679bc5d","ios":"levelo://app?vid=3cd8e674-f2df-4abf-b06c-c0245679bc5d"},"vehicle_type_id":"4","last_reported":1771276699,"current_range_meters":28800,"station_id":"ce4bgn92rcd13ifvqbvg","pricing_plan_id":"cebpf4jnsgd1na2vs0mg"},{"bike_id":"c1009b7a-d4e9-4514-8771-76f5baf181b7","system_id":"levelo_inurba_marseille","lat":43.30554,"lon":5.36528,"is_reserved":false,"is_disabled":false,"rental_uris":{"android":"levelo://app?vid=c1009b7a-d4e9-4514-8771-76f5baf181b7","ios":"levelo://app?vid=c1009b7a-d4e9-4514-8771-76f5baf181b7"},"vehicle_type_id":"4","last_reported":1771276699,"current_range_meters":27600,"station_id":"ce4bgs12rcd13ifvqcag","pricing_plan_id":"cebpf4jnsgd1na2vs0mg"},{"bike_id":"279a69f9-1457-40fd-894b-68248c11b6e7","system_id":"levelo_inurba_marseille","lat":43.26394,"lon":5.41075,"is_reserved":false,"is_disabled":false,"rental_uris":{"android":"levelo://app?vid=279a69f9-1457-40fd-894b-68248c11b6e7","ios":"levelo://app?vid=279a69f9-1457-40fd-894b-68248c11b6e7"},"vehicle_type_id":"4","last_reported":1771276699,"current_range_meters":28400,"station_id":"st_d4e5ca6na9uc73bfl5fg","pricing_plan_id":"cebpf4jnsgd1na2vs0mg"},{"bike_id":"6e14feb7-753c-4804-bdc9-e912ef41a703","system_id":"levelo_inurba_marseille","lat":43.24405,"lon":5.37061,"is_reserved":false,"is_disabled":false,"rental_uris":{"android":"levelo://app?vid=6e14feb7-753c-4804-bdc9-e912ef41a703","ios":"levelo://app?vid=6e14feb7-753c-4804-bdc9-e912ef41a703"},"vehicle_type_id":"4","last_reported":1771276699,"current_range_meters":27600,"station_id":"ce4bhhh2rcd13ifvqfk0","pricing_plan_id":"cebpf4jnsgd1na2vs0mg"},{"bike_id":"2dd47143-fcce-4d1c-b676-78c1b5bba6e2","system_id":"levelo_inurba_marseille","lat":43.24804,"lon":5.3748,"is_reserved":false,"is_disabled":false,"rental_uris":{"android":"levelo://app?vid=2dd47143-fcce-4d1c-b676-78c1b5bba6e2","ios":"levelo://app?vid=2dd47143-fcce-4d1c-b676-78c1b5bba6e2"},"vehicle_type_id":"4","last_reported":1771276699,"current_range_meters":4800,"station_id":"ce4bhgh2rcd13ifvqfb0","pricing_plan_id":"cebpf4jnsgd1na2vs0mg"},{"bike_id":"a2989192-8d09-4174-ab11-6beee2d42145","system_id":"levelo_inurba_marseille","lat":43.313652,"lon":5.36703,"is_reserved":false,"is_disabled":false,"rental_uris":{"android":"levelo://app?vid=a2989192-8d09-4174-ab11-6beee2d42145","ios":"levelo://app?vid=a2989192-8d09-4174-ab11-6beee2d42145"},"vehicle_type_id":"4","last_reported":1771276699,"current_range_meters":34000,"station_id":"ce4bgrh2rcd13ifvqc8g","pricing_plan_id":"cebpf4jnsgd1na2vs0mg"},{"bike_id":"937f3d25-b848-495b-a330-e41b28ba6403","system_id":"levelo_inurba_marseille","lat":43.24081,"lon":5.37746,"is_reserved":false,"is_disabled":false,"rental_uris":{"android":"levelo://app?vid=937f3d25-b848-495b-a330-e41b28ba6403","ios":"levelo://app?vid=937f3d25-b848-495b-a330-e41b28ba6403"},"vehicle_type_id":"4","last_reported":1771276699,"current_range_meters":39200,"station_id":"ce4bhnp2rcd13ifvqgvg","pricing_plan_id":"cebpf4jnsgd1na2vs0mg"},{"bike_id":"6b9694b3-51f3-4a5e-a18f-3a0341ea4e2d","system_id":"levelo_inurba_marseille","lat":43.29847,"lon":5.36259,"is_reserved":false,"is_disabled":false,"rental_uris":{"android":"levelo://app?vid=6b9694b3-51f3-4a5e-a18f-3a0341ea4e2d","ios":"levelo://app?vid=6b9694b3-51f3-4a5e-a18f-3a0341ea4e2d"},"vehicle_type_id":"4","last_reported":1771276699,"current_range_meters":19600,"station_id":"ce4bgpp2rcd13ifvqc3g","pricing_plan_id":"cebpf4jnsgd1na2vs0mg"},{"bike_id":"7cdcc1b2-92de-42b2-a7cd-06b9eab80f75","system_id":"levelo_inurba_marseille","lat":43.2957,"lon":5.39974,"is_reserved":false,"is_disabled":false,"rental_uris":{"android":"levelo://app?vid=7cdcc1b2-92de-42b2-a7cd-06b9eab80f75","ios":"levelo://app?vid=7cdcc1b2-92de-42b2-a7cd-06b9eab80f75"},"vehicle_type_id":"4","last_reported":1771276699,"current_range_meters":8000,"station_id":"ce4bh312rcd13ifvqdj0","pricing_plan_id":"cebpf4jnsgd1na2vs0mg"},{"bike_id":"834013b6-24d6-4cde-b39c-d15c054425ae","system_id":"levelo_inurba_marseille","lat":43.29592,"lon":5.37501,"is_reserved":false,"is_disabled":true,"rental_uris":{"android":"levelo://app?vid=834013b6-24d6-4cde-b39c-d15c054425ae","ios":"levelo://app?vid=834013b6-24d6-4cde-b39c-d15c054425ae"},"vehicle_type_id":"4","last_reported":1771276699,"current_range_meters":39200,"station_id":"ce4bgh92rcd13ifvqb50","pricing_plan_id":"cebpf4jnsgd1na2vs0mg"},{"bike_id":"21fd07e1-caf4-4951-a83f-0bb4c9d8a5cf","system_id":"levelo_inurba_marseille","lat":43.26588,"lon":5.37352,"is_reserved":false,"is_disabled":false,"rental_uris":{"android":"levelo://app?vid=21fd07e1-caf4-4951-a83f-0bb4c9d8a5cf","ios":"levelo://app?vid=21fd07e1-caf4-4951-a83f-0bb4c9d8a5cf"},"vehicle_type_id":"4","last_reported":1771276699,"current_range_meters":22800,"station_id":"ce4bhg12rcd13ifvqf70","pricing_plan_id":"cebpf4jnsgd1na2vs0mg"},{"bike_id":"8e71ac91-0568-45e8-9b6a-a8c9ae9c07db","system_id":"levelo_inurba_marseille","lat":43.31205,"lon":5.36834,"is_reserved":false,"is_disabled":false,"rental_uris":{"android":"levelo://app?vid=8e71ac91-0568-45e8-9b6a-a8c9ae9c07db","ios":"levelo://app?vid=8e71ac91-0568-45e8-9b6a-a8c9ae9c07db"},"vehicle_type_id":"4","last_reported":1771276699,"current_range_meters":38800,"station_id":"ce4bgl92rcd13ifvqbq0","pricing_plan_id":"cebpf4jnsgd1na2vs0mg"},{"bike_id":"6e162cf7-1f7d-4120-9d73-84a7a23edeec","system_id":"levelo_inurba_marseille","lat":43.33726,"lon":5.39182,"is_reserved":false,"is_disabled":false,"rental_uris":{"android":"levelo://app?vid=6e162cf7-1f7d-4120-9d73-84a7a23edeec","ios":"levelo://app?vid=6e162cf7-1f7d-4120-9d73-84a7a23edeec"},"vehicle_type_id":"4","last_reported":1771276699,"current_range_meters":33200,"station_id":"ce4bhr92rcd13ifvqhsg","pricing_plan_id":"cebpf4jnsgd1na2vs0mg"},{"bike_id":"40ec7747-ec97-48b6-b2c0-f0455a6379e9","system_id":"levelo_inurba_marseille","lat":43.28342,"lon":5.38082,"is_reserved":false,"is_disabled":false,"rental_uris":{"android":"levelo://app?vid=40ec7747-ec97-48b6-b2c0-f0455a6379e9","ios":"levelo://app?vid=40ec7747-ec97-48b6-b2c0-f0455a6379e9"},"vehicle_type_id":"4","last_reported":1771276699,"current_range_meters":24400,"station_id":"ce4bh412rcd13ifvqdr0","pricing_plan_id":"cebpf4jnsgd1na2vs0mg"},{"bike_id":"849004ff-453e-4a0c-bf07-5f9fb058a404","system_id":"levelo_inurba_marseille","lat":43.24407,"lon":5.37071,"is_reserved":false,"is_disabled":false,"rental_uris":{"android":"levelo://app?vid=849004ff-453e-4a0c-bf07-5f9fb058a404","ios":"levelo://app?vid=849004ff-453e-4a0c-bf07-5f9fb058a404"},"vehicle_type_id":"4","last_reported":1771276699,"current_range_meters":27600,"station_id":"ce4bhhh2rcd13ifvqfk0","pricing_plan_id":"cebpf4jnsgd1na2vs0mg"},{"bike_id":"8fca517c-ab9a-4f2a-bf11-1a488679a96a","system_id":"levelo_inurba_marseille","lat":43.30931,"lon":5.4014,"is_reserved":false,"is_disabled":false,"rental_uris":{"android":"levelo://app?vid=8fca517c-ab9a-4f2a-bf11-1a488679a96a","ios":"levelo://app?vid=8fca517c-ab9a-4f2a-bf11-1a488679a96a"},"vehicle_type_id":"4","last_reported":1771276699,"current_range_meters":5600,"station_id":"ce4bgvp2rcd13ifvqct0","pricing_plan_id":"cebpf4jnsgd1na2vs0mg"},{"bike_id":"03b7aa2b-016e-4049-a57c-15849eb1ee4d","system_id":"levelo_inurba_marseille","lat":43.28945,"lon":5.36633,"is_reserved":false,"is_disabled":false,"rental_uris":{"android":"levelo://app?vid=03b7aa2b-016e-4049-a57c-15849eb1ee4d","ios":"levelo://app?vid=03b7aa2b-016e-4049-a57c-15849eb1ee4d"},"vehicle_type_id":"4","last_reported":1771276699,"current_range_meters":16800,"station_id":"ce4bhap2rcd13ifvqek0","pricing_plan_id":"cebpf4jnsgd1na2vs0mg"},{"bike_id":"93ef63de-77e4-403a-a777-03b1f32c2c0c","system_id":"levelo_inurba_marseille","lat":43.30298,"lon":5.39212,"is_reserved":false,"is_disabled":false,"rental_uris":{"android":"levelo://app?vid=93ef63de-77e4-403a-a777-03b1f32c2c0c","ios":"levelo://app?vid=93ef63de-77e4-403a-a777-03b1f32c2c0c"},"vehicle_type_id":"4","last_reported":1771276699,"current_range_meters":35600,"station_id":"ce4bgkh2rcd13ifvqbk0","pricing_plan_id":"cebpf4jnsgd1na2vs0mg"},{"bike_id":"d639211d-aaf1-4624-82a8-69cd6e860d35","system_id":"levelo_inurba_marseille","lat":43.28488,"lon":5.48392,"is_reserved":false,"is_disabled":false,"rental_uris":{"android":"levelo://app?vid=d639211d-aaf1-4624-82a8-69cd6e860d35","ios":"levelo://app?vid=d639211d-aaf1-4624-82a8-69cd6e860d35"},"vehicle_type_id":"4","last_reported":1771276699,"current_range_meters":33200,"station_id":"st_d3svhcjqgbts73a3dn0g","pricing_plan_id":"cebpf4jnsgd1na2vs0mg"},{"bike_id":"77667d7f-d2a6-4e03-b66a-d643ae734f5b","system_id":"levelo_inurba_marseille","lat":43.26557,"lon":5.39035,"is_reserved":false,"is_disabled":false,"rental_uris":{"android":"levelo://app?vid=77667d7f-d2a6-4e03-b66a-d643ae734f5b","ios":"levelo://app?vid=77667d7f-d2a6-4e03-b66a-d643ae734f5b"},"vehicle_type_id":"4","last_reported":1771276699,"current_range_meters":24800,"station_id":"ce4bhe12rcd13ifvqf30","pricing_plan_id":"cebpf4jnsgd1na2vs0mg"},{"bike_id":"cf07e6f1-dc12-49c3-b328-c7bc76c7a3a8","system_id":"levelo_inurba_marseille","lat":43.29549,"lon":5.375,"is_reserved":false,"is_disabled":false,"rental_uris":{"android":"levelo://app?vid=cf07e6f1-dc12-49c3-b328-c7bc76c7a3a8","ios":"levelo://app?vid=cf07e6f1-dc12-49c3-b328-c7bc76c7a3a8"},"vehicle_type_id":"4","last_reported":1771276699,"current_range_meters":10800,"station_id":"ce4bgkp2rcd13ifvqbmg","pricing_plan_id":"cebpf4jnsgd1na2vs0mg"},{"bike_id":"c7f2ec22-a521-426d-8fc1-fe462d2718e7","system_id":"levelo_inurba_marseille","lat":43.22554,"lon":5.41632,"is_reserved":false,"is_disabled":false,"rental_uris":{"android":"levelo://app?vid=c7f2ec22-a521-426d-8fc1-fe462d2718e7","ios":"levelo://app?vid=c7f2ec22-a521-426d-8fc1-fe462d2718e7"},"vehicle_type_id":"4","last_reported":1771276699,"current_range_meters":8800,"station_id":"st_d2o4gvlbi1j2169b742g","pricing_plan_id":"cebpf4jnsgd1na2vs0mg"},{"bike_id":"d660a347-6cbe-4c00-8d39-a9fa72fa7038","system_id":"levelo_inurba_marseille","lat":43.2908,"lon":5.35927,"is_reserved":false,"is_disabled":false,"rental_uris":{"android":"levelo://app?vid=d660a347-6cbe-4c00-8d39-a9fa72fa7038","ios":"levelo://app?vid=d660a347-6cbe-4c00-8d39-a9fa72fa7038"},"vehicle_type_id":"4","last_reported":1771276699,"current_range_meters":39200,"station_id":"ce4bha92rcd13ifvqeg0","pricing_plan_id":"cebpf4jnsgd1na2vs0mg"},{"bike_id":"dee96fca-7806-421e-8c00-c8d351d21d56","system_id":"levelo_inurba_marseille","lat":43.27906,"lon":5.38019,"is_reserved":false,"is_disabled":false,"rental_uris":{"android":"levelo://app?vid=dee96fca-7806-421e-8c00-c8d351d21d56","ios":"levelo://app?vid=dee96fca-7806-421e-8c00-c8d351d21d56"},"vehicle_type_id":"4","last_reported":1771276699,"current_range_meters":38000,"station_id":"ce4bhf92rcd13ifvqf50","pricing_plan_id":"cebpf4jnsgd1na2vs0mg"},{"bike_id":"5028f32d-1a47-475c-b119-ed923035051c","system_id":"levelo_inurba_marseille","lat":43.30306,"lon":5.36886,"is_reserved":false,"is_disabled":false,"rental_uris":{"android":"levelo://app?vid=5028f32d-1a47-475c-b119-ed923035051c","ios":"levelo://app?vid=5028f32d-1a47-475c-b119-ed923035051c"},"vehicle_type_id":"4","last_reported":1771276699,"current_range_meters":27200,"station_id":"ce4bgqh2rcd13ifvqc5g","pricing_plan_id":"cebpf4jnsgd1na2vs0mg"},{"bike_id":"d4c65e86-e8ab-44ba-a8a9-8e759dc3c54f","system_id":"levelo_inurba_marseille","lat":43.29197,"lon":5.35832,"is_reserved":false,"is_disabled":false,"rental_uris":{"android":"levelo://app?vid=d4c65e86-e8ab-44ba-a8a9-8e759dc3c54f","ios":"levelo://app?vid=d4c65e86-e8ab-44ba-a8a9-8e759dc3c54f"},"vehicle_type_id":"4","last_reported":1771276699,"current_range_meters":38000,"station_id":"ce4bhb12rcd13ifvqel0","pricing_plan_id":"cebpf4jnsgd1na2vs0mg"},{"bike_id":"ff87c40c-9e82-4fe4-89bf-d9fb801cba93","system_id":"levelo_inurba_marseille","lat":43.28457,"lon":5.35917,"is_reserved":false,"is_disabled":false,"rental_uris":{"android":"levelo://app?vid=ff87c40c-9e82-4fe4-89bf-d9fb801cba93","ios":"levelo://app?vid=ff87c40c-9e82-4fe4-89bf-d9fb801cba93"},"vehicle_type_id":"4","last_reported":1771276699,"current_range_meters":24400,"station_id":"ce4bhah2rcd13ifvqei0","pricing_plan_id":"cebpf4jnsgd1na2vs0mg"},{"bike_id":"22eb71bc-c666-42cd-a133-d91bdf7e2451","system_id":"levelo_inurba_marseille","lat":43.31248,"lon":5.369,"is_reserved":false,"is_disabled":false,"rental_uris":{"android":"levelo://app?vid=22eb71bc-c666-42cd-a133-d91bdf7e2451","ios":"levelo://app?vid=22eb71bc-c666-42cd-a133-d91bdf7e2451"},"vehicle_type_id":"4","last_reported":1771276699,"current_range_meters":39200,"station_id":"ce4bgl92rcd13ifvqbq0","pricing_plan_id":"cebpf4jnsgd1na2vs0mg"},{"bike_id":"d423f15e-e4fc-4538-bb11-2f1eb6b1f673","system_id":"levelo_inurba_marseille","lat":43.30447,"lon":5.38897,"is_reserved":false,"is_disabled":false,"rental_uris":{"android":"levelo://app?vid=d423f15e-e4fc-4538-bb11-2f1eb6b1f673","ios":"levelo://app?vid=d423f15e-e4fc-4538-bb11-2f1eb6b1f673"},"vehicle_type_id":"4","last_reported":1771276699,"current_range_meters":16400,"station_id":"ce4bgk12rcd13ifvqbi0","pricing_plan_id":"cebpf4jnsgd1na2vs0mg"},{"bike_id":"72ab149f-0aac-4a82-8892-5126bebf5df6","system_id":"levelo_inurba_marseille","lat":43.22963,"lon":5.35449,"is_reserved":false,"is_disabled":false,"rental_uris":{"android":"levelo://app?vid=72ab149f-0aac-4a82-8892-5126bebf5df6","ios":"levelo://app?vid=72ab149f-0aac-4a82-8892-5126bebf5df6"},"vehicle_type_id":"4","last_reported":1771276699,"current_range_meters":38400,"station_id":"","pricing_plan_id":"cebpf4jnsgd1na2vs0mg"},{"bike_id":"934ff1f2-ae26-4be0-ab41-a94dd7c43140","system_id":"levelo_inurba_marseille","lat":43.265891,"lon":5.390156,"is_reserved":false,"is_disabled":false,"rental_uris":{"android":"levelo://app?vid=934ff1f2-ae26-4be0-ab41-a94dd7c43140","ios":"levelo://app?vid=934ff1f2-ae26-4be0-ab41-a94dd7c43140"},"vehicle_type_id":"4","last_reported":1771276699,"current_range_meters":25600,"station_id":"ce4bhe12rcd13ifvqf30","pricing_plan_id":"cebpf4jnsgd1na2vs0mg"},{"bike_id":"738fdc4b-6f95-4425-b86f-9c36e982b094","system_id":"levelo_inurba_marseille","lat":43.25339,"lon":5.42186,"is_reserved":false,"is_disabled":false,"rental_uris":{"android":"levelo://app?vid=738fdc4b-6f95-4425-b86f-9c36e982b094","ios":"levelo://app?vid=738fdc4b-6f95-4425-b86f-9c36e982b094"},"vehicle_type_id":"4","last_reported":1771276699,"current_range_meters":38000,"station_id":"st_d2m65c5bi1j21697t3ng","pricing_plan_id":"cebpf4jnsgd1na2vs0mg"},{"bike_id":"94770c2b-7899-4d89-b837-656e4e505dd0","system_id":"levelo_inurba_marseille","lat":43.28219,"lon":5.39084,"is_reserved":false,"is_disabled":false,"rental_uris":{"android":"levelo://app?vid=94770c2b-7899-4d89-b837-656e4e505dd0","ios":"levelo://app?vid=94770c2b-7899-4d89-b837-656e4e505dd0"},"vehicle_type_id":"4","last_reported":1771276699,"current_range_meters":8000,"station_id":"ce4bhn92rcd13ifvqgsg","pricing_plan_id":"cebpf4jnsgd1na2vs0mg"},{"bike_id":"ab099b5d-a36c-4b39-b54f-8fdad1227588","system_id":"levelo_inurba_marseille","lat":43.31076,"lon":5.37151,"is_reserved":false,"is_disabled":false,"rental_uris":{"android":"levelo://app?vid=ab099b5d-a36c-4b39-b54f-8fdad1227588","ios":"levelo://app?vid=ab099b5d-a36c-4b39-b54f-8fdad1227588"},"vehicle_type_id":"4","last_reported":1771276699,"current_range_meters":7200,"station_id":"st_d4kl2rp97mjs73e7tdfg","pricing_plan_id":"cebpf4jnsgd1na2vs0mg"},{"bike_id":"bd6611ce-f7cd-494c-a774-4a5ac620e401","system_id":"levelo_inurba_marseille","lat":43.28279,"lon":5.35096,"is_reserved":false,"is_disabled":true,"rental_uris":{"android":"levelo://app?vid=bd6611ce-f7cd-494c-a774-4a5ac620e401","ios":"levelo://app?vid=bd6611ce-f7cd-494c-a774-4a5ac620e401"},"vehicle_type_id":"4","last_reported":1771276699,"current_range_meters":28800,"station_id":"ce4bhbp2rcd13ifvqerg","pricing_plan_id":"cebpf4jnsgd1na2vs0mg"},{"bike_id":"20f5c48f-8a96-4059-af26-cf76185d7785","system_id":"levelo_inurba_marseille","lat":43.28932,"lon":5.36405,"is_reserved":false,"is_disabled":false,"rental_uris":{"android":"levelo://app?vid=20f5c48f-8a96-4059-af26-cf76185d7785","ios":"levelo://app?vid=20f5c48f-8a96-4059-af26-cf76185d7785"},"vehicle_type_id":"4","last_reported":1771276699,"current_range_meters":38800,"station_id":"ce4bhc92rcd13ifvqetg","pricing_plan_id":"cebpf4jnsgd1na2vs0mg"},{"bike_id":"d91e8faf-21cf-4c18-994f-63bca0fd2077","system_id":"levelo_inurba_marseille","lat":43.290216,"lon":5.386368,"is_reserved":false,"is_disabled":false,"rental_uris":{"android":"levelo://app?vid=d91e8faf-21cf-4c18-994f-63bca0fd2077","ios":"levelo://app?vid=d91e8faf-21cf-4c18-994f-63bca0fd2077"},"vehicle_type_id":"4","last_reported":1771276699,"current_range_meters":27200,"station_id":"ce4bh4p2rcd13ifvqe0g","pricing_plan_id":"cebpf4jnsgd1na2vs0mg"},{"bike_id":"c03e6658-8ee2-4869-8358-42e0f8ef5ce2","system_id":"levelo_inurba_marseille","lat":43.296,"lon":5.38119,"is_reserved":false,"is_disabled":true,"rental_uris":{"android":"levelo://app?vid=c03e6658-8ee2-4869-8358-42e0f8ef5ce2","ios":"levelo://app?vid=c03e6658-8ee2-4869-8358-42e0f8ef5ce2"},"vehicle_type_id":"4","last_reported":1771276699,"current_range_meters":1200,"station_id":"ce4bgl12rcd13ifvqbo0","pricing_plan_id":"cebpf4jnsgd1na2vs0mg"},{"bike_id":"b848b13f-a5a8-497c-bf73-42ffb911f77e","system_id":"levelo_inurba_marseille","lat":43.284789,"lon":5.48401,"is_reserved":false,"is_disabled":false,"rental_uris":{"android":"levelo://app?vid=b848b13f-a5a8-497c-bf73-42ffb911f77e","ios":"levelo://app?vid=b848b13f-a5a8-497c-bf73-42ffb911f77e"},"vehicle_type_id":"4","last_reported":1771276699,"current_range_meters":20400,"station_id":"st_d3svhcjqgbts73a3dn0g","pricing_plan_id":"cebpf4jnsgd1na2vs0mg"},{"bike_id":"ffca88d7-f232-4f6a-b002-c46bcf2da788","system_id":"levelo_inurba_marseille","lat":43.29575,"lon":5.37519,"is_reserved":false,"is_disabled":false,"rental_uris":{"android":"levelo://app?vid=ffca88d7-f232-4f6a-b002-c46bcf2da788","ios":"levelo://app?vid=ffca88d7-f232-4f6a-b002-c46bcf2da788"},"vehicle_type_id":"4","last_reported":1771276699,"current_range_meters":24800,"station_id":"ce4bgh92rcd13ifvqb50","pricing_plan_id":"cebpf4jnsgd1na2vs0mg"},{"bike_id":"52147a71-0f95-42c5-b5bf-eb3ef4fb5df1","system_id":"levelo_inurba_marseille","lat":43.2962,"lon":5.3775,"is_reserved":false,"is_disabled":false,"rental_uris":{"android":"levelo://app?vid=52147a71-0f95-42c5-b5bf-eb3ef4fb5df1","ios":"levelo://app?vid=52147a71-0f95-42c5-b5bf-eb3ef4fb5df1"},"vehicle_type_id":"4","last_reported":1771276699,"current_range_meters":18000,"station_id":"ce4bgi92rcd13ifvqb90","pricing_plan_id":"cebpf4jnsgd1na2vs0mg"},{"bike_id":"a20361fa-695a-40fe-a30c-6ec341f0fe26","system_id":"levelo_inurba_marseille","lat":43.3126,"lon":5.36847,"is_reserved":false,"is_disabled":false,"rental_uris":{"android":"levelo://app?vid=a20361fa-695a-40fe-a30c-6ec341f0fe26","ios":"levelo://app?vid=a20361fa-695a-40fe-a30c-6ec341f0fe26"},"vehicle_type_id":"4","last_reported":1771276699,"current_range_meters":8400,"station_id":"ce4bgl92rcd13ifvqbq0","pricing_plan_id":"cebpf4jnsgd1na2vs0mg"},{"bike_id":"efb8fb29-427b-41e4-afcb-761f3d1cec75","system_id":"levelo_inurba_marseille","lat":43.29907,"lon":5.3815,"is_reserved":false,"is_disabled":false,"rental_uris":{"android":"levelo://app?vid=efb8fb29-427b-41e4-afcb-761f3d1cec75","ios":"levelo://app?vid=efb8fb29-427b-41e4-afcb-761f3d1cec75"},"vehicle_type_id":"4","last_reported":1771276699,"current_range_meters":24000,"station_id":"ce4bgj12rcd13ifvqbc0","pricing_plan_id":"cebpf4jnsgd1na2vs0mg"},{"bike_id":"b2a02418-a742-4f1b-8066-b19250c93a85","system_id":"levelo_inurba_marseille","lat":43.28625,"lon":5.35105,"is_reserved":false,"is_disabled":false,"rental_uris":{"android":"levelo://app?vid=b2a02418-a742-4f1b-8066-b19250c93a85","ios":"levelo://app?vid=b2a02418-a742-4f1b-8066-b19250c93a85"},"vehicle_type_id":"4","last_reported":1771276699,"current_range_meters":25200,"station_id":"ce4bhch2rcd13ifvqeug","pricing_plan_id":"cebpf4jnsgd1na2vs0mg"},{"bike_id":"8fada210-1093-4710-9a26-748482418b8d","system_id":"levelo_inurba_marseille","lat":43.28938,"lon":5.36632,"is_reserved":false,"is_disabled":false,"rental_uris":{"android":"levelo://app?vid=8fada210-1093-4710-9a26-748482418b8d","ios":"levelo://app?vid=8fada210-1093-4710-9a26-748482418b8d"},"vehicle_type_id":"4","last_reported":1771276699,"current_range_meters":8800,"station_id":"ce4bhap2rcd13ifvqek0","pricing_plan_id":"cebpf4jnsgd1na2vs0mg"},{"bike_id":"3ca44577-751b-4a5a-8711-945546fa47da","system_id":"levelo_inurba_marseille","lat":43.29573,"lon":5.36773,"is_reserved":false,"is_disabled":false,"rental_uris":{"android":"levelo://app?vid=3ca44577-751b-4a5a-8711-945546fa47da","ios":"levelo://app?vid=3ca44577-751b-4a5a-8711-945546fa47da"},"vehicle_type_id":"4","last_reported":1771276699,"current_range_meters":26000,"station_id":"ce4bgph2rcd13ifvqc2g","pricing_plan_id":"cebpf4jnsgd1na2vs0mg"},{"bike_id":"14096945-3ed2-4921-943f-a03af03f353e","system_id":"levelo_inurba_marseille","lat":43.25587,"lon":5.3824,"is_reserved":false,"is_disabled":false,"rental_uris":{"android":"levelo://app?vid=14096945-3ed2-4921-943f-a03af03f353e","ios":"levelo://app?vid=14096945-3ed2-4921-943f-a03af03f353e"},"vehicle_type_id":"4","last_reported":1771276699,"current_range_meters":32000,"station_id":"ce4bhih2rcd13ifvqfs0","pricing_plan_id":"cebpf4jnsgd1na2vs0mg"},{"bike_id":"484e108a-d5e5-4238-92ad-9e453b1790ff","system_id":"levelo_inurba_marseille","lat":43.27194,"lon":5.40995,"is_reserved":false,"is_disabled":true,"rental_uris":{"android":"levelo://app?vid=484e108a-d5e5-4238-92ad-9e453b1790ff","ios":"levelo://app?vid=484e108a-d5e5-4238-92ad-9e453b1790ff"},"vehicle_type_id":"4","last_reported":1771276699,"current_range_meters":32400,"station_id":"ce4bhl12rcd13ifvqgf0","pricing_plan_id":"cebpf4jnsgd1na2vs0mg"},{"bike_id":"05e9f163-6c92-43ff-88d7-1e9ac897e802","system_id":"levelo_inurba_marseille","lat":43.27896,"lon":5.38012,"is_reserved":false,"is_disabled":false,"rental_uris":{"android":"levelo://app?vid=05e9f163-6c92-43ff-88d7-1e9ac897e802","ios":"levelo://app?vid=05e9f163-6c92-43ff-88d7-1e9ac897e802"},"vehicle_type_id":"4","last_reported":1771276699,"current_range_meters":32400,"station_id":"ce4bhf92rcd13ifvqf50","pricing_plan_id":"cebpf4jnsgd1na2vs0mg"},{"bike_id":"35cc6573-5843-4d1f-aaff-19eea131fbdf","system_id":"levelo_inurba_marseille","lat":43.26215,"lon":5.37954,"is_reserved":false,"is_disabled":false,"rental_uris":{"android":"levelo://app?vid=35cc6573-5843-4d1f-aaff-19eea131fbdf","ios":"levelo://app?vid=35cc6573-5843-4d1f-aaff-19eea131fbdf"},"vehicle_type_id":"4","last_reported":1771276699,"current_range_meters":26000,"station_id":"ce4bhjp2rcd13ifvqg90","pricing_plan_id":"cebpf4jnsgd1na2vs0mg"},{"bike_id":"88d7fdfd-6550-4b67-8bb1-1c03b402f4d8","system_id":"levelo_inurba_marseille","lat":43.28693,"lon":5.38685,"is_reserved":false,"is_disabled":false,"rental_uris":{"android":"levelo://app?vid=88d7fdfd-6550-4b67-8bb1-1c03b402f4d8","ios":"levelo://app?vid=88d7fdfd-6550-4b67-8bb1-1c03b402f4d8"},"vehicle_type_id":"4","last_reported":1771276699,"current_range_meters":14800,"station_id":"ce4bh492rcd13ifvqdug","pricing_plan_id":"cebpf4jnsgd1na2vs0mg"},{"bike_id":"64db0d34-7672-4fa0-9c64-6c476f2fdf3d","system_id":"levelo_inurba_marseille","lat":43.29272,"lon":5.38447,"is_reserved":false,"is_disabled":false,"rental_uris":{"android":"levelo://app?vid=64db0d34-7672-4fa0-9c64-6c476f2fdf3d","ios":"levelo://app?vid=64db0d34-7672-4fa0-9c64-6c476f2fdf3d"},"vehicle_type_id":"4","last_reported":1771276699,"current_range_meters":4800,"station_id":"ce4bh692rcd13ifvqea0","pricing_plan_id":"cebpf4jnsgd1na2vs0mg"},{"bike_id":"c9b76f97-4777-40f7-8438-ab341a9656e1","system_id":"levelo_inurba_marseille","lat":43.29851,"lon":5.36266,"is_reserved":false,"is_disabled":false,"rental_uris":{"android":"levelo://app?vid=c9b76f97-4777-40f7-8438-ab341a9656e1","ios":"levelo://app?vid=c9b76f97-4777-40f7-8438-ab341a9656e1"},"vehicle_type_id":"4","last_reported":1771276699,"current_range_meters":38400,"station_id":"ce4bgpp2rcd13ifvqc3g","pricing_plan_id":"cebpf4jnsgd1na2vs0mg"},{"bike_id":"8de72905-9cd1-43a5-b42e-38b92fe08e53","system_id":"levelo_inurba_marseille","lat":43.27078,"lon":5.4228,"is_reserved":false,"is_disabled":false,"rental_uris":{"android":"levelo://app?vid=8de72905-9cd1-43a5-b42e-38b92fe08e53","ios":"levelo://app?vid=8de72905-9cd1-43a5-b42e-38b92fe08e53"},"vehicle_type_id":"4","last_reported":1771276699,"current_range_meters":38000,"station_id":"ce4bhk92rcd13ifvqgb0","pricing_plan_id":"cebpf4jnsgd1na2vs0mg"},{"bike_id":"134a7d23-f0f4-488c-a3d0-c5fc7f3d3eb3","system_id":"levelo_inurba_marseille","lat":43.28216,"lon":5.39068,"is_reserved":false,"is_disabled":false,"rental_uris":{"android":"levelo://app?vid=134a7d23-f0f4-488c-a3d0-c5fc7f3d3eb3","ios":"levelo://app?vid=134a7d23-f0f4-488c-a3d0-c5fc7f3d3eb3"},"vehicle_type_id":"4","last_reported":1771276699,"current_range_meters":32000,"station_id":"ce4bhn92rcd13ifvqgsg","pricing_plan_id":"cebpf4jnsgd1na2vs0mg"},{"bike_id":"6b63b009-f7da-4d4b-a414-01d08a281042","system_id":"levelo_inurba_marseille","lat":43.30542,"lon":5.36536,"is_reserved":false,"is_disabled":false,"rental_uris":{"android":"levelo://app?vid=6b63b009-f7da-4d4b-a414-01d08a281042","ios":"levelo://app?vid=6b63b009-f7da-4d4b-a414-01d08a281042"},"vehicle_type_id":"4","last_reported":1771276699,"current_range_meters":6800,"station_id":"ce4bgs12rcd13ifvqcag","pricing_plan_id":"cebpf4jnsgd1na2vs0mg"},{"bike_id":"108e264e-4c88-4022-a674-954978e6075c","system_id":"levelo_inurba_marseille","lat":43.3128,"lon":5.40171,"is_reserved":false,"is_disabled":false,"rental_uris":{"android":"levelo://app?vid=108e264e-4c88-4022-a674-954978e6075c","ios":"levelo://app?vid=108e264e-4c88-4022-a674-954978e6075c"},"vehicle_type_id":"4","last_reported":1771276699,"current_range_meters":19600,"station_id":"ce4bh092rcd13ifvqd30","pricing_plan_id":"cebpf4jnsgd1na2vs0mg"},{"bike_id":"656feda4-e34b-414e-8901-d8145568784e","system_id":"levelo_inurba_marseille","lat":43.29302,"lon":5.38472,"is_reserved":false,"is_disabled":false,"rental_uris":{"android":"levelo://app?vid=656feda4-e34b-414e-8901-d8145568784e","ios":"levelo://app?vid=656feda4-e34b-414e-8901-d8145568784e"},"vehicle_type_id":"4","last_reported":1771276699,"current_range_meters":9600,"station_id":"","pricing_plan_id":"cebpf4jnsgd1na2vs0mg"},{"bike_id":"29aaeded-6fbf-4914-8e01-d1b40b6726f9","system_id":"levelo_inurba_marseille","lat":43.26188,"lon":5.37446,"is_reserved":false,"is_disabled":false,"rental_uris":{"android":"levelo://app?vid=29aaeded-6fbf-4914-8e01-d1b40b6726f9","ios":"levelo://app?vid=29aaeded-6fbf-4914-8e01-d1b40b6726f9"},"vehicle_type_id":"4","last_reported":1771276699,"current_range_meters":8800,"station_id":"ce4bhgp2rcd13ifvqfc0","pricing_plan_id":"cebpf4jnsgd1na2vs0mg"},{"bike_id":"99ffab0f-cc2b-40c5-b51b-5ba657c7cbcf","system_id":"levelo_inurba_marseille","lat":43.29022,"lon":5.38626,"is_reserved":false,"is_disabled":false,"rental_uris":{"android":"levelo://app?vid=99ffab0f-cc2b-40c5-b51b-5ba657c7cbcf","ios":"levelo://app?vid=99ffab0f-cc2b-40c5-b51b-5ba657c7cbcf"},"vehicle_type_id":"4","last_reported":1771276699,"current_range_meters":27200,"station_id":"ce4bh4p2rcd13ifvqe0g","pricing_plan_id":"cebpf4jnsgd1na2vs0mg"},{"bike_id":"f5039416-93fa-4b18-81c3-b8464d4e469e","system_id":"levelo_inurba_marseille","lat":43.28759,"lon":5.40097,"is_reserved":false,"is_disabled":false,"rental_uris":{"android":"levelo://app?vid=f5039416-93fa-4b18-81c3-b8464d4e469e","ios":"levelo://app?vid=f5039416-93fa-4b18-81c3-b8464d4e469e"},"vehicle_type_id":"4","last_reported":1771276699,"current_range_meters":30000,"station_id":"","pricing_plan_id":"cebpf4jnsgd1na2vs0mg"},{"bike_id":"37f06b28-831e-4816-b948-7ac6d3b82964","system_id":"levelo_inurba_marseille","lat":43.286133,"lon":5.398699,"is_reserved":false,"is_disabled":false,"rental_uris":{"android":"levelo://app?vid=37f06b28-831e-4816-b948-7ac6d3b82964","ios":"levelo://app?vid=37f06b28-831e-4816-b948-7ac6d3b82964"},"vehicle_type_id":"4","last_reported":1771276699,"current_range_meters":38000,"station_id":"ce4bh4p2rcd13ifvqe1g","pricing_plan_id":"cebpf4jnsgd1na2vs0mg"},{"bike_id":"cdb31bb4-370c-491d-8d68-0dceed9d9223","system_id":"levelo_inurba_marseille","lat":43.33536,"lon":5.37494,"is_reserved":false,"is_disabled":false,"rental_uris":{"android":"levelo://app?vid=cdb31bb4-370c-491d-8d68-0dceed9d9223","ios":"levelo://app?vid=cdb31bb4-370c-491d-8d68-0dceed9d9223"},"vehicle_type_id":"4","last_reported":1771276699,"current_range_meters":30400,"station_id":"st_d46tts09ee8s73dlu43g","pricing_plan_id":"cebpf4jnsgd1na2vs0mg"},{"bike_id":"ee4f8742-0617-46e3-9fa2-031983a52dc9","system_id":"levelo_inurba_marseille","lat":43.29765,"lon":5.42782,"is_reserved":false,"is_disabled":false,"rental_uris":{"android":"levelo://app?vid=ee4f8742-0617-46e3-9fa2-031983a52dc9","ios":"levelo://app?vid=ee4f8742-0617-46e3-9fa2-031983a52dc9"},"vehicle_type_id":"4","last_reported":1771276699,"current_range_meters":37600,"station_id":"st_d3md5207bmas73dh9klg","pricing_plan_id":"cebpf4jnsgd1na2vs0mg"},{"bike_id":"1ae9bc1d-b840-42f7-a16c-1b20e0f7a83e","system_id":"levelo_inurba_marseille","lat":43.248071,"lon":5.374515,"is_reserved":false,"is_disabled":false,"rental_uris":{"android":"levelo://app?vid=1ae9bc1d-b840-42f7-a16c-1b20e0f7a83e","ios":"levelo://app?vid=1ae9bc1d-b840-42f7-a16c-1b20e0f7a83e"},"vehicle_type_id":"4","last_reported":1771276699,"current_range_meters":24400,"station_id":"ce4bhgh2rcd13ifvqfb0","pricing_plan_id":"cebpf4jnsgd1na2vs0mg"},{"bike_id":"4a05e98f-f767-4952-ad79-7c23c18f69b8","system_id":"levelo_inurba_marseille","lat":43.29869,"lon":5.36264,"is_reserved":false,"is_disabled":true,"rental_uris":{"android":"levelo://app?vid=4a05e98f-f767-4952-ad79-7c23c18f69b8","ios":"levelo://app?vid=4a05e98f-f767-4952-ad79-7c23c18f69b8"},"vehicle_type_id":"4","last_reported":1771276699,"current_range_meters":28000,"station_id":"ce4bgpp2rcd13ifvqc3g","pricing_plan_id":"cebpf4jnsgd1na2vs0mg"},{"bike_id":"8a8fa0fa-9b9a-4667-a36a-f2215b14299e","system_id":"levelo_inurba_marseille","lat":43.24826,"lon":5.37462,"is_reserved":false,"is_disabled":false,"rental_uris":{"android":"levelo://app?vid=8a8fa0fa-9b9a-4667-a36a-f2215b14299e","ios":"levelo://app?vid=8a8fa0fa-9b9a-4667-a36a-f2215b14299e"},"vehicle_type_id":"4","last_reported":1771276699,"current_range_meters":37600,"station_id":"ce4bhgh2rcd13ifvqfb0","pricing_plan_id":"cebpf4jnsgd1na2vs0mg"},{"bike_id":"3b23e696-0f10-4258-80d6-a9732718d5da","system_id":"levelo_inurba_marseille","lat":43.33547,"lon":5.37473,"is_reserved":false,"is_disabled":false,"rental_uris":{"android":"levelo://app?vid=3b23e696-0f10-4258-80d6-a9732718d5da","ios":"levelo://app?vid=3b23e696-0f10-4258-80d6-a9732718d5da"},"vehicle_type_id":"4","last_reported":1771276699,"current_range_meters":30800,"station_id":"st_d46tts09ee8s73dlu43g","pricing_plan_id":"cebpf4jnsgd1na2vs0mg"},{"bike_id":"dfa36d27-6e60-4833-b7ff-9ec90b759d28","system_id":"levelo_inurba_marseille","lat":43.25669,"lon":5.38289,"is_reserved":false,"is_disabled":false,"rental_uris":{"android":"levelo://app?vid=dfa36d27-6e60-4833-b7ff-9ec90b759d28","ios":"levelo://app?vid=dfa36d27-6e60-4833-b7ff-9ec90b759d28"},"vehicle_type_id":"4","last_reported":1771276699,"current_range_meters":27200,"station_id":"","pricing_plan_id":"cebpf4jnsgd1na2vs0mg"},{"bike_id":"d2ed726d-49b0-4277-8a21-0f15f6cd9ff9","system_id":"levelo_inurba_marseille","lat":43.2746,"lon":5.42376,"is_reserved":false,"is_disabled":false,"rental_uris":{"android":"levelo://app?vid=d2ed726d-49b0-4277-8a21-0f15f6cd9ff9","ios":"levelo://app?vid=d2ed726d-49b0-4277-8a21-0f15f6cd9ff9"},"vehicle_type_id":"4","last_reported":1771276699,"current_range_meters":11200,"station_id":"","pricing_plan_id":"cebpf4jnsgd1na2vs0mg"},{"bike_id":"d0af0967-4f64-45d2-aeab-b15286d65704","system_id":"levelo_inurba_marseille","lat":43.33125,"lon":5.39271,"is_reserved":false,"is_disabled":false,"rental_uris":{"android":"levelo://app?vid=d0af0967-4f64-45d2-aeab-b15286d65704","ios":"levelo://app?vid=d0af0967-4f64-45d2-aeab-b15286d65704"},"vehicle_type_id":"4","last_reported":1771276699,"current_range_meters":24000,"station_id":"","pricing_plan_id":"cebpf4jnsgd1na2vs0mg"},{"bike_id":"7c11e683-0ef8-4bac-8048-16f7653ced54","system_id":"levelo_inurba_marseille","lat":43.2861,"lon":5.35118,"is_reserved":false,"is_disabled":false,"rental_uris":{"android":"levelo://app?vid=7c11e683-0ef8-4bac-8048-16f7653ced54","ios":"levelo://app?vid=7c11e683-0ef8-4bac-8048-16f7653ced54"},"vehicle_type_id":"4","last_reported":1771276699,"current_range_meters":15200,"station_id":"ce4bhch2rcd13ifvqeug","pricing_plan_id":"cebpf4jnsgd1na2vs0mg"},{"bike_id":"4932e24b-f2ef-4e1d-8d26-86e9c422ae44","system_id":"levelo_inurba_marseille","lat":43.32107,"lon":5.36743,"is_reserved":false,"is_disabled":false,"rental_uris":{"android":"levelo://app?vid=4932e24b-f2ef-4e1d-8d26-86e9c422ae44","ios":"levelo://app?vid=4932e24b-f2ef-4e1d-8d26-86e9c422ae44"},"vehicle_type_id":"4","last_reported":1771276699,"current_range_meters":25200,"station_id":"ce4bhrh2rcd13ifvqhug","pricing_plan_id":"cebpf4jnsgd1na2vs0mg"},{"bike_id":"ed490975-8fe6-4de2-ac32-6f85ebb50fe1","system_id":"levelo_inurba_marseille","lat":43.295364,"lon":5.385475,"is_reserved":false,"is_disabled":false,"rental_uris":{"android":"levelo://app?vid=ed490975-8fe6-4de2-ac32-6f85ebb50fe1","ios":"levelo://app?vid=ed490975-8fe6-4de2-ac32-6f85ebb50fe1"},"vehicle_type_id":"4","last_reported":1771276699,"current_range_meters":30400,"station_id":"ce4bgih2rcd13ifvqba0","pricing_plan_id":"cebpf4jnsgd1na2vs0mg"},{"bike_id":"1760c09e-5b63-4d61-a05c-866ed1259f44","system_id":"levelo_inurba_marseille","lat":43.27817,"lon":5.40705,"is_reserved":false,"is_disabled":false,"rental_uris":{"android":"levelo://app?vid=1760c09e-5b63-4d61-a05c-866ed1259f44","ios":"levelo://app?vid=1760c09e-5b63-4d61-a05c-866ed1259f44"},"vehicle_type_id":"4","last_reported":1771276699,"current_range_meters":38000,"station_id":"ce4bhnh2rcd13ifvqgtg","pricing_plan_id":"cebpf4jnsgd1na2vs0mg"},{"bike_id":"06b0e8ea-5721-4b06-a488-b9703e22c1ac","system_id":"levelo_inurba_marseille","lat":43.28634,"lon":5.35104,"is_reserved":false,"is_disabled":false,"rental_uris":{"android":"levelo://app?vid=06b0e8ea-5721-4b06-a488-b9703e22c1ac","ios":"levelo://app?vid=06b0e8ea-5721-4b06-a488-b9703e22c1ac"},"vehicle_type_id":"4","last_reported":1771276699,"current_range_meters":38000,"station_id":"ce4bhch2rcd13ifvqeug","pricing_plan_id":"cebpf4jnsgd1na2vs0mg"},{"bike_id":"7c6a01c6-e410-4da4-bf93-993e6ec4d68a","system_id":"levelo_inurba_marseille","lat":43.25012,"lon":5.38933,"is_reserved":false,"is_disabled":false,"rental_uris":{"android":"levelo://app?vid=7c6a01c6-e410-4da4-bf93-993e6ec4d68a","ios":"levelo://app?vid=7c6a01c6-e410-4da4-bf93-993e6ec4d68a"},"vehicle_type_id":"4","last_reported":1771276699,"current_range_meters":39200,"station_id":"ce4bhgp2rcd13ifvqfd0","pricing_plan_id":"cebpf4jnsgd1na2vs0mg"},{"bike_id":"efe750db-9975-43cb-ada6-064cf243e55f","system_id":"levelo_inurba_marseille","lat":43.25007,"lon":5.38902,"is_reserved":false,"is_disabled":false,"rental_uris":{"android":"levelo://app?vid=efe750db-9975-43cb-ada6-064cf243e55f","ios":"levelo://app?vid=efe750db-9975-43cb-ada6-064cf243e55f"},"vehicle_type_id":"4","last_reported":1771276699,"current_range_meters":20400,"station_id":"ce4bhgp2rcd13ifvqfd0","pricing_plan_id":"cebpf4jnsgd1na2vs0mg"},{"bike_id":"bd0e99a1-4162-41ae-b356-8cc729f7fd82","system_id":"levelo_inurba_marseille","lat":43.23968,"lon":5.36639,"is_reserved":false,"is_disabled":false,"rental_uris":{"android":"levelo://app?vid=bd0e99a1-4162-41ae-b356-8cc729f7fd82","ios":"levelo://app?vid=bd0e99a1-4162-41ae-b356-8cc729f7fd82"},"vehicle_type_id":"4","last_reported":1771276699,"current_range_meters":7200,"station_id":"ce4bhi12rcd13ifvqfp0","pricing_plan_id":"cebpf4jnsgd1na2vs0mg"},{"bike_id":"3d69156c-572f-4b50-bfc8-dd5d9f6e75cc","system_id":"levelo_inurba_marseille","lat":43.25074,"lon":5.39513,"is_reserved":false,"is_disabled":false,"rental_uris":{"android":"levelo://app?vid=3d69156c-572f-4b50-bfc8-dd5d9f6e75cc","ios":"levelo://app?vid=3d69156c-572f-4b50-bfc8-dd5d9f6e75cc"},"vehicle_type_id":"4","last_reported":1771276699,"current_range_meters":8000,"station_id":"ce4bhm12rcd13ifvqgkg","pricing_plan_id":"cebpf4jnsgd1na2vs0mg"},{"bike_id":"b4fb0b98-42c1-438a-9d0d-e390e825b39e","system_id":"levelo_inurba_marseille","lat":43.31668,"lon":5.39604,"is_reserved":false,"is_disabled":false,"rental_uris":{"android":"levelo://app?vid=b4fb0b98-42c1-438a-9d0d-e390e825b39e","ios":"levelo://app?vid=b4fb0b98-42c1-438a-9d0d-e390e825b39e"},"vehicle_type_id":"4","last_reported":1771276699,"current_range_meters":16000,"station_id":"","pricing_plan_id":"cebpf4jnsgd1na2vs0mg"},{"bike_id":"37788f76-dc23-4b3b-af83-53337e6b4bad","system_id":"levelo_inurba_marseille","lat":43.22939,"lon":5.35427,"is_reserved":false,"is_disabled":false,"rental_uris":{"android":"levelo://app?vid=37788f76-dc23-4b3b-af83-53337e6b4bad","ios":"levelo://app?vid=37788f76-dc23-4b3b-af83-53337e6b4bad"},"vehicle_type_id":"4","last_reported":1771276699,"current_range_meters":17200,"station_id":"cpo3532slgdg3j2ikp40","pricing_plan_id":"cebpf4jnsgd1na2vs0mg"},{"bike_id":"ea1d52b1-5f2a-4cf7-88db-025e888a5fb6","system_id":"levelo_inurba_marseille","lat":43.29219,"lon":5.36068,"is_reserved":false,"is_disabled":false,"rental_uris":{"android":"levelo://app?vid=ea1d52b1-5f2a-4cf7-88db-025e888a5fb6","ios":"levelo://app?vid=ea1d52b1-5f2a-4cf7-88db-025e888a5fb6"},"vehicle_type_id":"4","last_reported":1771276699,"current_range_meters":39200,"station_id":"ce4bhbh2rcd13ifvqeqg","pricing_plan_id":"cebpf4jnsgd1na2vs0mg"},{"bike_id":"b46161f1-e7ec-4cb9-92f2-dc2b4e46716b","system_id":"levelo_inurba_marseille","lat":43.30552,"lon":5.36529,"is_reserved":false,"is_disabled":false,"rental_uris":{"android":"levelo://app?vid=b46161f1-e7ec-4cb9-92f2-dc2b4e46716b","ios":"levelo://app?vid=b46161f1-e7ec-4cb9-92f2-dc2b4e46716b"},"vehicle_type_id":"4","last_reported":1771276699,"current_range_meters":11200,"station_id":"ce4bgs12rcd13ifvqcag","pricing_plan_id":"cebpf4jnsgd1na2vs0mg"},{"bike_id":"bb332d87-cea1-404a-9aa2-7199b0126920","system_id":"levelo_inurba_marseille","lat":43.29905,"lon":5.37482,"is_reserved":false,"is_disabled":false,"rental_uris":{"android":"levelo://app?vid=bb332d87-cea1-404a-9aa2-7199b0126920","ios":"levelo://app?vid=bb332d87-cea1-404a-9aa2-7199b0126920"},"vehicle_type_id":"4","last_reported":1771276699,"current_range_meters":9200,"station_id":"ce4bgjh2rcd13ifvqbg0","pricing_plan_id":"cebpf4jnsgd1na2vs0mg"},{"bike_id":"821fb0be-7499-4473-8aa4-d25dd4bfdb68","system_id":"levelo_inurba_marseille","lat":43.26943,"lon":5.38647,"is_reserved":false,"is_disabled":true,"rental_uris":{"android":"levelo://app?vid=821fb0be-7499-4473-8aa4-d25dd4bfdb68","ios":"levelo://app?vid=821fb0be-7499-4473-8aa4-d25dd4bfdb68"},"vehicle_type_id":"4","last_reported":1771276699,"current_range_meters":28400,"station_id":"ce4bhh92rcd13ifvqfh0","pricing_plan_id":"cebpf4jnsgd1na2vs0mg"},{"bike_id":"6a633e68-e9f3-4283-9248-2a1b527af9b8","system_id":"levelo_inurba_marseille","lat":43.24088,"lon":5.37748,"is_reserved":false,"is_disabled":false,"rental_uris":{"android":"levelo://app?vid=6a633e68-e9f3-4283-9248-2a1b527af9b8","ios":"levelo://app?vid=6a633e68-e9f3-4283-9248-2a1b527af9b8"},"vehicle_type_id":"4","last_reported":1771276699,"current_range_meters":36000,"station_id":"ce4bhnp2rcd13ifvqgvg","pricing_plan_id":"cebpf4jnsgd1na2vs0mg"},{"bike_id":"4f119211-3200-4473-a12a-0f8872e80707","system_id":"levelo_inurba_marseille","lat":43.2465,"lon":5.3817,"is_reserved":false,"is_disabled":true,"rental_uris":{"android":"levelo://app?vid=4f119211-3200-4473-a12a-0f8872e80707","ios":"levelo://app?vid=4f119211-3200-4473-a12a-0f8872e80707"},"vehicle_type_id":"4","last_reported":1771276699,"current_range_meters":0,"station_id":"ce4bhih2rcd13ifvqfr0","pricing_plan_id":"cebpf4jnsgd1na2vs0mg"},{"bike_id":"33da8187-3eb8-4f3e-970f-0ece9caa0bce","system_id":"levelo_inurba_marseille","lat":43.24946,"lon":5.40504,"is_reserved":false,"is_disabled":false,"rental_uris":{"android":"levelo://app?vid=33da8187-3eb8-4f3e-970f-0ece9caa0bce","ios":"levelo://app?vid=33da8187-3eb8-4f3e-970f-0ece9caa0bce"},"vehicle_type_id":"4","last_reported":1771276699,"current_range_meters":30800,"station_id":"st_d2ngiaodas8pm72gd1h0","pricing_plan_id":"cebpf4jnsgd1na2vs0mg"},{"bike_id":"65c05f1b-66ba-4d82-8a9c-1c4aa6a1b51a","system_id":"levelo_inurba_marseille","lat":43.30299,"lon":5.39203,"is_reserved":false,"is_disabled":false,"rental_uris":{"android":"levelo://app?vid=65c05f1b-66ba-4d82-8a9c-1c4aa6a1b51a","ios":"levelo://app?vid=65c05f1b-66ba-4d82-8a9c-1c4aa6a1b51a"},"vehicle_type_id":"4","last_reported":1771276699,"current_range_meters":35200,"station_id":"ce4bgkh2rcd13ifvqbk0","pricing_plan_id":"cebpf4jnsgd1na2vs0mg"},{"bike_id":"f6c8ad3f-2309-4ca4-8beb-abbcc1073144","system_id":"levelo_inurba_marseille","lat":43.28224,"lon":5.39084,"is_reserved":false,"is_disabled":false,"rental_uris":{"android":"levelo://app?vid=f6c8ad3f-2309-4ca4-8beb-abbcc1073144","ios":"levelo://app?vid=f6c8ad3f-2309-4ca4-8beb-abbcc1073144"},"vehicle_type_id":"4","last_reported":1771276699,"current_range_meters":39200,"station_id":"ce4bhn92rcd13ifvqgsg","pricing_plan_id":"cebpf4jnsgd1na2vs0mg"},{"bike_id":"932a7ddf-f475-4db8-8a7d-1a0fdfb94aa3","system_id":"levelo_inurba_marseille","lat":43.30544,"lon":5.36571,"is_reserved":false,"is_disabled":false,"rental_uris":{"android":"levelo://app?vid=932a7ddf-f475-4db8-8a7d-1a0fdfb94aa3","ios":"levelo://app?vid=932a7ddf-f475-4db8-8a7d-1a0fdfb94aa3"},"vehicle_type_id":"4","last_reported":1771276699,"current_range_meters":12000,"station_id":"ce4bgs12rcd13ifvqcag","pricing_plan_id":"cebpf4jnsgd1na2vs0mg"},{"bike_id":"3ca9e3ce-db46-4a73-94d7-e652fd26cbc7","system_id":"levelo_inurba_marseille","lat":43.29564,"lon":5.37504,"is_reserved":false,"is_disabled":false,"rental_uris":{"android":"levelo://app?vid=3ca9e3ce-db46-4a73-94d7-e652fd26cbc7","ios":"levelo://app?vid=3ca9e3ce-db46-4a73-94d7-e652fd26cbc7"},"vehicle_type_id":"4","last_reported":1771276699,"current_range_meters":24000,"station_id":"ce4bgh92rcd13ifvqb50","pricing_plan_id":"cebpf4jnsgd1na2vs0mg"},{"bike_id":"185c435d-ad1f-4775-a4d3-87a9d5d9c111","system_id":"levelo_inurba_marseille","lat":43.26208,"lon":5.40448,"is_reserved":false,"is_disabled":false,"rental_uris":{"android":"levelo://app?vid=185c435d-ad1f-4775-a4d3-87a9d5d9c111","ios":"levelo://app?vid=185c435d-ad1f-4775-a4d3-87a9d5d9c111"},"vehicle_type_id":"4","last_reported":1771276699,"current_range_meters":3600,"station_id":"ce4bhmh2rcd13ifvqgmg","pricing_plan_id":"cebpf4jnsgd1na2vs0mg"},{"bike_id":"62e690f0-63f6-474d-98ba-c3ee77f6bd18","system_id":"levelo_inurba_marseille","lat":43.29577,"lon":5.4394,"is_reserved":false,"is_disabled":false,"rental_uris":{"android":"levelo://app?vid=62e690f0-63f6-474d-98ba-c3ee77f6bd18","ios":"levelo://app?vid=62e690f0-63f6-474d-98ba-c3ee77f6bd18"},"vehicle_type_id":"4","last_reported":1771276699,"current_range_meters":26000,"station_id":"","pricing_plan_id":"cebpf4jnsgd1na2vs0mg"},{"bike_id":"2ff2fb35-339d-4c06-a976-53e85a4921d2","system_id":"levelo_inurba_marseille","lat":43.2928,"lon":5.40116,"is_reserved":false,"is_disabled":false,"rental_uris":{"android":"levelo://app?vid=2ff2fb35-339d-4c06-a976-53e85a4921d2","ios":"levelo://app?vid=2ff2fb35-339d-4c06-a976-53e85a4921d2"},"vehicle_type_id":"4","last_reported":1771276699,"current_range_meters":33200,"station_id":"ce4bh312rcd13ifvqdk0","pricing_plan_id":"cebpf4jnsgd1na2vs0mg"},{"bike_id":"547a920a-d5ae-4ae3-a3ed-da70807dc096","system_id":"levelo_inurba_marseille","lat":43.28706,"lon":5.37412,"is_reserved":false,"is_disabled":false,"rental_uris":{"android":"levelo://app?vid=547a920a-d5ae-4ae3-a3ed-da70807dc096","ios":"levelo://app?vid=547a920a-d5ae-4ae3-a3ed-da70807dc096"},"vehicle_type_id":"4","last_reported":1771276699,"current_range_meters":16400,"station_id":"ce4bh3p2rcd13ifvqdq0","pricing_plan_id":"cebpf4jnsgd1na2vs0mg"},{"bike_id":"a893f91b-71b5-4bda-a582-3da37d0be328","system_id":"levelo_inurba_marseille","lat":43.27991,"lon":5.40032,"is_reserved":false,"is_disabled":false,"rental_uris":{"android":"levelo://app?vid=a893f91b-71b5-4bda-a582-3da37d0be328","ios":"levelo://app?vid=a893f91b-71b5-4bda-a582-3da37d0be328"},"vehicle_type_id":"4","last_reported":1771276699,"current_range_meters":39200,"station_id":"ce4bho92rcd13ifvqh4g","pricing_plan_id":"cebpf4jnsgd1na2vs0mg"},{"bike_id":"8ba9709b-6053-4162-941f-fc8a222aea1a","system_id":"levelo_inurba_marseille","lat":43.30908,"lon":5.40189,"is_reserved":false,"is_disabled":false,"rental_uris":{"android":"levelo://app?vid=8ba9709b-6053-4162-941f-fc8a222aea1a","ios":"levelo://app?vid=8ba9709b-6053-4162-941f-fc8a222aea1a"},"vehicle_type_id":"4","last_reported":1771276699,"current_range_meters":14000,"station_id":"ce4bgvp2rcd13ifvqct0","pricing_plan_id":"cebpf4jnsgd1na2vs0mg"},{"bike_id":"45b209b0-f7ec-4530-b801-53212625f98e","system_id":"levelo_inurba_marseille","lat":43.260641,"lon":5.393919,"is_reserved":false,"is_disabled":false,"rental_uris":{"android":"levelo://app?vid=45b209b0-f7ec-4530-b801-53212625f98e","ios":"levelo://app?vid=45b209b0-f7ec-4530-b801-53212625f98e"},"vehicle_type_id":"4","last_reported":1771276699,"current_range_meters":39200,"station_id":"ce4bhh92rcd13ifvqfj0","pricing_plan_id":"cebpf4jnsgd1na2vs0mg"},{"bike_id":"40fd0452-0ae6-42bf-907f-bb1c4484b081","system_id":"levelo_inurba_marseille","lat":43.27968,"lon":5.38737,"is_reserved":false,"is_disabled":true,"rental_uris":{"android":"levelo://app?vid=40fd0452-0ae6-42bf-907f-bb1c4484b081","ios":"levelo://app?vid=40fd0452-0ae6-42bf-907f-bb1c4484b081"},"vehicle_type_id":"4","last_reported":1771276699,"current_range_meters":24400,"station_id":"ce4bhg12rcd13ifvqf80","pricing_plan_id":"cebpf4jnsgd1na2vs0mg"},{"bike_id":"d372ddf4-25e4-4090-b847-2210a5057d33","system_id":"levelo_inurba_marseille","lat":43.29531,"lon":5.37518,"is_reserved":false,"is_disabled":false,"rental_uris":{"android":"levelo://app?vid=d372ddf4-25e4-4090-b847-2210a5057d33","ios":"levelo://app?vid=d372ddf4-25e4-4090-b847-2210a5057d33"},"vehicle_type_id":"4","last_reported":1771276699,"current_range_meters":10800,"station_id":"ce4bgkp2rcd13ifvqbmg","pricing_plan_id":"cebpf4jnsgd1na2vs0mg"},{"bike_id":"d1d21e5e-5cb2-4e52-a7df-8790ee684f76","system_id":"levelo_inurba_marseille","lat":43.29377,"lon":5.37845,"is_reserved":false,"is_disabled":true,"rental_uris":{"android":"levelo://app?vid=d1d21e5e-5cb2-4e52-a7df-8790ee684f76","ios":"levelo://app?vid=d1d21e5e-5cb2-4e52-a7df-8790ee684f76"},"vehicle_type_id":"4","last_reported":1771276699,"current_range_meters":36800,"station_id":"ce4bgjh2rcd13ifvqbf0","pricing_plan_id":"cebpf4jnsgd1na2vs0mg"},{"bike_id":"99a48500-7e84-4fa4-a96e-b83b80df3c14","system_id":"levelo_inurba_marseille","lat":43.25357,"lon":5.42131,"is_reserved":false,"is_disabled":false,"rental_uris":{"android":"levelo://app?vid=99a48500-7e84-4fa4-a96e-b83b80df3c14","ios":"levelo://app?vid=99a48500-7e84-4fa4-a96e-b83b80df3c14"},"vehicle_type_id":"4","last_reported":1771276699,"current_range_meters":10800,"station_id":"st_d2m65c5bi1j21697t3ng","pricing_plan_id":"cebpf4jnsgd1na2vs0mg"},{"bike_id":"eeecab8f-ce0c-4a79-9b11-0ca40cb92ba2","system_id":"levelo_inurba_marseille","lat":43.31245,"lon":5.36854,"is_reserved":false,"is_disabled":false,"rental_uris":{"android":"levelo://app?vid=eeecab8f-ce0c-4a79-9b11-0ca40cb92ba2","ios":"levelo://app?vid=eeecab8f-ce0c-4a79-9b11-0ca40cb92ba2"},"vehicle_type_id":"4","last_reported":1771276699,"current_range_meters":27600,"station_id":"ce4bgl92rcd13ifvqbq0","pricing_plan_id":"cebpf4jnsgd1na2vs0mg"},{"bike_id":"d4205868-b35f-4f41-a60c-89aac65dd941","system_id":"levelo_inurba_marseille","lat":43.29189,"lon":5.39339,"is_reserved":false,"is_disabled":false,"rental_uris":{"android":"levelo://app?vid=d4205868-b35f-4f41-a60c-89aac65dd941","ios":"levelo://app?vid=d4205868-b35f-4f41-a60c-89aac65dd941"},"vehicle_type_id":"4","last_reported":1771276699,"current_range_meters":39200,"station_id":"ce4bh192rcd13ifvqdd0","pricing_plan_id":"cebpf4jnsgd1na2vs0mg"},{"bike_id":"960ad6b5-06c8-4b04-b964-56217da919ed","system_id":"levelo_inurba_marseille","lat":43.248155,"lon":5.374608,"is_reserved":false,"is_disabled":false,"rental_uris":{"android":"levelo://app?vid=960ad6b5-06c8-4b04-b964-56217da919ed","ios":"levelo://app?vid=960ad6b5-06c8-4b04-b964-56217da919ed"},"vehicle_type_id":"4","last_reported":1771276699,"current_range_meters":25600,"station_id":"ce4bhgh2rcd13ifvqfb0","pricing_plan_id":"cebpf4jnsgd1na2vs0mg"},{"bike_id":"70b09dd4-0ae4-48e2-87f3-46d153bf19b6","system_id":"levelo_inurba_marseille","lat":43.23384,"lon":5.41259,"is_reserved":false,"is_disabled":true,"rental_uris":{"android":"levelo://app?vid=70b09dd4-0ae4-48e2-87f3-46d153bf19b6","ios":"levelo://app?vid=70b09dd4-0ae4-48e2-87f3-46d153bf19b6"},"vehicle_type_id":"4","last_reported":1771276699,"current_range_meters":0,"station_id":"","pricing_plan_id":"cebpf4jnsgd1na2vs0mg"},{"bike_id":"c7fbcb26-f0c5-485b-bedf-94d07ace569a","system_id":"levelo_inurba_marseille","lat":43.26212,"lon":5.40442,"is_reserved":false,"is_disabled":false,"rental_uris":{"android":"levelo://app?vid=c7fbcb26-f0c5-485b-bedf-94d07ace569a","ios":"levelo://app?vid=c7fbcb26-f0c5-485b-bedf-94d07ace569a"},"vehicle_type_id":"4","last_reported":1771276699,"current_range_meters":35600,"station_id":"ce4bhmh2rcd13ifvqgmg","pricing_plan_id":"cebpf4jnsgd1na2vs0mg"},{"bike_id":"88f1f13a-b9f4-42bb-928f-bb3ba59d1110","system_id":"levelo_inurba_marseille","lat":43.29176,"lon":5.37173,"is_reserved":false,"is_disabled":false,"rental_uris":{"android":"levelo://app?vid=88f1f13a-b9f4-42bb-928f-bb3ba59d1110","ios":"levelo://app?vid=88f1f13a-b9f4-42bb-928f-bb3ba59d1110"},"vehicle_type_id":"4","last_reported":1771276699,"current_range_meters":31200,"station_id":"ce4bha92rcd13ifvqeh0","pricing_plan_id":"cebpf4jnsgd1na2vs0mg"},{"bike_id":"74f62393-4bd9-47e9-8d53-461792093662","system_id":"levelo_inurba_marseille","lat":43.29827,"lon":5.44088,"is_reserved":false,"is_disabled":false,"rental_uris":{"android":"levelo://app?vid=74f62393-4bd9-47e9-8d53-461792093662","ios":"levelo://app?vid=74f62393-4bd9-47e9-8d53-461792093662"},"vehicle_type_id":"4","last_reported":1771276699,"current_range_meters":10800,"station_id":"st_d3jp68qikq2c7381ktn0","pricing_plan_id":"cebpf4jnsgd1na2vs0mg"},{"bike_id":"94d55430-45c9-48ad-af96-686a675c45df","system_id":"levelo_inurba_marseille","lat":43.28556,"lon":5.39517,"is_reserved":false,"is_disabled":false,"rental_uris":{"android":"levelo://app?vid=94d55430-45c9-48ad-af96-686a675c45df","ios":"levelo://app?vid=94d55430-45c9-48ad-af96-686a675c45df"},"vehicle_type_id":"4","last_reported":1771276699,"current_range_meters":39200,"station_id":"ce4bh292rcd13ifvqdg0","pricing_plan_id":"cebpf4jnsgd1na2vs0mg"},{"bike_id":"fb4f2341-17da-41d8-a946-91d867026601","system_id":"levelo_inurba_marseille","lat":43.25336,"lon":5.42178,"is_reserved":false,"is_disabled":false,"rental_uris":{"android":"levelo://app?vid=fb4f2341-17da-41d8-a946-91d867026601","ios":"levelo://app?vid=fb4f2341-17da-41d8-a946-91d867026601"},"vehicle_type_id":"4","last_reported":1771276699,"current_range_meters":11200,"station_id":"st_d2m65c5bi1j21697t3ng","pricing_plan_id":"cebpf4jnsgd1na2vs0mg"},{"bike_id":"cef7774b-878b-416b-b1d6-eb1f955ce887","system_id":"levelo_inurba_marseille","lat":43.23218,"lon":5.35563,"is_reserved":false,"is_disabled":false,"rental_uris":{"android":"levelo://app?vid=cef7774b-878b-416b-b1d6-eb1f955ce887","ios":"levelo://app?vid=cef7774b-878b-416b-b1d6-eb1f955ce887"},"vehicle_type_id":"4","last_reported":1771276699,"current_range_meters":27200,"station_id":"ce4bhu92rcd13ifvqi70","pricing_plan_id":"cebpf4jnsgd1na2vs0mg"},{"bike_id":"fe2fab5a-d871-47b1-ab37-071a0b8349f9","system_id":"levelo_inurba_marseille","lat":43.27881,"lon":5.38,"is_reserved":false,"is_disabled":false,"rental_uris":{"android":"levelo://app?vid=fe2fab5a-d871-47b1-ab37-071a0b8349f9","ios":"levelo://app?vid=fe2fab5a-d871-47b1-ab37-071a0b8349f9"},"vehicle_type_id":"4","last_reported":1771276699,"current_range_meters":38000,"station_id":"ce4bhf92rcd13ifvqf50","pricing_plan_id":"cebpf4jnsgd1na2vs0mg"},{"bike_id":"cd88b8a2-4e6c-48d3-8c6b-4664b5faba1a","system_id":"levelo_inurba_marseille","lat":43.25862,"lon":5.39909,"is_reserved":false,"is_disabled":false,"rental_uris":{"android":"levelo://app?vid=cd88b8a2-4e6c-48d3-8c6b-4664b5faba1a","ios":"levelo://app?vid=cd88b8a2-4e6c-48d3-8c6b-4664b5faba1a"},"vehicle_type_id":"4","last_reported":1771276699,"current_range_meters":16400,"station_id":"ce4bhl92rcd13ifvqghg","pricing_plan_id":"cebpf4jnsgd1na2vs0mg"},{"bike_id":"a674ed2d-e09d-4711-89be-1b6401c057fa","system_id":"levelo_inurba_marseille","lat":43.28712,"lon":5.37397,"is_reserved":false,"is_disabled":false,"rental_uris":{"android":"levelo://app?vid=a674ed2d-e09d-4711-89be-1b6401c057fa","ios":"levelo://app?vid=a674ed2d-e09d-4711-89be-1b6401c057fa"},"vehicle_type_id":"4","last_reported":1771276699,"current_range_meters":39200,"station_id":"ce4bh3p2rcd13ifvqdq0","pricing_plan_id":"cebpf4jnsgd1na2vs0mg"},{"bike_id":"1b4ff484-23ec-4dbf-8ff9-db8adad44dbc","system_id":"levelo_inurba_marseille","lat":43.30224,"lon":5.39449,"is_reserved":false,"is_disabled":false,"rental_uris":{"android":"levelo://app?vid=1b4ff484-23ec-4dbf-8ff9-db8adad44dbc","ios":"levelo://app?vid=1b4ff484-23ec-4dbf-8ff9-db8adad44dbc"},"vehicle_type_id":"4","last_reported":1771276699,"current_range_meters":39200,"station_id":"ce4bh0p2rcd13ifvqd70","pricing_plan_id":"cebpf4jnsgd1na2vs0mg"},{"bike_id":"d9ca43ed-de80-4ad5-b339-4a17087e0982","system_id":"levelo_inurba_marseille","lat":43.28675,"lon":5.36341,"is_reserved":false,"is_disabled":false,"rental_uris":{"android":"levelo://app?vid=d9ca43ed-de80-4ad5-b339-4a17087e0982","ios":"levelo://app?vid=d9ca43ed-de80-4ad5-b339-4a17087e0982"},"vehicle_type_id":"4","last_reported":1771276699,"current_range_meters":33200,"station_id":"ce4bhah2rcd13ifvqej0","pricing_plan_id":"cebpf4jnsgd1na2vs0mg"},{"bike_id":"b375d639-c0ba-4164-a86d-a2b2e2f6cc4c","system_id":"levelo_inurba_marseille","lat":43.28707,"lon":5.37408,"is_reserved":false,"is_disabled":false,"rental_uris":{"android":"levelo://app?vid=b375d639-c0ba-4164-a86d-a2b2e2f6cc4c","ios":"levelo://app?vid=b375d639-c0ba-4164-a86d-a2b2e2f6cc4c"},"vehicle_type_id":"4","last_reported":1771276699,"current_range_meters":39200,"station_id":"ce4bh3p2rcd13ifvqdq0","pricing_plan_id":"cebpf4jnsgd1na2vs0mg"},{"bike_id":"bbc2134a-cfe4-409d-98b4-67c37d4a27a2","system_id":"levelo_inurba_marseille","lat":43.23155,"lon":5.43709,"is_reserved":false,"is_disabled":true,"rental_uris":{"android":"levelo://app?vid=bbc2134a-cfe4-409d-98b4-67c37d4a27a2","ios":"levelo://app?vid=bbc2134a-cfe4-409d-98b4-67c37d4a27a2"},"vehicle_type_id":"4","last_reported":1771276699,"current_range_meters":800,"station_id":"ce4bhmp2rcd13ifvqgog","pricing_plan_id":"cebpf4jnsgd1na2vs0mg"},{"bike_id":"80ec94ac-1e8e-41a2-b39b-2c1291ed43a9","system_id":"levelo_inurba_marseille","lat":43.24645,"lon":5.38153,"is_reserved":false,"is_disabled":false,"rental_uris":{"android":"levelo://app?vid=80ec94ac-1e8e-41a2-b39b-2c1291ed43a9","ios":"levelo://app?vid=80ec94ac-1e8e-41a2-b39b-2c1291ed43a9"},"vehicle_type_id":"4","last_reported":1771276699,"current_range_meters":27200,"station_id":"ce4bhih2rcd13ifvqfr0","pricing_plan_id":"cebpf4jnsgd1na2vs0mg"},{"bike_id":"b66e0ad4-8ae9-49f3-9245-06bfaa860ce3","system_id":"levelo_inurba_marseille","lat":43.30927,"lon":5.36849,"is_reserved":false,"is_disabled":false,"rental_uris":{"android":"levelo://app?vid=b66e0ad4-8ae9-49f3-9245-06bfaa860ce3","ios":"levelo://app?vid=b66e0ad4-8ae9-49f3-9245-06bfaa860ce3"},"vehicle_type_id":"4","last_reported":1771276699,"current_range_meters":37600,"station_id":"ce4bgn92rcd13ifvqbvg","pricing_plan_id":"cebpf4jnsgd1na2vs0mg"},{"bike_id":"a457e58e-c681-4f1c-b916-9734075716c5","system_id":"levelo_inurba_marseille","lat":43.29582,"lon":5.3907,"is_reserved":false,"is_disabled":false,"rental_uris":{"android":"levelo://app?vid=a457e58e-c681-4f1c-b916-9734075716c5","ios":"levelo://app?vid=a457e58e-c681-4f1c-b916-9734075716c5"},"vehicle_type_id":"4","last_reported":1771276699,"current_range_meters":35200,"station_id":"","pricing_plan_id":"cebpf4jnsgd1na2vs0mg"},{"bike_id":"d7bde0f9-1e34-4064-9fcd-20ad812f4669","system_id":"levelo_inurba_marseille","lat":43.30321,"lon":5.36907,"is_reserved":false,"is_disabled":false,"rental_uris":{"android":"levelo://app?vid=d7bde0f9-1e34-4064-9fcd-20ad812f4669","ios":"levelo://app?vid=d7bde0f9-1e34-4064-9fcd-20ad812f4669"},"vehicle_type_id":"4","last_reported":1771276699,"current_range_meters":16400,"station_id":"ce4bgqh2rcd13ifvqc5g","pricing_plan_id":"cebpf4jnsgd1na2vs0mg"},{"bike_id":"514d5f90-6b60-4f9e-a59a-767d598385e5","system_id":"levelo_inurba_marseille","lat":43.31322,"lon":5.39769,"is_reserved":false,"is_disabled":false,"rental_uris":{"android":"levelo://app?vid=514d5f90-6b60-4f9e-a59a-767d598385e5","ios":"levelo://app?vid=514d5f90-6b60-4f9e-a59a-767d598385e5"},"vehicle_type_id":"4","last_reported":1771276699,"current_range_meters":28400,"station_id":"","pricing_plan_id":"cebpf4jnsgd1na2vs0mg"},{"bike_id":"e514cb1b-df9e-4d01-9450-bac3c417e852","system_id":"levelo_inurba_marseille","lat":43.28979,"lon":5.36441,"is_reserved":false,"is_disabled":false,"rental_uris":{"android":"levelo://app?vid=e514cb1b-df9e-4d01-9450-bac3c417e852","ios":"levelo://app?vid=e514cb1b-df9e-4d01-9450-bac3c417e852"},"vehicle_type_id":"4","last_reported":1771276699,"current_range_meters":14400,"station_id":"ce4bhc92rcd13ifvqetg","pricing_plan_id":"cebpf4jnsgd1na2vs0mg"},{"bike_id":"97ccd086-36d4-4005-b689-fdea1c796e9d","system_id":"levelo_inurba_marseille","lat":43.30382,"lon":5.42479,"is_reserved":false,"is_disabled":false,"rental_uris":{"android":"levelo://app?vid=97ccd086-36d4-4005-b689-fdea1c796e9d","ios":"levelo://app?vid=97ccd086-36d4-4005-b689-fdea1c796e9d"},"vehicle_type_id":"4","last_reported":1771276699,"current_range_meters":21600,"station_id":"ce4bhoh2rcd13ifvqh6g","pricing_plan_id":"cebpf4jnsgd1na2vs0mg"},{"bike_id":"132fa7ec-fdb9-4b44-a7bb-c2a68e25e0a8","system_id":"levelo_inurba_marseille","lat":43.26571,"lon":5.39015,"is_reserved":false,"is_disabled":false,"rental_uris":{"android":"levelo://app?vid=132fa7ec-fdb9-4b44-a7bb-c2a68e25e0a8","ios":"levelo://app?vid=132fa7ec-fdb9-4b44-a7bb-c2a68e25e0a8"},"vehicle_type_id":"4","last_reported":1771276699,"current_range_meters":24800,"station_id":"ce4bhe12rcd13ifvqf30","pricing_plan_id":"cebpf4jnsgd1na2vs0mg"},{"bike_id":"dfe0e9ca-8d49-4db0-8c33-9cb6c3befb32","system_id":"levelo_inurba_marseille","lat":43.28188,"lon":5.3904,"is_reserved":false,"is_disabled":false,"rental_uris":{"android":"levelo://app?vid=dfe0e9ca-8d49-4db0-8c33-9cb6c3befb32","ios":"levelo://app?vid=dfe0e9ca-8d49-4db0-8c33-9cb6c3befb32"},"vehicle_type_id":"4","last_reported":1771276699,"current_range_meters":9600,"station_id":"ce4bhn92rcd13ifvqgsg","pricing_plan_id":"cebpf4jnsgd1na2vs0mg"},{"bike_id":"c87ef617-f108-4901-bbd7-4b031ba4350e","system_id":"levelo_inurba_marseille","lat":43.30539,"lon":5.36717,"is_reserved":false,"is_disabled":false,"rental_uris":{"android":"levelo://app?vid=c87ef617-f108-4901-bbd7-4b031ba4350e","ios":"levelo://app?vid=c87ef617-f108-4901-bbd7-4b031ba4350e"},"vehicle_type_id":"4","last_reported":1771276699,"current_range_meters":16400,"station_id":"ce4bgrp2rcd13ifvqc9g","pricing_plan_id":"cebpf4jnsgd1na2vs0mg"},{"bike_id":"962b2fa2-c804-414c-a091-459b0717bfbc","system_id":"levelo_inurba_marseille","lat":43.30439,"lon":5.38925,"is_reserved":false,"is_disabled":false,"rental_uris":{"android":"levelo://app?vid=962b2fa2-c804-414c-a091-459b0717bfbc","ios":"levelo://app?vid=962b2fa2-c804-414c-a091-459b0717bfbc"},"vehicle_type_id":"4","last_reported":1771276699,"current_range_meters":33600,"station_id":"ce4bgk12rcd13ifvqbi0","pricing_plan_id":"cebpf4jnsgd1na2vs0mg"},{"bike_id":"b29eb54c-5545-4020-9d6e-1c642c3fc351","system_id":"levelo_inurba_marseille","lat":43.28738,"lon":5.37956,"is_reserved":false,"is_disabled":false,"rental_uris":{"android":"levelo://app?vid=b29eb54c-5545-4020-9d6e-1c642c3fc351","ios":"levelo://app?vid=b29eb54c-5545-4020-9d6e-1c642c3fc351"},"vehicle_type_id":"4","last_reported":1771276699,"current_range_meters":40000,"station_id":"ce4bh9p2rcd13ifvqec0","pricing_plan_id":"cebpf4jnsgd1na2vs0mg"},{"bike_id":"5801875b-f507-42a7-bb13-d3aba94d5216","system_id":"levelo_inurba_marseille","lat":43.29576,"lon":5.36732,"is_reserved":false,"is_disabled":false,"rental_uris":{"android":"levelo://app?vid=5801875b-f507-42a7-bb13-d3aba94d5216","ios":"levelo://app?vid=5801875b-f507-42a7-bb13-d3aba94d5216"},"vehicle_type_id":"4","last_reported":1771276699,"current_range_meters":33200,"station_id":"ce4bgph2rcd13ifvqc2g","pricing_plan_id":"cebpf4jnsgd1na2vs0mg"},{"bike_id":"6a0a6d37-cb9f-436c-89d3-a351042618e3","system_id":"levelo_inurba_marseille","lat":43.2928,"lon":5.40134,"is_reserved":false,"is_disabled":false,"rental_uris":{"android":"levelo://app?vid=6a0a6d37-cb9f-436c-89d3-a351042618e3","ios":"levelo://app?vid=6a0a6d37-cb9f-436c-89d3-a351042618e3"},"vehicle_type_id":"4","last_reported":1771276699,"current_range_meters":25600,"station_id":"ce4bh312rcd13ifvqdk0","pricing_plan_id":"cebpf4jnsgd1na2vs0mg"},{"bike_id":"0b0d2c04-a40d-44fd-b9fb-064aff570702","system_id":"levelo_inurba_marseille","lat":43.30574,"lon":5.36546,"is_reserved":false,"is_disabled":false,"rental_uris":{"android":"levelo://app?vid=0b0d2c04-a40d-44fd-b9fb-064aff570702","ios":"levelo://app?vid=0b0d2c04-a40d-44fd-b9fb-064aff570702"},"vehicle_type_id":"4","last_reported":1771276699,"current_range_meters":40000,"station_id":"ce4bgs12rcd13ifvqcag","pricing_plan_id":"cebpf4jnsgd1na2vs0mg"},{"bike_id":"de2f191c-f12c-45ef-99e7-5c64bf638cf0","system_id":"levelo_inurba_marseille","lat":43.29602,"lon":5.38145,"is_reserved":false,"is_disabled":false,"rental_uris":{"android":"levelo://app?vid=de2f191c-f12c-45ef-99e7-5c64bf638cf0","ios":"levelo://app?vid=de2f191c-f12c-45ef-99e7-5c64bf638cf0"},"vehicle_type_id":"4","last_reported":1771276699,"current_range_meters":38800,"station_id":"ce4bgl12rcd13ifvqbo0","pricing_plan_id":"cebpf4jnsgd1na2vs0mg"},{"bike_id":"410511c2-da53-4c39-b16e-3a3edf88cf23","system_id":"levelo_inurba_marseille","lat":43.318859,"lon":5.407335,"is_reserved":false,"is_disabled":false,"rental_uris":{"android":"levelo://app?vid=410511c2-da53-4c39-b16e-3a3edf88cf23","ios":"levelo://app?vid=410511c2-da53-4c39-b16e-3a3edf88cf23"},"vehicle_type_id":"4","last_reported":1771276699,"current_range_meters":38800,"station_id":"ce4bhq12rcd13ifvqhig","pricing_plan_id":"cebpf4jnsgd1na2vs0mg"},{"bike_id":"b583830b-ee3c-42a4-b476-f007d7fc145d","system_id":"levelo_inurba_marseille","lat":43.3053,"lon":5.36732,"is_reserved":false,"is_disabled":false,"rental_uris":{"android":"levelo://app?vid=b583830b-ee3c-42a4-b476-f007d7fc145d","ios":"levelo://app?vid=b583830b-ee3c-42a4-b476-f007d7fc145d"},"vehicle_type_id":"4","last_reported":1771276699,"current_range_meters":38400,"station_id":"ce4bgrp2rcd13ifvqc9g","pricing_plan_id":"cebpf4jnsgd1na2vs0mg"},{"bike_id":"c9808f2e-cf2b-4dff-a3cb-72e13b47ee3f","system_id":"levelo_inurba_marseille","lat":43.27065,"lon":5.42275,"is_reserved":false,"is_disabled":false,"rental_uris":{"android":"levelo://app?vid=c9808f2e-cf2b-4dff-a3cb-72e13b47ee3f","ios":"levelo://app?vid=c9808f2e-cf2b-4dff-a3cb-72e13b47ee3f"},"vehicle_type_id":"4","last_reported":1771276699,"current_range_meters":33200,"station_id":"ce4bhk92rcd13ifvqgb0","pricing_plan_id":"cebpf4jnsgd1na2vs0mg"},