{"last_updated":1715443745,"ttl":30,"version":"2.2","data":{"bikes":[{"bike_id":"cb86e1d4-fe9d-422f-b3b3-747396fbab1a","system_id":"levelo_inurba_marseille","lat":43.31341,"lon":5.367098,"is_reserved":false,"is_disabled":false,"rental_uris":{"android":"levelo://app?vid=cb86e1d4-fe9d-422f-b3b3-747396fbab1a","ios":"levelo://app?vid=cb86e1d4-fe9d-422f-b3b3-747396fbab1a"},"vehicle_type_id":"4","last_reported":1715443745,"current_range_meters":2400,"station_id":"ce4bgr92rcd13ifvqc6g","pricing_plan_id":"cebpf4jnsgd1na2vs0mg"},{"bike_id":"9d7973b0-434c-4311-98dd-1f1a46b1ab7d","system_id":"levelo_inurba_marseille","lat":43.3119,"lon":5.36744,"is_reserved":false,"is_disabled":false,"rental_uris":{"android":"levelo://app?vid=9d7973b0-434c-4311-98dd-1f1a46b1ab7d","ios":"levelo://app?vid=9d7973b0-434c-4311-98dd-1f1a46b1ab7d"},"vehicle_type_id":"4","last_reported":1715443745,"current_range_meters":0,"station_id":"","pricing_plan_id":"cebpf4jnsgd1na2vs0mg"},{"bike_id":"b6d5adf7-e3cf-42dc-bd46-9e38f2887abe","system_id":"levelo_inurba_marseille","lat":43.312445,"lon":5.368501,"is_reserved":false,"is_disabled":false,"rental_uris":{"android":"levelo://app?vid=b6d5adf7-e3cf-42dc-bd46-9e38f2887abe","ios":"levelo://app?vid=b6d5adf7-e3cf-42dc-bd46-9e38f2887abe"},"vehicle_type_id":"4","last_reported":1715443745,"current_range_meters":5600,"station_id":"ce4bgl92rcd13ifvqbq0","pricing_plan_id":"cebpf4jnsgd1na2vs0mg"},{"bike_id":"312160d1-8fa2-468a-8ebf-fd60da90dc8a","system_id":"levelo_inurba_marseille","lat":43.312239,"lon":5.368562,"is_reserved":false,"is_disabled":false,"rental_uris":{"android":"levelo://app?vid=312160d1-8fa2-468a-8ebf-fd60da90dc8a","ios":"levelo://app?vid=312160d1-8fa2-468a-8ebf-fd60da90dc8a"},"vehicle_type_id":"4","last_reported":1715443745,"current_range_meters":27200,"station_id":"ce4bgl92rcd13ifvqbq0","pricing_plan_id":"cebpf4jnsgd1na2vs0mg"},{"bike_id":"8b9b009d-b510-433c-b85d-2dabb7f222b6","system_id":"levelo_inurba_marseille","lat":43.309076,"lon":5.368465,"is_reserved":false,"is_disabled":false,"rental_uris":{"android":"levelo://app?vid=8b9b009d-b510-433c-b85d-2dabb7f222b6","ios":"levelo://app?vid=8b9b009d-b510-433c-b85d-2dabb7f222b6"},"vehicle_type_id":"4","last_reported":1715443745,"current_range_meters":30800,"station_id":"ce4bgn92rcd13ifvqbvg","pricing_plan_id":"cebpf4jnsgd1na2vs0mg"},{"bike_id":"c188f106-a8e1-4435-859b-0213e5c79da9","system_id":"levelo_inurba_marseille","lat":43.314811,"lon":5.373103,"is_reserved":false,"is_disabled":false,"rental_uris":{"android":"levelo://app?vid=c188f106-a8e1-4435-859b-0213e5c79da9","ios":"levelo://app?vid=c188f106-a8e1-4435-859b-0213e5c79da9"},"vehicle_type_id":"4","last_reported":1715443745,"current_range_meters":1600,"station_id":"ce4bgt12rcd13ifvqcd0","pricing_plan_id":"cebpf4jnsgd1na2vs0mg"},{"bike_id":"4c84d1c4-c990-49d2-9db4-6b451f7a78c5","system_id":"levelo_inurba_marseille","lat":43.314811,"lon":5.373103,"is_reserved":false,"is_disabled":false,"rental_uris":{"android":"levelo://app?vid=4c84d1c4-c990-49d2-9db4-6b451f7a78c5","ios":"levelo://app?vid=4c84d1c4-c990-49d2-9db4-6b451f7a78c5"},"vehicle_type_id":"4","last_reported":1715443745,"current_range_meters":26800,"station_id":"ce4bgt12rcd13ifvqcd0","pricing_plan_id":"cebpf4jnsgd1na2vs0mg"},{"bike_id":"e3e5b3e1-d518-4037-a4fb-e31ed2086ce2","system_id":"levelo_inurba_marseille","lat":43.30551,"lon":5.36696,"is_reserved":false,"is_disabled":false,"rental_uris":{"android":"levelo://app?vid=e3e5b3e1-d518-4037-a4fb-e31ed2086ce2","ios":"levelo://app?vid=e3e5b3e1-d518-4037-a4fb-e31ed2086ce2"},"vehicle_type_id":"4","last_reported":1715443745,"current_range_meters":0,"station_id":"ce4bgrp2rcd13ifvqc9g","pricing_plan_id":"cebpf4jnsgd1na2vs0mg"},{"bike_id":"f7ef8a1f-ebe1-471a-b254-522a406110ef","system_id":"levelo_inurba_marseille","lat":43.305714,"lon":5.365633,"is_reserved":false,"is_disabled":false,"rental_uris":{"android":"levelo://app?vid=f7ef8a1f-ebe1-471a-b254-522a406110ef","ios":"levelo://app?vid=f7ef8a1f-ebe1-471a-b254-522a406110ef"},"vehicle_type_id":"4","last_reported":1715443745,"current_range_meters":19600,"station_id":"ce4bgs12rcd13ifvqcag","pricing_plan_id":"cebpf4jnsgd1na2vs0mg"},{"bike_id":"8764fca5-302e-4991-931e-84017c1f08f0","system_id":"levelo_inurba_marseille","lat":43.311131,"lon":5.377651,"is_reserved":false,"is_disabled":false,"rental_uris":{"android":"levelo://app?vid=8764fca5-302e-4991-931e-84017c1f08f0","ios":"levelo://app?vid=8764fca5-302e-4991-931e-84017c1f08f0"},"vehicle_type_id":"4","last_reported":1715443745,"current_range_meters":4400,"station_id":"ce4bgt92rcd13ifvqcg0","pricing_plan_id":"cebpf4jnsgd1na2vs0mg"},{"bike_id":"4428db23-4992-4066-a113-1bb3144c8195","system_id":"levelo_inurba_marseille","lat":43.311125,"lon":5.377624,"is_reserved":false,"is_disabled":false,"rental_uris":{"android":"levelo://app?vid=4428db23-4992-4066-a113-1bb3144c8195","ios":"levelo://app?vid=4428db23-4992-4066-a113-1bb3144c8195"},"vehicle_type_id":"4","last_reported":1715443745,"current_range_meters":400,"station_id":"ce4bgt92rcd13ifvqcg0","pricing_plan_id":"cebpf4jnsgd1na2vs0mg"},{"bike_id":"114767ba-6777-40be-adab-f5992e038111","system_id":"levelo_inurba_marseille","lat":43.307945,"lon":5.376487,"is_reserved":false,"is_disabled":false,"rental_uris":{"android":"levelo://app?vid=114767ba-6777-40be-adab-f5992e038111","ios":"levelo://app?vid=114767ba-6777-40be-adab-f5992e038111"},"vehicle_type_id":"4","last_reported":1715443745,"current_range_meters":14800,"station_id":"ce4bgv92rcd13ifvqcq0","pricing_plan_id":"cebpf4jnsgd1na2vs0mg"},{"bike_id":"a8420d12-5ea1-4553-ba77-74153419b9a1","system_id":"levelo_inurba_marseille","lat":43.307945,"lon":5.376487,"is_reserved":false,"is_disabled":false,"rental_uris":{"android":"levelo://app?vid=a8420d12-5ea1-4553-ba77-74153419b9a1","ios":"levelo://app?vid=a8420d12-5ea1-4553-ba77-74153419b9a1"},"vehicle_type_id":"4","last_reported":1715443745,"current_range_meters":31200,"station_id":"ce4bgv92rcd13ifvqcq0","pricing_plan_id":"cebpf4jnsgd1na2vs0mg"},{"bike_id":"0408073f-be50-4e5e-b46a-e92a1dd9c0d5","system_id":"levelo_inurba_marseille","lat":43.317075,"lon":5.377367,"is_reserved":false,"is_disabled":false,"rental_uris":{"android":"levelo://app?vid=0408073f-be50-4e5e-b46a-e92a1dd9c0d5","ios":"levelo://app?vid=0408073f-be50-4e5e-b46a-e92a1dd9c0d5"},"vehicle_type_id":"4","last_reported":1715443745,"current_range_meters":19600,"station_id":"ce4bgth2rcd13ifvqch0","pricing_plan_id":"cebpf4jnsgd1na2vs0mg"},{"bike_id":"ddaad308-7c5e-4955-b68f-9eb755109522","system_id":"levelo_inurba_marseille","lat":43.308012,"lon":5.381511,"is_reserved":false,"is_disabled":false,"rental_uris":{"android":"levelo://app?vid=ddaad308-7c5e-4955-b68f-9eb755109522","ios":"levelo://app?vid=ddaad308-7c5e-4955-b68f-9eb755109522"},"vehicle_type_id":"4","last_reported":1715443745,"current_range_meters":26800,"station_id":"ce4bgt12rcd13ifvqce0","pricing_plan_id":"cebpf4jnsgd1na2vs0mg"},{"bike_id":"54fb2fdb-d7e4-48e5-9c19-d2d3cf2d0663","system_id":"levelo_inurba_marseille","lat":43.304606,"lon":5.379026,"is_reserved":false,"is_disabled":false,"rental_uris":{"android":"levelo://app?vid=54fb2fdb-d7e4-48e5-9c19-d2d3cf2d0663","ios":"levelo://app?vid=54fb2fdb-d7e4-48e5-9c19-d2d3cf2d0663"},"vehicle_type_id":"4","last_reported":1715443745,"current_range_meters":0,"station_id":"ce4bgup2rcd13ifvqcn0","pricing_plan_id":"cebpf4jnsgd1na2vs0mg"},{"bike_id":"edd1ff2c-4000-4bcf-ae6b-940bdf96d9f5","system_id":"levelo_inurba_marseille","lat":43.304606,"lon":5.379026,"is_reserved":false,"is_disabled":false,"rental_uris":{"android":"levelo://app?vid=edd1ff2c-4000-4bcf-ae6b-940bdf96d9f5","ios":"levelo://app?vid=edd1ff2c-4000-4bcf-ae6b-940bdf96d9f5"},"vehicle_type_id":"4","last_reported":1715443745,"current_range_meters":20800,"station_id":"ce4bgup2rcd13ifvqcn0","pricing_plan_id":"cebpf4jnsgd1na2vs0mg"},{"bike_id":"3269a82e-20fd-46cb-9087-cc49c8cec2db","system_id":"levelo_inurba_marseille","lat":43.324739,"lon":5.365592,"is_reserved":false,"is_disabled":false,"rental_uris":{"android":"levelo://app?vid=3269a82e-20fd-46cb-9087-cc49c8cec2db","ios":"levelo://app?vid=3269a82e-20fd-46cb-9087-cc49c8cec2db"},"vehicle_type_id":"4","last_reported":1715443745,"current_range_meters":7200,"station_id":"ce4bhs12rcd13ifvqhvg","pricing_plan_id":"cebpf4jnsgd1na2vs0mg"},{"bike_id":"a7364010-c030-4dda-9787-1388278fadb5","system_id":"levelo_inurba_marseille","lat":43.324764,"lon":5.365616,"is_reserved":false,"is_disabled":false,"rental_uris":{"android":"levelo://app?vid=a7364010-c030-4dda-9787-1388278fadb5","ios":"levelo://app?vid=a7364010-c030-4dda-9787-1388278fadb5"},"vehicle_type_id":"4","last_reported":1715443745,"current_range_meters":0,"station_id":"ce4bhs12rcd13ifvqhvg","pricing_plan_id":"cebpf4jnsgd1na2vs0mg"},{"bike_id":"7d725402-757b-4cd9-84ff-6dd57d0cc79e","system_id":"levelo_inurba_marseille","lat":43.32479,"lon":5.36571,"is_reserved":false,"is_disabled":false,"rental_uris":{"android":"levelo://app?vid=7d725402-757b-4cd9-84ff-6dd57d0cc79e","ios":"levelo://app?vid=7d725402-757b-4cd9-84ff-6dd57d0cc79e"},"vehicle_type_id":"4","last_reported":1715443745,"current_range_meters":28800,"station_id":"ce4bhs12rcd13ifvqhvg","pricing_plan_id":"cebpf4jnsgd1na2vs0mg"},{"bike_id":"0775352f-88c1-4321-8c7d-cc7c876150ed","system_id":"levelo_inurba_marseille","lat":43.32479,"lon":5.36569,"is_reserved":false,"is_disabled":false,"rental_uris":{"android":"levelo://app?vid=0775352f-88c1-4321-8c7d-cc7c876150ed","ios":"levelo://app?vid=0775352f-88c1-4321-8c7d-cc7c876150ed"},"vehicle_type_id":"4","last_reported":1715443745,"current_range_meters":9600,"station_id":"","pricing_plan_id":"cebpf4jnsgd1na2vs0mg"},{"bike_id":"4f292309-8e70-423f-8286-cbad3763fa2c","system_id":"levelo_inurba_marseille","lat":43.324771,"lon":5.36557,"is_reserved":false,"is_disabled":false,"rental_uris":{"android":"levelo://app?vid=4f292309-8e70-423f-8286-cbad3763fa2c","ios":"levelo://app?vid=4f292309-8e70-423f-8286-cbad3763fa2c"},"vehicle_type_id":"4","last_reported":1715443745,"current_range_meters":23200,"station_id":"ce4bhs12rcd13ifvqhvg","pricing_plan_id":"cebpf4jnsgd1na2vs0mg"},{"bike_id":"1b3f4d4e-432f-4f3f-bfd4-b330fe214f47","system_id":"levelo_inurba_marseille","lat":43.310804,"lon":5.38359,"is_reserved":false,"is_disabled":false,"rental_uris":{"android":"levelo://app?vid=1b3f4d4e-432f-4f3f-bfd4-b330fe214f47","ios":"levelo://app?vid=1b3f4d4e-432f-4f3f-bfd4-b330fe214f47"},"vehicle_type_id":"4","last_reported":1715443745,"current_range_meters":25200,"station_id":"ce4bgv92rcd13ifvqcr0","pricing_plan_id":"cebpf4jnsgd1na2vs0mg"},{"bike_id":"49f3c06f-15cf-49da-99e3-5632940c0835","system_id":"levelo_inurba_marseille","lat":43.310804,"lon":5.38359,"is_reserved":false,"is_disabled":false,"rental_uris":{"android":"levelo://app?vid=49f3c06f-15cf-49da-99e3-5632940c0835","ios":"levelo://app?vid=49f3c06f-15cf-49da-99e3-5632940c0835"},"vehicle_type_id":"4","last_reported":1715443745,"current_range_meters":10000,"station_id":"ce4bgv92rcd13ifvqcr0","pricing_plan_id":"cebpf4jnsgd1na2vs0mg"},{"bike_id":"7692ef85-aeb5-4d6e-b65a-86ad6b213373","system_id":"levelo_inurba_marseille","lat":43.304606,"lon":5.379026,"is_reserved":false,"is_disabled":false,"rental_uris":{"android":"levelo://app?vid=7692ef85-aeb5-4d6e-b65a-86ad6b213373","ios":"levelo://app?vid=7692ef85-aeb5-4d6e-b65a-86ad6b213373"},"vehicle_type_id":"4","last_reported":1715443745,"current_range_meters":0,"station_id":"ce4bgup2rcd13ifvqcn0","pricing_plan_id":"cebpf4jnsgd1na2vs0mg"},{"bike_id":"1c7cafee-e030-43eb-a330-eeb527a21816","system_id":"levelo_inurba_marseille","lat":43.32305,"lon":5.37699,"is_reserved":false,"is_disabled":false,"rental_uris":{"android":"levelo://app?vid=1c7cafee-e030-43eb-a330-eeb527a21816","ios":"levelo://app?vid=1c7cafee-e030-43eb-a330-eeb527a21816"},"vehicle_type_id":"4","last_reported":1715443745,"current_range_meters":9200,"station_id":"","pricing_plan_id":"cebpf4jnsgd1na2vs0mg"},{"bike_id":"339becd0-b21b-47be-b7d3-10a4f8f19b3a","system_id":"levelo_inurba_marseille","lat":43.319935,"lon":5.381699,"is_reserved":false,"is_disabled":false,"rental_uris":{"android":"levelo://app?vid=339becd0-b21b-47be-b7d3-10a4f8f19b3a","ios":"levelo://app?vid=339becd0-b21b-47be-b7d3-10a4f8f19b3a"},"vehicle_type_id":"4","last_reported":1715443745,"current_range_meters":400,"station_id":"ce4bhr12rcd13ifvqhpg","pricing_plan_id":"cebpf4jnsgd1na2vs0mg"},{"bike_id":"9057e1be-9b1a-4521-9327-ef43ef68ae0c","system_id":"levelo_inurba_marseille","lat":43.313571,"lon":5.384829,"is_reserved":false,"is_disabled":false,"rental_uris":{"android":"levelo://app?vid=9057e1be-9b1a-4521-9327-ef43ef68ae0c","ios":"levelo://app?vid=9057e1be-9b1a-4521-9327-ef43ef68ae0c"},"vehicle_type_id":"4","last_reported":1715443745,"current_range_meters":11200,"station_id":"ce4bgt92rcd13ifvqcf0","pricing_plan_id":"cebpf4jnsgd1na2vs0mg"},{"bike_id":"e3358945-ebfd-4941-a075-9db4e6c0076b","system_id":"levelo_inurba_marseille","lat":43.313571,"lon":5.384829,"is_reserved":false,"is_disabled":false,"rental_uris":{"android":"levelo://app?vid=e3358945-ebfd-4941-a075-9db4e6c0076b","ios":"levelo://app?vid=e3358945-ebfd-4941-a075-9db4e6c0076b"},"vehicle_type_id":"4","last_reported":1715443745,"current_range_meters":24800,"station_id":"ce4bgt92rcd13ifvqcf0","pricing_plan_id":"cebpf4jnsgd1na2vs0mg"},{"bike_id":"c4c4e435-b850-45ae-87e8-54e3a56e254d","system_id":"levelo_inurba_marseille","lat":43.299724,"lon":5.371829,"is_reserved":false,"is_disabled":false,"rental_uris":{"android":"levelo://app?vid=c4c4e435-b850-45ae-87e8-54e3a56e254d","ios":"levelo://app?vid=c4c4e435-b850-45ae-87e8-54e3a56e254d"},"vehicle_type_id":"4","last_reported":1715443745,"current_range_meters":19600,"station_id":"ce4bgr92rcd13ifvqc7g","pricing_plan_id":"cebpf4jnsgd1na2vs0mg"},{"bike_id":"0a7a914f-05f1-4089-b764-953dda442f80","system_id":"levelo_inurba_marseille","lat":43.299222,"lon":5.365554,"is_reserved":false,"is_disabled":false,"rental_uris":{"android":"levelo://app?vid=0a7a914f-05f1-4089-b764-953dda442f80","ios":"levelo://app?vid=0a7a914f-05f1-4089-b764-953dda442f80"},"vehicle_type_id":"4","last_reported":1715443745,"current_range_meters":21600,"station_id":"ce4bgm92rcd13ifvqbr0","pricing_plan_id":"cebpf4jnsgd1na2vs0mg"},{"bike_id":"fadaccbe-c122-4a4c-965d-336c6328e55b","system_id":"levelo_inurba_marseille","lat":43.299222,"lon":5.365554,"is_reserved":false,"is_disabled":false,"rental_uris":{"android":"levelo://app?vid=fadaccbe-c122-4a4c-965d-336c6328e55b","ios":"levelo://app?vid=fadaccbe-c122-4a4c-965d-336c6328e55b"},"vehicle_type_id":"4","last_reported":1715443745,"current_range_meters":18800,"station_id":"ce4bgm92rcd13ifvqbr0","pricing_plan_id":"cebpf4jnsgd1na2vs0mg"},{"bike_id":"2b544e02-9189-4d43-853e-f2221f5cf01e","system_id":"levelo_inurba_marseille","lat":43.299222,"lon":5.365554,"is_reserved":false,"is_disabled":false,"rental_uris":{"android":"levelo://app?vid=2b544e02-9189-4d43-853e-f2221f5cf01e","ios":"levelo://app?vid=2b544e02-9189-4d43-853e-f2221f5cf01e"},"vehicle_type_id":"4","last_reported":1715443745,"current_range_meters":22800,"station_id":"ce4bgm92rcd13ifvqbr0","pricing_plan_id":"cebpf4jnsgd1na2vs0mg"},{"bike_id":"33c8bfe7-914c-4221-b36b-b5539cc61a56","system_id":"levelo_inurba_marseille","lat":43.299243,"lon":5.37481,"is_reserved":false,"is_disabled":false,"rental_uris":{"android":"levelo://app?vid=33c8bfe7-914c-4221-b36b-b5539cc61a56","ios":"levelo://app?vid=33c8bfe7-914c-4221-b36b-b5539cc61a56"},"vehicle_type_id":"4","last_reported":1715443745,"current_range_meters":10000,"station_id":"ce4bgjh2rcd13ifvqbg0","pricing_plan_id":"cebpf4jnsgd1na2vs0mg"},{"bike_id":"d7527ce6-1c46-46f4-b092-3b267b93fb8a","system_id":"levelo_inurba_marseille","lat":43.298433,"lon":5.362774,"is_reserved":false,"is_disabled":false,"rental_uris":{"android":"levelo://app?vid=d7527ce6-1c46-46f4-b092-3b267b93fb8a","ios":"levelo://app?vid=d7527ce6-1c46-46f4-b092-3b267b93fb8a"},"vehicle_type_id":"4","last_reported":1715443745,"current_range_meters":2400,"station_id":"ce4bgpp2rcd13ifvqc3g","pricing_plan_id":"cebpf4jnsgd1na2vs0mg"},{"bike_id":"94b72c27-9a0b-4e58-980d-81373387e586","system_id":"levelo_inurba_marseille","lat":43.305364,"lon":5.384119,"is_reserved":false,"is_disabled":false,"rental_uris":{"android":"levelo://app?vid=94b72c27-9a0b-4e58-980d-81373387e586","ios":"levelo://app?vid=94b72c27-9a0b-4e58-980d-81373387e586"},"vehicle_type_id":"4","last_reported":1715443745,"current_range_meters":2400,"station_id":"ce4bgg92rcd13ifvqb30","pricing_plan_id":"cebpf4jnsgd1na2vs0mg"},{"bike_id":"2d6827e7-cf52-45b8-a8ea-c7ddb5f8f8b7","system_id":"levelo_inurba_marseille","lat":43.311722,"lon":5.387247,"is_reserved":false,"is_disabled":false,"rental_uris":{"android":"levelo://app?vid=2d6827e7-cf52-45b8-a8ea-c7ddb5f8f8b7","ios":"levelo://app?vid=2d6827e7-cf52-45b8-a8ea-c7ddb5f8f8b7"},"vehicle_type_id":"4","last_reported":1715443745,"current_range_meters":9200,"station_id":"ce4bgv12rcd13ifvqcp0","pricing_plan_id":"cebpf4jnsgd1na2vs0mg"},{"bike_id":"8d4c06b3-4626-444e-a849-29e815a69458","system_id":"levelo_inurba_marseille","lat":43.322872,"lon":5.382756,"is_reserved":false,"is_disabled":false,"rental_uris":{"android":"levelo://app?vid=8d4c06b3-4626-444e-a849-29e815a69458","ios":"levelo://app?vid=8d4c06b3-4626-444e-a849-29e815a69458"},"vehicle_type_id":"4","last_reported":1715443745,"current_range_meters":28400,"station_id":"ce4bhr12rcd13ifvqhqg","pricing_plan_id":"cebpf4jnsgd1na2vs0mg"},{"bike_id":"d5cd1512-d40c-4944-be3f-38725e171121","system_id":"levelo_inurba_marseille","lat":43.297794,"lon":5.370888,"is_reserved":false,"is_disabled":false,"rental_uris":{"android":"levelo://app?vid=d5cd1512-d40c-4944-be3f-38725e171121","ios":"levelo://app?vid=d5cd1512-d40c-4944-be3f-38725e171121"},"vehicle_type_id":"4","last_reported":1715443745,"current_range_meters":14000,"station_id":"ce4bgop2rcd13ifvqc1g","pricing_plan_id":"cebpf4jnsgd1na2vs0mg"},{"bike_id":"11936b6b-c440-4087-8fb6-5b0257b09589","system_id":"levelo_inurba_marseille","lat":43.322872,"lon":5.382756,"is_reserved":false,"is_disabled":false,"rental_uris":{"android":"levelo://app?vid=11936b6b-c440-4087-8fb6-5b0257b09589","ios":"levelo://app?vid=11936b6b-c440-4087-8fb6-5b0257b09589"},"vehicle_type_id":"4","last_reported":1715443745,"current_range_meters":27600,"station_id":"ce4bhr12rcd13ifvqhqg","pricing_plan_id":"cebpf4jnsgd1na2vs0mg"},{"bike_id":"b6c3f03a-5baa-42ce-9639-4f5a40cfb46f","system_id":"levelo_inurba_marseille","lat":43.296935,"lon":5.376544,"is_reserved":false,"is_disabled":false,"rental_uris":{"android":"levelo://app?vid=b6c3f03a-5baa-42ce-9639-4f5a40cfb46f","ios":"levelo://app?vid=b6c3f03a-5baa-42ce-9639-4f5a40cfb46f"},"vehicle_type_id":"4","last_reported":1715443745,"current_range_meters":27600,"station_id":"ce4bgkh2rcd13ifvqbl0","pricing_plan_id":"cebpf4jnsgd1na2vs0mg"},{"bike_id":"4534a0c3-483b-4284-9e92-dfe5b0a2620d","system_id":"levelo_inurba_marseille","lat":43.29573,"lon":5.367355,"is_reserved":false,"is_disabled":false,"rental_uris":{"android":"levelo://app?vid=4534a0c3-483b-4284-9e92-dfe5b0a2620d","ios":"levelo://app?vid=4534a0c3-483b-4284-9e92-dfe5b0a2620d"},"vehicle_type_id":"4","last_reported":1715443745,"current_range_meters":21200,"station_id":"ce4bgph2rcd13ifvqc2g","pricing_plan_id":"cebpf4jnsgd1na2vs0mg"},{"bike_id":"0e4984fc-e8a3-4f2f-83a6-b936665ef2be","system_id":"levelo_inurba_marseille","lat":43.29726,"lon":5.37691,"is_reserved":false,"is_disabled":false,"rental_uris":{"android":"levelo://app?vid=0e4984fc-e8a3-4f2f-83a6-b936665ef2be","ios":"levelo://app?vid=0e4984fc-e8a3-4f2f-83a6-b936665ef2be"},"vehicle_type_id":"4","last_reported":1715443745,"current_range_meters":7600,"station_id":"","pricing_plan_id":"cebpf4jnsgd1na2vs0mg"},{"bike_id":"12a7626a-ee37-4aa0-8c7d-3a5e1a2d1f38","system_id":"levelo_inurba_marseille","lat":43.296921,"lon":5.376579,"is_reserved":false,"is_disabled":false,"rental_uris":{"android":"levelo://app?vid=12a7626a-ee37-4aa0-8c7d-3a5e1a2d1f38","ios":"levelo://app?vid=12a7626a-ee37-4aa0-8c7d-3a5e1a2d1f38"},"vehicle_type_id":"4","last_reported":1715443745,"current_range_meters":12000,"station_id":"ce4bgkh2rcd13ifvqbl0","pricing_plan_id":"cebpf4jnsgd1na2vs0mg"},{"bike_id":"b1221ce4-3ae6-44c4-a22e-1ed1184411cd","system_id":"levelo_inurba_marseille","lat":43.299028,"lon":5.381509,"is_reserved":false,"is_disabled":false,"rental_uris":{"android":"levelo://app?vid=b1221ce4-3ae6-44c4-a22e-1ed1184411cd","ios":"levelo://app?vid=b1221ce4-3ae6-44c4-a22e-1ed1184411cd"},"vehicle_type_id":"4","last_reported":1715443745,"current_range_meters":18800,"station_id":"ce4bgj12rcd13ifvqbc0","pricing_plan_id":"cebpf4jnsgd1na2vs0mg"},{"bike_id":"9f252a48-dd03-4d91-82b5-e316db9e638f","system_id":"levelo_inurba_marseille","lat":43.309589,"lon":5.390258,"is_reserved":false,"is_disabled":false,"rental_uris":{"android":"levelo://app?vid=9f252a48-dd03-4d91-82b5-e316db9e638f","ios":"levelo://app?vid=9f252a48-dd03-4d91-82b5-e316db9e638f"},"vehicle_type_id":"4","last_reported":1715443745,"current_range_meters":0,"station_id":"ce4bgup2rcd13ifvqco0","pricing_plan_id":"cebpf4jnsgd1na2vs0mg"},{"bike_id":"382d9b9d-7e79-447c-9f00-36e8fa9aa8f0","system_id":"levelo_inurba_marseille","lat":43.317557,"lon":5.390173,"is_reserved":false,"is_disabled":false,"rental_uris":{"android":"levelo://app?vid=382d9b9d-7e79-447c-9f00-36e8fa9aa8f0","ios":"levelo://app?vid=382d9b9d-7e79-447c-9f00-36e8fa9aa8f0"},"vehicle_type_id":"4","last_reported":1715443745,"current_range_meters":3200,"station_id":"ce4bhqp2rcd13ifvqhng","pricing_plan_id":"cebpf4jnsgd1na2vs0mg"},{"bike_id":"795dcb9c-3d94-4c23-9121-09e018b07fc0","system_id":"levelo_inurba_marseille","lat":43.304274,"lon":5.388873,"is_reserved":false,"is_disabled":false,"rental_uris":{"android":"levelo://app?vid=795dcb9c-3d94-4c23-9121-09e018b07fc0","ios":"levelo://app?vid=795dcb9c-3d94-4c23-9121-09e018b07fc0"},"vehicle_type_id":"4","last_reported":1715443745,"current_range_meters":5200,"station_id":"ce4bgk12rcd13ifvqbi0","pricing_plan_id":"cebpf4jnsgd1na2vs0mg"},{"bike_id":"67c93915-4020-4737-a872-6574337063a5","system_id":"levelo_inurba_marseille","lat":43.304278,"lon":5.388868,"is_reserved":false,"is_disabled":false,"rental_uris":{"android":"levelo://app?vid=67c93915-4020-4737-a872-6574337063a5","ios":"levelo://app?vid=67c93915-4020-4737-a872-6574337063a5"},"vehicle_type_id":"4","last_reported":1715443745,"current_range_meters":11200,"station_id":"ce4bgk12rcd13ifvqbi0","pricing_plan_id":"cebpf4jnsgd1na2vs0mg"},{"bike_id":"ad3a9bec-7199-4de6-a00e-537c657e5ef4","system_id":"levelo_inurba_marseille","lat":43.295279,"lon":5.375048,"is_reserved":false,"is_disabled":false,"rental_uris":{"android":"levelo://app?vid=ad3a9bec-7199-4de6-a00e-537c657e5ef4","ios":"levelo://app?vid=ad3a9bec-7199-4de6-a00e-537c657e5ef4"},"vehicle_type_id":"4","last_reported":1715443745,"current_range_meters":1600,"station_id":"ce4bgkp2rcd13ifvqbmg","pricing_plan_id":"cebpf4jnsgd1na2vs0mg"},{"bike_id":"5e2b5407-2473-44d4-bb5f-dc526657fca7","system_id":"levelo_inurba_marseille","lat":43.296277,"lon":5.377108,"is_reserved":false,"is_disabled":false,"rental_uris":{"android":"levelo://app?vid=5e2b5407-2473-44d4-bb5f-dc526657fca7","ios":"levelo://app?vid=5e2b5407-2473-44d4-bb5f-dc526657fca7"},"vehicle_type_id":"4","last_reported":1715443745,"current_range_meters":0,"station_id":"ce4bgi92rcd13ifvqb90","pricing_plan_id":"cebpf4jnsgd1na2vs0mg"},{"bike_id":"dfda5d3c-b39f-437b-8d8e-7866c29a73f5","system_id":"levelo_inurba_marseille","lat":43.295279,"lon":5.375048,"is_reserved":false,"is_disabled":false,"rental_uris":{"android":"levelo://app?vid=dfda5d3c-b39f-437b-8d8e-7866c29a73f5","ios":"levelo://app?vid=dfda5d3c-b39f-437b-8d8e-7866c29a73f5"},"vehicle_type_id":"4","last_reported":1715443745,"current_range_meters":400,"station_id":"ce4bgkp2rcd13ifvqbmg","pricing_plan_id":"cebpf4jnsgd1na2vs0mg"},{"bike_id":"cba4c7d9-d198-4677-b306-f8900daed664","system_id":"levelo_inurba_marseille","lat":43.295279,"lon":5.375048,"is_reserved":false,"is_disabled":false,"rental_uris":{"android":"levelo://app?vid=cba4c7d9-d198-4677-b306-f8900daed664","ios":"levelo://app?vid=cba4c7d9-d198-4677-b306-f8900daed664"},"vehicle_type_id":"4","last_reported":1715443745,"current_range_meters":9600,"station_id":"ce4bgkp2rcd13ifvqbmg","pricing_plan_id":"cebpf4jnsgd1na2vs0mg"},{"bike_id":"1e0aec4d-0694-43be-b2c7-f47218dbe182","system_id":"levelo_inurba_marseille","lat":43.29976,"lon":5.38498,"is_reserved":false,"is_disabled":false,"rental_uris":{"android":"levelo://app?vid=1e0aec4d-0694-43be-b2c7-f47218dbe182","ios":"levelo://app?vid=1e0aec4d-0694-43be-b2c7-f47218dbe182"},"vehicle_type_id":"4","last_reported":1715443745,"current_range_meters":0,"station_id":"ce4bgj92rcd13ifvqbd0","pricing_plan_id":"cebpf4jnsgd1na2vs0mg"},{"bike_id":"febff004-edf1-4bf5-93c4-d312a086042e","system_id":"levelo_inurba_marseille","lat":43.299717,"lon":5.384845,"is_reserved":false,"is_disabled":false,"rental_uris":{"android":"levelo://app?vid=febff004-edf1-4bf5-93c4-d312a086042e","ios":"levelo://app?vid=febff004-edf1-4bf5-93c4-d312a086042e"},"vehicle_type_id":"4","last_reported":1715443745,"current_range_meters":4400,"station_id":"ce4bgj92rcd13ifvqbd0","pricing_plan_id":"cebpf4jnsgd1na2vs0mg"},{"bike_id":"409e59ec-8362-4366-956e-c27dd7919db4","system_id":"levelo_inurba_marseille","lat":43.295279,"lon":5.375048,"is_reserved":false,"is_disabled":false,"rental_uris":{"android":"levelo://app?vid=409e59ec-8362-4366-956e-c27dd7919db4","ios":"levelo://app?vid=409e59ec-8362-4366-956e-c27dd7919db4"},"vehicle_type_id":"4","last_reported":1715443745,"current_range_meters":29600,"station_id":"ce4bgkp2rcd13ifvqbmg","pricing_plan_id":"cebpf4jnsgd1na2vs0mg"},{"bike_id":"daea4f0b-c564-46fd-8cac-acc3bab5e006","system_id":"levelo_inurba_marseille","lat":43.300556,"lon":5.386501,"is_reserved":false,"is_disabled":false,"rental_uris":{"android":"levelo://app?vid=daea4f0b-c564-46fd-8cac-acc3bab5e006","ios":"levelo://app?vid=daea4f0b-c564-46fd-8cac-acc3bab5e006"},"vehicle_type_id":"4","last_reported":1715443745,"current_range_meters":0,"station_id":"","pricing_plan_id":"cebpf4jnsgd1na2vs0mg"},{"bike_id":"8fee57d5-cd53-4bc1-9668-2729926b33fc","system_id":"levelo_inurba_marseille","lat":43.32368,"lon":5.38887,"is_reserved":false,"is_disabled":false,"rental_uris":{"android":"levelo://app?vid=8fee57d5-cd53-4bc1-9668-2729926b33fc","ios":"levelo://app?vid=8fee57d5-cd53-4bc1-9668-2729926b33fc"},"vehicle_type_id":"4","last_reported":1715443745,"current_range_meters":15200,"station_id":"ce4bhqp2rcd13ifvqhog","pricing_plan_id":"cebpf4jnsgd1na2vs0mg"},{"bike_id":"149209d5-c811-4839-b815-79870f157221","system_id":"levelo_inurba_marseille","lat":43.299724,"lon":5.384848,"is_reserved":false,"is_disabled":false,"rental_uris":{"android":"levelo://app?vid=149209d5-c811-4839-b815-79870f157221","ios":"levelo://app?vid=149209d5-c811-4839-b815-79870f157221"},"vehicle_type_id":"4","last_reported":1715443745,"current_range_meters":22000,"station_id":"ce4bgj92rcd13ifvqbd0","pricing_plan_id":"cebpf4jnsgd1na2vs0mg"},{"bike_id":"c83d2a10-09a1-4c79-8473-cd404df5fb0d","system_id":"levelo_inurba_marseille","lat":43.296,"lon":5.38102,"is_reserved":false,"is_disabled":false,"rental_uris":{"android":"levelo://app?vid=c83d2a10-09a1-4c79-8473-cd404df5fb0d","ios":"levelo://app?vid=c83d2a10-09a1-4c79-8473-cd404df5fb0d"},"vehicle_type_id":"4","last_reported":1715443745,"current_range_meters":10000,"station_id":"ce4bgl12rcd13ifvqbo0","pricing_plan_id":"cebpf4jnsgd1na2vs0mg"},{"bike_id":"ace5f1ba-d409-47f8-8f94-137520b885a6","system_id":"levelo_inurba_marseille","lat":43.29278,"lon":5.36841,"is_reserved":false,"is_disabled":false,"rental_uris":{"android":"levelo://app?vid=ace5f1ba-d409-47f8-8f94-137520b885a6","ios":"levelo://app?vid=ace5f1ba-d409-47f8-8f94-137520b885a6"},"vehicle_type_id":"4","last_reported":1715443745,"current_range_meters":0,"station_id":"ce4bhbp2rcd13ifvqesg","pricing_plan_id":"cebpf4jnsgd1na2vs0mg"},{"bike_id":"d2d57d5b-8039-4789-830c-42549ff4ab0d","system_id":"levelo_inurba_marseille","lat":43.292749,"lon":5.368398,"is_reserved":false,"is_disabled":false,"rental_uris":{"android":"levelo://app?vid=d2d57d5b-8039-4789-830c-42549ff4ab0d","ios":"levelo://app?vid=d2d57d5b-8039-4789-830c-42549ff4ab0d"},"vehicle_type_id":"4","last_reported":1715443745,"current_range_meters":2000,"station_id":"ce4bhbp2rcd13ifvqesg","pricing_plan_id":"cebpf4jnsgd1na2vs0mg"},{"bike_id":"12f1b7b2-1e4b-48ab-b11b-37db696a8c63","system_id":"levelo_inurba_marseille","lat":43.292749,"lon":5.368402,"is_reserved":false,"is_disabled":false,"rental_uris":{"android":"levelo://app?vid=12f1b7b2-1e4b-48ab-b11b-37db696a8c63","ios":"levelo://app?vid=12f1b7b2-1e4b-48ab-b11b-37db696a8c63"},"vehicle_type_id":"4","last_reported":1715443745,"current_range_meters":22400,"station_id":"ce4bhbp2rcd13ifvqesg","pricing_plan_id":"cebpf4jnsgd1na2vs0mg"},{"bike_id":"45eb2574-8763-4f20-bce6-d81284a99d15","system_id":"levelo_inurba_marseille","lat":43.2927,"lon":5.36837,"is_reserved":false,"is_disabled":false,"rental_uris":{"android":"levelo://app?vid=45eb2574-8763-4f20-bce6-d81284a99d15","ios":"levelo://app?vid=45eb2574-8763-4f20-bce6-d81284a99d15"},"vehicle_type_id":"4","last_reported":1715443745,"current_range_meters":11200,"station_id":"ce4bhbp2rcd13ifvqesg","pricing_plan_id":"cebpf4jnsgd1na2vs0mg"},{"bike_id":"1ab36c74-a47c-478a-a4d4-887e781ed302","system_id":"levelo_inurba_marseille","lat":43.292749,"lon":5.368402,"is_reserved":false,"is_disabled":false,"rental_uris":{"android":"levelo://app?vid=1ab36c74-a47c-478a-a4d4-887e781ed302","ios":"levelo://app?vid=1ab36c74-a47c-478a-a4d4-887e781ed302"},"vehicle_type_id":"4","last_reported":1715443745,"current_range_meters":24000,"station_id":"ce4bhbp2rcd13ifvqesg","pricing_plan_id":"cebpf4jnsgd1na2vs0mg"},{"bike_id":"4833345c-ea43-4c58-9976-0ea51e71e338","system_id":"levelo_inurba_marseille","lat":43.292749,"lon":5.368402,"is_reserved":false,"is_disabled":false,"rental_uris":{"android":"levelo://app?vid=4833345c-ea43-4c58-9976-0ea51e71e338","ios":"levelo://app?vid=4833345c-ea43-4c58-9976-0ea51e71e338"},"vehicle_type_id":"4","last_reported":1715443745,"current_range_meters":4400,"station_id":"ce4bhbp2rcd13ifvqesg","pricing_plan_id":"cebpf4jnsgd1na2vs0mg"},{"bike_id":"63f12465-8349-48d7-a006-c0dc97f97b55","system_id":"levelo_inurba_marseille","lat":43.305994,"lon":5.393687,"is_reserved":false,"is_disabled":false,"rental_uris":{"android":"levelo://app?vid=63f12465-8349-48d7-a006-c0dc97f97b55","ios":"levelo://app?vid=63f12465-8349-48d7-a006-c0dc97f97b55"},"vehicle_type_id":"4","last_reported":1715443745,"current_range_meters":0,"station_id":"ce4bh0p2rcd13ifvqd80","pricing_plan_id":"cebpf4jnsgd1na2vs0mg"},{"bike_id":"0ec477ef-fdfa-471c-ba23-857fcce35ac0","system_id":"levelo_inurba_marseille","lat":43.29233,"lon":5.36478,"is_reserved":false,"is_disabled":false,"rental_uris":{"android":"levelo://app?vid=0ec477ef-fdfa-471c-ba23-857fcce35ac0","ios":"levelo://app?vid=0ec477ef-fdfa-471c-ba23-857fcce35ac0"},"vehicle_type_id":"4","last_reported":1715443745,"current_range_meters":0,"station_id":"","pricing_plan_id":"cebpf4jnsgd1na2vs0mg"},{"bike_id":"d27c9f5a-7249-4f7f-a7ce-84fcb7ee7ff9","system_id":"levelo_inurba_marseille","lat":43.305994,"lon":5.393687,"is_reserved":false,"is_disabled":false,"rental_uris":{"android":"levelo://app?vid=d27c9f5a-7249-4f7f-a7ce-84fcb7ee7ff9","ios":"levelo://app?vid=d27c9f5a-7249-4f7f-a7ce-84fcb7ee7ff9"},"vehicle_type_id":"4","last_reported":1715443745,"current_range_meters":1200,"station_id":"ce4bh0p2rcd13ifvqd80","pricing_plan_id":"cebpf4jnsgd1na2vs0mg"},{"bike_id":"d88fc872-476b-4f73-904c-17c3860a3bed","system_id":"levelo_inurba_marseille","lat":43.305994,"lon":5.393687,"is_reserved":false,"is_disabled":false,"rental_uris":{"android":"levelo://app?vid=d88fc872-476b-4f73-904c-17c3860a3bed","ios":"levelo://app?vid=d88fc872-476b-4f73-904c-17c3860a3bed"},"vehicle_type_id":"4","last_reported":1715443745,"current_range_meters":14000,"station_id":"ce4bh0p2rcd13ifvqd80","pricing_plan_id":"cebpf4jnsgd1na2vs0mg"},{"bike_id":"6b110e35-b328-4e62-a1e4-77fe1823a033","system_id":"levelo_inurba_marseille","lat":43.302992,"lon":5.392136,"is_reserved":false,"is_disabled":false,"rental_uris":{"android":"levelo://app?vid=6b110e35-b328-4e62-a1e4-77fe1823a033","ios":"levelo://app?vid=6b110e35-b328-4e62-a1e4-77fe1823a033"},"vehicle_type_id":"4","last_reported":1715443745,"current_range_meters":0,"station_id":"ce4bgkh2rcd13ifvqbk0","pricing_plan_id":"cebpf4jnsgd1na2vs0mg"},{"bike_id":"4d7bce06-9e1b-4b0e-abf6-62a953258f7b","system_id":"levelo_inurba_marseille","lat":43.303079,"lon":5.392078,"is_reserved":false,"is_disabled":false,"rental_uris":{"android":"levelo://app?vid=4d7bce06-9e1b-4b0e-abf6-62a953258f7b","ios":"levelo://app?vid=4d7bce06-9e1b-4b0e-abf6-62a953258f7b"},"vehicle_type_id":"4","last_reported":1715443745,"current_range_meters":5200,"station_id":"ce4bgkh2rcd13ifvqbk0","pricing_plan_id":"cebpf4jnsgd1na2vs0mg"},{"bike_id":"d841c642-7970-4426-9709-b0fbfab84a31","system_id":"levelo_inurba_marseille","lat":43.303002,"lon":5.392142,"is_reserved":false,"is_disabled":false,"rental_uris":{"android":"levelo://app?vid=d841c642-7970-4426-9709-b0fbfab84a31","ios":"levelo://app?vid=d841c642-7970-4426-9709-b0fbfab84a31"},"vehicle_type_id":"4","last_reported":1715443745,"current_range_meters":8400,"station_id":"ce4bgkh2rcd13ifvqbk0","pricing_plan_id":"cebpf4jnsgd1na2vs0mg"},{"bike_id":"e5412c31-ee5d-4d09-9e45-fe96c159e9ce","system_id":"levelo_inurba_marseille","lat":43.303002,"lon":5.392142,"is_reserved":false,"is_disabled":false,"rental_uris":{"android":"levelo://app?vid=e5412c31-ee5d-4d09-9e45-fe96c159e9ce","ios":"levelo://app?vid=e5412c31-ee5d-4d09-9e45-fe96c159e9ce"},"vehicle_type_id":"4","last_reported":1715443745,"current_range_meters":7200,"station_id":"ce4bgkh2rcd13ifvqbk0","pricing_plan_id":"cebpf4jnsgd1na2vs0mg"},{"bike_id":"858313e7-d7d3-4a21-bc9d-cd20971c6132","system_id":"levelo_inurba_marseille","lat":43.2936,"lon":5.37835,"is_reserved":false,"is_disabled":false,"rental_uris":{"android":"levelo://app?vid=858313e7-d7d3-4a21-bc9d-cd20971c6132","ios":"levelo://app?vid=858313e7-d7d3-4a21-bc9d-cd20971c6132"},"vehicle_type_id":"4","last_reported":1715443745,"current_range_meters":0,"station_id":"ce4bgjh2rcd13ifvqbf0","pricing_plan_id":"cebpf4jnsgd1na2vs0mg"},{"bike_id":"50a70b4e-aec1-41e2-b3a1-12a745f6b0b1","system_id":"levelo_inurba_marseille","lat":43.292311,"lon":5.360731,"is_reserved":false,"is_disabled":false,"rental_uris":{"android":"levelo://app?vid=50a70b4e-aec1-41e2-b3a1-12a745f6b0b1","ios":"levelo://app?vid=50a70b4e-aec1-41e2-b3a1-12a745f6b0b1"},"vehicle_type_id":"4","last_reported":1715443745,"current_range_meters":12400,"station_id":"ce4bhbh2rcd13ifvqeqg","pricing_plan_id":"cebpf4jnsgd1na2vs0mg"},{"bike_id":"016de75e-f5d4-4cdf-9684-0e7bb6005b87","system_id":"levelo_inurba_marseille","lat":43.292311,"lon":5.360731,"is_reserved":false,"is_disabled":false,"rental_uris":{"android":"levelo://app?vid=016de75e-f5d4-4cdf-9684-0e7bb6005b87","ios":"levelo://app?vid=016de75e-f5d4-4cdf-9684-0e7bb6005b87"},"vehicle_type_id":"4","last_reported":1715443745,"current_range_meters":18400,"station_id":"ce4bhbh2rcd13ifvqeqg","pricing_plan_id":"cebpf4jnsgd1na2vs0mg"},{"bike_id":"ea14994e-cea5-4353-bdef-6c5eb761c576","system_id":"levelo_inurba_marseille","lat":43.2936,"lon":5.37835,"is_reserved":false,"is_disabled":false,"rental_uris":{"android":"levelo://app?vid=ea14994e-cea5-4353-bdef-6c5eb761c576","ios":"levelo://app?vid=ea14994e-cea5-4353-bdef-6c5eb761c576"},"vehicle_type_id":"4","last_reported":1715443745,"current_range_meters":12400,"station_id":"ce4bgjh2rcd13ifvqbf0","pricing_plan_id":"cebpf4jnsgd1na2vs0mg"},{"bike_id":"8d468803-0842-4cb6-a0ad-987e6618f27e","system_id":"levelo_inurba_marseille","lat":43.291671,"lon":5.371575,"is_reserved":false,"is_disabled":false,"rental_uris":{"android":"levelo://app?vid=8d468803-0842-4cb6-a0ad-987e6618f27e","ios":"levelo://app?vid=8d468803-0842-4cb6-a0ad-987e6618f27e"},"vehicle_type_id":"4","last_reported":1715443745,"current_range_meters":0,"station_id":"ce4bha92rcd13ifvqeh0","pricing_plan_id":"cebpf4jnsgd1na2vs0mg"},{"bike_id":"03aa3d6f-7d4f-4e36-a64a-ca08b8f70741","system_id":"levelo_inurba_marseille","lat":43.29173,"lon":5.37135,"is_reserved":false,"is_disabled":false,"rental_uris":{"android":"levelo://app?vid=03aa3d6f-7d4f-4e36-a64a-ca08b8f70741","ios":"levelo://app?vid=03aa3d6f-7d4f-4e36-a64a-ca08b8f70741"},"vehicle_type_id":"4","last_reported":1715443745,"current_range_meters":24400,"station_id":"ce4bha92rcd13ifvqeh0","pricing_plan_id":"cebpf4jnsgd1na2vs0mg"},{"bike_id":"f9d94d8e-c779-4104-ad8b-8b8964ed3d2c","system_id":"levelo_inurba_marseille","lat":43.298764,"lon":5.388973,"is_reserved":false,"is_disabled":false,"rental_uris":{"android":"levelo://app?vid=f9d94d8e-c779-4104-ad8b-8b8964ed3d2c","ios":"levelo://app?vid=f9d94d8e-c779-4104-ad8b-8b8964ed3d2c"},"vehicle_type_id":"4","last_reported":1715443745,"current_range_meters":0,"station_id":"ce4bh392rcd13ifvqdl0","pricing_plan_id":"cebpf4jnsgd1na2vs0mg"},{"bike_id":"05123769-5afc-42e0-a974-64203711d8fc","system_id":"levelo_inurba_marseille","lat":43.291683,"lon":5.37159,"is_reserved":false,"is_disabled":false,"rental_uris":{"android":"levelo://app?vid=05123769-5afc-42e0-a974-64203711d8fc","ios":"levelo://app?vid=05123769-5afc-42e0-a974-64203711d8fc"},"vehicle_type_id":"4","last_reported":1715443745,"current_range_meters":0,"station_id":"ce4bha92rcd13ifvqeh0","pricing_plan_id":"cebpf4jnsgd1na2vs0mg"},{"bike_id":"902a724e-e63b-4e38-826f-aadf172bd910","system_id":"levelo_inurba_marseille","lat":43.291671,"lon":5.371575,"is_reserved":false,"is_disabled":false,"rental_uris":{"android":"levelo://app?vid=902a724e-e63b-4e38-826f-aadf172bd910","ios":"levelo://app?vid=902a724e-e63b-4e38-826f-aadf172bd910"},"vehicle_type_id":"4","last_reported":1715443745,"current_range_meters":11200,"station_id":"ce4bha92rcd13ifvqeh0","pricing_plan_id":"cebpf4jnsgd1na2vs0mg"},{"bike_id":"5a7aca09-1d7a-4b06-b79f-a14cbeeb962d","system_id":"levelo_inurba_marseille","lat":43.292005,"lon":5.357875,"is_reserved":false,"is_disabled":false,"rental_uris":{"android":"levelo://app?vid=5a7aca09-1d7a-4b06-b79f-a14cbeeb962d","ios":"levelo://app?vid=5a7aca09-1d7a-4b06-b79f-a14cbeeb962d"},"vehicle_type_id":"4","last_reported":1715443745,"current_range_meters":0,"station_id":"ce4bhb12rcd13ifvqel0","pricing_plan_id":"cebpf4jnsgd1na2vs0mg"},{"bike_id":"70bf681b-f791-45a5-9150-87bf9332dede","system_id":"levelo_inurba_marseille","lat":43.29197,"lon":5.35795,"is_reserved":false,"is_disabled":false,"rental_uris":{"android":"levelo://app?vid=70bf681b-f791-45a5-9150-87bf9332dede","ios":"levelo://app?vid=70bf681b-f791-45a5-9150-87bf9332dede"},"vehicle_type_id":"4","last_reported":1715443745,"current_range_meters":31200,"station_id":"ce4bhb12rcd13ifvqel0","pricing_plan_id":"cebpf4jnsgd1na2vs0mg"},{"bike_id":"ce25be2f-0f91-48ae-aa2e-008cb2e92bd9","system_id":"levelo_inurba_marseille","lat":43.291994,"lon":5.357886,"is_reserved":false,"is_disabled":false,"rental_uris":{"android":"levelo://app?vid=ce25be2f-0f91-48ae-aa2e-008cb2e92bd9","ios":"levelo://app?vid=ce25be2f-0f91-48ae-aa2e-008cb2e92bd9"},"vehicle_type_id":"4","last_reported":1715443745,"current_range_meters":15200,"station_id":"ce4bhb12rcd13ifvqel0","pricing_plan_id":"cebpf4jnsgd1na2vs0mg"},{"bike_id":"466becef-e9d7-4830-a1c8-bbc4ff876f2d","system_id":"levelo_inurba_marseille","lat":43.291915,"lon":5.358088,"is_reserved":false,"is_disabled":false,"rental_uris":{"android":"levelo://app?vid=466becef-e9d7-4830-a1c8-bbc4ff876f2d","ios":"levelo://app?vid=466becef-e9d7-4830-a1c8-bbc4ff876f2d"},"vehicle_type_id":"4","last_reported":1715443745,"current_range_meters":0,"station_id":"ce4bhb12rcd13ifvqel0","pricing_plan_id":"cebpf4jnsgd1na2vs0mg"},{"bike_id":"685f70ab-8601-4ddd-a93d-84cdc720730e","system_id":"levelo_inurba_marseille","lat":43.313291,"lon":5.396838,"is_reserved":false,"is_disabled":false,"rental_uris":{"android":"levelo://app?vid=685f70ab-8601-4ddd-a93d-84cdc720730e","ios":"levelo://app?vid=685f70ab-8601-4ddd-a93d-84cdc720730e"},"vehicle_type_id":"4","last_reported":1715443745,"current_range_meters":3600,"station_id":"ce4bgvp2rcd13ifvqcu0","pricing_plan_id":"cebpf4jnsgd1na2vs0mg"},{"bike_id":"455fee1c-31d2-45de-8090-8e7e90ae804d","system_id":"levelo_inurba_marseille","lat":43.313291,"lon":5.396838,"is_reserved":false,"is_disabled":false,"rental_uris":{"android":"levelo://app?vid=455fee1c-31d2-45de-8090-8e7e90ae804d","ios":"levelo://app?vid=455fee1c-31d2-45de-8090-8e7e90ae804d"},"vehicle_type_id":"4","last_reported":1715443745,"current_range_meters":2400,"station_id":"ce4bgvp2rcd13ifvqcu0","pricing_plan_id":"cebpf4jnsgd1na2vs0mg"},{"bike_id":"c4517342-85f4-469f-bb3c-5462de770b97","system_id":"levelo_inurba_marseille","lat":43.29191,"lon":5.35789,"is_reserved":false,"is_disabled":false,"rental_uris":{"android":"levelo://app?vid=c4517342-85f4-469f-bb3c-5462de770b97","ios":"levelo://app?vid=c4517342-85f4-469f-bb3c-5462de770b97"},"vehicle_type_id":"4","last_reported":1715443745,"current_range_meters":25600,"station_id":"ce4bhb12rcd13ifvqel0","pricing_plan_id":"cebpf4jnsgd1na2vs0mg"},{"bike_id":"ba420dea-fd40-4294-95e8-1962d122f43e","system_id":"levelo_inurba_marseille","lat":43.291994,"lon":5.357886,"is_reserved":false,"is_disabled":false,"rental_uris":{"android":"levelo://app?vid=ba420dea-fd40-4294-95e8-1962d122f43e","ios":"levelo://app?vid=ba420dea-fd40-4294-95e8-1962d122f43e"},"vehicle_type_id":"4","last_reported":1715443745,"current_range_meters":0,"station_id":"ce4bhb12rcd13ifvqel0","pricing_plan_id":"cebpf4jnsgd1na2vs0mg"},{"bike_id":"285e735e-02a1-4e49-9905-6a88158f5a43","system_id":"levelo_inurba_marseille","lat":43.292005,"lon":5.357875,"is_reserved":false,"is_disabled":false,"rental_uris":{"android":"levelo://app?vid=285e735e-02a1-4e49-9905-6a88158f5a43","ios":"levelo://app?vid=285e735e-02a1-4e49-9905-6a88158f5a43"},"vehicle_type_id":"4","last_reported":1715443745,"current_range_meters":25200,"station_id":"ce4bhb12rcd13ifvqel0","pricing_plan_id":"cebpf4jnsgd1na2vs0mg"},{"bike_id":"66a2a56c-dd8d-4f26-a9d1-d80b2554d587","system_id":"levelo_inurba_marseille","lat":43.291994,"lon":5.357886,"is_reserved":false,"is_disabled":false,"rental_uris":{"android":"levelo://app?vid=66a2a56c-dd8d-4f26-a9d1-d80b2554d587","ios":"levelo://app?vid=66a2a56c-dd8d-4f26-a9d1-d80b2554d587"},"vehicle_type_id":"4","last_reported":1715443745,"current_range_meters":18000,"station_id":"ce4bhb12rcd13ifvqel0","pricing_plan_id":"cebpf4jnsgd1na2vs0mg"},{"bike_id":"4941f4f5-d9df-49cb-adad-30fcbb59a917","system_id":"levelo_inurba_marseille","lat":43.29534,"lon":5.38543,"is_reserved":false,"is_disabled":false,"rental_uris":{"android":"levelo://app?vid=4941f4f5-d9df-49cb-adad-30fcbb59a917","ios":"levelo://app?vid=4941f4f5-d9df-49cb-adad-30fcbb59a917"},"vehicle_type_id":"4","last_reported":1715443745,"current_range_meters":25200,"station_id":"ce4bgih2rcd13ifvqba0","pricing_plan_id":"cebpf4jnsgd1na2vs0mg"},{"bike_id":"ca776409-637e-48a4-b127-2e6480edea9b","system_id":"levelo_inurba_marseille","lat":43.29534,"lon":5.38545,"is_reserved":false,"is_disabled":false,"rental_uris":{"android":"levelo://app?vid=ca776409-637e-48a4-b127-2e6480edea9b","ios":"levelo://app?vid=ca776409-637e-48a4-b127-2e6480edea9b"},"vehicle_type_id":"4","last_reported":1715443745,"current_range_meters":0,"station_id":"ce4bgih2rcd13ifvqba0","pricing_plan_id":"cebpf4jnsgd1na2vs0mg"},{"bike_id":"a1b45d18-0075-4ccb-a8b6-2c871855b58f","system_id":"levelo_inurba_marseille","lat":43.290779,"lon":5.371482,"is_reserved":false,"is_disabled":false,"rental_uris":{"android":"levelo://app?vid=a1b45d18-0075-4ccb-a8b6-2c871855b58f","ios":"levelo://app?vid=a1b45d18-0075-4ccb-a8b6-2c871855b58f"},"vehicle_type_id":"4","last_reported":1715443745,"current_range_meters":24000,"station_id":"ce4bh5p2rcd13ifvqe4g","pricing_plan_id":"cebpf4jnsgd1na2vs0mg"},{"bike_id":"75ace9e0-825a-42fa-b39d-9699ccf7be16","system_id":"levelo_inurba_marseille","lat":43.290779,"lon":5.371482,"is_reserved":false,"is_disabled":false,"rental_uris":{"android":"levelo://app?vid=75ace9e0-825a-42fa-b39d-9699ccf7be16","ios":"levelo://app?vid=75ace9e0-825a-42fa-b39d-9699ccf7be16"},"vehicle_type_id":"4","last_reported":1715443745,"current_range_meters":0,"station_id":"ce4bh5p2rcd13ifvqe4g","pricing_plan_id":"cebpf4jnsgd1na2vs0mg"},{"bike_id":"8df0d6b9-850a-47a2-8508-ee9520e418e8","system_id":"levelo_inurba_marseille","lat":43.290779,"lon":5.371482,"is_reserved":false,"is_disabled":false,"rental_uris":{"android":"levelo://app?vid=8df0d6b9-850a-47a2-8508-ee9520e418e8","ios":"levelo://app?vid=8df0d6b9-850a-47a2-8508-ee9520e418e8"},"vehicle_type_id":"4","last_reported":1715443745,"current_range_meters":15200,"station_id":"ce4bh5p2rcd13ifvqe4g","pricing_plan_id":"cebpf4jnsgd1na2vs0mg"},{"bike_id":"438e54e8-0339-49d1-aeb1-3b68a3527389","system_id":"levelo_inurba_marseille","lat":43.302008,"lon":5.394694,"is_reserved":false,"is_disabled":false,"rental_uris":{"android":"levelo://app?vid=438e54e8-0339-49d1-aeb1-3b68a3527389","ios":"levelo://app?vid=438e54e8-0339-49d1-aeb1-3b68a3527389"},"vehicle_type_id":"4","last_reported":1715443745,"current_range_meters":17600,"station_id":"ce4bh0p2rcd13ifvqd70","pricing_plan_id":"cebpf4jnsgd1na2vs0mg"},{"bike_id":"3054e1bd-a2a9-4e4c-aa11-6bc18837313a","system_id":"levelo_inurba_marseille","lat":43.302008,"lon":5.394694,"is_reserved":false,"is_disabled":false,"rental_uris":{"android":"levelo://app?vid=3054e1bd-a2a9-4e4c-aa11-6bc18837313a","ios":"levelo://app?vid=3054e1bd-a2a9-4e4c-aa11-6bc18837313a"},"vehicle_type_id":"4","last_reported":1715443745,"current_range_meters":800,"station_id":"ce4bh0p2rcd13ifvqd70","pricing_plan_id":"cebpf4jnsgd1na2vs0mg"},{"bike_id":"44a0878d-1ae7-4173-98ba-16969384763a","system_id":"levelo_inurba_marseille","lat":43.290779,"lon":5.371482,"is_reserved":false,"is_disabled":false,"rental_uris":{"android":"levelo://app?vid=44a0878d-1ae7-4173-98ba-16969384763a","ios":"levelo://app?vid=44a0878d-1ae7-4173-98ba-16969384763a"},"vehicle_type_id":"4","last_reported":1715443745,"current_range_meters":1200,"station_id":"ce4bh5p2rcd13ifvqe4g","pricing_plan_id":"cebpf4jnsgd1na2vs0mg"},{"bike_id":"151a1b31-7bd0-4b11-a995-0f4d2e8e216c","system_id":"levelo_inurba_marseille","lat":43.290631,"lon":5.359244,"is_reserved":false,"is_disabled":false,"rental_uris":{"android":"levelo://app?vid=151a1b31-7bd0-4b11-a995-0f4d2e8e216c","ios":"levelo://app?vid=151a1b31-7bd0-4b11-a995-0f4d2e8e216c"},"vehicle_type_id":"4","last_reported":1715443745,"current_range_meters":8400,"station_id":"ce4bha92rcd13ifvqeg0","pricing_plan_id":"cebpf4jnsgd1na2vs0mg"},{"bike_id":"0b936cc4-5b46-4d38-bc0d-8b1bfc687785","system_id":"levelo_inurba_marseille","lat":43.290327,"lon":5.375711,"is_reserved":false,"is_disabled":false,"rental_uris":{"android":"levelo://app?vid=0b936cc4-5b46-4d38-bc0d-8b1bfc687785","ios":"levelo://app?vid=0b936cc4-5b46-4d38-bc0d-8b1bfc687785"},"vehicle_type_id":"4","last_reported":1715443745,"current_range_meters":14400,"station_id":"ce4bh692rcd13ifvqe90","pricing_plan_id":"cebpf4jnsgd1na2vs0mg"},{"bike_id":"82501a3d-8a2f-4a09-9f32-ff9c9542046e","system_id":"levelo_inurba_marseille","lat":43.290319,"lon":5.375732,"is_reserved":false,"is_disabled":false,"rental_uris":{"android":"levelo://app?vid=82501a3d-8a2f-4a09-9f32-ff9c9542046e","ios":"levelo://app?vid=82501a3d-8a2f-4a09-9f32-ff9c9542046e"},"vehicle_type_id":"4","last_reported":1715443745,"current_range_meters":24800,"station_id":"ce4bh692rcd13ifvqe90","pricing_plan_id":"cebpf4jnsgd1na2vs0mg"},{"bike_id":"01a6cc5b-f31b-4f25-9fd3-7d72bf9cabf1","system_id":"levelo_inurba_marseille","lat":43.294153,"lon":5.386305,"is_reserved":false,"is_disabled":false,"rental_uris":{"android":"levelo://app?vid=01a6cc5b-f31b-4f25-9fd3-7d72bf9cabf1","ios":"levelo://app?vid=01a6cc5b-f31b-4f25-9fd3-7d72bf9cabf1"},"vehicle_type_id":"4","last_reported":1715443745,"current_range_meters":2000,"station_id":"ce4bh2h2rcd13ifvqdh0","pricing_plan_id":"cebpf4jnsgd1na2vs0mg"},{"bike_id":"a357d259-1f0d-43c9-b221-dea1af15f792","system_id":"levelo_inurba_marseille","lat":43.289444,"lon":5.366501,"is_reserved":false,"is_disabled":false,"rental_uris":{"android":"levelo://app?vid=a357d259-1f0d-43c9-b221-dea1af15f792","ios":"levelo://app?vid=a357d259-1f0d-43c9-b221-dea1af15f792"},"vehicle_type_id":"4","last_reported":1715443745,"current_range_meters":21600,"station_id":"","pricing_plan_id":"cebpf4jnsgd1na2vs0mg"},{"bike_id":"a98814f4-b96b-48be-bade-d9ad787e2cf8","system_id":"levelo_inurba_marseille","lat":43.294162,"lon":5.386292,"is_reserved":false,"is_disabled":false,"rental_uris":{"android":"levelo://app?vid=a98814f4-b96b-48be-bade-d9ad787e2cf8","ios":"levelo://app?vid=a98814f4-b96b-48be-bade-d9ad787e2cf8"},"vehicle_type_id":"4","last_reported":1715443745,"current_range_meters":9600,"station_id":"ce4bh2h2rcd13ifvqdh0","pricing_plan_id":"cebpf4jnsgd1na2vs0mg"},{"bike_id":"620ee497-a028-4194-9d9e-7d48b45c384b","system_id":"levelo_inurba_marseille","lat":43.289184,"lon":5.366408,"is_reserved":false,"is_disabled":false,"rental_uris":{"android":"levelo://app?vid=620ee497-a028-4194-9d9e-7d48b45c384b","ios":"levelo://app?vid=620ee497-a028-4194-9d9e-7d48b45c384b"},"vehicle_type_id":"4","last_reported":1715443745,"current_range_meters":6400,"station_id":"ce4bhap2rcd13ifvqek0","pricing_plan_id":"cebpf4jnsgd1na2vs0mg"},{"bike_id":"26a115de-1dd9-4f22-9434-0053b5502b89","system_id":"levelo_inurba_marseille","lat":43.289184,"lon":5.366408,"is_reserved":false,"is_disabled":false,"rental_uris":{"android":"levelo://app?vid=26a115de-1dd9-4f22-9434-0053b5502b89","ios":"levelo://app?vid=26a115de-1dd9-4f22-9434-0053b5502b89"},"vehicle_type_id":"4","last_reported":1715443745,"current_range_meters":4400,"station_id":"ce4bhap2rcd13ifvqek0","pricing_plan_id":"cebpf4jnsgd1na2vs0mg"},{"bike_id":"63141588-7123-4e9c-b648-170781a9d4a2","system_id":"levelo_inurba_marseille","lat":43.289184,"lon":5.366408,"is_reserved":false,"is_disabled":false,"rental_uris":{"android":"levelo://app?vid=63141588-7123-4e9c-b648-170781a9d4a2","ios":"levelo://app?vid=63141588-7123-4e9c-b648-170781a9d4a2"},"vehicle_type_id":"4","last_reported":1715443745,"current_range_meters":12800,"station_id":"ce4bhap2rcd13ifvqek0","pricing_plan_id":"cebpf4jnsgd1na2vs0mg"},{"bike_id":"30d85a1c-5d24-4b62-9753-16892173830c","system_id":"levelo_inurba_marseille","lat":43.293897,"lon":5.386724,"is_reserved":false,"is_disabled":false,"rental_uris":{"android":"levelo://app?vid=30d85a1c-5d24-4b62-9753-16892173830c","ios":"levelo://app?vid=30d85a1c-5d24-4b62-9753-16892173830c"},"vehicle_type_id":"4","last_reported":1715443745,"current_range_meters":16000,"station_id":"ce4bh2h2rcd13ifvqdh0","pricing_plan_id":"cebpf4jnsgd1na2vs0mg"},{"bike_id":"285b128a-f774-4512-a4fb-3e3b7dfdb5a0","system_id":"levelo_inurba_marseille","lat":43.304274,"lon":5.397513,"is_reserved":false,"is_disabled":false,"rental_uris":{"android":"levelo://app?vid=285b128a-f774-4512-a4fb-3e3b7dfdb5a0","ios":"levelo://app?vid=285b128a-f774-4512-a4fb-3e3b7dfdb5a0"},"vehicle_type_id":"4","last_reported":1715443745,"current_range_meters":15600,"station_id":"ce4bh092rcd13ifvqd20","pricing_plan_id":"cebpf4jnsgd1na2vs0mg"},{"bike_id":"0e0864d8-ff75-4f46-901e-218f7c62915f","system_id":"levelo_inurba_marseille","lat":43.29261,"lon":5.38438,"is_reserved":false,"is_disabled":false,"rental_uris":{"android":"levelo://app?vid=0e0864d8-ff75-4f46-901e-218f7c62915f","ios":"levelo://app?vid=0e0864d8-ff75-4f46-901e-218f7c62915f"},"vehicle_type_id":"4","last_reported":1715443745,"current_range_meters":0,"station_id":"ce4bh692rcd13ifvqea0","pricing_plan_id":"cebpf4jnsgd1na2vs0mg"},{"bike_id":"ff25c54c-f8fe-4c5e-9fbe-9a9dcfba0d79","system_id":"levelo_inurba_marseille","lat":43.29259,"lon":5.3844,"is_reserved":false,"is_disabled":false,"rental_uris":{"android":"levelo://app?vid=ff25c54c-f8fe-4c5e-9fbe-9a9dcfba0d79","ios":"levelo://app?vid=ff25c54c-f8fe-4c5e-9fbe-9a9dcfba0d79"},"vehicle_type_id":"4","last_reported":1715443745,"current_range_meters":0,"station_id":"ce4bh692rcd13ifvqea0","pricing_plan_id":"cebpf4jnsgd1na2vs0mg"},{"bike_id":"2a68e5a1-3fb5-420d-8e50-09162f39d2d1","system_id":"levelo_inurba_marseille","lat":43.292642,"lon":5.384254,"is_reserved":false,"is_disabled":false,"rental_uris":{"android":"levelo://app?vid=2a68e5a1-3fb5-420d-8e50-09162f39d2d1","ios":"levelo://app?vid=2a68e5a1-3fb5-420d-8e50-09162f39d2d1"},"vehicle_type_id":"4","last_reported":1715443745,"current_range_meters":31200,"station_id":"ce4bh692rcd13ifvqea0","pricing_plan_id":"cebpf4jnsgd1na2vs0mg"},{"bike_id":"d9e754f7-6983-4872-863c-0436a509ca9c","system_id":"levelo_inurba_marseille","lat":43.290103,"lon":5.356114,"is_reserved":false,"is_disabled":false,"rental_uris":{"android":"levelo://app?vid=d9e754f7-6983-4872-863c-0436a509ca9c","ios":"levelo://app?vid=d9e754f7-6983-4872-863c-0436a509ca9c"},"vehicle_type_id":"4","last_reported":1715443745,"current_range_meters":24000,"station_id":"ce4bhb92rcd13ifvqen0","pricing_plan_id":"cebpf4jnsgd1na2vs0mg"},{"bike_id":"78d33076-a439-455c-abeb-d1d837d1ae4d","system_id":"levelo_inurba_marseille","lat":43.304274,"lon":5.397513,"is_reserved":false,"is_disabled":false,"rental_uris":{"android":"levelo://app?vid=78d33076-a439-455c-abeb-d1d837d1ae4d","ios":"levelo://app?vid=78d33076-a439-455c-abeb-d1d837d1ae4d"},"vehicle_type_id":"4","last_reported":1715443745,"current_range_meters":18800,"station_id":"ce4bh092rcd13ifvqd20","pricing_plan_id":"cebpf4jnsgd1na2vs0mg"},{"bike_id":"a3994da7-811e-4012-a9b2-11c89ad2f1bc","system_id":"levelo_inurba_marseille","lat":43.290104,"lon":5.356111,"is_reserved":false,"is_disabled":false,"rental_uris":{"android":"levelo://app?vid=a3994da7-811e-4012-a9b2-11c89ad2f1bc","ios":"levelo://app?vid=a3994da7-811e-4012-a9b2-11c89ad2f1bc"},"vehicle_type_id":"4","last_reported":1715443745,"current_range_meters":22000,"station_id":"ce4bhb92rcd13ifvqen0","pricing_plan_id":"cebpf4jnsgd1na2vs0mg"},{"bike_id":"68ea3b4a-6397-460d-874b-1d2114673f6e","system_id":"levelo_inurba_marseille","lat":43.29093,"lon":5.38122,"is_reserved":false,"is_disabled":false,"rental_uris":{"android":"levelo://app?vid=68ea3b4a-6397-460d-874b-1d2114673f6e","ios":"levelo://app?vid=68ea3b4a-6397-460d-874b-1d2114673f6e"},"vehicle_type_id":"4","last_reported":1715443745,"current_range_meters":14400,"station_id":"","pricing_plan_id":"cebpf4jnsgd1na2vs0mg"},{"bike_id":"9f9f88cd-5d43-44ce-aaba-e1eeedc57976","system_id":"levelo_inurba_marseille","lat":43.290995,"lon":5.381361,"is_reserved":false,"is_disabled":false,"rental_uris":{"android":"levelo://app?vid=9f9f88cd-5d43-44ce-aaba-e1eeedc57976","ios":"levelo://app?vid=9f9f88cd-5d43-44ce-aaba-e1eeedc57976"},"vehicle_type_id":"4","last_reported":1715443745,"current_range_meters":6000,"station_id":"ce4bh512rcd13ifvqe2g","pricing_plan_id":"cebpf4jnsgd1na2vs0mg"},{"bike_id":"0ab35a91-5db5-4d45-ba8d-43252dfc9dd5","system_id":"levelo_inurba_marseille","lat":43.29787,"lon":5.39339,"is_reserved":false,"is_disabled":false,"rental_uris":{"android":"levelo://app?vid=0ab35a91-5db5-4d45-ba8d-43252dfc9dd5","ios":"levelo://app?vid=0ab35a91-5db5-4d45-ba8d-43252dfc9dd5"},"vehicle_type_id":"4","last_reported":1715443745,"current_range_meters":7200,"station_id":"chh1huq6cuj3fo74tm60","pricing_plan_id":"cebpf4jnsgd1na2vs0mg"},{"bike_id":"21b1231b-b867-442c-943a-b04537e87783","system_id":"levelo_inurba_marseille","lat":43.297815,"lon":5.393548,"is_reserved":false,"is_disabled":false,"rental_uris":{"android":"levelo://app?vid=21b1231b-b867-442c-943a-b04537e87783","ios":"levelo://app?vid=21b1231b-b867-442c-943a-b04537e87783"},"vehicle_type_id":"4","last_reported":1715443745,"current_range_meters":7200,"station_id":"chh1huq6cuj3fo74tm60","pricing_plan_id":"cebpf4jnsgd1na2vs0mg"},{"bike_id":"be92eeec-e1f7-4d76-a8a3-d769fdd97619","system_id":"levelo_inurba_marseille","lat":43.295169,"lon":5.390426,"is_reserved":false,"is_disabled":false,"rental_uris":{"android":"levelo://app?vid=be92eeec-e1f7-4d76-a8a3-d769fdd97619","ios":"levelo://app?vid=be92eeec-e1f7-4d76-a8a3-d769fdd97619"},"vehicle_type_id":"4","last_reported":1715443745,"current_range_meters":12000,"station_id":"ce4bh3p2rcd13ifvqdp0","pricing_plan_id":"cebpf4jnsgd1na2vs0mg"},{"bike_id":"2f71b153-ab34-44eb-9fdb-44f6d755d200","system_id":"levelo_inurba_marseille","lat":43.28974,"lon":5.37822,"is_reserved":false,"is_disabled":false,"rental_uris":{"android":"levelo://app?vid=2f71b153-ab34-44eb-9fdb-44f6d755d200","ios":"levelo://app?vid=2f71b153-ab34-44eb-9fdb-44f6d755d200"},"vehicle_type_id":"4","last_reported":1715443745,"current_range_meters":8800,"station_id":"ce4bh9p2rcd13ifvqed0","pricing_plan_id":"cebpf4jnsgd1na2vs0mg"},{"bike_id":"4c8dc81e-ba12-42d7-bdb4-39141abe788d","system_id":"levelo_inurba_marseille","lat":43.330442,"lon":5.389148,"is_reserved":false,"is_disabled":false,"rental_uris":{"android":"levelo://app?vid=4c8dc81e-ba12-42d7-bdb4-39141abe788d","ios":"levelo://app?vid=4c8dc81e-ba12-42d7-bdb4-39141abe788d"},"vehicle_type_id":"4","last_reported":1715443745,"current_range_meters":22800,"station_id":"ce4bhr92rcd13ifvqhrg","pricing_plan_id":"cebpf4jnsgd1na2vs0mg"},{"bike_id":"795b39a2-fcbb-4c1d-802b-8aa47df09fa8","system_id":"levelo_inurba_marseille","lat":43.289184,"lon":5.366408,"is_reserved":false,"is_disabled":false,"rental_uris":{"android":"levelo://app?vid=795b39a2-fcbb-4c1d-802b-8aa47df09fa8","ios":"levelo://app?vid=795b39a2-fcbb-4c1d-802b-8aa47df09fa8"},"vehicle_type_id":"4","last_reported":1715443745,"current_range_meters":4800,"station_id":"ce4bhap2rcd13ifvqek0","pricing_plan_id":"cebpf4jnsgd1na2vs0mg"},{"bike_id":"78df65fa-d5eb-4054-b0c5-a294ed51f507","system_id":"levelo_inurba_marseille","lat":43.2901,"lon":5.381269,"is_reserved":false,"is_disabled":false,"rental_uris":{"android":"levelo://app?vid=78df65fa-d5eb-4054-b0c5-a294ed51f507","ios":"levelo://app?vid=78df65fa-d5eb-4054-b0c5-a294ed51f507"},"vehicle_type_id":"4","last_reported":1715443745,"current_range_meters":2800,"station_id":"ce4bh4p2rcd13ifvqe1g","pricing_plan_id":"cebpf4jnsgd1na2vs0mg"},{"bike_id":"5c8fcfc2-78d8-46f7-a78e-5fad62e4c9c9","system_id":"levelo_inurba_marseille","lat":43.31092,"lon":5.40078,"is_reserved":false,"is_disabled":false,"rental_uris":{"android":"levelo://app?vid=5c8fcfc2-78d8-46f7-a78e-5fad62e4c9c9","ios":"levelo://app?vid=5c8fcfc2-78d8-46f7-a78e-5fad62e4c9c9"},"vehicle_type_id":"4","last_reported":1715443745,"current_range_meters":3600,"station_id":"","pricing_plan_id":"cebpf4jnsgd1na2vs0mg"},{"bike_id":"6f341cff-767d-4560-9389-f3d202973269","system_id":"levelo_inurba_marseille","lat":43.2901,"lon":5.381269,"is_reserved":false,"is_disabled":false,"rental_uris":{"android":"levelo://app?vid=6f341cff-767d-4560-9389-f3d202973269","ios":"levelo://app?vid=6f341cff-767d-4560-9389-f3d202973269"},"vehicle_type_id":"4","last_reported":1715443745,"current_range_meters":0,"station_id":"ce4bh4p2rcd13ifvqe1g","pricing_plan_id":"cebpf4jnsgd1na2vs0mg"},{"bike_id":"f81105f7-bbd2-4c9d-8947-f5a1a40766a1","system_id":"levelo_inurba_marseille","lat":43.290094,"lon":5.381264,"is_reserved":false,"is_disabled":false,"rental_uris":{"android":"levelo://app?vid=f81105f7-bbd2-4c9d-8947-f5a1a40766a1","ios":"levelo://app?vid=f81105f7-bbd2-4c9d-8947-f5a1a40766a1"},"vehicle_type_id":"4","last_reported":1715443745,"current_range_meters":12800,"station_id":"ce4bh4p2rcd13ifvqe1g","pricing_plan_id":"cebpf4jnsgd1na2vs0mg"},{"bike_id":"e4f7f6e2-3bf4-477c-9bd6-e48dfaf97d00","system_id":"levelo_inurba_marseille","lat":43.290094,"lon":5.381264,"is_reserved":false,"is_disabled":false,"rental_uris":{"android":"levelo://app?vid=e4f7f6e2-3bf4-477c-9bd6-e48dfaf97d00","ios":"levelo://app?vid=e4f7f6e2-3bf4-477c-9bd6-e48dfaf97d00"},"vehicle_type_id":"4","last_reported":1715443745,"current_range_meters":7200,"station_id":"ce4bh4p2rcd13ifvqe1g","pricing_plan_id":"cebpf4jnsgd1na2vs0mg"},{"bike_id":"a6fe3be9-2ae1-42ce-9d62-911bb3dea5fa","system_id":"levelo_inurba_marseille","lat":43.28856,"lon":5.358371,"is_reserved":false,"is_disabled":false,"rental_uris":{"android":"levelo://app?vid=a6fe3be9-2ae1-42ce-9d62-911bb3dea5fa","ios":"levelo://app?vid=a6fe3be9-2ae1-42ce-9d62-911bb3dea5fa"},"vehicle_type_id":"4","last_reported":1715443745,"current_range_meters":30400,"station_id":"ce4bhb12rcd13ifvqem0","pricing_plan_id":"cebpf4jnsgd1na2vs0mg"},{"bike_id":"7d33c6fe-2f4f-4d87-be31-0ae36a388358","system_id":"levelo_inurba_marseille","lat":43.312609,"lon":5.401662,"is_reserved":false,"is_disabled":false,"rental_uris":{"android":"levelo://app?vid=7d33c6fe-2f4f-4d87-be31-0ae36a388358","ios":"levelo://app?vid=7d33c6fe-2f4f-4d87-be31-0ae36a388358"},"vehicle_type_id":"4","last_reported":1715443745,"current_range_meters":13600,"station_id":"ce4bh092rcd13ifvqd30","pricing_plan_id":"cebpf4jnsgd1na2vs0mg"},{"bike_id":"cd392fd8-7f2f-4598-9cae-6c0cd691560d","system_id":"levelo_inurba_marseille","lat":43.312609,"lon":5.401662,"is_reserved":false,"is_disabled":false,"rental_uris":{"android":"levelo://app?vid=cd392fd8-7f2f-4598-9cae-6c0cd691560d","ios":"levelo://app?vid=cd392fd8-7f2f-4598-9cae-6c0cd691560d"},"vehicle_type_id":"4","last_reported":1715443745,"current_range_meters":2000,"station_id":"ce4bh092rcd13ifvqd30","pricing_plan_id":"cebpf4jnsgd1na2vs0mg"},{"bike_id":"fa38820a-6594-447d-94ab-f30b6861c626","system_id":"levelo_inurba_marseille","lat":43.309371,"lon":5.401449,"is_reserved":false,"is_disabled":false,"rental_uris":{"android":"levelo://app?vid=fa38820a-6594-447d-94ab-f30b6861c626","ios":"levelo://app?vid=fa38820a-6594-447d-94ab-f30b6861c626"},"vehicle_type_id":"4","last_reported":1715443745,"current_range_meters":7200,"station_id":"ce4bgvp2rcd13ifvqct0","pricing_plan_id":"cebpf4jnsgd1na2vs0mg"},{"bike_id":"ba531f79-0711-40de-a55a-8492b1f2f54f","system_id":"levelo_inurba_marseille","lat":43.312609,"lon":5.401662,"is_reserved":false,"is_disabled":false,"rental_uris":{"android":"levelo://app?vid=ba531f79-0711-40de-a55a-8492b1f2f54f","ios":"levelo://app?vid=ba531f79-0711-40de-a55a-8492b1f2f54f"},"vehicle_type_id":"4","last_reported":1715443745,"current_range_meters":15600,"station_id":"ce4bh092rcd13ifvqd30","pricing_plan_id":"cebpf4jnsgd1na2vs0mg"},{"bike_id":"f7932a42-aa5c-439b-b535-65dd8ccd41cf","system_id":"levelo_inurba_marseille","lat":43.33751,"lon":5.37493,"is_reserved":false,"is_disabled":false,"rental_uris":{"android":"levelo://app?vid=f7932a42-aa5c-439b-b535-65dd8ccd41cf","ios":"levelo://app?vid=f7932a42-aa5c-439b-b535-65dd8ccd41cf"},"vehicle_type_id":"4","last_reported":1715443745,"current_range_meters":29200,"station_id":"","pricing_plan_id":"cebpf4jnsgd1na2vs0mg"},{"bike_id":"98b7dbe4-6af0-4086-be72-4c43a7dfb989","system_id":"levelo_inurba_marseille","lat":43.337606,"lon":5.374358,"is_reserved":false,"is_disabled":false,"rental_uris":{"android":"levelo://app?vid=98b7dbe4-6af0-4086-be72-4c43a7dfb989","ios":"levelo://app?vid=98b7dbe4-6af0-4086-be72-4c43a7dfb989"},"vehicle_type_id":"4","last_reported":1715443745,"current_range_meters":12400,"station_id":"","pricing_plan_id":"cebpf4jnsgd1na2vs0mg"},{"bike_id":"91d9714b-b35f-47ce-8f34-022bf351236f","system_id":"levelo_inurba_marseille","lat":43.33762,"lon":5.37436,"is_reserved":false,"is_disabled":false,"rental_uris":{"android":"levelo://app?vid=91d9714b-b35f-47ce-8f34-022bf351236f","ios":"levelo://app?vid=91d9714b-b35f-47ce-8f34-022bf351236f"},"vehicle_type_id":"4","last_reported":1715443745,"current_range_meters":24400,"station_id":"","pricing_plan_id":"cebpf4jnsgd1na2vs0mg"},{"bike_id":"e3d3f308-23e3-4903-8505-193efdfcd82b","system_id":"levelo_inurba_marseille","lat":43.301117,"lon":5.398795,"is_reserved":false,"is_disabled":false,"rental_uris":{"android":"levelo://app?vid=e3d3f308-23e3-4903-8505-193efdfcd82b","ios":"levelo://app?vid=e3d3f308-23e3-4903-8505-193efdfcd82b"},"vehicle_type_id":"4","last_reported":1715443745,"current_range_meters":0,"station_id":"ce4bh0h2rcd13ifvqd40","pricing_plan_id":"cebpf4jnsgd1na2vs0mg"},{"bike_id":"2afdf0e5-b0d0-4e1c-aa6f-cd9e83eb4192","system_id":"levelo_inurba_marseille","lat":43.28727,"lon":5.36078,"is_reserved":false,"is_disabled":false,"rental_uris":{"android":"levelo://app?vid=2afdf0e5-b0d0-4e1c-aa6f-cd9e83eb4192","ios":"levelo://app?vid=2afdf0e5-b0d0-4e1c-aa6f-cd9e83eb4192"},"vehicle_type_id":"4","last_reported":1715443745,"current_range_meters":10400,"station_id":"cki0cbj6b192h4jlfktg","pricing_plan_id":"cebpf4jnsgd1na2vs0mg"},{"bike_id":"abbeae71-06f5-4964-8d19-82e23d9f0f19","system_id":"levelo_inurba_marseille","lat":43.28727,"lon":5.36078,"is_reserved":false,"is_disabled":false,"rental_uris":{"android":"levelo://app?vid=abbeae71-06f5-4964-8d19-82e23d9f0f19","ios":"levelo://app?vid=abbeae71-06f5-4964-8d19-82e23d9f0f19"},"vehicle_type_id":"4","last_reported":1715443745,"current_range_meters":6800,"station_id":"cki0cbj6b192h4jlfktg","pricing_plan_id":"cebpf4jnsgd1na2vs0mg"},{"bike_id":"91266183-f089-41f9-b680-9b6f42362c41","system_id":"levelo_inurba_marseille","lat":43.28714,"lon":5.360948,"is_reserved":false,"is_disabled":false,"rental_uris":{"android":"levelo://app?vid=91266183-f089-41f9-b680-9b6f42362c41","ios":"levelo://app?vid=91266183-f089-41f9-b680-9b6f42362c41"},"vehicle_type_id":"4","last_reported":1715443745,"current_range_meters":24000,"station_id":"","pricing_plan_id":"cebpf4jnsgd1na2vs0mg"},{"bike_id":"1c10b9d1-746a-48b8-b2be-f6f3882ecbe5","system_id":"levelo_inurba_marseille","lat":43.286961,"lon":5.373785,"is_reserved":false,"is_disabled":false,"rental_uris":{"android":"levelo://app?vid=1c10b9d1-746a-48b8-b2be-f6f3882ecbe5","ios":"levelo://app?vid=1c10b9d1-746a-48b8-b2be-f6f3882ecbe5"},"vehicle_type_id":"4","last_reported":1715443745,"current_range_meters":0,"station_id":"ce4bh3p2rcd13ifvqdq0","pricing_plan_id":"cebpf4jnsgd1na2vs0mg"},{"bike_id":"9dfaac3f-cc1e-478a-aa53-002cd32e48b0","system_id":"levelo_inurba_marseille","lat":43.286591,"lon":5.363346,"is_reserved":false,"is_disabled":false,"rental_uris":{"android":"levelo://app?vid=9dfaac3f-cc1e-478a-aa53-002cd32e48b0","ios":"levelo://app?vid=9dfaac3f-cc1e-478a-aa53-002cd32e48b0"},"vehicle_type_id":"4","last_reported":1715443745,"current_range_meters":10800,"station_id":"ce4bhah2rcd13ifvqej0","pricing_plan_id":"cebpf4jnsgd1na2vs0mg"},{"bike_id":"fc9312cc-357d-42b6-ba79-175065b45010","system_id":"levelo_inurba_marseille","lat":43.286961,"lon":5.373785,"is_reserved":false,"is_disabled":false,"rental_uris":{"android":"levelo://app?vid=fc9312cc-357d-42b6-ba79-175065b45010","ios":"levelo://app?vid=fc9312cc-357d-42b6-ba79-175065b45010"},"vehicle_type_id":"4","last_reported":1715443745,"current_range_meters":0,"station_id":"ce4bh3p2rcd13ifvqdq0","pricing_plan_id":"cebpf4jnsgd1na2vs0mg"},{"bike_id":"f003c4d2-390e-42b2-a2c7-6ebadf09fae7","system_id":"levelo_inurba_marseille","lat":43.29046,"lon":5.38629,"is_reserved":false,"is_disabled":false,"rental_uris":{"android":"levelo://app?vid=f003c4d2-390e-42b2-a2c7-6ebadf09fae7","ios":"levelo://app?vid=f003c4d2-390e-42b2-a2c7-6ebadf09fae7"},"vehicle_type_id":"4","last_reported":1715443745,"current_range_meters":0,"station_id":"ce4bh4p2rcd13ifvqe0g","pricing_plan_id":"cebpf4jnsgd1na2vs0mg"},{"bike_id":"3a52f702-fb09-4dca-9698-3ef1b5f59c65","system_id":"levelo_inurba_marseille","lat":43.29516,"lon":5.394,"is_reserved":false,"is_disabled":false,"rental_uris":{"android":"levelo://app?vid=3a52f702-fb09-4dca-9698-3ef1b5f59c65","ios":"levelo://app?vid=3a52f702-fb09-4dca-9698-3ef1b5f59c65"},"vehicle_type_id":"4","last_reported":1715443745,"current_range_meters":0,"station_id":"ce4bh292rcd13ifvqdf0","pricing_plan_id":"cebpf4jnsgd1na2vs0mg"},{"bike_id":"62eccaa0-56b8-48cf-b624-d2531e0c1480","system_id":"levelo_inurba_marseille","lat":43.295194,"lon":5.39397,"is_reserved":false,"is_disabled":false,"rental_uris":{"android":"levelo://app?vid=62eccaa0-56b8-48cf-b624-d2531e0c1480","ios":"levelo://app?vid=62eccaa0-56b8-48cf-b624-d2531e0c1480"},"vehicle_type_id":"4","last_reported":1715443745,"current_range_meters":26000,"station_id":"ce4bh292rcd13ifvqdf0","pricing_plan_id":"cebpf4jnsgd1na2vs0mg"},{"bike_id":"5240e918-3893-4db6-a559-25858f848191","system_id":"levelo_inurba_marseille","lat":43.295194,"lon":5.39397,"is_reserved":false,"is_disabled":false,"rental_uris":{"android":"levelo://app?vid=5240e918-3893-4db6-a559-25858f848191","ios":"levelo://app?vid=5240e918-3893-4db6-a559-25858f848191"},"vehicle_type_id":"4","last_reported":1715443745,"current_range_meters":15200,"station_id":"ce4bh292rcd13ifvqdf0","pricing_plan_id":"cebpf4jnsgd1na2vs0mg"},{"bike_id":"ff5ec302-6a01-458e-9794-9790822b3cd0","system_id":"levelo_inurba_marseille","lat":43.289307,"lon":5.38406,"is_reserved":false,"is_disabled":false,"rental_uris":{"android":"levelo://app?vid=ff5ec302-6a01-458e-9794-9790822b3cd0","ios":"levelo://app?vid=ff5ec302-6a01-458e-9794-9790822b3cd0"},"vehicle_type_id":"4","last_reported":1715443745,"current_range_meters":8800,"station_id":"ce4bh612rcd13ifvqe6g","pricing_plan_id":"cebpf4jnsgd1na2vs0mg"},{"bike_id":"6a4e92b3-24bd-4be8-8e35-14fd5ff9b2db","system_id":"levelo_inurba_marseille","lat":43.29027,"lon":5.38646,"is_reserved":false,"is_disabled":false,"rental_uris":{"android":"levelo://app?vid=6a4e92b3-24bd-4be8-8e35-14fd5ff9b2db","ios":"levelo://app?vid=6a4e92b3-24bd-4be8-8e35-14fd5ff9b2db"},"vehicle_type_id":"4","last_reported":1715443745,"current_range_meters":0,"station_id":"ce4bh4p2rcd13ifvqe0g","pricing_plan_id":"cebpf4jnsgd1na2vs0mg"},{"bike_id":"29130168-2860-424b-9f3a-ecb1c5a6bcb3","system_id":"levelo_inurba_marseille","lat":43.302759,"lon":5.400793,"is_reserved":false,"is_disabled":false,"rental_uris":{"android":"levelo://app?vid=29130168-2860-424b-9f3a-ecb1c5a6bcb3","ios":"levelo://app?vid=29130168-2860-424b-9f3a-ecb1c5a6bcb3"},"vehicle_type_id":"4","last_reported":1715443745,"current_range_meters":16400,"station_id":"ce4bgvh2rcd13ifvqcs0","pricing_plan_id":"cebpf4jnsgd1na2vs0mg"},{"bike_id":"1788f1f9-f23d-4203-bcc3-77a02ab805ca","system_id":"levelo_inurba_marseille","lat":43.302759,"lon":5.400793,"is_reserved":false,"is_disabled":false,"rental_uris":{"android":"levelo://app?vid=1788f1f9-f23d-4203-bcc3-77a02ab805ca","ios":"levelo://app?vid=1788f1f9-f23d-4203-bcc3-77a02ab805ca"},"vehicle_type_id":"4","last_reported":1715443745,"current_range_meters":13600,"station_id":"ce4bgvh2rcd13ifvqcs0","pricing_plan_id":"cebpf4jnsgd1na2vs0mg"},{"bike_id":"ea146b89-171d-49ae-856d-f5c59b29a0f0","system_id":"levelo_inurba_marseille","lat":43.290345,"lon":5.38646,"is_reserved":false,"is_disabled":false,"rental_uris":{"android":"levelo://app?vid=ea146b89-171d-49ae-856d-f5c59b29a0f0","ios":"levelo://app?vid=ea146b89-171d-49ae-856d-f5c59b29a0f0"},"vehicle_type_id":"4","last_reported":1715443745,"current_range_meters":0,"station_id":"ce4bh4p2rcd13ifvqe0g","pricing_plan_id":"cebpf4jnsgd1na2vs0mg"},{"bike_id":"ab2aec93-faef-48bc-9254-b2a497f95e92","system_id":"levelo_inurba_marseille","lat":43.291994,"lon":5.392907,"is_reserved":false,"is_disabled":false,"rental_uris":{"android":"levelo://app?vid=ab2aec93-faef-48bc-9254-b2a497f95e92","ios":"levelo://app?vid=ab2aec93-faef-48bc-9254-b2a497f95e92"},"vehicle_type_id":"4","last_reported":1715443745,"current_range_meters":19600,"station_id":"ce4bh192rcd13ifvqdd0","pricing_plan_id":"cebpf4jnsgd1na2vs0mg"},{"bike_id":"681a20aa-96c5-4645-9d26-6453bc3e9912","system_id":"levelo_inurba_marseille","lat":43.316821,"lon":5.404737,"is_reserved":false,"is_disabled":false,"rental_uris":{"android":"levelo://app?vid=681a20aa-96c5-4645-9d26-6453bc3e9912","ios":"levelo://app?vid=681a20aa-96c5-4645-9d26-6453bc3e9912"},"vehicle_type_id":"4","last_reported":1715443745,"current_range_meters":27200,"station_id":"ce4bh012rcd13ifvqd00","pricing_plan_id":"cebpf4jnsgd1na2vs0mg"},{"bike_id":"e58a377c-867e-425d-bb45-61d12cea9b90","system_id":"levelo_inurba_marseille","lat":43.316935,"lon":5.404807,"is_reserved":false,"is_disabled":false,"rental_uris":{"android":"levelo://app?vid=e58a377c-867e-425d-bb45-61d12cea9b90","ios":"levelo://app?vid=e58a377c-867e-425d-bb45-61d12cea9b90"},"vehicle_type_id":"4","last_reported":1715443745,"current_range_meters":27600,"station_id":"ce4bh012rcd13ifvqd00","pricing_plan_id":"cebpf4jnsgd1na2vs0mg"},{"bike_id":"43079bd7-54c9-4c5d-9b04-6230652a50e5","system_id":"levelo_inurba_marseille","lat":43.291994,"lon":5.392907,"is_reserved":false,"is_disabled":false,"rental_uris":{"android":"levelo://app?vid=43079bd7-54c9-4c5d-9b04-6230652a50e5","ios":"levelo://app?vid=43079bd7-54c9-4c5d-9b04-6230652a50e5"},"vehicle_type_id":"4","last_reported":1715443745,"current_range_meters":20800,"station_id":"ce4bh192rcd13ifvqdd0","pricing_plan_id":"cebpf4jnsgd1na2vs0mg"},{"bike_id":"6555d214-bd4b-4c94-9408-59b568bd5ca5","system_id":"levelo_inurba_marseille","lat":43.291994,"lon":5.392907,"is_reserved":false,"is_disabled":false,"rental_uris":{"android":"levelo://app?vid=6555d214-bd4b-4c94-9408-59b568bd5ca5","ios":"levelo://app?vid=6555d214-bd4b-4c94-9408-59b568bd5ca5"},"vehicle_type_id":"4","last_reported":1715443745,"current_range_meters":0,"station_id":"ce4bh192rcd13ifvqdd0","pricing_plan_id":"cebpf4jnsgd1na2vs0mg"},{"bike_id":"ecabb72a-1622-460c-a351-9bc41e78acd1","system_id":"levelo_inurba_marseille","lat":43.291994,"lon":5.392907,"is_reserved":false,"is_disabled":false,"rental_uris":{"android":"levelo://app?vid=ecabb72a-1622-460c-a351-9bc41e78acd1","ios":"levelo://app?vid=ecabb72a-1622-460c-a351-9bc41e78acd1"},"vehicle_type_id":"4","last_reported":1715443745,"current_range_meters":22800,"station_id":"ce4bh192rcd13ifvqdd0","pricing_plan_id":"cebpf4jnsgd1na2vs0mg"},{"bike_id":"f9d5de7f-54e3-4d15-9e47-4ee2226cce94","system_id":"levelo_inurba_marseille","lat":43.285848,"lon":5.350787,"is_reserved":false,"is_disabled":false,"rental_uris":{"android":"levelo://app?vid=f9d5de7f-54e3-4d15-9e47-4ee2226cce94","ios":"levelo://app?vid=f9d5de7f-54e3-4d15-9e47-4ee2226cce94"},"vehicle_type_id":"4","last_reported":1715443745,"current_range_meters":2800,"station_id":"ce4bhch2rcd13ifvqeug","pricing_plan_id":"cebpf4jnsgd1na2vs0mg"},{"bike_id":"1d9fe4e9-e614-41d8-bd1c-e00d3b158569","system_id":"levelo_inurba_marseille","lat":43.28618,"lon":5.35107,"is_reserved":false,"is_disabled":false,"rental_uris":{"android":"levelo://app?vid=1d9fe4e9-e614-41d8-bd1c-e00d3b158569","ios":"levelo://app?vid=1d9fe4e9-e614-41d8-bd1c-e00d3b158569"},"vehicle_type_id":"4","last_reported":1715443745,"current_range_meters":0,"station_id":"ce4bhch2rcd13ifvqeug","pricing_plan_id":"cebpf4jnsgd1na2vs0mg"},{"bike_id":"fb2127de-b0f6-410a-a01e-d01927a47cd3","system_id":"levelo_inurba_marseille","lat":43.283998,"lon":5.375062,"is_reserved":false,"is_disabled":false,"rental_uris":{"android":"levelo://app?vid=fb2127de-b0f6-410a-a01e-d01927a47cd3","ios":"levelo://app?vid=fb2127de-b0f6-410a-a01e-d01927a47cd3"},"vehicle_type_id":"4","last_reported":1715443745,"current_range_meters":22000,"station_id":"ce4bh412rcd13ifvqds0","pricing_plan_id":"cebpf4jnsgd1na2vs0mg"},{"bike_id":"4f140df1-059b-4670-b870-83d4fcbd3d4d","system_id":"levelo_inurba_marseille","lat":43.294314,"lon":5.397498,"is_reserved":false,"is_disabled":false,"rental_uris":{"android":"levelo://app?vid=4f140df1-059b-4670-b870-83d4fcbd3d4d","ios":"levelo://app?vid=4f140df1-059b-4670-b870-83d4fcbd3d4d"},"vehicle_type_id":"4","last_reported":1715443745,"current_range_meters":6400,"station_id":"ce4bh3h2rcd13ifvqdo0","pricing_plan_id":"cebpf4jnsgd1na2vs0mg"},{"bike_id":"0fc04f45-8a9d-4adc-89d3-46977a352032","system_id":"levelo_inurba_marseille","lat":43.285856,"lon":5.350771,"is_reserved":false,"is_disabled":false,"rental_uris":{"android":"levelo://app?vid=0fc04f45-8a9d-4adc-89d3-46977a352032","ios":"levelo://app?vid=0fc04f45-8a9d-4adc-89d3-46977a352032"},"vehicle_type_id":"4","last_reported":1715443745,"current_range_meters":18000,"station_id":"ce4bhch2rcd13ifvqeug","pricing_plan_id":"cebpf4jnsgd1na2vs0mg"},{"bike_id":"ef1e1ae6-f3a1-4070-b570-30196606a81c","system_id":"levelo_inurba_marseille","lat":43.285856,"lon":5.350771,"is_reserved":false,"is_disabled":false,"rental_uris":{"android":"levelo://app?vid=ef1e1ae6-f3a1-4070-b570-30196606a81c","ios":"levelo://app?vid=ef1e1ae6-f3a1-4070-b570-30196606a81c"},"vehicle_type_id":"4","last_reported":1715443745,"current_range_meters":21600,"station_id":"ce4bhch2rcd13ifvqeug","pricing_plan_id":"cebpf4jnsgd1na2vs0mg"},{"bike_id":"8afffebe-00d8-4e63-be5c-1eaefd66274f","system_id":"levelo_inurba_marseille","lat":43.285856,"lon":5.350771,"is_reserved":false,"is_disabled":false,"rental_uris":{"android":"levelo://app?vid=8afffebe-00d8-4e63-be5c-1eaefd66274f","ios":"levelo://app?vid=8afffebe-00d8-4e63-be5c-1eaefd66274f"},"vehicle_type_id":"4","last_reported":1715443745,"current_range_meters":12000,"station_id":"ce4bhch2rcd13ifvqeug","pricing_plan_id":"cebpf4jnsgd1na2vs0mg"},{"bike_id":"73e695e3-9766-449a-b069-724a4914d7b5","system_id":"levelo_inurba_marseille","lat":43.285848,"lon":5.350787,"is_reserved":false,"is_disabled":false,"rental_uris":{"android":"levelo://app?vid=73e695e3-9766-449a-b069-724a4914d7b5","ios":"levelo://app?vid=73e695e3-9766-449a-b069-724a4914d7b5"},"vehicle_type_id":"4","last_reported":1715443745,"current_range_meters":22400,"station_id":"ce4bhch2rcd13ifvqeug","pricing_plan_id":"cebpf4jnsgd1na2vs0mg"},{"bike_id":"6d96a895-4615-449f-a9ff-b8b0f594a2a5","system_id":"levelo_inurba_marseille","lat":43.285856,"lon":5.350771,"is_reserved":false,"is_disabled":false,"rental_uris":{"android":"levelo://app?vid=6d96a895-4615-449f-a9ff-b8b0f594a2a5","ios":"levelo://app?vid=6d96a895-4615-449f-a9ff-b8b0f594a2a5"},"vehicle_type_id":"4","last_reported":1715443745,"current_range_meters":22800,"station_id":"ce4bhch2rcd13ifvqeug","pricing_plan_id":"cebpf4jnsgd1na2vs0mg"},{"bike_id":"911aea8f-82c4-4833-864d-544297f0b274","system_id":"levelo_inurba_marseille","lat":43.285856,"lon":5.350771,"is_reserved":false,"is_disabled":false,"rental_uris":{"android":"levelo://app?vid=911aea8f-82c4-4833-864d-544297f0b274","ios":"levelo://app?vid=911aea8f-82c4-4833-864d-544297f0b274"},"vehicle_type_id":"4","last_reported":1715443745,"current_range_meters":4800,"station_id":"ce4bhch2rcd13ifvqeug","pricing_plan_id":"cebpf4jnsgd1na2vs0mg"},{"bike_id":"aeea4881-8f4b-4282-a840-b1dcc7c8bfa4","system_id":"levelo_inurba_marseille","lat":43.2861,"lon":5.35102,"is_reserved":false,"is_disabled":false,"rental_uris":{"android":"levelo://app?vid=aeea4881-8f4b-4282-a840-b1dcc7c8bfa4","ios":"levelo://app?vid=aeea4881-8f4b-4282-a840-b1dcc7c8bfa4"},"vehicle_type_id":"4","last_reported":1715443745,"current_range_meters":4000,"station_id":"ce4bhch2rcd13ifvqeug","pricing_plan_id":"cebpf4jnsgd1na2vs0mg"},{"bike_id":"71c33163-fc66-4839-8857-11461ad156ee","system_id":"levelo_inurba_marseille","lat":43.283998,"lon":5.375062,"is_reserved":false,"is_disabled":false,"rental_uris":{"android":"levelo://app?vid=71c33163-fc66-4839-8857-11461ad156ee","ios":"levelo://app?vid=71c33163-fc66-4839-8857-11461ad156ee"},"vehicle_type_id":"4","last_reported":1715443745,"current_range_meters":0,"station_id":"ce4bh412rcd13ifvqds0","pricing_plan_id":"cebpf4jnsgd1na2vs0mg"},{"bike_id":"eafeea61-bfb2-4451-8522-4bc6357bdd14","system_id":"levelo_inurba_marseille","lat":43.295713,"lon":5.399639,"is_reserved":false,"is_disabled":false,"rental_uris":{"android":"levelo://app?vid=eafeea61-bfb2-4451-8522-4bc6357bdd14","ios":"levelo://app?vid=eafeea61-bfb2-4451-8522-4bc6357bdd14"},"vehicle_type_id":"4","last_reported":1715443745,"current_range_meters":2400,"station_id":"ce4bh312rcd13ifvqdj0","pricing_plan_id":"cebpf4jnsgd1na2vs0mg"},{"bike_id":"387fc90c-b3c4-4157-90f0-1fe775c158bb","system_id":"levelo_inurba_marseille","lat":43.283998,"lon":5.375062,"is_reserved":false,"is_disabled":false,"rental_uris":{"android":"levelo://app?vid=387fc90c-b3c4-4157-90f0-1fe775c158bb","ios":"levelo://app?vid=387fc90c-b3c4-4157-90f0-1fe775c158bb"},"vehicle_type_id":"4","last_reported":1715443745,"current_range_meters":19600,"station_id":"ce4bh412rcd13ifvqds0","pricing_plan_id":"cebpf4jnsgd1na2vs0mg"},{"bike_id":"516bfc65-95ea-43a7-9537-e3e145c62ed4","system_id":"levelo_inurba_marseille","lat":43.295713,"lon":5.399639,"is_reserved":false,"is_disabled":false,"rental_uris":{"android":"levelo://app?vid=516bfc65-95ea-43a7-9537-e3e145c62ed4","ios":"levelo://app?vid=516bfc65-95ea-43a7-9537-e3e145c62ed4"},"vehicle_type_id":"4","last_reported":1715443745,"current_range_meters":14000,"station_id":"ce4bh312rcd13ifvqdj0","pricing_plan_id":"cebpf4jnsgd1na2vs0mg"},{"bike_id":"fd2e9431-acaa-4507-a75b-d25ca0819209","system_id":"levelo_inurba_marseille","lat":43.283998,"lon":5.375062,"is_reserved":false,"is_disabled":false,"rental_uris":{"android":"levelo://app?vid=fd2e9431-acaa-4507-a75b-d25ca0819209","ios":"levelo://app?vid=fd2e9431-acaa-4507-a75b-d25ca0819209"},"vehicle_type_id":"4","last_reported":1715443745,"current_range_meters":13200,"station_id":"ce4bh412rcd13ifvqds0","pricing_plan_id":"cebpf4jnsgd1na2vs0mg"},{"bike_id":"f511a66e-367a-4543-bced-61742316b626","system_id":"levelo_inurba_marseille","lat":43.286595,"lon":5.386795,"is_reserved":false,"is_disabled":false,"rental_uris":{"android":"levelo://app?vid=f511a66e-367a-4543-bced-61742316b626","ios":"levelo://app?vid=f511a66e-367a-4543-bced-61742316b626"},"vehicle_type_id":"4","last_reported":1715443745,"current_range_meters":9600,"station_id":"ce4bh492rcd13ifvqdug","pricing_plan_id":"cebpf4jnsgd1na2vs0mg"},{"bike_id":"0755df16-4731-4a85-a9a7-025742d47798","system_id":"levelo_inurba_marseille","lat":43.286595,"lon":5.386795,"is_reserved":false,"is_disabled":false,"rental_uris":{"android":"levelo://app?vid=0755df16-4731-4a85-a9a7-025742d47798","ios":"levelo://app?vid=0755df16-4731-4a85-a9a7-025742d47798"},"vehicle_type_id":"4","last_reported":1715443745,"current_range_meters":6000,"station_id":"ce4bh492rcd13ifvqdug","pricing_plan_id":"cebpf4jnsgd1na2vs0mg"},{"bike_id":"30ee191d-9e4a-4016-b3e5-c39b523b74d9","system_id":"levelo_inurba_marseille","lat":43.28523,"lon":5.38384,"is_reserved":false,"is_disabled":false,"rental_uris":{"android":"levelo://app?vid=30ee191d-9e4a-4016-b3e5-c39b523b74d9","ios":"levelo://app?vid=30ee191d-9e4a-4016-b3e5-c39b523b74d9"},"vehicle_type_id":"4","last_reported":1715443745,"current_range_meters":0,"station_id":"","pricing_plan_id":"cebpf4jnsgd1na2vs0mg"},{"bike_id":"ae0e3a65-0e17-4315-90dd-28bead334705","system_id":"levelo_inurba_marseille","lat":43.323464,"lon":5.406297,"is_reserved":false,"is_disabled":false,"rental_uris":{"android":"levelo://app?vid=ae0e3a65-0e17-4315-90dd-28bead334705","ios":"levelo://app?vid=ae0e3a65-0e17-4315-90dd-28bead334705"},"vehicle_type_id":"4","last_reported":1715443745,"current_range_meters":20000,"station_id":"ce4bhq92rcd13ifvqhjg","pricing_plan_id":"cebpf4jnsgd1na2vs0mg"},{"bike_id":"e8fdbee7-8006-44b5-89e2-7f6ab03bf5c8","system_id":"levelo_inurba_marseille","lat":43.284787,"lon":5.384116,"is_reserved":false,"is_disabled":false,"rental_uris":{"android":"levelo://app?vid=e8fdbee7-8006-44b5-89e2-7f6ab03bf5c8","ios":"levelo://app?vid=e8fdbee7-8006-44b5-89e2-7f6ab03bf5c8"},"vehicle_type_id":"4","last_reported":1715443745,"current_range_meters":19200,"station_id":"ce4bh512rcd13ifvqe3g","pricing_plan_id":"cebpf4jnsgd1na2vs0mg"},{"bike_id":"22dd29d5-b99b-4d75-ad49-6754325cd1b8","system_id":"levelo_inurba_marseille","lat":43.284793,"lon":5.384119,"is_reserved":false,"is_disabled":false,"rental_uris":{"android":"levelo://app?vid=22dd29d5-b99b-4d75-ad49-6754325cd1b8","ios":"levelo://app?vid=22dd29d5-b99b-4d75-ad49-6754325cd1b8"},"vehicle_type_id":"4","last_reported":1715443745,"current_range_meters":0,"station_id":"ce4bh512rcd13ifvqe3g","pricing_plan_id":"cebpf4jnsgd1na2vs0mg"},{"bike_id":"bbdab8be-b654-43c5-b5e3-c54c8bef1108","system_id":"levelo_inurba_marseille","lat":43.28855,"lon":5.392856,"is_reserved":false,"is_disabled":false,"rental_uris":{"android":"levelo://app?vid=bbdab8be-b654-43c5-b5e3-c54c8bef1108","ios":"levelo://app?vid=bbdab8be-b654-43c5-b5e3-c54c8bef1108"},"vehicle_type_id":"4","last_reported":1715443745,"current_range_meters":15600,"station_id":"","pricing_plan_id":"cebpf4jnsgd1na2vs0mg"},{"bike_id":"467853d4-fbfe-4cd1-90ea-15fba3dcd2b7","system_id":"levelo_inurba_marseille","lat":43.284787,"lon":5.384116,"is_reserved":false,"is_disabled":false,"rental_uris":{"android":"levelo://app?vid=467853d4-fbfe-4cd1-90ea-15fba3dcd2b7","ios":"levelo://app?vid=467853d4-fbfe-4cd1-90ea-15fba3dcd2b7"},"vehicle_type_id":"4","last_reported":1715443745,"current_range_meters":3600,"station_id":"ce4bh512rcd13ifvqe3g","pricing_plan_id":"cebpf4jnsgd1na2vs0mg"},{"bike_id":"6169318a-2b54-416f-9f51-b40c06093ed7","system_id":"levelo_inurba_marseille","lat":43.284787,"lon":5.384116,"is_reserved":false,"is_disabled":false,"rental_uris":{"android":"levelo://app?vid=6169318a-2b54-416f-9f51-b40c06093ed7","ios":"levelo://app?vid=6169318a-2b54-416f-9f51-b40c06093ed7"},"vehicle_type_id":"4","last_reported":1715443745,"current_range_meters":7600,"station_id":"ce4bh512rcd13ifvqe3g","pricing_plan_id":"cebpf4jnsgd1na2vs0mg"},{"bike_id":"31c3a4f2-3031-4293-b650-734ac505cacf","system_id":"levelo_inurba_marseille","lat":43.284793,"lon":5.384113,"is_reserved":false,"is_disabled":false,"rental_uris":{"android":"levelo://app?vid=31c3a4f2-3031-4293-b650-734ac505cacf","ios":"levelo://app?vid=31c3a4f2-3031-4293-b650-734ac505cacf"},"vehicle_type_id":"4","last_reported":1715443745,"current_range_meters":6000,"station_id":"ce4bh512rcd13ifvqe3g","pricing_plan_id":"cebpf4jnsgd1na2vs0mg"},{"bike_id":"2b34fd6e-e68d-4c05-96bc-d245acf95d76","system_id":"levelo_inurba_marseille","lat":43.284787,"lon":5.384116,"is_reserved":false,"is_disabled":false,"rental_uris":{"android":"levelo://app?vid=2b34fd6e-e68d-4c05-96bc-d245acf95d76","ios":"levelo://app?vid=2b34fd6e-e68d-4c05-96bc-d245acf95d76"},"vehicle_type_id":"4","last_reported":1715443745,"current_range_meters":0,"station_id":"ce4bh512rcd13ifvqe3g","pricing_plan_id":"cebpf4jnsgd1na2vs0mg"},{"bike_id":"1ce88476-0711-4726-9932-e990df635d06","system_id":"levelo_inurba_marseille","lat":43.284787,"lon":5.384116,"is_reserved":false,"is_disabled":false,"rental_uris":{"android":"levelo://app?vid=1ce88476-0711-4726-9932-e990df635d06","ios":"levelo://app?vid=1ce88476-0711-4726-9932-e990df635d06"},"vehicle_type_id":"4","last_reported":1715443745,"current_range_meters":0,"station_id":"ce4bh512rcd13ifvqe3g","pricing_plan_id":"cebpf4jnsgd1na2vs0mg"},{"bike_id":"a29574b0-4ee4-41c9-80e9-ec2d56bab4b0","system_id":"levelo_inurba_marseille","lat":43.284787,"lon":5.384116,"is_reserved":false,"is_disabled":false,"rental_uris":{"android":"levelo://app?vid=a29574b0-4ee4-41c9-80e9-ec2d56bab4b0","ios":"levelo://app?vid=a29574b0-4ee4-41c9-80e9-ec2d56bab4b0"},"vehicle_type_id":"4","last_reported":1715443745,"current_range_meters":9600,"station_id":"ce4bh512rcd13ifvqe3g","pricing_plan_id":"cebpf4jnsgd1na2vs0mg"},{"bike_id":"ff56703f-5a01-4791-95f0-d91415c6ed26","system_id":"levelo_inurba_marseille","lat":43.32532,"lon":5.40562,"is_reserved":false,"is_disabled":false,"rental_uris":{"android":"levelo://app?vid=ff56703f-5a01-4791-95f0-d91415c6ed26","ios":"levelo://app?vid=ff56703f-5a01-4791-95f0-d91415c6ed26"},"vehicle_type_id":"4","last_reported":1715443745,"current_range_meters":7600,"station_id":"","pricing_plan_id":"cebpf4jnsgd1na2vs0mg"},{"bike_id":"1ce53732-0c2b-4bc7-bda1-872ab8922f4e","system_id":"levelo_inurba_marseille","lat":43.288501,"lon":5.393087,"is_reserved":false,"is_disabled":false,"rental_uris":{"android":"levelo://app?vid=1ce53732-0c2b-4bc7-bda1-872ab8922f4e","ios":"levelo://app?vid=1ce53732-0c2b-4bc7-bda1-872ab8922f4e"},"vehicle_type_id":"4","last_reported":1715443745,"current_range_meters":1200,"station_id":"ce4bh2p2rcd13ifvqdi0","pricing_plan_id":"cebpf4jnsgd1na2vs0mg"},{"bike_id":"bf090e17-a344-47b4-8e97-cb9a5c86fb2c","system_id":"levelo_inurba_marseille","lat":43.32526,"lon":5.40568,"is_reserved":false,"is_disabled":false,"rental_uris":{"android":"levelo://app?vid=bf090e17-a344-47b4-8e97-cb9a5c86fb2c","ios":"levelo://app?vid=bf090e17-a344-47b4-8e97-cb9a5c86fb2c"},"vehicle_type_id":"4","last_reported":1715443745,"current_range_meters":23600,"station_id":"","pricing_plan_id":"cebpf4jnsgd1na2vs0mg"},{"bike_id":"d701c008-5bd5-44ba-a2cf-070a179d3585","system_id":"levelo_inurba_marseille","lat":43.32522,"lon":5.4058,"is_reserved":false,"is_disabled":false,"rental_uris":{"android":"levelo://app?vid=d701c008-5bd5-44ba-a2cf-070a179d3585","ios":"levelo://app?vid=d701c008-5bd5-44ba-a2cf-070a179d3585"},"vehicle_type_id":"4","last_reported":1715443745,"current_range_meters":2000,"station_id":"","pricing_plan_id":"cebpf4jnsgd1na2vs0mg"},{"bike_id":"c37bbd43-a8f8-40bb-ac66-56c431cad1e4","system_id":"levelo_inurba_marseille","lat":43.32525,"lon":5.405796,"is_reserved":false,"is_disabled":false,"rental_uris":{"android":"levelo://app?vid=c37bbd43-a8f8-40bb-ac66-56c431cad1e4","ios":"levelo://app?vid=c37bbd43-a8f8-40bb-ac66-56c431cad1e4"},"vehicle_type_id":"4","last_reported":1715443745,"current_range_meters":20000,"station_id":"","pricing_plan_id":"cebpf4jnsgd1na2vs0mg"},{"bike_id":"b99014ba-26ce-47bd-96e2-e7761148cf6d","system_id":"levelo_inurba_marseille","lat":43.28435,"lon":5.34991,"is_reserved":false,"is_disabled":false,"rental_uris":{"android":"levelo://app?vid=b99014ba-26ce-47bd-96e2-e7761148cf6d","ios":"levelo://app?vid=b99014ba-26ce-47bd-96e2-e7761148cf6d"},"vehicle_type_id":"4","last_reported":1715443745,"current_range_meters":24400,"station_id":"ce4bhbh2rcd13ifvqepg","pricing_plan_id":"cebpf4jnsgd1na2vs0mg"},{"bike_id":"c7089460-6801-4120-9b56-91add87e01b5","system_id":"levelo_inurba_marseille","lat":43.284219,"lon":5.3497,"is_reserved":false,"is_disabled":false,"rental_uris":{"android":"levelo://app?vid=c7089460-6801-4120-9b56-91add87e01b5","ios":"levelo://app?vid=c7089460-6801-4120-9b56-91add87e01b5"},"vehicle_type_id":"4","last_reported":1715443745,"current_range_meters":30800,"station_id":"ce4bhbh2rcd13ifvqepg","pricing_plan_id":"cebpf4jnsgd1na2vs0mg"},{"bike_id":"0a136433-784a-4e2a-9921-d0365f30ea99","system_id":"levelo_inurba_marseille","lat":43.28427,"lon":5.34992,"is_reserved":false,"is_disabled":false,"rental_uris":{"android":"levelo://app?vid=0a136433-784a-4e2a-9921-d0365f30ea99","ios":"levelo://app?vid=0a136433-784a-4e2a-9921-d0365f30ea99"},"vehicle_type_id":"4","last_reported":1715443745,"current_range_meters":6000,"station_id":"ce4bhbh2rcd13ifvqepg","pricing_plan_id":"cebpf4jnsgd1na2vs0mg"},{"bike_id":"dc7f55a0-feb9-4b08-88f1-3f103417dcf2","system_id":"levelo_inurba_marseille","lat":43.28427,"lon":5.34992,"is_reserved":false,"is_disabled":false,"rental_uris":{"android":"levelo://app?vid=dc7f55a0-feb9-4b08-88f1-3f103417dcf2","ios":"levelo://app?vid=dc7f55a0-feb9-4b08-88f1-3f103417dcf2"},"vehicle_type_id":"4","last_reported":1715443745,"current_range_meters":21600,"station_id":"ce4bhbh2rcd13ifvqepg","pricing_plan_id":"cebpf4jnsgd1na2vs0mg"},{"bike_id":"d8487e45-114e-42b5-a329-629898c8c04e","system_id":"levelo_inurba_marseille","lat":43.28428,"lon":5.34984,"is_reserved":false,"is_disabled":false,"rental_uris":{"android":"levelo://app?vid=d8487e45-114e-42b5-a329-629898c8c04e","ios":"levelo://app?vid=d8487e45-114e-42b5-a329-629898c8c04e"},"vehicle_type_id":"4","last_reported":1715443745,"current_range_meters":20400,"station_id":"ce4bhbh2rcd13ifvqepg","pricing_plan_id":"cebpf4jnsgd1na2vs0mg"},{"bike_id":"fffa11e6-6a0f-48ec-b360-aff3b9cef812","system_id":"levelo_inurba_marseille","lat":43.28425,"lon":5.34988,"is_reserved":false,"is_disabled":false,"rental_uris":{"android":"levelo://app?vid=fffa11e6-6a0f-48ec-b360-aff3b9cef812","ios":"levelo://app?vid=fffa11e6-6a0f-48ec-b360-aff3b9cef812"},"vehicle_type_id":"4","last_reported":1715443745,"current_range_meters":20000,"station_id":"ce4bhbh2rcd13ifvqepg","pricing_plan_id":"cebpf4jnsgd1na2vs0mg"},{"bike_id":"e626e5b2-4e33-418c-8c66-61c0646d484f","system_id":"levelo_inurba_marseille","lat":43.284214,"lon":5.349706,"is_reserved":false,"is_disabled":false,"rental_uris":{"android":"levelo://app?vid=e626e5b2-4e33-418c-8c66-61c0646d484f","ios":"levelo://app?vid=e626e5b2-4e33-418c-8c66-61c0646d484f"},"vehicle_type_id":"4","last_reported":1715443745,"current_range_meters":20800,"station_id":"ce4bhbh2rcd13ifvqepg","pricing_plan_id":"cebpf4jnsgd1na2vs0mg"},{"bike_id":"8663e950-bc9e-460e-b0b4-c81bd63c8fea","system_id":"levelo_inurba_marseille","lat":43.284219,"lon":5.3497,"is_reserved":false,"is_disabled":false,"rental_uris":{"android":"levelo://app?vid=8663e950-bc9e-460e-b0b4-c81bd63c8fea","ios":"levelo://app?vid=8663e950-bc9e-460e-b0b4-c81bd63c8fea"},"vehicle_type_id":"4","last_reported":1715443745,"current_range_meters":26000,"station_id":"ce4bhbh2rcd13ifvqepg","pricing_plan_id":"cebpf4jnsgd1na2vs0mg"},{"bike_id":"c883a063-2cb3-4630-a9c3-568ce4ea9f56","system_id":"levelo_inurba_marseille","lat":43.28424,"lon":5.34989,"is_reserved":false,"is_disabled":false,"rental_uris":{"android":"levelo://app?vid=c883a063-2cb3-4630-a9c3-568ce4ea9f56","ios":"levelo://app?vid=c883a063-2cb3-4630-a9c3-568ce4ea9f56"},"vehicle_type_id":"4","last_reported":1715443745,"current_range_meters":20400,"station_id":"ce4bhbh2rcd13ifvqepg","pricing_plan_id":"cebpf4jnsgd1na2vs0mg"},{"bike_id":"53f5f263-1053-40b9-8a75-6ff57ad53678","system_id":"levelo_inurba_marseille","lat":43.28426,"lon":5.34982,"is_reserved":false,"is_disabled":false,"rental_uris":{"android":"levelo://app?vid=53f5f263-1053-40b9-8a75-6ff57ad53678","ios":"levelo://app?vid=53f5f263-1053-40b9-8a75-6ff57ad53678"},"vehicle_type_id":"4","last_reported":1715443745,"current_range_meters":10400,"station_id":"ce4bhbh2rcd13ifvqepg","pricing_plan_id":"cebpf4jnsgd1na2vs0mg"},{"bike_id":"da7e215d-ec72-4156-85b4-11eae1bdeac3","system_id":"levelo_inurba_marseille","lat":43.28423,"lon":5.34991,"is_reserved":false,"is_disabled":false,"rental_uris":{"android":"levelo://app?vid=da7e215d-ec72-4156-85b4-11eae1bdeac3","ios":"levelo://app?vid=da7e215d-ec72-4156-85b4-11eae1bdeac3"},"vehicle_type_id":"4","last_reported":1715443745,"current_range_meters":25600,"station_id":"ce4bhbh2rcd13ifvqepg","pricing_plan_id":"cebpf4jnsgd1na2vs0mg"},{"bike_id":"6b141c6b-3997-44d7-846f-b9bc128b22f4","system_id":"levelo_inurba_marseille","lat":43.28426,"lon":5.34977,"is_reserved":false,"is_disabled":false,"rental_uris":{"android":"levelo://app?vid=6b141c6b-3997-44d7-846f-b9bc128b22f4","ios":"levelo://app?vid=6b141c6b-3997-44d7-846f-b9bc128b22f4"},"vehicle_type_id":"4","last_reported":1715443745,"current_range_meters":22000,"station_id":"ce4bhbh2rcd13ifvqepg","pricing_plan_id":"cebpf4jnsgd1na2vs0mg"},{"bike_id":"0b206d2a-5484-4143-8575-fa5665c97378","system_id":"levelo_inurba_marseille","lat":43.28423,"lon":5.34986,"is_reserved":false,"is_disabled":false,"rental_uris":{"android":"levelo://app?vid=0b206d2a-5484-4143-8575-fa5665c97378","ios":"levelo://app?vid=0b206d2a-5484-4143-8575-fa5665c97378"},"vehicle_type_id":"4","last_reported":1715443745,"current_range_meters":16000,"station_id":"ce4bhbh2rcd13ifvqepg","pricing_plan_id":"cebpf4jnsgd1na2vs0mg"},{"bike_id":"2284530e-40f3-4ad0-a218-eed7a1e64d3b","system_id":"levelo_inurba_marseille","lat":43.28422,"lon":5.34988,"is_reserved":false,"is_disabled":false,"rental_uris":{"android":"levelo://app?vid=2284530e-40f3-4ad0-a218-eed7a1e64d3b","ios":"levelo://app?vid=2284530e-40f3-4ad0-a218-eed7a1e64d3b"},"vehicle_type_id":"4","last_reported":1715443745,"current_range_meters":13600,"station_id":"ce4bhbh2rcd13ifvqepg","pricing_plan_id":"cebpf4jnsgd1na2vs0mg"},{"bike_id":"c940c6ec-e2ad-4a78-a14c-30b702e674ca","system_id":"levelo_inurba_marseille","lat":43.28423,"lon":5.34983,"is_reserved":false,"is_disabled":false,"rental_uris":{"android":"levelo://app?vid=c940c6ec-e2ad-4a78-a14c-30b702e674ca","ios":"levelo://app?vid=c940c6ec-e2ad-4a78-a14c-30b702e674ca"},"vehicle_type_id":"4","last_reported":1715443745,"current_range_meters":19200,"station_id":"ce4bhbh2rcd13ifvqepg","pricing_plan_id":"cebpf4jnsgd1na2vs0mg"},{"bike_id":"53240369-0ae6-44f8-b484-87b52a0f3aa4","system_id":"levelo_inurba_marseille","lat":43.2842,"lon":5.34992,"is_reserved":false,"is_disabled":false,"rental_uris":{"android":"levelo://app?vid=53240369-0ae6-44f8-b484-87b52a0f3aa4","ios":"levelo://app?vid=53240369-0ae6-44f8-b484-87b52a0f3aa4"},"vehicle_type_id":"4","last_reported":1715443745,"current_range_meters":25200,"station_id":"","pricing_plan_id":"cebpf4jnsgd1na2vs0mg"},{"bike_id":"fa0aa8ff-7b8e-421a-bf1e-e19e52543cbe","system_id":"levelo_inurba_marseille","lat":43.284201,"lon":5.34988,"is_reserved":false,"is_disabled":false,"rental_uris":{"android":"levelo://app?vid=fa0aa8ff-7b8e-421a-bf1e-e19e52543cbe","ios":"levelo://app?vid=fa0aa8ff-7b8e-421a-bf1e-e19e52543cbe"},"vehicle_type_id":"4","last_reported":1715443745,"current_range_meters":19600,"station_id":"ce4bhbh2rcd13ifvqepg","pricing_plan_id":"cebpf4jnsgd1na2vs0mg"},{"bike_id":"465fb229-37db-441b-b945-16711e9c8cf8","system_id":"levelo_inurba_marseille","lat":43.325383,"lon":5.406025,"is_reserved":false,"is_disabled":false,"rental_uris":{"android":"levelo://app?vid=465fb229-37db-441b-b945-16711e9c8cf8","ios":"levelo://app?vid=465fb229-37db-441b-b945-16711e9c8cf8"},"vehicle_type_id":"4","last_reported":1715443745,"current_range_meters":23200,"station_id":"","pricing_plan_id":"cebpf4jnsgd1na2vs0mg"},{"bike_id":"7a055989-6d6a-401f-a238-6000ccc581af","system_id":"levelo_inurba_marseille","lat":43.284219,"lon":5.3497,"is_reserved":false,"is_disabled":false,"rental_uris":{"android":"levelo://app?vid=7a055989-6d6a-401f-a238-6000ccc581af","ios":"levelo://app?vid=7a055989-6d6a-401f-a238-6000ccc581af"},"vehicle_type_id":"4","last_reported":1715443745,"current_range_meters":27200,"station_id":"ce4bhbh2rcd13ifvqepg","pricing_plan_id":"cebpf4jnsgd1na2vs0mg"},{"bike_id":"bb7150bf-cc32-4c86-8360-3090f1ddb6d6","system_id":"levelo_inurba_marseille","lat":43.28423,"lon":5.34972,"is_reserved":false,"is_disabled":false,"rental_uris":{"android":"levelo://app?vid=bb7150bf-cc32-4c86-8360-3090f1ddb6d6","ios":"levelo://app?vid=bb7150bf-cc32-4c86-8360-3090f1ddb6d6"},"vehicle_type_id":"4","last_reported":1715443745,"current_range_meters":14000,"station_id":"ce4bhbh2rcd13ifvqepg","pricing_plan_id":"cebpf4jnsgd1na2vs0mg"},{"bike_id":"61e48335-6340-4b19-9967-fb3c5c111f85","system_id":"levelo_inurba_marseille","lat":43.28421,"lon":5.34977,"is_reserved":false,"is_disabled":false,"rental_uris":{"android":"levelo://app?vid=61e48335-6340-4b19-9967-fb3c5c111f85","ios":"levelo://app?vid=61e48335-6340-4b19-9967-fb3c5c111f85"},"vehicle_type_id":"4","last_reported":1715443745,"current_range_meters":20400,"station_id":"ce4bhbh2rcd13ifvqepg","pricing_plan_id":"cebpf4jnsgd1na2vs0mg"},{"bike_id":"0435c97c-bbe2-4cb6-af41-e3facca2bfb6","system_id":"levelo_inurba_marseille","lat":43.28421,"lon":5.34974,"is_reserved":false,"is_disabled":false,"rental_uris":{"android":"levelo://app?vid=0435c97c-bbe2-4cb6-af41-e3facca2bfb6","ios":"levelo://app?vid=0435c97c-bbe2-4cb6-af41-e3facca2bfb6"},"vehicle_type_id":"4","last_reported":1715443745,"current_range_meters":6000,"station_id":"ce4bhbh2rcd13ifvqepg","pricing_plan_id":"cebpf4jnsgd1na2vs0mg"},{"bike_id":"fb21e6aa-7ace-41af-bdf7-25de0a05b7bf","system_id":"levelo_inurba_marseille","lat":43.28418,"lon":5.3498,"is_reserved":false,"is_disabled":false,"rental_uris":{"android":"levelo://app?vid=fb21e6aa-7ace-41af-bdf7-25de0a05b7bf","ios":"levelo://app?vid=fb21e6aa-7ace-41af-bdf7-25de0a05b7bf"},"vehicle_type_id":"4","last_reported":1715443745,"current_range_meters":22000,"station_id":"","pricing_plan_id":"cebpf4jnsgd1na2vs0mg"},{"bike_id":"aafeb596-4fbb-4a35-acb6-70aa4d3b1713","system_id":"levelo_inurba_marseille","lat":43.28418,"lon":5.3498,"is_reserved":false,"is_disabled":false,"rental_uris":{"android":"levelo://app?vid=aafeb596-4fbb-4a35-acb6-70aa4d3b1713","ios":"levelo://app?vid=aafeb596-4fbb-4a35-acb6-70aa4d3b1713"},"vehicle_type_id":"4","last_reported":1715443745,"current_range_meters":22400,"station_id":"ce4bhbh2rcd13ifvqepg","pricing_plan_id":"cebpf4jnsgd1na2vs0mg"},