{"last_updated":1679753139,"ttl":30,"version":"2.2","data":{"bikes":[{"bike_id":"85f91c41-a7ec-49bf-8448-2d0e7b67b2cf","system_id":"levelo_inurba_marseille","lat":43.312239,"lon":5.368562,"is_reserved":false,"is_disabled":false,"rental_uris":{"android":"levelo://app?vid=85f91c41-a7ec-49bf-8448-2d0e7b67b2cf","ios":"levelo://app?vid=85f91c41-a7ec-49bf-8448-2d0e7b67b2cf"},"vehicle_type_id":"4","last_reported":1679753140,"current_range_meters":30800,"station_id":"ce4bgl92rcd13ifvqbq0","pricing_plan_id":"free"},{"bike_id":"b7205ff4-2d8d-4fa7-a876-5ea2fe9c9f41","system_id":"levelo_inurba_marseille","lat":43.31338,"lon":5.370317,"is_reserved":false,"is_disabled":false,"rental_uris":{"android":"levelo://app?vid=b7205ff4-2d8d-4fa7-a876-5ea2fe9c9f41","ios":"levelo://app?vid=b7205ff4-2d8d-4fa7-a876-5ea2fe9c9f41"},"vehicle_type_id":"4","last_reported":1679753140,"current_range_meters":0,"station_id":"","pricing_plan_id":"free"},{"bike_id":"6bf47ec2-8cc8-4a51-944a-36d5fe2a423c","system_id":"levelo_inurba_marseille","lat":43.309076,"lon":5.368465,"is_reserved":false,"is_disabled":false,"rental_uris":{"android":"levelo://app?vid=6bf47ec2-8cc8-4a51-944a-36d5fe2a423c","ios":"levelo://app?vid=6bf47ec2-8cc8-4a51-944a-36d5fe2a423c"},"vehicle_type_id":"4","last_reported":1679753140,"current_range_meters":12000,"station_id":"ce4bgn92rcd13ifvqbvg","pricing_plan_id":"free"},{"bike_id":"cbc11c51-c0fc-4863-87d6-1f21f93f949f","system_id":"levelo_inurba_marseille","lat":43.30883,"lon":5.37238,"is_reserved":false,"is_disabled":false,"rental_uris":{"android":"levelo://app?vid=cbc11c51-c0fc-4863-87d6-1f21f93f949f","ios":"levelo://app?vid=cbc11c51-c0fc-4863-87d6-1f21f93f949f"},"vehicle_type_id":"4","last_reported":1679753140,"current_range_meters":2000,"station_id":"ce4bguh2rcd13ifvqckg","pricing_plan_id":"free"},{"bike_id":"0421b0ed-d1cd-4639-842e-c5aa97f33848","system_id":"levelo_inurba_marseille","lat":43.306163,"lon":5.36699,"is_reserved":false,"is_disabled":false,"rental_uris":{"android":"levelo://app?vid=0421b0ed-d1cd-4639-842e-c5aa97f33848","ios":"levelo://app?vid=0421b0ed-d1cd-4639-842e-c5aa97f33848"},"vehicle_type_id":"4","last_reported":1679753140,"current_range_meters":28000,"station_id":"ce4bgrp2rcd13ifvqc9g","pricing_plan_id":"free"},{"bike_id":"7b0a71bc-cd3f-42ed-8021-a51b609349f8","system_id":"levelo_inurba_marseille","lat":43.306146,"lon":5.366948,"is_reserved":false,"is_disabled":false,"rental_uris":{"android":"levelo://app?vid=7b0a71bc-cd3f-42ed-8021-a51b609349f8","ios":"levelo://app?vid=7b0a71bc-cd3f-42ed-8021-a51b609349f8"},"vehicle_type_id":"4","last_reported":1679753140,"current_range_meters":16000,"station_id":"ce4bgrp2rcd13ifvqc9g","pricing_plan_id":"free"},{"bike_id":"219d074a-f9ce-4766-a828-b49759487f29","system_id":"levelo_inurba_marseille","lat":43.306113,"lon":5.367295,"is_reserved":false,"is_disabled":false,"rental_uris":{"android":"levelo://app?vid=219d074a-f9ce-4766-a828-b49759487f29","ios":"levelo://app?vid=219d074a-f9ce-4766-a828-b49759487f29"},"vehicle_type_id":"4","last_reported":1679753140,"current_range_meters":19600,"station_id":"ce4bgrp2rcd13ifvqc9g","pricing_plan_id":"free"},{"bike_id":"effa7187-78e5-4bd1-b88f-3d97f55942d6","system_id":"levelo_inurba_marseille","lat":43.306017,"lon":5.367267,"is_reserved":false,"is_disabled":false,"rental_uris":{"android":"levelo://app?vid=effa7187-78e5-4bd1-b88f-3d97f55942d6","ios":"levelo://app?vid=effa7187-78e5-4bd1-b88f-3d97f55942d6"},"vehicle_type_id":"4","last_reported":1679753140,"current_range_meters":18400,"station_id":"ce4bgrp2rcd13ifvqc9g","pricing_plan_id":"free"},{"bike_id":"4e593886-f76e-473d-ad39-24a02330813d","system_id":"levelo_inurba_marseille","lat":43.305703,"lon":5.367393,"is_reserved":false,"is_disabled":false,"rental_uris":{"android":"levelo://app?vid=4e593886-f76e-473d-ad39-24a02330813d","ios":"levelo://app?vid=4e593886-f76e-473d-ad39-24a02330813d"},"vehicle_type_id":"4","last_reported":1679753140,"current_range_meters":8800,"station_id":"","pricing_plan_id":"free"},{"bike_id":"353e1f8f-7a03-4bb5-b12c-a1c17dee0789","system_id":"levelo_inurba_marseille","lat":43.30187,"lon":5.36622,"is_reserved":false,"is_disabled":false,"rental_uris":{"android":"levelo://app?vid=353e1f8f-7a03-4bb5-b12c-a1c17dee0789","ios":"levelo://app?vid=353e1f8f-7a03-4bb5-b12c-a1c17dee0789"},"vehicle_type_id":"4","last_reported":1679753140,"current_range_meters":7200,"station_id":"","pricing_plan_id":"free"},{"bike_id":"d50c2525-c493-4259-95d1-aa50c9baf39d","system_id":"levelo_inurba_marseille","lat":43.301939,"lon":5.366286,"is_reserved":false,"is_disabled":false,"rental_uris":{"android":"levelo://app?vid=d50c2525-c493-4259-95d1-aa50c9baf39d","ios":"levelo://app?vid=d50c2525-c493-4259-95d1-aa50c9baf39d"},"vehicle_type_id":"4","last_reported":1679753140,"current_range_meters":14400,"station_id":"ce4bgrh2rcd13ifvqc8g","pricing_plan_id":"free"},{"bike_id":"c9948484-e408-4b60-8e9b-d3a47c95e1be","system_id":"levelo_inurba_marseille","lat":43.301939,"lon":5.366286,"is_reserved":false,"is_disabled":false,"rental_uris":{"android":"levelo://app?vid=c9948484-e408-4b60-8e9b-d3a47c95e1be","ios":"levelo://app?vid=c9948484-e408-4b60-8e9b-d3a47c95e1be"},"vehicle_type_id":"4","last_reported":1679753140,"current_range_meters":22400,"station_id":"ce4bgrh2rcd13ifvqc8g","pricing_plan_id":"free"},{"bike_id":"54a260d6-6254-49ad-be23-f2b5df2b61d5","system_id":"levelo_inurba_marseille","lat":43.304606,"lon":5.379026,"is_reserved":false,"is_disabled":false,"rental_uris":{"android":"levelo://app?vid=54a260d6-6254-49ad-be23-f2b5df2b61d5","ios":"levelo://app?vid=54a260d6-6254-49ad-be23-f2b5df2b61d5"},"vehicle_type_id":"4","last_reported":1679753140,"current_range_meters":16800,"station_id":"ce4bgup2rcd13ifvqcn0","pricing_plan_id":"free"},{"bike_id":"0c6c7356-614a-4370-9f8d-6514e060d05f","system_id":"levelo_inurba_marseille","lat":43.30147,"lon":5.37424,"is_reserved":false,"is_disabled":false,"rental_uris":{"android":"levelo://app?vid=0c6c7356-614a-4370-9f8d-6514e060d05f","ios":"levelo://app?vid=0c6c7356-614a-4370-9f8d-6514e060d05f"},"vehicle_type_id":"4","last_reported":1679753140,"current_range_meters":12400,"station_id":"ce4bgs92rcd13ifvqcc0","pricing_plan_id":"free"},{"bike_id":"051f8e9c-07c7-48ad-9098-7bfe476d2dc8","system_id":"levelo_inurba_marseille","lat":43.30143,"lon":5.3742,"is_reserved":false,"is_disabled":false,"rental_uris":{"android":"levelo://app?vid=051f8e9c-07c7-48ad-9098-7bfe476d2dc8","ios":"levelo://app?vid=051f8e9c-07c7-48ad-9098-7bfe476d2dc8"},"vehicle_type_id":"4","last_reported":1679753140,"current_range_meters":19200,"station_id":"","pricing_plan_id":"free"},{"bike_id":"85bb20ab-7a48-4974-9dc0-52ba455b7ddf","system_id":"levelo_inurba_marseille","lat":43.313571,"lon":5.384829,"is_reserved":false,"is_disabled":false,"rental_uris":{"android":"levelo://app?vid=85bb20ab-7a48-4974-9dc0-52ba455b7ddf","ios":"levelo://app?vid=85bb20ab-7a48-4974-9dc0-52ba455b7ddf"},"vehicle_type_id":"4","last_reported":1679753140,"current_range_meters":26800,"station_id":"ce4bgt92rcd13ifvqcf0","pricing_plan_id":"free"},{"bike_id":"9925acd3-e4ca-4887-9377-394a06bbf67f","system_id":"levelo_inurba_marseille","lat":43.298433,"lon":5.362774,"is_reserved":false,"is_disabled":false,"rental_uris":{"android":"levelo://app?vid=9925acd3-e4ca-4887-9377-394a06bbf67f","ios":"levelo://app?vid=9925acd3-e4ca-4887-9377-394a06bbf67f"},"vehicle_type_id":"4","last_reported":1679753140,"current_range_meters":30000,"station_id":"ce4bgpp2rcd13ifvqc3g","pricing_plan_id":"free"},{"bike_id":"ca53f247-0e1d-4919-b1d5-586c495edaca","system_id":"levelo_inurba_marseille","lat":43.296277,"lon":5.377108,"is_reserved":false,"is_disabled":false,"rental_uris":{"android":"levelo://app?vid=ca53f247-0e1d-4919-b1d5-586c495edaca","ios":"levelo://app?vid=ca53f247-0e1d-4919-b1d5-586c495edaca"},"vehicle_type_id":"4","last_reported":1679753140,"current_range_meters":800,"station_id":"ce4bgi92rcd13ifvqb90","pricing_plan_id":"free"},{"bike_id":"36e0dcc3-4d8a-46ff-86e5-3cccb8925af3","system_id":"levelo_inurba_marseille","lat":43.298433,"lon":5.362774,"is_reserved":false,"is_disabled":false,"rental_uris":{"android":"levelo://app?vid=36e0dcc3-4d8a-46ff-86e5-3cccb8925af3","ios":"levelo://app?vid=36e0dcc3-4d8a-46ff-86e5-3cccb8925af3"},"vehicle_type_id":"4","last_reported":1679753140,"current_range_meters":30800,"station_id":"ce4bgpp2rcd13ifvqc3g","pricing_plan_id":"free"},{"bike_id":"32186800-e761-437b-b67c-68853380ca5b","system_id":"levelo_inurba_marseille","lat":43.298433,"lon":5.362774,"is_reserved":false,"is_disabled":false,"rental_uris":{"android":"levelo://app?vid=32186800-e761-437b-b67c-68853380ca5b","ios":"levelo://app?vid=32186800-e761-437b-b67c-68853380ca5b"},"vehicle_type_id":"4","last_reported":1679753140,"current_range_meters":31600,"station_id":"ce4bgpp2rcd13ifvqc3g","pricing_plan_id":"free"},{"bike_id":"092c7484-d18c-4622-a8aa-abd1f0c85b82","system_id":"levelo_inurba_marseille","lat":43.298433,"lon":5.362774,"is_reserved":false,"is_disabled":false,"rental_uris":{"android":"levelo://app?vid=092c7484-d18c-4622-a8aa-abd1f0c85b82","ios":"levelo://app?vid=092c7484-d18c-4622-a8aa-abd1f0c85b82"},"vehicle_type_id":"4","last_reported":1679753140,"current_range_meters":31600,"station_id":"ce4bgpp2rcd13ifvqc3g","pricing_plan_id":"free"},{"bike_id":"e54f9d97-2851-4ce8-8b19-301a97ce5a73","system_id":"levelo_inurba_marseille","lat":43.298433,"lon":5.362774,"is_reserved":false,"is_disabled":false,"rental_uris":{"android":"levelo://app?vid=e54f9d97-2851-4ce8-8b19-301a97ce5a73","ios":"levelo://app?vid=e54f9d97-2851-4ce8-8b19-301a97ce5a73"},"vehicle_type_id":"4","last_reported":1679753140,"current_range_meters":16800,"station_id":"ce4bgpp2rcd13ifvqc3g","pricing_plan_id":"free"},{"bike_id":"7bf5083a-f77c-4d1d-93c1-9b6c710f82ea","system_id":"levelo_inurba_marseille","lat":43.298433,"lon":5.362774,"is_reserved":false,"is_disabled":false,"rental_uris":{"android":"levelo://app?vid=7bf5083a-f77c-4d1d-93c1-9b6c710f82ea","ios":"levelo://app?vid=7bf5083a-f77c-4d1d-93c1-9b6c710f82ea"},"vehicle_type_id":"4","last_reported":1679753140,"current_range_meters":2800,"station_id":"ce4bgpp2rcd13ifvqc3g","pricing_plan_id":"free"},{"bike_id":"88c224ab-1837-4a30-8d49-75f45810280e","system_id":"levelo_inurba_marseille","lat":43.305364,"lon":5.384119,"is_reserved":false,"is_disabled":false,"rental_uris":{"android":"levelo://app?vid=88c224ab-1837-4a30-8d49-75f45810280e","ios":"levelo://app?vid=88c224ab-1837-4a30-8d49-75f45810280e"},"vehicle_type_id":"4","last_reported":1679753140,"current_range_meters":0,"station_id":"ce4bgg92rcd13ifvqb30","pricing_plan_id":"free"},{"bike_id":"360fc1d5-3ab1-4cae-8c73-43eeedf726fe","system_id":"levelo_inurba_marseille","lat":43.303037,"lon":5.381973,"is_reserved":false,"is_disabled":false,"rental_uris":{"android":"levelo://app?vid=360fc1d5-3ab1-4cae-8c73-43eeedf726fe","ios":"levelo://app?vid=360fc1d5-3ab1-4cae-8c73-43eeedf726fe"},"vehicle_type_id":"4","last_reported":1679753140,"current_range_meters":15600,"station_id":"","pricing_plan_id":"free"},{"bike_id":"08ca4e70-0b70-4c51-a98e-3fad84742844","system_id":"levelo_inurba_marseille","lat":43.298433,"lon":5.362774,"is_reserved":false,"is_disabled":false,"rental_uris":{"android":"levelo://app?vid=08ca4e70-0b70-4c51-a98e-3fad84742844","ios":"levelo://app?vid=08ca4e70-0b70-4c51-a98e-3fad84742844"},"vehicle_type_id":"4","last_reported":1679753140,"current_range_meters":13200,"station_id":"ce4bgpp2rcd13ifvqc3g","pricing_plan_id":"free"},{"bike_id":"171a9260-4c80-4ec0-be11-bd0d3cdef585","system_id":"levelo_inurba_marseille","lat":43.29913,"lon":5.37478,"is_reserved":false,"is_disabled":false,"rental_uris":{"android":"levelo://app?vid=171a9260-4c80-4ec0-be11-bd0d3cdef585","ios":"levelo://app?vid=171a9260-4c80-4ec0-be11-bd0d3cdef585"},"vehicle_type_id":"4","last_reported":1679753140,"current_range_meters":0,"station_id":"","pricing_plan_id":"free"},{"bike_id":"e1b20e51-9dc1-461d-a20f-0c6e2db6f83a","system_id":"levelo_inurba_marseille","lat":43.311722,"lon":5.387247,"is_reserved":false,"is_disabled":false,"rental_uris":{"android":"levelo://app?vid=e1b20e51-9dc1-461d-a20f-0c6e2db6f83a","ios":"levelo://app?vid=e1b20e51-9dc1-461d-a20f-0c6e2db6f83a"},"vehicle_type_id":"4","last_reported":1679753140,"current_range_meters":28000,"station_id":"ce4bgv12rcd13ifvqcp0","pricing_plan_id":"free"},{"bike_id":"e9cee5f3-03c7-454b-994d-62d0102c4965","system_id":"levelo_inurba_marseille","lat":43.300315,"lon":5.382228,"is_reserved":false,"is_disabled":false,"rental_uris":{"android":"levelo://app?vid=e9cee5f3-03c7-454b-994d-62d0102c4965","ios":"levelo://app?vid=e9cee5f3-03c7-454b-994d-62d0102c4965"},"vehicle_type_id":"4","last_reported":1679753140,"current_range_meters":0,"station_id":"","pricing_plan_id":"free"},{"bike_id":"b6bfd391-4aab-4892-af3b-7b5a7556e29e","system_id":"levelo_inurba_marseille","lat":43.296131,"lon":5.370791,"is_reserved":false,"is_disabled":false,"rental_uris":{"android":"levelo://app?vid=b6bfd391-4aab-4892-af3b-7b5a7556e29e","ios":"levelo://app?vid=b6bfd391-4aab-4892-af3b-7b5a7556e29e"},"vehicle_type_id":"4","last_reported":1679753140,"current_range_meters":30800,"station_id":"ce4bgnh2rcd13ifvqc0g","pricing_plan_id":"free"},{"bike_id":"4f6fe1be-55c8-478e-a548-7cc1ceee2e2c","system_id":"levelo_inurba_marseille","lat":43.296921,"lon":5.376579,"is_reserved":false,"is_disabled":false,"rental_uris":{"android":"levelo://app?vid=4f6fe1be-55c8-478e-a548-7cc1ceee2e2c","ios":"levelo://app?vid=4f6fe1be-55c8-478e-a548-7cc1ceee2e2c"},"vehicle_type_id":"4","last_reported":1679753140,"current_range_meters":22000,"station_id":"ce4bgkh2rcd13ifvqbl0","pricing_plan_id":"free"},{"bike_id":"7e34457c-53e1-48e5-8875-720a906d5a8e","system_id":"levelo_inurba_marseille","lat":43.295748,"lon":5.37522,"is_reserved":false,"is_disabled":false,"rental_uris":{"android":"levelo://app?vid=7e34457c-53e1-48e5-8875-720a906d5a8e","ios":"levelo://app?vid=7e34457c-53e1-48e5-8875-720a906d5a8e"},"vehicle_type_id":"4","last_reported":1679753140,"current_range_meters":0,"station_id":"ce4bgh92rcd13ifvqb50","pricing_plan_id":"free"},{"bike_id":"fa7417b2-a500-4c61-b9aa-81d6dde7bc59","system_id":"levelo_inurba_marseille","lat":43.295748,"lon":5.37522,"is_reserved":false,"is_disabled":false,"rental_uris":{"android":"levelo://app?vid=fa7417b2-a500-4c61-b9aa-81d6dde7bc59","ios":"levelo://app?vid=fa7417b2-a500-4c61-b9aa-81d6dde7bc59"},"vehicle_type_id":"4","last_reported":1679753140,"current_range_meters":6000,"station_id":"ce4bgh92rcd13ifvqb50","pricing_plan_id":"free"},{"bike_id":"1b0dfe32-011a-4a49-a27e-32d40ffeabd7","system_id":"levelo_inurba_marseille","lat":43.296277,"lon":5.377108,"is_reserved":false,"is_disabled":false,"rental_uris":{"android":"levelo://app?vid=1b0dfe32-011a-4a49-a27e-32d40ffeabd7","ios":"levelo://app?vid=1b0dfe32-011a-4a49-a27e-32d40ffeabd7"},"vehicle_type_id":"4","last_reported":1679753140,"current_range_meters":1200,"station_id":"ce4bgi92rcd13ifvqb90","pricing_plan_id":"free"},{"bike_id":"38cc7214-f7c7-4a16-9365-98c0b87dda48","system_id":"levelo_inurba_marseille","lat":43.296263,"lon":5.377094,"is_reserved":false,"is_disabled":false,"rental_uris":{"android":"levelo://app?vid=38cc7214-f7c7-4a16-9365-98c0b87dda48","ios":"levelo://app?vid=38cc7214-f7c7-4a16-9365-98c0b87dda48"},"vehicle_type_id":"4","last_reported":1679753140,"current_range_meters":1600,"station_id":"ce4bgi92rcd13ifvqb90","pricing_plan_id":"free"},{"bike_id":"0e89a1ab-3259-4f86-9dfb-06414c3e99e3","system_id":"levelo_inurba_marseille","lat":43.296263,"lon":5.377094,"is_reserved":false,"is_disabled":false,"rental_uris":{"android":"levelo://app?vid=0e89a1ab-3259-4f86-9dfb-06414c3e99e3","ios":"levelo://app?vid=0e89a1ab-3259-4f86-9dfb-06414c3e99e3"},"vehicle_type_id":"4","last_reported":1679753140,"current_range_meters":25200,"station_id":"ce4bgi92rcd13ifvqb90","pricing_plan_id":"free"},{"bike_id":"b58d2bec-d39d-4be4-b419-fc7eb31e7dc8","system_id":"levelo_inurba_marseille","lat":43.297399,"lon":5.380693,"is_reserved":false,"is_disabled":false,"rental_uris":{"android":"levelo://app?vid=b58d2bec-d39d-4be4-b419-fc7eb31e7dc8","ios":"levelo://app?vid=b58d2bec-d39d-4be4-b419-fc7eb31e7dc8"},"vehicle_type_id":"4","last_reported":1679753140,"current_range_meters":0,"station_id":"","pricing_plan_id":"free"},{"bike_id":"069945e5-02a7-46e0-aa59-8c0f19d5569b","system_id":"levelo_inurba_marseille","lat":43.295279,"lon":5.375048,"is_reserved":false,"is_disabled":false,"rental_uris":{"android":"levelo://app?vid=069945e5-02a7-46e0-aa59-8c0f19d5569b","ios":"levelo://app?vid=069945e5-02a7-46e0-aa59-8c0f19d5569b"},"vehicle_type_id":"4","last_reported":1679753140,"current_range_meters":17200,"station_id":"ce4bgkp2rcd13ifvqbmg","pricing_plan_id":"free"},{"bike_id":"e68c5ff0-1aac-412f-a6ad-5276fa2bff4f","system_id":"levelo_inurba_marseille","lat":43.295279,"lon":5.375048,"is_reserved":false,"is_disabled":false,"rental_uris":{"android":"levelo://app?vid=e68c5ff0-1aac-412f-a6ad-5276fa2bff4f","ios":"levelo://app?vid=e68c5ff0-1aac-412f-a6ad-5276fa2bff4f"},"vehicle_type_id":"4","last_reported":1679753140,"current_range_meters":16000,"station_id":"ce4bgkp2rcd13ifvqbmg","pricing_plan_id":"free"},{"bike_id":"251aead9-eb4d-44ec-9b97-1f3ce420b0b8","system_id":"levelo_inurba_marseille","lat":43.295279,"lon":5.375048,"is_reserved":false,"is_disabled":false,"rental_uris":{"android":"levelo://app?vid=251aead9-eb4d-44ec-9b97-1f3ce420b0b8","ios":"levelo://app?vid=251aead9-eb4d-44ec-9b97-1f3ce420b0b8"},"vehicle_type_id":"4","last_reported":1679753140,"current_range_meters":20800,"station_id":"ce4bgkp2rcd13ifvqbmg","pricing_plan_id":"free"},{"bike_id":"f8daf18d-68ee-4c52-8a1a-5fefc4f8a9c5","system_id":"levelo_inurba_marseille","lat":43.299666,"lon":5.384997,"is_reserved":false,"is_disabled":false,"rental_uris":{"android":"levelo://app?vid=f8daf18d-68ee-4c52-8a1a-5fefc4f8a9c5","ios":"levelo://app?vid=f8daf18d-68ee-4c52-8a1a-5fefc4f8a9c5"},"vehicle_type_id":"4","last_reported":1679753140,"current_range_meters":0,"station_id":"","pricing_plan_id":"free"},{"bike_id":"ee762317-92c7-422b-bbc3-6c43d23ecf41","system_id":"levelo_inurba_marseille","lat":43.32365,"lon":5.388835,"is_reserved":false,"is_disabled":false,"rental_uris":{"android":"levelo://app?vid=ee762317-92c7-422b-bbc3-6c43d23ecf41","ios":"levelo://app?vid=ee762317-92c7-422b-bbc3-6c43d23ecf41"},"vehicle_type_id":"4","last_reported":1679753140,"current_range_meters":10000,"station_id":"ce4bhqp2rcd13ifvqhog","pricing_plan_id":"free"},{"bike_id":"fa42bd31-6470-4880-89d2-14507fdafb07","system_id":"levelo_inurba_marseille","lat":43.323667,"lon":5.388838,"is_reserved":false,"is_disabled":false,"rental_uris":{"android":"levelo://app?vid=fa42bd31-6470-4880-89d2-14507fdafb07","ios":"levelo://app?vid=fa42bd31-6470-4880-89d2-14507fdafb07"},"vehicle_type_id":"4","last_reported":1679753140,"current_range_meters":20400,"station_id":"ce4bhqp2rcd13ifvqhog","pricing_plan_id":"free"},{"bike_id":"34adb3e6-5050-43f6-8a5d-038f2139d8d2","system_id":"levelo_inurba_marseille","lat":43.323738,"lon":5.389218,"is_reserved":false,"is_disabled":false,"rental_uris":{"android":"levelo://app?vid=34adb3e6-5050-43f6-8a5d-038f2139d8d2","ios":"levelo://app?vid=34adb3e6-5050-43f6-8a5d-038f2139d8d2"},"vehicle_type_id":"4","last_reported":1679753140,"current_range_meters":23600,"station_id":"ce4bhqp2rcd13ifvqhog","pricing_plan_id":"free"},{"bike_id":"6c055cec-e5af-45f0-929d-b59cb3173972","system_id":"levelo_inurba_marseille","lat":43.292705,"lon":5.359765,"is_reserved":false,"is_disabled":false,"rental_uris":{"android":"levelo://app?vid=6c055cec-e5af-45f0-929d-b59cb3173972","ios":"levelo://app?vid=6c055cec-e5af-45f0-929d-b59cb3173972"},"vehicle_type_id":"4","last_reported":1679753140,"current_range_meters":14800,"station_id":"","pricing_plan_id":"free"},{"bike_id":"c415f18c-2add-456e-87eb-c2d8c715e5dc","system_id":"levelo_inurba_marseille","lat":43.2936,"lon":5.37835,"is_reserved":false,"is_disabled":false,"rental_uris":{"android":"levelo://app?vid=c415f18c-2add-456e-87eb-c2d8c715e5dc","ios":"levelo://app?vid=c415f18c-2add-456e-87eb-c2d8c715e5dc"},"vehicle_type_id":"4","last_reported":1679753140,"current_range_meters":1600,"station_id":"ce4bgjh2rcd13ifvqbf0","pricing_plan_id":"free"},{"bike_id":"1bc32851-a565-4b6f-aae4-8703fbbcc489","system_id":"levelo_inurba_marseille","lat":43.2936,"lon":5.37835,"is_reserved":false,"is_disabled":false,"rental_uris":{"android":"levelo://app?vid=1bc32851-a565-4b6f-aae4-8703fbbcc489","ios":"levelo://app?vid=1bc32851-a565-4b6f-aae4-8703fbbcc489"},"vehicle_type_id":"4","last_reported":1679753140,"current_range_meters":17200,"station_id":"ce4bgjh2rcd13ifvqbf0","pricing_plan_id":"free"},{"bike_id":"593c44c4-8677-4da6-bdac-05d034160685","system_id":"levelo_inurba_marseille","lat":43.29228,"lon":5.36068,"is_reserved":false,"is_disabled":false,"rental_uris":{"android":"levelo://app?vid=593c44c4-8677-4da6-bdac-05d034160685","ios":"levelo://app?vid=593c44c4-8677-4da6-bdac-05d034160685"},"vehicle_type_id":"4","last_reported":1679753140,"current_range_meters":13200,"station_id":"ce4bhbh2rcd13ifvqeqg","pricing_plan_id":"free"},{"bike_id":"18eab659-18de-4ee0-a35b-9019a3ddbbca","system_id":"levelo_inurba_marseille","lat":43.29226,"lon":5.36056,"is_reserved":false,"is_disabled":false,"rental_uris":{"android":"levelo://app?vid=18eab659-18de-4ee0-a35b-9019a3ddbbca","ios":"levelo://app?vid=18eab659-18de-4ee0-a35b-9019a3ddbbca"},"vehicle_type_id":"4","last_reported":1679753140,"current_range_meters":6000,"station_id":"ce4bhbh2rcd13ifvqeqg","pricing_plan_id":"free"},{"bike_id":"1ea00629-90ef-4fc2-a139-b6e2a3c8098f","system_id":"levelo_inurba_marseille","lat":43.292311,"lon":5.360731,"is_reserved":false,"is_disabled":false,"rental_uris":{"android":"levelo://app?vid=1ea00629-90ef-4fc2-a139-b6e2a3c8098f","ios":"levelo://app?vid=1ea00629-90ef-4fc2-a139-b6e2a3c8098f"},"vehicle_type_id":"4","last_reported":1679753140,"current_range_meters":400,"station_id":"ce4bhbh2rcd13ifvqeqg","pricing_plan_id":"free"},{"bike_id":"a983ccb9-e2dc-40b9-bd65-580700092509","system_id":"levelo_inurba_marseille","lat":43.292663,"lon":5.376394,"is_reserved":false,"is_disabled":false,"rental_uris":{"android":"levelo://app?vid=a983ccb9-e2dc-40b9-bd65-580700092509","ios":"levelo://app?vid=a983ccb9-e2dc-40b9-bd65-580700092509"},"vehicle_type_id":"4","last_reported":1679753140,"current_range_meters":11200,"station_id":"ce4bgi12rcd13ifvqb80","pricing_plan_id":"free"},{"bike_id":"1907f4ef-ccbf-44f9-b608-b2a60b6709f4","system_id":"levelo_inurba_marseille","lat":43.292663,"lon":5.376394,"is_reserved":false,"is_disabled":false,"rental_uris":{"android":"levelo://app?vid=1907f4ef-ccbf-44f9-b608-b2a60b6709f4","ios":"levelo://app?vid=1907f4ef-ccbf-44f9-b608-b2a60b6709f4"},"vehicle_type_id":"4","last_reported":1679753140,"current_range_meters":23200,"station_id":"ce4bgi12rcd13ifvqb80","pricing_plan_id":"free"},{"bike_id":"f3aa00e8-8722-410d-85ae-2436dd642bc8","system_id":"levelo_inurba_marseille","lat":43.292663,"lon":5.376394,"is_reserved":false,"is_disabled":false,"rental_uris":{"android":"levelo://app?vid=f3aa00e8-8722-410d-85ae-2436dd642bc8","ios":"levelo://app?vid=f3aa00e8-8722-410d-85ae-2436dd642bc8"},"vehicle_type_id":"4","last_reported":1679753140,"current_range_meters":10000,"station_id":"ce4bgi12rcd13ifvqb80","pricing_plan_id":"free"},{"bike_id":"00aa489b-b008-4610-a17f-8949ca0ded42","system_id":"levelo_inurba_marseille","lat":43.313287,"lon":5.396936,"is_reserved":false,"is_disabled":false,"rental_uris":{"android":"levelo://app?vid=00aa489b-b008-4610-a17f-8949ca0ded42","ios":"levelo://app?vid=00aa489b-b008-4610-a17f-8949ca0ded42"},"vehicle_type_id":"4","last_reported":1679753140,"current_range_meters":0,"station_id":"","pricing_plan_id":"free"},{"bike_id":"b9cc5140-304d-4785-b532-f7a01c2f73d4","system_id":"levelo_inurba_marseille","lat":43.29529,"lon":5.385581,"is_reserved":false,"is_disabled":false,"rental_uris":{"android":"levelo://app?vid=b9cc5140-304d-4785-b532-f7a01c2f73d4","ios":"levelo://app?vid=b9cc5140-304d-4785-b532-f7a01c2f73d4"},"vehicle_type_id":"4","last_reported":1679753140,"current_range_meters":22000,"station_id":"ce4bgih2rcd13ifvqba0","pricing_plan_id":"free"},{"bike_id":"5b6055e4-cb73-45d4-91b3-733c6dbad35c","system_id":"levelo_inurba_marseille","lat":43.290779,"lon":5.371482,"is_reserved":false,"is_disabled":false,"rental_uris":{"android":"levelo://app?vid=5b6055e4-cb73-45d4-91b3-733c6dbad35c","ios":"levelo://app?vid=5b6055e4-cb73-45d4-91b3-733c6dbad35c"},"vehicle_type_id":"4","last_reported":1679753140,"current_range_meters":7600,"station_id":"ce4bh5p2rcd13ifvqe4g","pricing_plan_id":"free"},{"bike_id":"3aa73565-5d1f-4781-85e5-03482be811d4","system_id":"levelo_inurba_marseille","lat":43.290635,"lon":5.371695,"is_reserved":false,"is_disabled":false,"rental_uris":{"android":"levelo://app?vid=3aa73565-5d1f-4781-85e5-03482be811d4","ios":"levelo://app?vid=3aa73565-5d1f-4781-85e5-03482be811d4"},"vehicle_type_id":"4","last_reported":1679753140,"current_range_meters":6800,"station_id":"","pricing_plan_id":"free"},{"bike_id":"6724a950-1f72-4573-8cab-a0c1ed99b737","system_id":"levelo_inurba_marseille","lat":43.294153,"lon":5.386305,"is_reserved":false,"is_disabled":false,"rental_uris":{"android":"levelo://app?vid=6724a950-1f72-4573-8cab-a0c1ed99b737","ios":"levelo://app?vid=6724a950-1f72-4573-8cab-a0c1ed99b737"},"vehicle_type_id":"4","last_reported":1679753140,"current_range_meters":14000,"station_id":"ce4bh2h2rcd13ifvqdh0","pricing_plan_id":"free"},{"bike_id":"8a1d1d84-5ceb-4ed2-976c-4adee583c8e8","system_id":"levelo_inurba_marseille","lat":43.294153,"lon":5.386305,"is_reserved":false,"is_disabled":false,"rental_uris":{"android":"levelo://app?vid=8a1d1d84-5ceb-4ed2-976c-4adee583c8e8","ios":"levelo://app?vid=8a1d1d84-5ceb-4ed2-976c-4adee583c8e8"},"vehicle_type_id":"4","last_reported":1679753140,"current_range_meters":2800,"station_id":"ce4bh2h2rcd13ifvqdh0","pricing_plan_id":"free"},{"bike_id":"10a20c82-2d04-45fa-8995-a8e47cb9556b","system_id":"levelo_inurba_marseille","lat":43.294153,"lon":5.386305,"is_reserved":false,"is_disabled":false,"rental_uris":{"android":"levelo://app?vid=10a20c82-2d04-45fa-8995-a8e47cb9556b","ios":"levelo://app?vid=10a20c82-2d04-45fa-8995-a8e47cb9556b"},"vehicle_type_id":"4","last_reported":1679753140,"current_range_meters":21600,"station_id":"ce4bh2h2rcd13ifvqdh0","pricing_plan_id":"free"},{"bike_id":"718662a7-3d62-4e10-8612-8fcd3340d164","system_id":"levelo_inurba_marseille","lat":43.289184,"lon":5.366408,"is_reserved":false,"is_disabled":false,"rental_uris":{"android":"levelo://app?vid=718662a7-3d62-4e10-8612-8fcd3340d164","ios":"levelo://app?vid=718662a7-3d62-4e10-8612-8fcd3340d164"},"vehicle_type_id":"4","last_reported":1679753140,"current_range_meters":8800,"station_id":"ce4bhap2rcd13ifvqek0","pricing_plan_id":"free"},{"bike_id":"52e28d2b-4aba-4840-b49a-81be7f02dea3","system_id":"levelo_inurba_marseille","lat":43.290437,"lon":5.355817,"is_reserved":false,"is_disabled":false,"rental_uris":{"android":"levelo://app?vid=52e28d2b-4aba-4840-b49a-81be7f02dea3","ios":"levelo://app?vid=52e28d2b-4aba-4840-b49a-81be7f02dea3"},"vehicle_type_id":"4","last_reported":1679753140,"current_range_meters":3600,"station_id":"","pricing_plan_id":"free"},{"bike_id":"0cd20c3f-c9cd-466a-b38e-e56e14a022bb","system_id":"levelo_inurba_marseille","lat":43.29267,"lon":5.38446,"is_reserved":false,"is_disabled":false,"rental_uris":{"android":"levelo://app?vid=0cd20c3f-c9cd-466a-b38e-e56e14a022bb","ios":"levelo://app?vid=0cd20c3f-c9cd-466a-b38e-e56e14a022bb"},"vehicle_type_id":"4","last_reported":1679753140,"current_range_meters":12000,"station_id":"","pricing_plan_id":"free"},{"bike_id":"b4959a4a-784a-4951-907f-45a0a4873edf","system_id":"levelo_inurba_marseille","lat":43.29265,"lon":5.38445,"is_reserved":false,"is_disabled":false,"rental_uris":{"android":"levelo://app?vid=b4959a4a-784a-4951-907f-45a0a4873edf","ios":"levelo://app?vid=b4959a4a-784a-4951-907f-45a0a4873edf"},"vehicle_type_id":"4","last_reported":1679753140,"current_range_meters":4400,"station_id":"ce4bh692rcd13ifvqea0","pricing_plan_id":"free"},{"bike_id":"4dfa2cb6-9e7b-49d5-82aa-15a03e821a6e","system_id":"levelo_inurba_marseille","lat":43.292644,"lon":5.384257,"is_reserved":false,"is_disabled":false,"rental_uris":{"android":"levelo://app?vid=4dfa2cb6-9e7b-49d5-82aa-15a03e821a6e","ios":"levelo://app?vid=4dfa2cb6-9e7b-49d5-82aa-15a03e821a6e"},"vehicle_type_id":"4","last_reported":1679753140,"current_range_meters":11200,"station_id":"ce4bh692rcd13ifvqea0","pricing_plan_id":"free"},{"bike_id":"4179bd30-583a-4c4e-a022-7cfa1ba2d703","system_id":"levelo_inurba_marseille","lat":43.290104,"lon":5.356111,"is_reserved":false,"is_disabled":false,"rental_uris":{"android":"levelo://app?vid=4179bd30-583a-4c4e-a022-7cfa1ba2d703","ios":"levelo://app?vid=4179bd30-583a-4c4e-a022-7cfa1ba2d703"},"vehicle_type_id":"4","last_reported":1679753140,"current_range_meters":24400,"station_id":"ce4bhb92rcd13ifvqen0","pricing_plan_id":"free"},{"bike_id":"629704e5-14d3-43a0-8900-a1ed6fd18441","system_id":"levelo_inurba_marseille","lat":43.33046,"lon":5.389195,"is_reserved":false,"is_disabled":false,"rental_uris":{"android":"levelo://app?vid=629704e5-14d3-43a0-8900-a1ed6fd18441","ios":"levelo://app?vid=629704e5-14d3-43a0-8900-a1ed6fd18441"},"vehicle_type_id":"4","last_reported":1679753140,"current_range_meters":800,"station_id":"ce4bhr92rcd13ifvqhrg","pricing_plan_id":"free"},{"bike_id":"aae0b4d5-3652-452b-a269-ab7207f53c4a","system_id":"levelo_inurba_marseille","lat":43.33047,"lon":5.38918,"is_reserved":false,"is_disabled":false,"rental_uris":{"android":"levelo://app?vid=aae0b4d5-3652-452b-a269-ab7207f53c4a","ios":"levelo://app?vid=aae0b4d5-3652-452b-a269-ab7207f53c4a"},"vehicle_type_id":"4","last_reported":1679753140,"current_range_meters":16800,"station_id":"","pricing_plan_id":"free"},{"bike_id":"22c69973-6f79-4f9b-aec7-07f9d3d1fe6f","system_id":"levelo_inurba_marseille","lat":43.33046,"lon":5.3892,"is_reserved":false,"is_disabled":false,"rental_uris":{"android":"levelo://app?vid=22c69973-6f79-4f9b-aec7-07f9d3d1fe6f","ios":"levelo://app?vid=22c69973-6f79-4f9b-aec7-07f9d3d1fe6f"},"vehicle_type_id":"4","last_reported":1679753140,"current_range_meters":6000,"station_id":"","pricing_plan_id":"free"},{"bike_id":"185db910-7045-4305-bbe1-af6a0d5ad019","system_id":"levelo_inurba_marseille","lat":43.330442,"lon":5.389148,"is_reserved":false,"is_disabled":false,"rental_uris":{"android":"levelo://app?vid=185db910-7045-4305-bbe1-af6a0d5ad019","ios":"levelo://app?vid=185db910-7045-4305-bbe1-af6a0d5ad019"},"vehicle_type_id":"4","last_reported":1679753140,"current_range_meters":5600,"station_id":"ce4bhr92rcd13ifvqhrg","pricing_plan_id":"free"},{"bike_id":"5dbe79cc-8fb2-4919-b431-be73ab496c56","system_id":"levelo_inurba_marseille","lat":43.337489,"lon":5.3747,"is_reserved":false,"is_disabled":false,"rental_uris":{"android":"levelo://app?vid=5dbe79cc-8fb2-4919-b431-be73ab496c56","ios":"levelo://app?vid=5dbe79cc-8fb2-4919-b431-be73ab496c56"},"vehicle_type_id":"4","last_reported":1679753140,"current_range_meters":26000,"station_id":"","pricing_plan_id":"free"},{"bike_id":"94b9ea74-cfbf-47f7-9cd2-59414d70b9fe","system_id":"levelo_inurba_marseille","lat":43.286591,"lon":5.363346,"is_reserved":false,"is_disabled":false,"rental_uris":{"android":"levelo://app?vid=94b9ea74-cfbf-47f7-9cd2-59414d70b9fe","ios":"levelo://app?vid=94b9ea74-cfbf-47f7-9cd2-59414d70b9fe"},"vehicle_type_id":"4","last_reported":1679753140,"current_range_meters":4800,"station_id":"ce4bhah2rcd13ifvqej0","pricing_plan_id":"free"},{"bike_id":"42dea9ba-f086-47dd-a9b5-689b474e3cce","system_id":"levelo_inurba_marseille","lat":43.298681,"lon":5.397225,"is_reserved":false,"is_disabled":false,"rental_uris":{"android":"levelo://app?vid=42dea9ba-f086-47dd-a9b5-689b474e3cce","ios":"levelo://app?vid=42dea9ba-f086-47dd-a9b5-689b474e3cce"},"vehicle_type_id":"4","last_reported":1679753140,"current_range_meters":0,"station_id":"ce4bh0h2rcd13ifvqd50","pricing_plan_id":"free"},{"bike_id":"4793585f-3542-456a-a053-0f58ec71bd5a","system_id":"levelo_inurba_marseille","lat":43.29525,"lon":5.394,"is_reserved":false,"is_disabled":false,"rental_uris":{"android":"levelo://app?vid=4793585f-3542-456a-a053-0f58ec71bd5a","ios":"levelo://app?vid=4793585f-3542-456a-a053-0f58ec71bd5a"},"vehicle_type_id":"4","last_reported":1679753140,"current_range_meters":2400,"station_id":"ce4bh212rcd13ifvqde0","pricing_plan_id":"free"},{"bike_id":"426e2d60-2f05-4714-a0c0-989de51bdf12","system_id":"levelo_inurba_marseille","lat":43.286039,"lon":5.370679,"is_reserved":false,"is_disabled":false,"rental_uris":{"android":"levelo://app?vid=426e2d60-2f05-4714-a0c0-989de51bdf12","ios":"levelo://app?vid=426e2d60-2f05-4714-a0c0-989de51bdf12"},"vehicle_type_id":"4","last_reported":1679753140,"current_range_meters":16800,"station_id":"ce4bht12rcd13ifvqi60","pricing_plan_id":"free"},{"bike_id":"4e0a3871-c6df-4140-97a6-b6e340a82efb","system_id":"levelo_inurba_marseille","lat":43.30032,"lon":5.40104,"is_reserved":false,"is_disabled":false,"rental_uris":{"android":"levelo://app?vid=4e0a3871-c6df-4140-97a6-b6e340a82efb","ios":"levelo://app?vid=4e0a3871-c6df-4140-97a6-b6e340a82efb"},"vehicle_type_id":"4","last_reported":1679753140,"current_range_meters":5200,"station_id":"","pricing_plan_id":"free"},{"bike_id":"f269b2d5-969b-488e-81fe-5b7dba80af5a","system_id":"levelo_inurba_marseille","lat":43.29857,"lon":5.40085,"is_reserved":false,"is_disabled":false,"rental_uris":{"android":"levelo://app?vid=f269b2d5-969b-488e-81fe-5b7dba80af5a","ios":"levelo://app?vid=f269b2d5-969b-488e-81fe-5b7dba80af5a"},"vehicle_type_id":"4","last_reported":1679753140,"current_range_meters":0,"station_id":"","pricing_plan_id":"free"},{"bike_id":"fe4a9094-2565-47b6-9efe-a382372fa094","system_id":"levelo_inurba_marseille","lat":43.3234,"lon":5.406295,"is_reserved":false,"is_disabled":false,"rental_uris":{"android":"levelo://app?vid=fe4a9094-2565-47b6-9efe-a382372fa094","ios":"levelo://app?vid=fe4a9094-2565-47b6-9efe-a382372fa094"},"vehicle_type_id":"4","last_reported":1679753140,"current_range_meters":0,"station_id":"","pricing_plan_id":"free"},{"bike_id":"50a2d5a7-a079-4688-b38c-43d8a342a511","system_id":"levelo_inurba_marseille","lat":43.284219,"lon":5.3497,"is_reserved":false,"is_disabled":false,"rental_uris":{"android":"levelo://app?vid=50a2d5a7-a079-4688-b38c-43d8a342a511","ios":"levelo://app?vid=50a2d5a7-a079-4688-b38c-43d8a342a511"},"vehicle_type_id":"4","last_reported":1679753140,"current_range_meters":28000,"station_id":"ce4bhbh2rcd13ifvqepg","pricing_plan_id":"free"},{"bike_id":"b38d7367-1096-431b-bb33-6c0403d33269","system_id":"levelo_inurba_marseille","lat":43.284219,"lon":5.3497,"is_reserved":false,"is_disabled":false,"rental_uris":{"android":"levelo://app?vid=b38d7367-1096-431b-bb33-6c0403d33269","ios":"levelo://app?vid=b38d7367-1096-431b-bb33-6c0403d33269"},"vehicle_type_id":"4","last_reported":1679753140,"current_range_meters":32000,"station_id":"ce4bhbh2rcd13ifvqepg","pricing_plan_id":"free"},{"bike_id":"56c09a15-e000-407f-a993-283b1bbd615f","system_id":"levelo_inurba_marseille","lat":43.28426,"lon":5.34992,"is_reserved":false,"is_disabled":false,"rental_uris":{"android":"levelo://app?vid=56c09a15-e000-407f-a993-283b1bbd615f","ios":"levelo://app?vid=56c09a15-e000-407f-a993-283b1bbd615f"},"vehicle_type_id":"4","last_reported":1679753140,"current_range_meters":13600,"station_id":"ce4bhbh2rcd13ifvqepg","pricing_plan_id":"free"},{"bike_id":"51b8dc36-539f-4210-901a-9aee348b3d90","system_id":"levelo_inurba_marseille","lat":43.284219,"lon":5.3497,"is_reserved":false,"is_disabled":false,"rental_uris":{"android":"levelo://app?vid=51b8dc36-539f-4210-901a-9aee348b3d90","ios":"levelo://app?vid=51b8dc36-539f-4210-901a-9aee348b3d90"},"vehicle_type_id":"4","last_reported":1679753140,"current_range_meters":12800,"station_id":"ce4bhbh2rcd13ifvqepg","pricing_plan_id":"free"},{"bike_id":"09724a22-1eb3-4e45-9c5f-7e4f9a9a4fbe","system_id":"levelo_inurba_marseille","lat":43.284263,"lon":5.349883,"is_reserved":false,"is_disabled":false,"rental_uris":{"android":"levelo://app?vid=09724a22-1eb3-4e45-9c5f-7e4f9a9a4fbe","ios":"levelo://app?vid=09724a22-1eb3-4e45-9c5f-7e4f9a9a4fbe"},"vehicle_type_id":"4","last_reported":1679753140,"current_range_meters":5200,"station_id":"ce4bhbh2rcd13ifvqepg","pricing_plan_id":"free"},{"bike_id":"5601b2f9-e1cf-43bb-92ca-33eec42ee758","system_id":"levelo_inurba_marseille","lat":43.28423,"lon":5.34993,"is_reserved":false,"is_disabled":false,"rental_uris":{"android":"levelo://app?vid=5601b2f9-e1cf-43bb-92ca-33eec42ee758","ios":"levelo://app?vid=5601b2f9-e1cf-43bb-92ca-33eec42ee758"},"vehicle_type_id":"4","last_reported":1679753140,"current_range_meters":18000,"station_id":"ce4bhbh2rcd13ifvqepg","pricing_plan_id":"free"},{"bike_id":"2f5c63dd-3be9-4fd7-bfeb-351054f37f97","system_id":"levelo_inurba_marseille","lat":43.284229,"lon":5.349917,"is_reserved":false,"is_disabled":false,"rental_uris":{"android":"levelo://app?vid=2f5c63dd-3be9-4fd7-bfeb-351054f37f97","ios":"levelo://app?vid=2f5c63dd-3be9-4fd7-bfeb-351054f37f97"},"vehicle_type_id":"4","last_reported":1679753140,"current_range_meters":0,"station_id":"ce4bhbh2rcd13ifvqepg","pricing_plan_id":"free"},{"bike_id":"697aefae-c6c5-46d3-aab3-455348391541","system_id":"levelo_inurba_marseille","lat":43.284233,"lon":5.349898,"is_reserved":false,"is_disabled":false,"rental_uris":{"android":"levelo://app?vid=697aefae-c6c5-46d3-aab3-455348391541","ios":"levelo://app?vid=697aefae-c6c5-46d3-aab3-455348391541"},"vehicle_type_id":"4","last_reported":1679753140,"current_range_meters":18800,"station_id":"","pricing_plan_id":"free"},{"bike_id":"0be47eca-0fc4-446a-8636-bd84e3ad167d","system_id":"levelo_inurba_marseille","lat":43.28425,"lon":5.34984,"is_reserved":false,"is_disabled":false,"rental_uris":{"android":"levelo://app?vid=0be47eca-0fc4-446a-8636-bd84e3ad167d","ios":"levelo://app?vid=0be47eca-0fc4-446a-8636-bd84e3ad167d"},"vehicle_type_id":"4","last_reported":1679753140,"current_range_meters":2800,"station_id":"ce4bhbh2rcd13ifvqepg","pricing_plan_id":"free"},{"bike_id":"769b4c39-ffcd-4b4c-8860-71544bbba7c8","system_id":"levelo_inurba_marseille","lat":43.284235,"lon":5.349848,"is_reserved":false,"is_disabled":false,"rental_uris":{"android":"levelo://app?vid=769b4c39-ffcd-4b4c-8860-71544bbba7c8","ios":"levelo://app?vid=769b4c39-ffcd-4b4c-8860-71544bbba7c8"},"vehicle_type_id":"4","last_reported":1679753140,"current_range_meters":17600,"station_id":"","pricing_plan_id":"free"},{"bike_id":"f9e90054-191b-4c5e-8c82-f05650eee302","system_id":"levelo_inurba_marseille","lat":43.28421,"lon":5.34991,"is_reserved":false,"is_disabled":false,"rental_uris":{"android":"levelo://app?vid=f9e90054-191b-4c5e-8c82-f05650eee302","ios":"levelo://app?vid=f9e90054-191b-4c5e-8c82-f05650eee302"},"vehicle_type_id":"4","last_reported":1679753140,"current_range_meters":27200,"station_id":"","pricing_plan_id":"free"},{"bike_id":"5d45709e-fd08-4592-992d-938dba78799d","system_id":"levelo_inurba_marseille","lat":43.28423,"lon":5.3498,"is_reserved":false,"is_disabled":false,"rental_uris":{"android":"levelo://app?vid=5d45709e-fd08-4592-992d-938dba78799d","ios":"levelo://app?vid=5d45709e-fd08-4592-992d-938dba78799d"},"vehicle_type_id":"4","last_reported":1679753140,"current_range_meters":12400,"station_id":"ce4bhbh2rcd13ifvqepg","pricing_plan_id":"free"},{"bike_id":"f17feffe-3a70-4d52-9ad0-446bcec309e5","system_id":"levelo_inurba_marseille","lat":43.2842,"lon":5.34986,"is_reserved":false,"is_disabled":false,"rental_uris":{"android":"levelo://app?vid=f17feffe-3a70-4d52-9ad0-446bcec309e5","ios":"levelo://app?vid=f17feffe-3a70-4d52-9ad0-446bcec309e5"},"vehicle_type_id":"4","last_reported":1679753140,"current_range_meters":13200,"station_id":"ce4bhbh2rcd13ifvqepg","pricing_plan_id":"free"},{"bike_id":"b8844e9e-8669-4f31-9641-f2d12fdae4ce","system_id":"levelo_inurba_marseille","lat":43.284189,"lon":5.34985,"is_reserved":false,"is_disabled":false,"rental_uris":{"android":"levelo://app?vid=b8844e9e-8669-4f31-9641-f2d12fdae4ce","ios":"levelo://app?vid=b8844e9e-8669-4f31-9641-f2d12fdae4ce"},"vehicle_type_id":"4","last_reported":1679753140,"current_range_meters":20000,"station_id":"ce4bhbh2rcd13ifvqepg","pricing_plan_id":"free"},{"bike_id":"2f749194-f840-417a-bbde-e7bb0e3a9afd","system_id":"levelo_inurba_marseille","lat":43.284217,"lon":5.349697,"is_reserved":false,"is_disabled":false,"rental_uris":{"android":"levelo://app?vid=2f749194-f840-417a-bbde-e7bb0e3a9afd","ios":"levelo://app?vid=2f749194-f840-417a-bbde-e7bb0e3a9afd"},"vehicle_type_id":"4","last_reported":1679753140,"current_range_meters":31600,"station_id":"ce4bhbh2rcd13ifvqepg","pricing_plan_id":"free"},{"bike_id":"4c111080-5580-4796-a741-d55e46f170b4","system_id":"levelo_inurba_marseille","lat":43.284435,"lon":5.384832,"is_reserved":false,"is_disabled":false,"rental_uris":{"android":"levelo://app?vid=4c111080-5580-4796-a741-d55e46f170b4","ios":"levelo://app?vid=4c111080-5580-4796-a741-d55e46f170b4"},"vehicle_type_id":"4","last_reported":1679753140,"current_range_meters":0,"station_id":"","pricing_plan_id":"free"},{"bike_id":"a4951b4c-0d7b-4f27-8f7e-c09feb809a62","system_id":"levelo_inurba_marseille","lat":43.292724,"lon":5.401131,"is_reserved":false,"is_disabled":false,"rental_uris":{"android":"levelo://app?vid=a4951b4c-0d7b-4f27-8f7e-c09feb809a62","ios":"levelo://app?vid=a4951b4c-0d7b-4f27-8f7e-c09feb809a62"},"vehicle_type_id":"4","last_reported":1679753140,"current_range_meters":4400,"station_id":"ce4bh312rcd13ifvqdk0","pricing_plan_id":"free"},{"bike_id":"f5382b25-5be9-4f5f-97f9-9cf31b361827","system_id":"levelo_inurba_marseille","lat":43.28268,"lon":5.35069,"is_reserved":false,"is_disabled":false,"rental_uris":{"android":"levelo://app?vid=f5382b25-5be9-4f5f-97f9-9cf31b361827","ios":"levelo://app?vid=f5382b25-5be9-4f5f-97f9-9cf31b361827"},"vehicle_type_id":"4","last_reported":1679753140,"current_range_meters":3200,"station_id":"","pricing_plan_id":"free"},{"bike_id":"15a087b5-e15e-431f-a462-2a91a6ab0101","system_id":"levelo_inurba_marseille","lat":43.28039,"lon":5.369297,"is_reserved":false,"is_disabled":false,"rental_uris":{"android":"levelo://app?vid=15a087b5-e15e-431f-a462-2a91a6ab0101","ios":"levelo://app?vid=15a087b5-e15e-431f-a462-2a91a6ab0101"},"vehicle_type_id":"4","last_reported":1679753140,"current_range_meters":18800,"station_id":"ce4bha12rcd13ifvqef0","pricing_plan_id":"free"},{"bike_id":"e2363bd3-2e00-43f5-b49b-67ba5de3e01f","system_id":"levelo_inurba_marseille","lat":43.290412,"lon":5.399633,"is_reserved":false,"is_disabled":false,"rental_uris":{"android":"levelo://app?vid=e2363bd3-2e00-43f5-b49b-67ba5de3e01f","ios":"levelo://app?vid=e2363bd3-2e00-43f5-b49b-67ba5de3e01f"},"vehicle_type_id":"4","last_reported":1679753140,"current_range_meters":0,"station_id":"ce4bh392rcd13ifvqdm0","pricing_plan_id":"free"},{"bike_id":"68743767-be02-440f-8864-73c1d0b1bbce","system_id":"levelo_inurba_marseille","lat":43.281018,"lon":5.37842,"is_reserved":false,"is_disabled":false,"rental_uris":{"android":"levelo://app?vid=68743767-be02-440f-8864-73c1d0b1bbce","ios":"levelo://app?vid=68743767-be02-440f-8864-73c1d0b1bbce"},"vehicle_type_id":"4","last_reported":1679753140,"current_range_meters":0,"station_id":"ce4bha12rcd13ifvqee0","pricing_plan_id":"free"},{"bike_id":"929d201a-bad4-4203-af1e-3b50daae743f","system_id":"levelo_inurba_marseille","lat":43.291584,"lon":5.403712,"is_reserved":false,"is_disabled":false,"rental_uris":{"android":"levelo://app?vid=929d201a-bad4-4203-af1e-3b50daae743f","ios":"levelo://app?vid=929d201a-bad4-4203-af1e-3b50daae743f"},"vehicle_type_id":"4","last_reported":1679753140,"current_range_meters":0,"station_id":"","pricing_plan_id":"free"},{"bike_id":"17b0fefe-d9d9-40cd-ad3a-af1459b68b7d","system_id":"levelo_inurba_marseille","lat":43.287154,"lon":5.399979,"is_reserved":false,"is_disabled":false,"rental_uris":{"android":"levelo://app?vid=17b0fefe-d9d9-40cd-ad3a-af1459b68b7d","ios":"levelo://app?vid=17b0fefe-d9d9-40cd-ad3a-af1459b68b7d"},"vehicle_type_id":"4","last_reported":1679753140,"current_range_meters":0,"station_id":"ce4bho92rcd13ifvqh3g","pricing_plan_id":"free"},{"bike_id":"3e4b0791-2451-461a-beab-624e20baa2b3","system_id":"levelo_inurba_marseille","lat":43.320045,"lon":5.415048,"is_reserved":false,"is_disabled":false,"rental_uris":{"android":"levelo://app?vid=3e4b0791-2451-461a-beab-624e20baa2b3","ios":"levelo://app?vid=3e4b0791-2451-461a-beab-624e20baa2b3"},"vehicle_type_id":"4","last_reported":1679753140,"current_range_meters":5200,"station_id":"ce4bhq92rcd13ifvqhkg","pricing_plan_id":"free"},{"bike_id":"682405a1-590f-4c32-a71e-9f070c50137e","system_id":"levelo_inurba_marseille","lat":43.320646,"lon":5.415358,"is_reserved":false,"is_disabled":false,"rental_uris":{"android":"levelo://app?vid=682405a1-590f-4c32-a71e-9f070c50137e","ios":"levelo://app?vid=682405a1-590f-4c32-a71e-9f070c50137e"},"vehicle_type_id":"4","last_reported":1679753140,"current_range_meters":24400,"station_id":"","pricing_plan_id":"free"},{"bike_id":"3361295d-d550-405c-a859-ef29899873d6","system_id":"levelo_inurba_marseille","lat":43.320045,"lon":5.415048,"is_reserved":false,"is_disabled":false,"rental_uris":{"android":"levelo://app?vid=3361295d-d550-405c-a859-ef29899873d6","ios":"levelo://app?vid=3361295d-d550-405c-a859-ef29899873d6"},"vehicle_type_id":"4","last_reported":1679753140,"current_range_meters":28400,"station_id":"ce4bhq92rcd13ifvqhkg","pricing_plan_id":"free"},{"bike_id":"27201c85-30c5-4849-9169-4934f01bf78c","system_id":"levelo_inurba_marseille","lat":43.276273,"lon":5.361089,"is_reserved":false,"is_disabled":false,"rental_uris":{"android":"levelo://app?vid=27201c85-30c5-4849-9169-4934f01bf78c","ios":"levelo://app?vid=27201c85-30c5-4849-9169-4934f01bf78c"},"vehicle_type_id":"4","last_reported":1679753140,"current_range_meters":7600,"station_id":"","pricing_plan_id":"free"},{"bike_id":"86c25404-bd97-45ff-8258-5f032428f9ec","system_id":"levelo_inurba_marseille","lat":43.325243,"lon":5.414326,"is_reserved":false,"is_disabled":false,"rental_uris":{"android":"levelo://app?vid=86c25404-bd97-45ff-8258-5f032428f9ec","ios":"levelo://app?vid=86c25404-bd97-45ff-8258-5f032428f9ec"},"vehicle_type_id":"4","last_reported":1679753140,"current_range_meters":4000,"station_id":"ce4bhq12rcd13ifvqhhg","pricing_plan_id":"free"},{"bike_id":"6593ab6e-548b-43de-ab81-dcb09e5a25a8","system_id":"levelo_inurba_marseille","lat":43.273613,"lon":5.362705,"is_reserved":false,"is_disabled":false,"rental_uris":{"android":"levelo://app?vid=6593ab6e-548b-43de-ab81-dcb09e5a25a8","ios":"levelo://app?vid=6593ab6e-548b-43de-ab81-dcb09e5a25a8"},"vehicle_type_id":"4","last_reported":1679753140,"current_range_meters":30400,"station_id":"ce4bhbh2rcd13ifvqeo0","pricing_plan_id":"free"},{"bike_id":"bf3d32d2-3e29-42c1-85f1-715fdbb63eed","system_id":"levelo_inurba_marseille","lat":43.273613,"lon":5.362705,"is_reserved":false,"is_disabled":false,"rental_uris":{"android":"levelo://app?vid=bf3d32d2-3e29-42c1-85f1-715fdbb63eed","ios":"levelo://app?vid=bf3d32d2-3e29-42c1-85f1-715fdbb63eed"},"vehicle_type_id":"4","last_reported":1679753140,"current_range_meters":28400,"station_id":"ce4bhbh2rcd13ifvqeo0","pricing_plan_id":"free"},{"bike_id":"c15953bf-b29f-407c-b337-bb03c78c33ed","system_id":"levelo_inurba_marseille","lat":43.273613,"lon":5.362705,"is_reserved":false,"is_disabled":false,"rental_uris":{"android":"levelo://app?vid=c15953bf-b29f-407c-b337-bb03c78c33ed","ios":"levelo://app?vid=c15953bf-b29f-407c-b337-bb03c78c33ed"},"vehicle_type_id":"4","last_reported":1679753140,"current_range_meters":14400,"station_id":"ce4bhbh2rcd13ifvqeo0","pricing_plan_id":"free"},{"bike_id":"fd35a0d4-eec6-4c2d-b462-04b2bc335d0a","system_id":"levelo_inurba_marseille","lat":43.33612,"lon":5.410321,"is_reserved":false,"is_disabled":false,"rental_uris":{"android":"levelo://app?vid=fd35a0d4-eec6-4c2d-b462-04b2bc335d0a","ios":"levelo://app?vid=fd35a0d4-eec6-4c2d-b462-04b2bc335d0a"},"vehicle_type_id":"4","last_reported":1679753140,"current_range_meters":4400,"station_id":"ce4bhqh2rcd13ifvqhmg","pricing_plan_id":"free"},{"bike_id":"4322ef28-8031-4b9c-9554-7a07876e0709","system_id":"levelo_inurba_marseille","lat":43.310785,"lon":5.424305,"is_reserved":false,"is_disabled":false,"rental_uris":{"android":"levelo://app?vid=4322ef28-8031-4b9c-9554-7a07876e0709","ios":"levelo://app?vid=4322ef28-8031-4b9c-9554-7a07876e0709"},"vehicle_type_id":"4","last_reported":1679753140,"current_range_meters":26000,"station_id":"ce4bhp92rcd13ifvqhag","pricing_plan_id":"free"},{"bike_id":"56fbdd88-73fb-402a-8966-04c9658f84f5","system_id":"levelo_inurba_marseille","lat":43.274103,"lon":5.394016,"is_reserved":false,"is_disabled":false,"rental_uris":{"android":"levelo://app?vid=56fbdd88-73fb-402a-8966-04c9658f84f5","ios":"levelo://app?vid=56fbdd88-73fb-402a-8966-04c9658f84f5"},"vehicle_type_id":"4","last_reported":1679753140,"current_range_meters":4800,"station_id":"ce4bhdp2rcd13ifvqf20","pricing_plan_id":"free"},{"bike_id":"75f77e61-acb9-4817-b196-01c04933bf83","system_id":"levelo_inurba_marseille","lat":43.304096,"lon":5.425385,"is_reserved":false,"is_disabled":false,"rental_uris":{"android":"levelo://app?vid=75f77e61-acb9-4817-b196-01c04933bf83","ios":"levelo://app?vid=75f77e61-acb9-4817-b196-01c04933bf83"},"vehicle_type_id":"4","last_reported":1679753140,"current_range_meters":14000,"station_id":"ce4bhoh2rcd13ifvqh6g","pricing_plan_id":"free"},{"bike_id":"3e5a52b2-9740-41a4-8810-d8ca9614a73c","system_id":"levelo_inurba_marseille","lat":43.304096,"lon":5.425385,"is_reserved":false,"is_disabled":false,"rental_uris":{"android":"levelo://app?vid=3e5a52b2-9740-41a4-8810-d8ca9614a73c","ios":"levelo://app?vid=3e5a52b2-9740-41a4-8810-d8ca9614a73c"},"vehicle_type_id":"4","last_reported":1679753140,"current_range_meters":13600,"station_id":"ce4bhoh2rcd13ifvqh6g","pricing_plan_id":"free"},{"bike_id":"1725a539-0f55-4b5f-9eef-834ef8ce1509","system_id":"levelo_inurba_marseille","lat":43.304096,"lon":5.425385,"is_reserved":false,"is_disabled":false,"rental_uris":{"android":"levelo://app?vid=1725a539-0f55-4b5f-9eef-834ef8ce1509","ios":"levelo://app?vid=1725a539-0f55-4b5f-9eef-834ef8ce1509"},"vehicle_type_id":"4","last_reported":1679753140,"current_range_meters":31600,"station_id":"ce4bhoh2rcd13ifvqh6g","pricing_plan_id":"free"},{"bike_id":"2d0fa907-71ba-43b6-b450-3d7039407980","system_id":"levelo_inurba_marseille","lat":43.29559,"lon":5.42286,"is_reserved":false,"is_disabled":false,"rental_uris":{"android":"levelo://app?vid=2d0fa907-71ba-43b6-b450-3d7039407980","ios":"levelo://app?vid=2d0fa907-71ba-43b6-b450-3d7039407980"},"vehicle_type_id":"4","last_reported":1679753140,"current_range_meters":31600,"station_id":"","pricing_plan_id":"free"},{"bike_id":"91514607-7e30-4ee4-94d4-33ffea74d259","system_id":"levelo_inurba_marseille","lat":43.29556,"lon":5.422872,"is_reserved":false,"is_disabled":false,"rental_uris":{"android":"levelo://app?vid=91514607-7e30-4ee4-94d4-33ffea74d259","ios":"levelo://app?vid=91514607-7e30-4ee4-94d4-33ffea74d259"},"vehicle_type_id":"4","last_reported":1679753140,"current_range_meters":19600,"station_id":"","pricing_plan_id":"free"},{"bike_id":"121c9a7a-5ca9-4c2f-98d8-ba57b955f0ed","system_id":"levelo_inurba_marseille","lat":43.295567,"lon":5.42288,"is_reserved":false,"is_disabled":false,"rental_uris":{"android":"levelo://app?vid=121c9a7a-5ca9-4c2f-98d8-ba57b955f0ed","ios":"levelo://app?vid=121c9a7a-5ca9-4c2f-98d8-ba57b955f0ed"},"vehicle_type_id":"4","last_reported":1679753140,"current_range_meters":27600,"station_id":"","pricing_plan_id":"free"},{"bike_id":"05ba370a-591c-4878-828c-44e714f3ee7c","system_id":"levelo_inurba_marseille","lat":43.295523,"lon":5.422926,"is_reserved":false,"is_disabled":false,"rental_uris":{"android":"levelo://app?vid=05ba370a-591c-4878-828c-44e714f3ee7c","ios":"levelo://app?vid=05ba370a-591c-4878-828c-44e714f3ee7c"},"vehicle_type_id":"4","last_reported":1679753140,"current_range_meters":22800,"station_id":"ce4bhph2rcd13ifvqhdg","pricing_plan_id":"free"},{"bike_id":"5aa5d1ac-ac6c-425c-a2db-aa120eea4a17","system_id":"levelo_inurba_marseille","lat":43.29555,"lon":5.4229,"is_reserved":false,"is_disabled":false,"rental_uris":{"android":"levelo://app?vid=5aa5d1ac-ac6c-425c-a2db-aa120eea4a17","ios":"levelo://app?vid=5aa5d1ac-ac6c-425c-a2db-aa120eea4a17"},"vehicle_type_id":"4","last_reported":1679753140,"current_range_meters":2800,"station_id":"ce4bhph2rcd13ifvqhdg","pricing_plan_id":"free"},{"bike_id":"90945c31-a8c1-4cb0-bcb6-a15e0b643f89","system_id":"levelo_inurba_marseille","lat":43.295523,"lon":5.422926,"is_reserved":false,"is_disabled":false,"rental_uris":{"android":"levelo://app?vid=90945c31-a8c1-4cb0-bcb6-a15e0b643f89","ios":"levelo://app?vid=90945c31-a8c1-4cb0-bcb6-a15e0b643f89"},"vehicle_type_id":"4","last_reported":1679753140,"current_range_meters":27600,"station_id":"ce4bhph2rcd13ifvqhdg","pricing_plan_id":"free"},{"bike_id":"9fe59b72-e813-4870-99c8-cc2a04588a34","system_id":"levelo_inurba_marseille","lat":43.29556,"lon":5.42294,"is_reserved":false,"is_disabled":false,"rental_uris":{"android":"levelo://app?vid=9fe59b72-e813-4870-99c8-cc2a04588a34","ios":"levelo://app?vid=9fe59b72-e813-4870-99c8-cc2a04588a34"},"vehicle_type_id":"4","last_reported":1679753140,"current_range_meters":3200,"station_id":"ce4bhph2rcd13ifvqhdg","pricing_plan_id":"free"},{"bike_id":"d5c242da-a0c2-44bd-a8bc-85f36c9d8d87","system_id":"levelo_inurba_marseille","lat":43.29551,"lon":5.42293,"is_reserved":false,"is_disabled":false,"rental_uris":{"android":"levelo://app?vid=d5c242da-a0c2-44bd-a8bc-85f36c9d8d87","ios":"levelo://app?vid=d5c242da-a0c2-44bd-a8bc-85f36c9d8d87"},"vehicle_type_id":"4","last_reported":1679753140,"current_range_meters":24400,"station_id":"","pricing_plan_id":"free"},{"bike_id":"3ad78bff-ffee-49a1-b2d8-9cc4032699b1","system_id":"levelo_inurba_marseille","lat":43.29552,"lon":5.42297,"is_reserved":false,"is_disabled":false,"rental_uris":{"android":"levelo://app?vid=3ad78bff-ffee-49a1-b2d8-9cc4032699b1","ios":"levelo://app?vid=3ad78bff-ffee-49a1-b2d8-9cc4032699b1"},"vehicle_type_id":"4","last_reported":1679753140,"current_range_meters":13200,"station_id":"ce4bhph2rcd13ifvqhdg","pricing_plan_id":"free"},{"bike_id":"d2478073-fdbf-4cd0-b26e-8764fdf3bdc9","system_id":"levelo_inurba_marseille","lat":43.272124,"lon":5.391768,"is_reserved":false,"is_disabled":false,"rental_uris":{"android":"levelo://app?vid=d2478073-fdbf-4cd0-b26e-8764fdf3bdc9","ios":"levelo://app?vid=d2478073-fdbf-4cd0-b26e-8764fdf3bdc9"},"vehicle_type_id":"4","last_reported":1679753140,"current_range_meters":6800,"station_id":"ce4bhhp2rcd13ifvqfm0","pricing_plan_id":"free"},{"bike_id":"81ddff87-5e51-4915-948b-8860afd6f41d","system_id":"levelo_inurba_marseille","lat":43.278128,"lon":5.407195,"is_reserved":false,"is_disabled":false,"rental_uris":{"android":"levelo://app?vid=81ddff87-5e51-4915-948b-8860afd6f41d","ios":"levelo://app?vid=81ddff87-5e51-4915-948b-8860afd6f41d"},"vehicle_type_id":"4","last_reported":1679753140,"current_range_meters":12400,"station_id":"ce4bhnh2rcd13ifvqgtg","pricing_plan_id":"free"},{"bike_id":"3c7b2e62-ceb5-41bf-bea9-95e01b2ae089","system_id":"levelo_inurba_marseille","lat":43.269252,"lon":5.389142,"is_reserved":false,"is_disabled":false,"rental_uris":{"android":"levelo://app?vid=3c7b2e62-ceb5-41bf-bea9-95e01b2ae089","ios":"levelo://app?vid=3c7b2e62-ceb5-41bf-bea9-95e01b2ae089"},"vehicle_type_id":"4","last_reported":1679753140,"current_range_meters":28000,"station_id":"","pricing_plan_id":"free"},{"bike_id":"aaf577ca-1f6c-4d3e-b6eb-6189fc90a552","system_id":"levelo_inurba_marseille","lat":43.269319,"lon":5.389397,"is_reserved":false,"is_disabled":false,"rental_uris":{"android":"levelo://app?vid=aaf577ca-1f6c-4d3e-b6eb-6189fc90a552","ios":"levelo://app?vid=aaf577ca-1f6c-4d3e-b6eb-6189fc90a552"},"vehicle_type_id":"4","last_reported":1679753140,"current_range_meters":24000,"station_id":"ce4bhhh2rcd13ifvqfl0","pricing_plan_id":"free"},{"bike_id":"57b68ded-989e-4bc6-b97b-d7e7bf5ed660","system_id":"levelo_inurba_marseille","lat":43.26889,"lon":5.38936,"is_reserved":false,"is_disabled":false,"rental_uris":{"android":"levelo://app?vid=57b68ded-989e-4bc6-b97b-d7e7bf5ed660","ios":"levelo://app?vid=57b68ded-989e-4bc6-b97b-d7e7bf5ed660"},"vehicle_type_id":"4","last_reported":1679753140,"current_range_meters":11600,"station_id":"","pricing_plan_id":"free"},{"bike_id":"bebbbf72-82e3-45c2-b10a-d1bc1bb23f53","system_id":"levelo_inurba_marseille","lat":43.26681,"lon":5.382694,"is_reserved":false,"is_disabled":false,"rental_uris":{"android":"levelo://app?vid=bebbbf72-82e3-45c2-b10a-d1bc1bb23f53","ios":"levelo://app?vid=bebbbf72-82e3-45c2-b10a-d1bc1bb23f53"},"vehicle_type_id":"4","last_reported":1679753140,"current_range_meters":21600,"station_id":"ce4bhg92rcd13ifvqf90","pricing_plan_id":"free"},{"bike_id":"e32ef05c-dc57-486e-8e52-e24fbecdbf5e","system_id":"levelo_inurba_marseille","lat":43.26681,"lon":5.382694,"is_reserved":false,"is_disabled":false,"rental_uris":{"android":"levelo://app?vid=e32ef05c-dc57-486e-8e52-e24fbecdbf5e","ios":"levelo://app?vid=e32ef05c-dc57-486e-8e52-e24fbecdbf5e"},"vehicle_type_id":"4","last_reported":1679753140,"current_range_meters":18400,"station_id":"ce4bhg92rcd13ifvqf90","pricing_plan_id":"free"},{"bike_id":"9c4e7e69-53ac-4c27-9a2b-6b9efc97f1a1","system_id":"levelo_inurba_marseille","lat":43.266847,"lon":5.382672,"is_reserved":false,"is_disabled":false,"rental_uris":{"android":"levelo://app?vid=9c4e7e69-53ac-4c27-9a2b-6b9efc97f1a1","ios":"levelo://app?vid=9c4e7e69-53ac-4c27-9a2b-6b9efc97f1a1"},"vehicle_type_id":"4","last_reported":1679753140,"current_range_meters":24400,"station_id":"","pricing_plan_id":"free"},{"bike_id":"6d68f6c1-690c-4b22-84d3-3ad7af124de3","system_id":"levelo_inurba_marseille","lat":43.26681,"lon":5.382694,"is_reserved":false,"is_disabled":false,"rental_uris":{"android":"levelo://app?vid=6d68f6c1-690c-4b22-84d3-3ad7af124de3","ios":"levelo://app?vid=6d68f6c1-690c-4b22-84d3-3ad7af124de3"},"vehicle_type_id":"4","last_reported":1679753140,"current_range_meters":22400,"station_id":"ce4bhg92rcd13ifvqf90","pricing_plan_id":"free"},{"bike_id":"a3160a1d-2e3b-4d5c-a90e-ba3bdafd54cd","system_id":"levelo_inurba_marseille","lat":43.26684,"lon":5.38267,"is_reserved":false,"is_disabled":false,"rental_uris":{"android":"levelo://app?vid=a3160a1d-2e3b-4d5c-a90e-ba3bdafd54cd","ios":"levelo://app?vid=a3160a1d-2e3b-4d5c-a90e-ba3bdafd54cd"},"vehicle_type_id":"4","last_reported":1679753140,"current_range_meters":31600,"station_id":"ce4bhg92rcd13ifvqf90","pricing_plan_id":"free"},{"bike_id":"cc6a43ad-ad8b-41f1-af13-d4175bea5a1d","system_id":"levelo_inurba_marseille","lat":43.26681,"lon":5.382694,"is_reserved":false,"is_disabled":false,"rental_uris":{"android":"levelo://app?vid=cc6a43ad-ad8b-41f1-af13-d4175bea5a1d","ios":"levelo://app?vid=cc6a43ad-ad8b-41f1-af13-d4175bea5a1d"},"vehicle_type_id":"4","last_reported":1679753140,"current_range_meters":31600,"station_id":"ce4bhg92rcd13ifvqf90","pricing_plan_id":"free"},{"bike_id":"78be4ad8-101b-4b73-894c-9285683736c2","system_id":"levelo_inurba_marseille","lat":43.26681,"lon":5.382694,"is_reserved":false,"is_disabled":false,"rental_uris":{"android":"levelo://app?vid=78be4ad8-101b-4b73-894c-9285683736c2","ios":"levelo://app?vid=78be4ad8-101b-4b73-894c-9285683736c2"},"vehicle_type_id":"4","last_reported":1679753140,"current_range_meters":18800,"station_id":"ce4bhg92rcd13ifvqf90","pricing_plan_id":"free"},{"bike_id":"9360e90f-35c6-4994-b321-4e3023c51722","system_id":"levelo_inurba_marseille","lat":43.265714,"lon":5.372891,"is_reserved":false,"is_disabled":false,"rental_uris":{"android":"levelo://app?vid=9360e90f-35c6-4994-b321-4e3023c51722","ios":"levelo://app?vid=9360e90f-35c6-4994-b321-4e3023c51722"},"vehicle_type_id":"4","last_reported":1679753140,"current_range_meters":24400,"station_id":"ce4bhg12rcd13ifvqf70","pricing_plan_id":"free"},{"bike_id":"1e15028d-13ad-4f2e-a7bd-fc78425286f2","system_id":"levelo_inurba_marseille","lat":43.2668,"lon":5.38269,"is_reserved":false,"is_disabled":false,"rental_uris":{"android":"levelo://app?vid=1e15028d-13ad-4f2e-a7bd-fc78425286f2","ios":"levelo://app?vid=1e15028d-13ad-4f2e-a7bd-fc78425286f2"},"vehicle_type_id":"4","last_reported":1679753140,"current_range_meters":31600,"station_id":"ce4bhg92rcd13ifvqf90","pricing_plan_id":"free"},{"bike_id":"08c45e68-3e12-41b2-88ee-b58c19e2838d","system_id":"levelo_inurba_marseille","lat":43.26556,"lon":5.37283,"is_reserved":false,"is_disabled":false,"rental_uris":{"android":"levelo://app?vid=08c45e68-3e12-41b2-88ee-b58c19e2838d","ios":"levelo://app?vid=08c45e68-3e12-41b2-88ee-b58c19e2838d"},"vehicle_type_id":"4","last_reported":1679753140,"current_range_meters":23600,"station_id":"","pricing_plan_id":"free"},{"bike_id":"c4d97386-5f08-4826-91b6-8f1779a5d39a","system_id":"levelo_inurba_marseille","lat":43.26681,"lon":5.382694,"is_reserved":false,"is_disabled":false,"rental_uris":{"android":"levelo://app?vid=c4d97386-5f08-4826-91b6-8f1779a5d39a","ios":"levelo://app?vid=c4d97386-5f08-4826-91b6-8f1779a5d39a"},"vehicle_type_id":"4","last_reported":1679753140,"current_range_meters":30400,"station_id":"ce4bhg92rcd13ifvqf90","pricing_plan_id":"free"},{"bike_id":"fd80a691-d2a9-4ee7-ab06-33d1e172b3ea","system_id":"levelo_inurba_marseille","lat":43.267966,"lon":5.393976,"is_reserved":false,"is_disabled":false,"rental_uris":{"android":"levelo://app?vid=fd80a691-d2a9-4ee7-ab06-33d1e172b3ea","ios":"levelo://app?vid=fd80a691-d2a9-4ee7-ab06-33d1e172b3ea"},"vehicle_type_id":"4","last_reported":1679753140,"current_range_meters":3600,"station_id":"ce4bhh12rcd13ifvqfg0","pricing_plan_id":"free"},{"bike_id":"d13904ee-c203-4935-99c8-08674cf74175","system_id":"levelo_inurba_marseille","lat":43.26572,"lon":5.39009,"is_reserved":false,"is_disabled":false,"rental_uris":{"android":"levelo://app?vid=d13904ee-c203-4935-99c8-08674cf74175","ios":"levelo://app?vid=d13904ee-c203-4935-99c8-08674cf74175"},"vehicle_type_id":"4","last_reported":1679753140,"current_range_meters":25600,"station_id":"ce4bhe12rcd13ifvqf30","pricing_plan_id":"free"},{"bike_id":"e2fdf362-a3b4-46ab-bdc1-d5360b54b2ed","system_id":"levelo_inurba_marseille","lat":43.2657,"lon":5.39007,"is_reserved":false,"is_disabled":false,"rental_uris":{"android":"levelo://app?vid=e2fdf362-a3b4-46ab-bdc1-d5360b54b2ed","ios":"levelo://app?vid=e2fdf362-a3b4-46ab-bdc1-d5360b54b2ed"},"vehicle_type_id":"4","last_reported":1679753140,"current_range_meters":26400,"station_id":"","pricing_plan_id":"free"},{"bike_id":"bd2c626e-ee9f-4416-b3ca-8314ca05c79c","system_id":"levelo_inurba_marseille","lat":43.26566,"lon":5.38998,"is_reserved":false,"is_disabled":false,"rental_uris":{"android":"levelo://app?vid=bd2c626e-ee9f-4416-b3ca-8314ca05c79c","ios":"levelo://app?vid=bd2c626e-ee9f-4416-b3ca-8314ca05c79c"},"vehicle_type_id":"4","last_reported":1679753140,"current_range_meters":24800,"station_id":"ce4bhe12rcd13ifvqf30","pricing_plan_id":"free"},{"bike_id":"e3becb90-56f1-4387-9434-b4e3ead99221","system_id":"levelo_inurba_marseille","lat":43.265666,"lon":5.390038,"is_reserved":false,"is_disabled":false,"rental_uris":{"android":"levelo://app?vid=e3becb90-56f1-4387-9434-b4e3ead99221","ios":"levelo://app?vid=e3becb90-56f1-4387-9434-b4e3ead99221"},"vehicle_type_id":"4","last_reported":1679753140,"current_range_meters":22000,"station_id":"","pricing_plan_id":"free"},{"bike_id":"6f020378-2636-4e0c-9b60-da20a3534225","system_id":"levelo_inurba_marseille","lat":43.265569,"lon":5.390047,"is_reserved":false,"is_disabled":false,"rental_uris":{"android":"levelo://app?vid=6f020378-2636-4e0c-9b60-da20a3534225","ios":"levelo://app?vid=6f020378-2636-4e0c-9b60-da20a3534225"},"vehicle_type_id":"4","last_reported":1679753140,"current_range_meters":0,"station_id":"ce4bhe12rcd13ifvqf30","pricing_plan_id":"free"},{"bike_id":"611de498-5bbb-4e1a-b34d-1346bf659168","system_id":"levelo_inurba_marseille","lat":43.28981,"lon":5.42898,"is_reserved":false,"is_disabled":false,"rental_uris":{"android":"levelo://app?vid=611de498-5bbb-4e1a-b34d-1346bf659168","ios":"levelo://app?vid=611de498-5bbb-4e1a-b34d-1346bf659168"},"vehicle_type_id":"4","last_reported":1679753140,"current_range_meters":1600,"station_id":"","pricing_plan_id":"free"},{"bike_id":"f4da5c1e-bb08-42ce-92e5-2768460b386c","system_id":"levelo_inurba_marseille","lat":43.331718,"lon":5.431743,"is_reserved":false,"is_disabled":false,"rental_uris":{"android":"levelo://app?vid=f4da5c1e-bb08-42ce-92e5-2768460b386c","ios":"levelo://app?vid=f4da5c1e-bb08-42ce-92e5-2768460b386c"},"vehicle_type_id":"4","last_reported":1679753140,"current_range_meters":8400,"station_id":"","pricing_plan_id":"free"},{"bike_id":"a61c77d5-7edd-49f7-8e37-029b6a92df8c","system_id":"levelo_inurba_marseille","lat":43.261782,"lon":5.374515,"is_reserved":false,"is_disabled":false,"rental_uris":{"android":"levelo://app?vid=a61c77d5-7edd-49f7-8e37-029b6a92df8c","ios":"levelo://app?vid=a61c77d5-7edd-49f7-8e37-029b6a92df8c"},"vehicle_type_id":"4","last_reported":1679753140,"current_range_meters":13600,"station_id":"ce4bhgp2rcd13ifvqfc0","pricing_plan_id":"free"},{"bike_id":"450f0609-f1c7-4cb9-b53a-4b7388ac4803","system_id":"levelo_inurba_marseille","lat":43.26188,"lon":5.374477,"is_reserved":false,"is_disabled":false,"rental_uris":{"android":"levelo://app?vid=450f0609-f1c7-4cb9-b53a-4b7388ac4803","ios":"levelo://app?vid=450f0609-f1c7-4cb9-b53a-4b7388ac4803"},"vehicle_type_id":"4","last_reported":1679753140,"current_range_meters":2800,"station_id":"","pricing_plan_id":"free"},{"bike_id":"2600d7f0-739b-48f0-8c51-a73a74fea705","system_id":"levelo_inurba_marseille","lat":43.261782,"lon":5.374515,"is_reserved":false,"is_disabled":false,"rental_uris":{"android":"levelo://app?vid=2600d7f0-739b-48f0-8c51-a73a74fea705","ios":"levelo://app?vid=2600d7f0-739b-48f0-8c51-a73a74fea705"},"vehicle_type_id":"4","last_reported":1679753140,"current_range_meters":4400,"station_id":"ce4bhgp2rcd13ifvqfc0","pricing_plan_id":"free"},{"bike_id":"4a1173c6-f707-4bde-b77e-c0a3b007563d","system_id":"levelo_inurba_marseille","lat":43.261782,"lon":5.374515,"is_reserved":false,"is_disabled":false,"rental_uris":{"android":"levelo://app?vid=4a1173c6-f707-4bde-b77e-c0a3b007563d","ios":"levelo://app?vid=4a1173c6-f707-4bde-b77e-c0a3b007563d"},"vehicle_type_id":"4","last_reported":1679753140,"current_range_meters":27600,"station_id":"ce4bhgp2rcd13ifvqfc0","pricing_plan_id":"free"},{"bike_id":"88ae3b94-4faa-49ac-ba49-69f5bc9b40b4","system_id":"levelo_inurba_marseille","lat":43.262012,"lon":5.379307,"is_reserved":false,"is_disabled":false,"rental_uris":{"android":"levelo://app?vid=88ae3b94-4faa-49ac-ba49-69f5bc9b40b4","ios":"levelo://app?vid=88ae3b94-4faa-49ac-ba49-69f5bc9b40b4"},"vehicle_type_id":"4","last_reported":1679753140,"current_range_meters":25600,"station_id":"ce4bhjp2rcd13ifvqg90","pricing_plan_id":"free"},{"bike_id":"98375606-3945-4dc5-bf4e-e8309b18af0f","system_id":"levelo_inurba_marseille","lat":43.262012,"lon":5.379307,"is_reserved":false,"is_disabled":false,"rental_uris":{"android":"levelo://app?vid=98375606-3945-4dc5-bf4e-e8309b18af0f","ios":"levelo://app?vid=98375606-3945-4dc5-bf4e-e8309b18af0f"},"vehicle_type_id":"4","last_reported":1679753140,"current_range_meters":26000,"station_id":"ce4bhjp2rcd13ifvqg90","pricing_plan_id":"free"},{"bike_id":"7665aab4-a6c0-402c-800b-2a83837a59e7","system_id":"levelo_inurba_marseille","lat":43.262012,"lon":5.379307,"is_reserved":false,"is_disabled":false,"rental_uris":{"android":"levelo://app?vid=7665aab4-a6c0-402c-800b-2a83837a59e7","ios":"levelo://app?vid=7665aab4-a6c0-402c-800b-2a83837a59e7"},"vehicle_type_id":"4","last_reported":1679753140,"current_range_meters":12000,"station_id":"ce4bhjp2rcd13ifvqg90","pricing_plan_id":"free"},{"bike_id":"c16c8da0-4f83-4de6-aab6-15be1a4308cc","system_id":"levelo_inurba_marseille","lat":43.260909,"lon":5.397591,"is_reserved":false,"is_disabled":false,"rental_uris":{"android":"levelo://app?vid=c16c8da0-4f83-4de6-aab6-15be1a4308cc","ios":"levelo://app?vid=c16c8da0-4f83-4de6-aab6-15be1a4308cc"},"vehicle_type_id":"4","last_reported":1679753140,"current_range_meters":2400,"station_id":"ce4bhi12rcd13ifvqfq0","pricing_plan_id":"free"},{"bike_id":"c56be640-99ca-4a08-812e-76dc58255717","system_id":"levelo_inurba_marseille","lat":43.254947,"lon":5.376454,"is_reserved":false,"is_disabled":false,"rental_uris":{"android":"levelo://app?vid=c56be640-99ca-4a08-812e-76dc58255717","ios":"levelo://app?vid=c56be640-99ca-4a08-812e-76dc58255717"},"vehicle_type_id":"4","last_reported":1679753140,"current_range_meters":2000,"station_id":"ce4bhh12rcd13ifvqff0","pricing_plan_id":"free"},{"bike_id":"29dc2265-2bd4-415e-8865-33e212c4717a","system_id":"levelo_inurba_marseille","lat":43.254947,"lon":5.376454,"is_reserved":false,"is_disabled":false,"rental_uris":{"android":"levelo://app?vid=29dc2265-2bd4-415e-8865-33e212c4717a","ios":"levelo://app?vid=29dc2265-2bd4-415e-8865-33e212c4717a"},"vehicle_type_id":"4","last_reported":1679753140,"current_range_meters":1200,"station_id":"ce4bhh12rcd13ifvqff0","pricing_plan_id":"free"},{"bike_id":"9847bdfe-61fa-4482-9307-14e31d347267","system_id":"levelo_inurba_marseille","lat":43.254947,"lon":5.376454,"is_reserved":false,"is_disabled":false,"rental_uris":{"android":"levelo://app?vid=9847bdfe-61fa-4482-9307-14e31d347267","ios":"levelo://app?vid=9847bdfe-61fa-4482-9307-14e31d347267"},"vehicle_type_id":"4","last_reported":1679753140,"current_range_meters":16000,"station_id":"ce4bhh12rcd13ifvqff0","pricing_plan_id":"free"},{"bike_id":"9396bb22-3f7b-4e9d-a53a-cbff3e6d6bf8","system_id":"levelo_inurba_marseille","lat":43.254947,"lon":5.376454,"is_reserved":false,"is_disabled":false,"rental_uris":{"android":"levelo://app?vid=9396bb22-3f7b-4e9d-a53a-cbff3e6d6bf8","ios":"levelo://app?vid=9396bb22-3f7b-4e9d-a53a-cbff3e6d6bf8"},"vehicle_type_id":"4","last_reported":1679753140,"current_range_meters":19600,"station_id":"ce4bhh12rcd13ifvqff0","pricing_plan_id":"free"},{"bike_id":"e077bb26-5eb9-4d8b-a346-d32267b3967a","system_id":"levelo_inurba_marseille","lat":43.254947,"lon":5.376454,"is_reserved":false,"is_disabled":false,"rental_uris":{"android":"levelo://app?vid=e077bb26-5eb9-4d8b-a346-d32267b3967a","ios":"levelo://app?vid=e077bb26-5eb9-4d8b-a346-d32267b3967a"},"vehicle_type_id":"4","last_reported":1679753140,"current_range_meters":0,"station_id":"ce4bhh12rcd13ifvqff0","pricing_plan_id":"free"},{"bike_id":"d942e7bc-d163-4ec2-8ed9-12df7ceb6059","system_id":"levelo_inurba_marseille","lat":43.27068,"lon":5.42276,"is_reserved":false,"is_disabled":false,"rental_uris":{"android":"levelo://app?vid=d942e7bc-d163-4ec2-8ed9-12df7ceb6059","ios":"levelo://app?vid=d942e7bc-d163-4ec2-8ed9-12df7ceb6059"},"vehicle_type_id":"4","last_reported":1679753140,"current_range_meters":18800,"station_id":"ce4bhk92rcd13ifvqgb0","pricing_plan_id":"free"},{"bike_id":"ab4d318c-fd27-4b0e-87f9-dacadb03b1c5","system_id":"levelo_inurba_marseille","lat":43.270721,"lon":5.422764,"is_reserved":false,"is_disabled":false,"rental_uris":{"android":"levelo://app?vid=ab4d318c-fd27-4b0e-87f9-dacadb03b1c5","ios":"levelo://app?vid=ab4d318c-fd27-4b0e-87f9-dacadb03b1c5"},"vehicle_type_id":"4","last_reported":1679753140,"current_range_meters":29200,"station_id":"ce4bhk92rcd13ifvqgb0","pricing_plan_id":"free"},{"bike_id":"0cea32a9-f6df-4bf0-b745-4fd748580235","system_id":"levelo_inurba_marseille","lat":43.270721,"lon":5.422764,"is_reserved":false,"is_disabled":false,"rental_uris":{"android":"levelo://app?vid=0cea32a9-f6df-4bf0-b745-4fd748580235","ios":"levelo://app?vid=0cea32a9-f6df-4bf0-b745-4fd748580235"},"vehicle_type_id":"4","last_reported":1679753140,"current_range_meters":8800,"station_id":"ce4bhk92rcd13ifvqgb0","pricing_plan_id":"free"},{"bike_id":"256f775a-1693-493d-9eed-e6166582b6e0","system_id":"levelo_inurba_marseille","lat":43.27069,"lon":5.42278,"is_reserved":false,"is_disabled":false,"rental_uris":{"android":"levelo://app?vid=256f775a-1693-493d-9eed-e6166582b6e0","ios":"levelo://app?vid=256f775a-1693-493d-9eed-e6166582b6e0"},"vehicle_type_id":"4","last_reported":1679753140,"current_range_meters":25600,"station_id":"ce4bhk92rcd13ifvqgb0","pricing_plan_id":"free"},{"bike_id":"9a7f1d8e-b4fe-4907-91ab-3849e9e6e6d7","system_id":"levelo_inurba_marseille","lat":43.270721,"lon":5.422764,"is_reserved":false,"is_disabled":false,"rental_uris":{"android":"levelo://app?vid=9a7f1d8e-b4fe-4907-91ab-3849e9e6e6d7","ios":"levelo://app?vid=9a7f1d8e-b4fe-4907-91ab-3849e9e6e6d7"},"vehicle_type_id":"4","last_reported":1679753140,"current_range_meters":18800,"station_id":"ce4bhk92rcd13ifvqgb0","pricing_plan_id":"free"},{"bike_id":"76159367-dd07-437a-bcd1-b78c8cea46dd","system_id":"levelo_inurba_marseille","lat":43.270721,"lon":5.422764,"is_reserved":false,"is_disabled":false,"rental_uris":{"android":"levelo://app?vid=76159367-dd07-437a-bcd1-b78c8cea46dd","ios":"levelo://app?vid=76159367-dd07-437a-bcd1-b78c8cea46dd"},"vehicle_type_id":"4","last_reported":1679753140,"current_range_meters":23200,"station_id":"ce4bhk92rcd13ifvqgb0","pricing_plan_id":"free"},{"bike_id":"bbb05ca3-7a4b-4951-b150-36d7be974446","system_id":"levelo_inurba_marseille","lat":43.27069,"lon":5.42281,"is_reserved":false,"is_disabled":false,"rental_uris":{"android":"levelo://app?vid=bbb05ca3-7a4b-4951-b150-36d7be974446","ios":"levelo://app?vid=bbb05ca3-7a4b-4951-b150-36d7be974446"},"vehicle_type_id":"4","last_reported":1679753140,"current_range_meters":20000,"station_id":"ce4bhk92rcd13ifvqgb0","pricing_plan_id":"free"},{"bike_id":"0f3f6354-1dc7-425b-8593-49dcce7d67b8","system_id":"levelo_inurba_marseille","lat":43.27065,"lon":5.42278,"is_reserved":false,"is_disabled":false,"rental_uris":{"android":"levelo://app?vid=0f3f6354-1dc7-425b-8593-49dcce7d67b8","ios":"levelo://app?vid=0f3f6354-1dc7-425b-8593-49dcce7d67b8"},"vehicle_type_id":"4","last_reported":1679753140,"current_range_meters":0,"station_id":"ce4bhk92rcd13ifvqgb0","pricing_plan_id":"free"},{"bike_id":"7d5f1084-5a91-4e9d-ac4a-dc3dcf594196","system_id":"levelo_inurba_marseille","lat":43.25002,"lon":5.38942,"is_reserved":false,"is_disabled":false,"rental_uris":{"android":"levelo://app?vid=7d5f1084-5a91-4e9d-ac4a-dc3dcf594196","ios":"levelo://app?vid=7d5f1084-5a91-4e9d-ac4a-dc3dcf594196"},"vehicle_type_id":"4","last_reported":1679753140,"current_range_meters":14400,"station_id":"","pricing_plan_id":"free"},{"bike_id":"808f48c8-62b8-4ba7-8c3d-78d1a00f8ec6","system_id":"levelo_inurba_marseille","lat":43.2479,"lon":5.374457,"is_reserved":false,"is_disabled":false,"rental_uris":{"android":"levelo://app?vid=808f48c8-62b8-4ba7-8c3d-78d1a00f8ec6","ios":"levelo://app?vid=808f48c8-62b8-4ba7-8c3d-78d1a00f8ec6"},"vehicle_type_id":"4","last_reported":1679753140,"current_range_meters":20400,"station_id":"ce4bhgh2rcd13ifvqfb0","pricing_plan_id":"free"},{"bike_id":"808e09c1-6072-4ea9-80e7-1a221b30ad57","system_id":"levelo_inurba_marseille","lat":43.2479,"lon":5.374457,"is_reserved":false,"is_disabled":false,"rental_uris":{"android":"levelo://app?vid=808e09c1-6072-4ea9-80e7-1a221b30ad57","ios":"levelo://app?vid=808e09c1-6072-4ea9-80e7-1a221b30ad57"},"vehicle_type_id":"4","last_reported":1679753140,"current_range_meters":0,"station_id":"ce4bhgh2rcd13ifvqfb0","pricing_plan_id":"free"},{"bike_id":"b25085fb-2c5e-414d-9e5f-9742c731faa5","system_id":"levelo_inurba_marseille","lat":43.24693,"lon":5.382096,"is_reserved":false,"is_disabled":false,"rental_uris":{"android":"levelo://app?vid=b25085fb-2c5e-414d-9e5f-9742c731faa5","ios":"levelo://app?vid=b25085fb-2c5e-414d-9e5f-9742c731faa5"},"vehicle_type_id":"4","last_reported":1679753140,"current_range_meters":3600,"station_id":"ce4bhih2rcd13ifvqfr0","pricing_plan_id":"free"},{"bike_id":"e7102e86-0b67-4ce1-83f6-dd5c23852d43","system_id":"levelo_inurba_marseille","lat":43.24693,"lon":5.382096,"is_reserved":false,"is_disabled":false,"rental_uris":{"android":"levelo://app?vid=e7102e86-0b67-4ce1-83f6-dd5c23852d43","ios":"levelo://app?vid=e7102e86-0b67-4ce1-83f6-dd5c23852d43"},"vehicle_type_id":"4","last_reported":1679753140,"current_range_meters":18400,"station_id":"ce4bhih2rcd13ifvqfr0","pricing_plan_id":"free"},{"bike_id":"88c11197-86c5-4b4d-979b-0e358d5d8581","system_id":"levelo_inurba_marseille","lat":43.24693,"lon":5.382096,"is_reserved":false,"is_disabled":false,"rental_uris":{"android":"levelo://app?vid=88c11197-86c5-4b4d-979b-0e358d5d8581","ios":"levelo://app?vid=88c11197-86c5-4b4d-979b-0e358d5d8581"},"vehicle_type_id":"4","last_reported":1679753140,"current_range_meters":800,"station_id":"ce4bhih2rcd13ifvqfr0","pricing_plan_id":"free"},{"bike_id":"39a85303-b5ba-4aaa-a2bc-c5533c653b3f","system_id":"levelo_inurba_marseille","lat":43.24887,"lon":5.39713,"is_reserved":false,"is_disabled":false,"rental_uris":{"android":"levelo://app?vid=39a85303-b5ba-4aaa-a2bc-c5533c653b3f","ios":"levelo://app?vid=39a85303-b5ba-4aaa-a2bc-c5533c653b3f"},"vehicle_type_id":"4","last_reported":1679753140,"current_range_meters":28800,"station_id":"","pricing_plan_id":"free"},{"bike_id":"038056e9-89fa-4c34-89ca-e9ccdc6ac984","system_id":"levelo_inurba_marseille","lat":43.243963,"lon":5.370473,"is_reserved":false,"is_disabled":false,"rental_uris":{"android":"levelo://app?vid=038056e9-89fa-4c34-89ca-e9ccdc6ac984","ios":"levelo://app?vid=038056e9-89fa-4c34-89ca-e9ccdc6ac984"},"vehicle_type_id":"4","last_reported":1679753140,"current_range_meters":16000,"station_id":"ce4bhhh2rcd13ifvqfk0","pricing_plan_id":"free"},{"bike_id":"1be19081-6dec-4122-a741-2642bc21a1e5","system_id":"levelo_inurba_marseille","lat":43.24395,"lon":5.370557,"is_reserved":false,"is_disabled":false,"rental_uris":{"android":"levelo://app?vid=1be19081-6dec-4122-a741-2642bc21a1e5","ios":"levelo://app?vid=1be19081-6dec-4122-a741-2642bc21a1e5"},"vehicle_type_id":"4","last_reported":1679753140,"current_range_meters":400,"station_id":"ce4bhhh2rcd13ifvqfk0","pricing_plan_id":"free"},{"bike_id":"97086790-35ae-40af-ae12-3e4be095dc7d","system_id":"levelo_inurba_marseille","lat":43.24395,"lon":5.37056,"is_reserved":false,"is_disabled":false,"rental_uris":{"android":"levelo://app?vid=97086790-35ae-40af-ae12-3e4be095dc7d","ios":"levelo://app?vid=97086790-35ae-40af-ae12-3e4be095dc7d"},"vehicle_type_id":"4","last_reported":1679753140,"current_range_meters":3200,"station_id":"","pricing_plan_id":"free"},{"bike_id":"8c440afa-c24c-4188-979a-0f28d2706f8c","system_id":"levelo_inurba_marseille","lat":43.24393,"lon":5.37057,"is_reserved":false,"is_disabled":false,"rental_uris":{"android":"levelo://app?vid=8c440afa-c24c-4188-979a-0f28d2706f8c","ios":"levelo://app?vid=8c440afa-c24c-4188-979a-0f28d2706f8c"},"vehicle_type_id":"4","last_reported":1679753140,"current_range_meters":20400,"station_id":"ce4bhhh2rcd13ifvqfk0","pricing_plan_id":"free"},{"bike_id":"b8284361-05ba-4e56-a2b5-d79c374b7f64","system_id":"levelo_inurba_marseille","lat":43.24393,"lon":5.37058,"is_reserved":false,"is_disabled":false,"rental_uris":{"android":"levelo://app?vid=b8284361-05ba-4e56-a2b5-d79c374b7f64","ios":"levelo://app?vid=b8284361-05ba-4e56-a2b5-d79c374b7f64"},"vehicle_type_id":"4","last_reported":1679753140,"current_range_meters":2800,"station_id":"ce4bhhh2rcd13ifvqfk0","pricing_plan_id":"free"},{"bike_id":"2fb50ead-1513-467e-9598-59a47d3e01f7","system_id":"levelo_inurba_marseille","lat":43.24393,"lon":5.37061,"is_reserved":false,"is_disabled":false,"rental_uris":{"android":"levelo://app?vid=2fb50ead-1513-467e-9598-59a47d3e01f7","ios":"levelo://app?vid=2fb50ead-1513-467e-9598-59a47d3e01f7"},"vehicle_type_id":"4","last_reported":1679753140,"current_range_meters":3200,"station_id":"ce4bhhh2rcd13ifvqfk0","pricing_plan_id":"free"},{"bike_id":"ccf828da-3daa-47c1-9c78-112987e6c8c9","system_id":"levelo_inurba_marseille","lat":43.24392,"lon":5.370587,"is_reserved":false,"is_disabled":false,"rental_uris":{"android":"levelo://app?vid=ccf828da-3daa-47c1-9c78-112987e6c8c9","ios":"levelo://app?vid=ccf828da-3daa-47c1-9c78-112987e6c8c9"},"vehicle_type_id":"4","last_reported":1679753140,"current_range_meters":22400,"station_id":"","pricing_plan_id":"free"},{"bike_id":"0427475b-e163-4f62-8e2d-a717860fdb1c","system_id":"levelo_inurba_marseille","lat":43.243884,"lon":5.370736,"is_reserved":false,"is_disabled":false,"rental_uris":{"android":"levelo://app?vid=0427475b-e163-4f62-8e2d-a717860fdb1c","ios":"levelo://app?vid=0427475b-e163-4f62-8e2d-a717860fdb1c"},"vehicle_type_id":"4","last_reported":1679753140,"current_range_meters":30800,"station_id":"ce4bhhh2rcd13ifvqfk0","pricing_plan_id":"free"},{"bike_id":"ce995ae6-440b-479d-97d0-3f882b32cdf7","system_id":"levelo_inurba_marseille","lat":43.243884,"lon":5.370736,"is_reserved":false,"is_disabled":false,"rental_uris":{"android":"levelo://app?vid=ce995ae6-440b-479d-97d0-3f882b32cdf7","ios":"levelo://app?vid=ce995ae6-440b-479d-97d0-3f882b32cdf7"},"vehicle_type_id":"4","last_reported":1679753140,"current_range_meters":16000,"station_id":"ce4bhhh2rcd13ifvqfk0","pricing_plan_id":"free"},{"bike_id":"76980e4f-48c2-467f-8b49-348241edaec5","system_id":"levelo_inurba_marseille","lat":43.243884,"lon":5.370736,"is_reserved":false,"is_disabled":false,"rental_uris":{"android":"levelo://app?vid=76980e4f-48c2-467f-8b49-348241edaec5","ios":"levelo://app?vid=76980e4f-48c2-467f-8b49-348241edaec5"},"vehicle_type_id":"4","last_reported":1679753140,"current_range_meters":1600,"station_id":"ce4bhhh2rcd13ifvqfk0","pricing_plan_id":"free"},{"bike_id":"aefa0029-ca7e-44e1-9256-5c06cf714c39","system_id":"levelo_inurba_marseille","lat":43.2439,"lon":5.370647,"is_reserved":false,"is_disabled":false,"rental_uris":{"android":"levelo://app?vid=aefa0029-ca7e-44e1-9256-5c06cf714c39","ios":"levelo://app?vid=aefa0029-ca7e-44e1-9256-5c06cf714c39"},"vehicle_type_id":"4","last_reported":1679753140,"current_range_meters":12800,"station_id":"ce4bhhh2rcd13ifvqfk0","pricing_plan_id":"free"},{"bike_id":"883c10e8-b26a-4cd7-a94e-3543f280c8f0","system_id":"levelo_inurba_marseille","lat":43.243884,"lon":5.370736,"is_reserved":false,"is_disabled":false,"rental_uris":{"android":"levelo://app?vid=883c10e8-b26a-4cd7-a94e-3543f280c8f0","ios":"levelo://app?vid=883c10e8-b26a-4cd7-a94e-3543f280c8f0"},"vehicle_type_id":"4","last_reported":1679753140,"current_range_meters":8400,"station_id":"ce4bhhh2rcd13ifvqfk0","pricing_plan_id":"free"},{"bike_id":"97abda5a-dee9-4dd5-889a-478fba2723bf","system_id":"levelo_inurba_marseille","lat":43.243884,"lon":5.370736,"is_reserved":false,"is_disabled":false,"rental_uris":{"android":"levelo://app?vid=97abda5a-dee9-4dd5-889a-478fba2723bf","ios":"levelo://app?vid=97abda5a-dee9-4dd5-889a-478fba2723bf"},"vehicle_type_id":"4","last_reported":1679753140,"current_range_meters":24000,"station_id":"ce4bhhh2rcd13ifvqfk0","pricing_plan_id":"free"},{"bike_id":"7c9b492f-4e74-46fe-bb29-f0d488514e2e","system_id":"levelo_inurba_marseille","lat":43.24388,"lon":5.37058,"is_reserved":false,"is_disabled":false,"rental_uris":{"android":"levelo://app?vid=7c9b492f-4e74-46fe-bb29-f0d488514e2e","ios":"levelo://app?vid=7c9b492f-4e74-46fe-bb29-f0d488514e2e"},"vehicle_type_id":"4","last_reported":1679753140,"current_range_meters":20400,"station_id":"ce4bhhh2rcd13ifvqfk0","pricing_plan_id":"free"},{"bike_id":"60015676-6411-4cb6-8258-b1137e143d48","system_id":"levelo_inurba_marseille","lat":43.243865,"lon":5.37056,"is_reserved":false,"is_disabled":false,"rental_uris":{"android":"levelo://app?vid=60015676-6411-4cb6-8258-b1137e143d48","ios":"levelo://app?vid=60015676-6411-4cb6-8258-b1137e143d48"},"vehicle_type_id":"4","last_reported":1679753140,"current_range_meters":13600,"station_id":"","pricing_plan_id":"free"},{"bike_id":"fd011b43-dfaa-498e-8403-aead510497e9","system_id":"levelo_inurba_marseille","lat":43.245581,"lon":5.395069,"is_reserved":false,"is_disabled":false,"rental_uris":{"android":"levelo://app?vid=fd011b43-dfaa-498e-8403-aead510497e9","ios":"levelo://app?vid=fd011b43-dfaa-498e-8403-aead510497e9"},"vehicle_type_id":"4","last_reported":1679753140,"current_range_meters":10000,"station_id":"ce4bhlp2rcd13ifvqgjg","pricing_plan_id":"free"},{"bike_id":"45b25faf-d89f-48b1-a679-49de1032249e","system_id":"levelo_inurba_marseille","lat":43.245581,"lon":5.395069,"is_reserved":false,"is_disabled":false,"rental_uris":{"android":"levelo://app?vid=45b25faf-d89f-48b1-a679-49de1032249e","ios":"levelo://app?vid=45b25faf-d89f-48b1-a679-49de1032249e"},"vehicle_type_id":"4","last_reported":1679753140,"current_range_meters":19200,"station_id":"ce4bhlp2rcd13ifvqgjg","pricing_plan_id":"free"},{"bike_id":"bf0400c3-2d88-45af-b517-177825997445","system_id":"levelo_inurba_marseille","lat":43.24549,"lon":5.39524,"is_reserved":false,"is_disabled":false,"rental_uris":{"android":"levelo://app?vid=bf0400c3-2d88-45af-b517-177825997445","ios":"levelo://app?vid=bf0400c3-2d88-45af-b517-177825997445"},"vehicle_type_id":"4","last_reported":1679753140,"current_range_meters":6800,"station_id":"","pricing_plan_id":"free"},{"bike_id":"60198538-92fa-49af-8f15-9377f1836157","system_id":"levelo_inurba_marseille","lat":43.240623,"lon":5.377642,"is_reserved":false,"is_disabled":false,"rental_uris":{"android":"levelo://app?vid=60198538-92fa-49af-8f15-9377f1836157","ios":"levelo://app?vid=60198538-92fa-49af-8f15-9377f1836157"},"vehicle_type_id":"4","last_reported":1679753140,"current_range_meters":26400,"station_id":"ce4bhnp2rcd13ifvqgvg","pricing_plan_id":"free"},{"bike_id":"4112d572-976f-4670-a132-38d30b5aba0d","system_id":"levelo_inurba_marseille","lat":43.240623,"lon":5.377642,"is_reserved":false,"is_disabled":false,"rental_uris":{"android":"levelo://app?vid=4112d572-976f-4670-a132-38d30b5aba0d","ios":"levelo://app?vid=4112d572-976f-4670-a132-38d30b5aba0d"},"vehicle_type_id":"4","last_reported":1679753140,"current_range_meters":24400,"station_id":"ce4bhnp2rcd13ifvqgvg","pricing_plan_id":"free"},{"bike_id":"740f947e-2400-4457-86ba-fc3770b8e924","system_id":"levelo_inurba_marseille","lat":43.239588,"lon":5.366238,"is_reserved":false,"is_disabled":false,"rental_uris":{"android":"levelo://app?vid=740f947e-2400-4457-86ba-fc3770b8e924","ios":"levelo://app?vid=740f947e-2400-4457-86ba-fc3770b8e924"},"vehicle_type_id":"4","last_reported":1679753140,"current_range_meters":15600,"station_id":"ce4bhi12rcd13ifvqfp0","pricing_plan_id":"free"},{"bike_id":"8d175d36-5714-41d6-80c0-4715f7f5bdaf","system_id":"levelo_inurba_marseille","lat":43.239588,"lon":5.366238,"is_reserved":false,"is_disabled":false,"rental_uris":{"android":"levelo://app?vid=8d175d36-5714-41d6-80c0-4715f7f5bdaf","ios":"levelo://app?vid=8d175d36-5714-41d6-80c0-4715f7f5bdaf"},"vehicle_type_id":"4","last_reported":1679753140,"current_range_meters":1600,"station_id":"ce4bhi12rcd13ifvqfp0","pricing_plan_id":"free"},{"bike_id":"423e8be0-aca7-4942-8ddc-917655873f7d","system_id":"levelo_inurba_marseille","lat":43.239588,"lon":5.366238,"is_reserved":false,"is_disabled":false,"rental_uris":{"android":"levelo://app?vid=423e8be0-aca7-4942-8ddc-917655873f7d","ios":"levelo://app?vid=423e8be0-aca7-4942-8ddc-917655873f7d"},"vehicle_type_id":"4","last_reported":1679753140,"current_range_meters":26000,"station_id":"ce4bhi12rcd13ifvqfp0","pricing_plan_id":"free"},{"bike_id":"9ab7c240-4572-4673-8615-dfd7d6b2ef81","system_id":"levelo_inurba_marseille","lat":43.239588,"lon":5.366238,"is_reserved":false,"is_disabled":false,"rental_uris":{"android":"levelo://app?vid=9ab7c240-4572-4673-8615-dfd7d6b2ef81","ios":"levelo://app?vid=9ab7c240-4572-4673-8615-dfd7d6b2ef81"},"vehicle_type_id":"4","last_reported":1679753140,"current_range_meters":9600,"station_id":"ce4bhi12rcd13ifvqfp0","pricing_plan_id":"free"},{"bike_id":"fa4cc075-c489-4101-bd07-0e04fb247067","system_id":"levelo_inurba_marseille","lat":43.239588,"lon":5.366238,"is_reserved":false,"is_disabled":false,"rental_uris":{"android":"levelo://app?vid=fa4cc075-c489-4101-bd07-0e04fb247067","ios":"levelo://app?vid=fa4cc075-c489-4101-bd07-0e04fb247067"},"vehicle_type_id":"4","last_reported":1679753140,"current_range_meters":7200,"station_id":"ce4bhi12rcd13ifvqfp0","pricing_plan_id":"free"},{"bike_id":"0357b71c-b333-4906-a82f-4a9f59fc89e1","system_id":"levelo_inurba_marseille","lat":43.241764,"lon":5.397307,"is_reserved":false,"is_disabled":false,"rental_uris":{"android":"levelo://app?vid=0357b71c-b333-4906-a82f-4a9f59fc89e1","ios":"levelo://app?vid=0357b71c-b333-4906-a82f-4a9f59fc89e1"},"vehicle_type_id":"4","last_reported":1679753140,"current_range_meters":30800,"station_id":"","pricing_plan_id":"free"},{"bike_id":"5ee54bb2-3b66-464a-b87d-f0f78d6b7832","system_id":"levelo_inurba_marseille","lat":43.24175,"lon":5.39726,"is_reserved":false,"is_disabled":false,"rental_uris":{"android":"levelo://app?vid=5ee54bb2-3b66-464a-b87d-f0f78d6b7832","ios":"levelo://app?vid=5ee54bb2-3b66-464a-b87d-f0f78d6b7832"},"vehicle_type_id":"4","last_reported":1679753140,"current_range_meters":26400,"station_id":"","pricing_plan_id":"free"},{"bike_id":"019bd4a4-8de6-44b8-b4e2-89304f61e497","system_id":"levelo_inurba_marseille","lat":43.23201,"lon":5.35548,"is_reserved":false,"is_disabled":false,"rental_uris":{"android":"levelo://app?vid=019bd4a4-8de6-44b8-b4e2-89304f61e497","ios":"levelo://app?vid=019bd4a4-8de6-44b8-b4e2-89304f61e497"},"vehicle_type_id":"4","last_reported":1679753140,"current_range_meters":16400,"station_id":"","pricing_plan_id":"free"},{"bike_id":"e44cf133-4134-488e-93ad-50f9a61ac4be","system_id":"levelo_inurba_marseille","lat":43.231923,"lon":5.355545,"is_reserved":false,"is_disabled":false,"rental_uris":{"android":"levelo://app?vid=e44cf133-4134-488e-93ad-50f9a61ac4be","ios":"levelo://app?vid=e44cf133-4134-488e-93ad-50f9a61ac4be"},"vehicle_type_id":"4","last_reported":1679753140,"current_range_meters":26800,"station_id":"ce4bhu92rcd13ifvqi70","pricing_plan_id":"free"},{"bike_id":"f445d2c9-5f4b-48ba-999d-001fd23e4ef2","system_id":"levelo_inurba_marseille","lat":43.231923,"lon":5.355545,"is_reserved":false,"is_disabled":false,"rental_uris":{"android":"levelo://app?vid=f445d2c9-5f4b-48ba-999d-001fd23e4ef2","ios":"levelo://app?vid=f445d2c9-5f4b-48ba-999d-001fd23e4ef2"},"vehicle_type_id":"4","last_reported":1679753140,"current_range_meters":20000,"station_id":"ce4bhu92rcd13ifvqi70","pricing_plan_id":"free"},{"bike_id":"f4c9fa02-6673-47ae-b26b-85f7a4e285a9","system_id":"levelo_inurba_marseille","lat":43.23195,"lon":5.35559,"is_reserved":false,"is_disabled":false,"rental_uris":{"android":"levelo://app?vid=f4c9fa02-6673-47ae-b26b-85f7a4e285a9","ios":"levelo://app?vid=f4c9fa02-6673-47ae-b26b-85f7a4e285a9"},"vehicle_type_id":"4","last_reported":1679753140,"current_range_meters":9600,"station_id":"","pricing_plan_id":"free"},{"bike_id":"0f0d1f18-7f44-49fb-bed6-870f976efeeb","system_id":"levelo_inurba_marseille","lat":43.23195,"lon":5.35558,"is_reserved":false,"is_disabled":false,"rental_uris":{"android":"levelo://app?vid=0f0d1f18-7f44-49fb-bed6-870f976efeeb","ios":"levelo://app?vid=0f0d1f18-7f44-49fb-bed6-870f976efeeb"},"vehicle_type_id":"4","last_reported":1679753140,"current_range_meters":8800,"station_id":"ce4bhu92rcd13ifvqi70","pricing_plan_id":"free"},{"bike_id":"833a8584-177c-439a-a0ba-63f867faf7ad","system_id":"levelo_inurba_marseille","lat":43.23195,"lon":5.35558,"is_reserved":false,"is_disabled":false,"rental_uris":{"android":"levelo://app?vid=833a8584-177c-439a-a0ba-63f867faf7ad","ios":"levelo://app?vid=833a8584-177c-439a-a0ba-63f867faf7ad"},"vehicle_type_id":"4","last_reported":1679753140,"current_range_meters":22000,"station_id":"","pricing_plan_id":"free"},{"bike_id":"8f29d53d-4a7b-4da1-a8a8-ee53f58a52f1","system_id":"levelo_inurba_marseille","lat":43.231923,"lon":5.355545,"is_reserved":false,"is_disabled":false,"rental_uris":{"android":"levelo://app?vid=8f29d53d-4a7b-4da1-a8a8-ee53f58a52f1","ios":"levelo://app?vid=8f29d53d-4a7b-4da1-a8a8-ee53f58a52f1"},"vehicle_type_id":"4","last_reported":1679753140,"current_range_meters":11200,"station_id":"ce4bhu92rcd13ifvqi70","pricing_plan_id":"free"},{"bike_id":"561b357c-d253-43f0-a1b3-42faecc80b2d","system_id":"levelo_inurba_marseille","lat":43.23195,"lon":5.35553,"is_reserved":false,"is_disabled":false,"rental_uris":{"android":"levelo://app?vid=561b357c-d253-43f0-a1b3-42faecc80b2d","ios":"levelo://app?vid=561b357c-d253-43f0-a1b3-42faecc80b2d"},"vehicle_type_id":"4","last_reported":1679753140,"current_range_meters":13200,"station_id":"","pricing_plan_id":"free"},{"bike_id":"d7705915-3e5c-42df-b23b-4cb320f207c1","system_id":"levelo_inurba_marseille","lat":43.23195,"lon":5.35548,"is_reserved":false,"is_disabled":false,"rental_uris":{"android":"levelo://app?vid=d7705915-3e5c-42df-b23b-4cb320f207c1","ios":"levelo://app?vid=d7705915-3e5c-42df-b23b-4cb320f207c1"},"vehicle_type_id":"4","last_reported":1679753140,"current_range_meters":18000,"station_id":"","pricing_plan_id":"free"},{"bike_id":"0e762fb1-3574-4850-9e51-936748f8fbd4","system_id":"levelo_inurba_marseille","lat":43.23194,"lon":5.35557,"is_reserved":false,"is_disabled":false,"rental_uris":{"android":"levelo://app?vid=0e762fb1-3574-4850-9e51-936748f8fbd4","ios":"levelo://app?vid=0e762fb1-3574-4850-9e51-936748f8fbd4"},"vehicle_type_id":"4","last_reported":1679753140,"current_range_meters":22000,"station_id":"ce4bhu92rcd13ifvqi70","pricing_plan_id":"free"},{"bike_id":"a4fa0c9b-8254-43d7-a7f3-388ca5c1a4d8","system_id":"levelo_inurba_marseille","lat":43.231923,"lon":5.355545,"is_reserved":false,"is_disabled":false,"rental_uris":{"android":"levelo://app?vid=a4fa0c9b-8254-43d7-a7f3-388ca5c1a4d8","ios":"levelo://app?vid=a4fa0c9b-8254-43d7-a7f3-388ca5c1a4d8"},"vehicle_type_id":"4","last_reported":1679753140,"current_range_meters":15200,"station_id":"ce4bhu92rcd13ifvqi70","pricing_plan_id":"free"},{"bike_id":"e9fbfb04-cf05-4a2d-a6f5-42111848c249","system_id":"levelo_inurba_marseille","lat":43.231923,"lon":5.355545,"is_reserved":false,"is_disabled":false,"rental_uris":{"android":"levelo://app?vid=e9fbfb04-cf05-4a2d-a6f5-42111848c249","ios":"levelo://app?vid=e9fbfb04-cf05-4a2d-a6f5-42111848c249"},"vehicle_type_id":"4","last_reported":1679753140,"current_range_meters":12000,"station_id":"ce4bhu92rcd13ifvqi70","pricing_plan_id":"free"},{"bike_id":"754e3468-49ef-40da-9092-6b961149cfe9","system_id":"levelo_inurba_marseille","lat":43.231923,"lon":5.355545,"is_reserved":false,"is_disabled":false,"rental_uris":{"android":"levelo://app?vid=754e3468-49ef-40da-9092-6b961149cfe9","ios":"levelo://app?vid=754e3468-49ef-40da-9092-6b961149cfe9"},"vehicle_type_id":"4","last_reported":1679753140,"current_range_meters":11200,"station_id":"ce4bhu92rcd13ifvqi70","pricing_plan_id":"free"},{"bike_id":"f9b34206-9e4d-4e3e-a11a-5ae95e987cc4","system_id":"levelo_inurba_marseille","lat":43.231923,"lon":5.355545,"is_reserved":false,"is_disabled":false,"rental_uris":{"android":"levelo://app?vid=f9b34206-9e4d-4e3e-a11a-5ae95e987cc4","ios":"levelo://app?vid=f9b34206-9e4d-4e3e-a11a-5ae95e987cc4"},"vehicle_type_id":"4","last_reported":1679753140,"current_range_meters":3600,"station_id":"ce4bhu92rcd13ifvqi70","pricing_plan_id":"free"},{"bike_id":"55c52491-35ae-4331-9801-bc362192c2f4","system_id":"levelo_inurba_marseille","lat":43.23192,"lon":5.35549,"is_reserved":false,"is_disabled":false,"rental_uris":{"android":"levelo://app?vid=55c52491-35ae-4331-9801-bc362192c2f4","ios":"levelo://app?vid=55c52491-35ae-4331-9801-bc362192c2f4"},"vehicle_type_id":"4","last_reported":1679753140,"current_range_meters":6000,"station_id":"ce4bhu92rcd13ifvqi70","pricing_plan_id":"free"},{"bike_id":"a5665363-13b4-4d84-9e64-4e182bc899e1","system_id":"levelo_inurba_marseille","lat":43.23191,"lon":5.35559,"is_reserved":false,"is_disabled":false,"rental_uris":{"android":"levelo://app?vid=a5665363-13b4-4d84-9e64-4e182bc899e1","ios":"levelo://app?vid=a5665363-13b4-4d84-9e64-4e182bc899e1"},"vehicle_type_id":"4","last_reported":1679753140,"current_range_meters":30800,"station_id":"","pricing_plan_id":"free"},{"bike_id":"d6ec5672-95b4-4d35-a1fb-d3b20f9e94ad","system_id":"levelo_inurba_marseille","lat":43.23191,"lon":5.35558,"is_reserved":false,"is_disabled":false,"rental_uris":{"android":"levelo://app?vid=d6ec5672-95b4-4d35-a1fb-d3b20f9e94ad","ios":"levelo://app?vid=d6ec5672-95b4-4d35-a1fb-d3b20f9e94ad"},"vehicle_type_id":"4","last_reported":1679753140,"current_range_meters":0,"station_id":"ce4bhu92rcd13ifvqi70","pricing_plan_id":"free"},{"bike_id":"e8f8fbd3-0d20-447a-9529-cc7107f3aec4","system_id":"levelo_inurba_marseille","lat":43.23191,"lon":5.35558,"is_reserved":false,"is_disabled":false,"rental_uris":{"android":"levelo://app?vid=e8f8fbd3-0d20-447a-9529-cc7107f3aec4","ios":"levelo://app?vid=e8f8fbd3-0d20-447a-9529-cc7107f3aec4"},"vehicle_type_id":"4","last_reported":1679753140,"current_range_meters":20800,"station_id":"ce4bhu92rcd13ifvqi70","pricing_plan_id":"free"},{"bike_id":"934d3445-9acf-4da9-ae44-7c5170cf08db","system_id":"levelo_inurba_marseille","lat":43.23191,"lon":5.35557,"is_reserved":false,"is_disabled":false,"rental_uris":{"android":"levelo://app?vid=934d3445-9acf-4da9-ae44-7c5170cf08db","ios":"levelo://app?vid=934d3445-9acf-4da9-ae44-7c5170cf08db"},"vehicle_type_id":"4","last_reported":1679753140,"current_range_meters":13600,"station_id":"","pricing_plan_id":"free"},{"bike_id":"784d2130-80ca-4cfe-bed5-269ec9729f0c","system_id":"levelo_inurba_marseille","lat":43.231923,"lon":5.355545,"is_reserved":false,"is_disabled":false,"rental_uris":{"android":"levelo://app?vid=784d2130-80ca-4cfe-bed5-269ec9729f0c","ios":"levelo://app?vid=784d2130-80ca-4cfe-bed5-269ec9729f0c"},"vehicle_type_id":"4","last_reported":1679753140,"current_range_meters":19600,"station_id":"ce4bhu92rcd13ifvqi70","pricing_plan_id":"free"},{"bike_id":"e124006c-2778-472d-84b5-c511ea300804","system_id":"levelo_inurba_marseille","lat":43.231923,"lon":5.355545,"is_reserved":false,"is_disabled":false,"rental_uris":{"android":"levelo://app?vid=e124006c-2778-472d-84b5-c511ea300804","ios":"levelo://app?vid=e124006c-2778-472d-84b5-c511ea300804"},"vehicle_type_id":"4","last_reported":1679753140,"current_range_meters":8400,"station_id":"ce4bhu92rcd13ifvqi70","pricing_plan_id":"free"},{"bike_id":"28421b73-d549-4370-90ec-c258420db255","system_id":"levelo_inurba_marseille","lat":43.231923,"lon":5.355545,"is_reserved":false,"is_disabled":false,"rental_uris":{"android":"levelo://app?vid=28421b73-d549-4370-90ec-c258420db255","ios":"levelo://app?vid=28421b73-d549-4370-90ec-c258420db255"},"vehicle_type_id":"4","last_reported":1679753140,"current_range_meters":20800,"station_id":"ce4bhu92rcd13ifvqi70","pricing_plan_id":"free"},{"bike_id":"b2016424-f668-4e86-8c50-9c3ecbff40f2","system_id":"levelo_inurba_marseille","lat":43.293259,"lon":5.371586,"is_reserved":false,"is_disabled":false,"rental_uris":{"android":"levelo://app?vid=b2016424-f668-4e86-8c50-9c3ecbff40f2","ios":"levelo://app?vid=b2016424-f668-4e86-8c50-9c3ecbff40f2"},"vehicle_type_id":"4","last_reported":1679753140,"current_range_meters":3600,"station_id":"ce4bgh92rcd13ifvqb40","pricing_plan_id":"free"},{"bike_id":"b5067bda-d5bb-47bb-a701-0e4a67e106d1","system_id":"levelo_inurba_marseille","lat":43.293259,"lon":5.371586,"is_reserved":false,"is_disabled":false,"rental_uris":{"android":"levelo://app?vid=b5067bda-d5bb-47bb-a701-0e4a67e106d1","ios":"levelo://app?vid=b5067bda-d5bb-47bb-a701-0e4a67e106d1"},"vehicle_type_id":"4","last_reported":1679753140,"current_range_meters":1600,"station_id":"ce4bgh92rcd13ifvqb40","pricing_plan_id":"free"},{"bike_id":"557ab004-c68d-496d-9a7d-06b1f81d1e24","system_id":"levelo_inurba_marseille","lat":43.231923,"lon":5.355545,"is_reserved":false,"is_disabled":false,"rental_uris":{"android":"levelo://app?vid=557ab004-c68d-496d-9a7d-06b1f81d1e24","ios":"levelo://app?vid=557ab004-c68d-496d-9a7d-06b1f81d1e24"},"vehicle_type_id":"4","last_reported":1679753140,"current_range_meters":9600,"station_id":"ce4bhu92rcd13ifvqi70","pricing_plan_id":"free"}]}}