{"last_updated":1692491580,"ttl":30,"version":"2.2","data":{"bikes":[{"bike_id":"08022e2c-294c-4ebf-8452-32bcb1cb8509","system_id":"levelo_inurba_marseille","lat":43.31341,"lon":5.367098,"is_reserved":false,"is_disabled":false,"rental_uris":{"android":"levelo://app?vid=08022e2c-294c-4ebf-8452-32bcb1cb8509","ios":"levelo://app?vid=08022e2c-294c-4ebf-8452-32bcb1cb8509"},"vehicle_type_id":"4","last_reported":1692491580,"current_range_meters":27200,"station_id":"ce4bgr92rcd13ifvqc6g","pricing_plan_id":"free"},{"bike_id":"f22ca441-4e4e-4660-b824-b2f46943e54d","system_id":"levelo_inurba_marseille","lat":43.312239,"lon":5.368562,"is_reserved":false,"is_disabled":false,"rental_uris":{"android":"levelo://app?vid=f22ca441-4e4e-4660-b824-b2f46943e54d","ios":"levelo://app?vid=f22ca441-4e4e-4660-b824-b2f46943e54d"},"vehicle_type_id":"4","last_reported":1692491580,"current_range_meters":31200,"station_id":"ce4bgl92rcd13ifvqbq0","pricing_plan_id":"free"},{"bike_id":"0c3a0356-3003-46d3-ad2e-aebfe6722bb7","system_id":"levelo_inurba_marseille","lat":43.312239,"lon":5.368562,"is_reserved":false,"is_disabled":false,"rental_uris":{"android":"levelo://app?vid=0c3a0356-3003-46d3-ad2e-aebfe6722bb7","ios":"levelo://app?vid=0c3a0356-3003-46d3-ad2e-aebfe6722bb7"},"vehicle_type_id":"4","last_reported":1692491580,"current_range_meters":6400,"station_id":"ce4bgl92rcd13ifvqbq0","pricing_plan_id":"free"},{"bike_id":"904b9fdb-a508-47c9-9ccc-9245695aaebe","system_id":"levelo_inurba_marseille","lat":43.314811,"lon":5.373103,"is_reserved":false,"is_disabled":false,"rental_uris":{"android":"levelo://app?vid=904b9fdb-a508-47c9-9ccc-9245695aaebe","ios":"levelo://app?vid=904b9fdb-a508-47c9-9ccc-9245695aaebe"},"vehicle_type_id":"4","last_reported":1692491580,"current_range_meters":23200,"station_id":"ce4bgt12rcd13ifvqcd0","pricing_plan_id":"free"},{"bike_id":"078b8839-5dca-482c-b506-bd068d73c26e","system_id":"levelo_inurba_marseille","lat":43.314811,"lon":5.373103,"is_reserved":false,"is_disabled":false,"rental_uris":{"android":"levelo://app?vid=078b8839-5dca-482c-b506-bd068d73c26e","ios":"levelo://app?vid=078b8839-5dca-482c-b506-bd068d73c26e"},"vehicle_type_id":"4","last_reported":1692491580,"current_range_meters":8000,"station_id":"ce4bgt12rcd13ifvqcd0","pricing_plan_id":"free"},{"bike_id":"ba91ad35-0e41-46c6-99bd-d262b01d804c","system_id":"levelo_inurba_marseille","lat":43.314811,"lon":5.373103,"is_reserved":false,"is_disabled":false,"rental_uris":{"android":"levelo://app?vid=ba91ad35-0e41-46c6-99bd-d262b01d804c","ios":"levelo://app?vid=ba91ad35-0e41-46c6-99bd-d262b01d804c"},"vehicle_type_id":"4","last_reported":1692491580,"current_range_meters":31200,"station_id":"ce4bgt12rcd13ifvqcd0","pricing_plan_id":"free"},{"bike_id":"79e0819e-481d-4de0-aec5-8b403e467974","system_id":"levelo_inurba_marseille","lat":43.314811,"lon":5.373103,"is_reserved":false,"is_disabled":false,"rental_uris":{"android":"levelo://app?vid=79e0819e-481d-4de0-aec5-8b403e467974","ios":"levelo://app?vid=79e0819e-481d-4de0-aec5-8b403e467974"},"vehicle_type_id":"4","last_reported":1692491580,"current_range_meters":31600,"station_id":"ce4bgt12rcd13ifvqcd0","pricing_plan_id":"free"},{"bike_id":"c4862672-2506-4eeb-9676-abde96d32ea4","system_id":"levelo_inurba_marseille","lat":43.31496,"lon":5.37308,"is_reserved":false,"is_disabled":false,"rental_uris":{"android":"levelo://app?vid=c4862672-2506-4eeb-9676-abde96d32ea4","ios":"levelo://app?vid=c4862672-2506-4eeb-9676-abde96d32ea4"},"vehicle_type_id":"4","last_reported":1692491580,"current_range_meters":29600,"station_id":"ce4bgt12rcd13ifvqcd0","pricing_plan_id":"free"},{"bike_id":"1ec1fc95-3051-4b9e-a138-6c62ea4f1d70","system_id":"levelo_inurba_marseille","lat":43.31508,"lon":5.37302,"is_reserved":false,"is_disabled":false,"rental_uris":{"android":"levelo://app?vid=1ec1fc95-3051-4b9e-a138-6c62ea4f1d70","ios":"levelo://app?vid=1ec1fc95-3051-4b9e-a138-6c62ea4f1d70"},"vehicle_type_id":"4","last_reported":1692491580,"current_range_meters":19600,"station_id":"ce4bgt12rcd13ifvqcd0","pricing_plan_id":"free"},{"bike_id":"854f4d4d-aa5c-42c9-9d8e-ddd63e64c8e2","system_id":"levelo_inurba_marseille","lat":43.309039,"lon":5.371797,"is_reserved":false,"is_disabled":false,"rental_uris":{"android":"levelo://app?vid=854f4d4d-aa5c-42c9-9d8e-ddd63e64c8e2","ios":"levelo://app?vid=854f4d4d-aa5c-42c9-9d8e-ddd63e64c8e2"},"vehicle_type_id":"4","last_reported":1692491580,"current_range_meters":28000,"station_id":"ce4bguh2rcd13ifvqckg","pricing_plan_id":"free"},{"bike_id":"386ed8e3-b71e-4f68-86af-202c5b76503e","system_id":"levelo_inurba_marseille","lat":43.30549,"lon":5.36712,"is_reserved":false,"is_disabled":false,"rental_uris":{"android":"levelo://app?vid=386ed8e3-b71e-4f68-86af-202c5b76503e","ios":"levelo://app?vid=386ed8e3-b71e-4f68-86af-202c5b76503e"},"vehicle_type_id":"4","last_reported":1692491580,"current_range_meters":22400,"station_id":"ce4bgrp2rcd13ifvqc9g","pricing_plan_id":"free"},{"bike_id":"9fbe6e18-d192-44c2-98b5-cafb68b41aa4","system_id":"levelo_inurba_marseille","lat":43.30539,"lon":5.36536,"is_reserved":false,"is_disabled":false,"rental_uris":{"android":"levelo://app?vid=9fbe6e18-d192-44c2-98b5-cafb68b41aa4","ios":"levelo://app?vid=9fbe6e18-d192-44c2-98b5-cafb68b41aa4"},"vehicle_type_id":"4","last_reported":1692491580,"current_range_meters":9200,"station_id":"ce4bgs12rcd13ifvqcag","pricing_plan_id":"free"},{"bike_id":"adbfeb92-22bf-46c8-9cf5-b06f571113b5","system_id":"levelo_inurba_marseille","lat":43.305989,"lon":5.37225,"is_reserved":false,"is_disabled":false,"rental_uris":{"android":"levelo://app?vid=adbfeb92-22bf-46c8-9cf5-b06f571113b5","ios":"levelo://app?vid=adbfeb92-22bf-46c8-9cf5-b06f571113b5"},"vehicle_type_id":"4","last_reported":1692491580,"current_range_meters":28800,"station_id":"ce4bgqh2rcd13ifvqc4g","pricing_plan_id":"free"},{"bike_id":"453ff8a4-abb6-471c-8be7-dcac61e9ced9","system_id":"levelo_inurba_marseille","lat":43.305989,"lon":5.37225,"is_reserved":false,"is_disabled":false,"rental_uris":{"android":"levelo://app?vid=453ff8a4-abb6-471c-8be7-dcac61e9ced9","ios":"levelo://app?vid=453ff8a4-abb6-471c-8be7-dcac61e9ced9"},"vehicle_type_id":"4","last_reported":1692491580,"current_range_meters":30400,"station_id":"ce4bgqh2rcd13ifvqc4g","pricing_plan_id":"free"},{"bike_id":"0931f93e-442e-49e2-b2bf-8b4eb8e6ab46","system_id":"levelo_inurba_marseille","lat":43.305989,"lon":5.37225,"is_reserved":false,"is_disabled":false,"rental_uris":{"android":"levelo://app?vid=0931f93e-442e-49e2-b2bf-8b4eb8e6ab46","ios":"levelo://app?vid=0931f93e-442e-49e2-b2bf-8b4eb8e6ab46"},"vehicle_type_id":"4","last_reported":1692491580,"current_range_meters":9200,"station_id":"ce4bgqh2rcd13ifvqc4g","pricing_plan_id":"free"},{"bike_id":"23fa1577-981b-4b36-b415-bec8d7f47377","system_id":"levelo_inurba_marseille","lat":43.311131,"lon":5.377651,"is_reserved":false,"is_disabled":false,"rental_uris":{"android":"levelo://app?vid=23fa1577-981b-4b36-b415-bec8d7f47377","ios":"levelo://app?vid=23fa1577-981b-4b36-b415-bec8d7f47377"},"vehicle_type_id":"4","last_reported":1692491580,"current_range_meters":10400,"station_id":"ce4bgt92rcd13ifvqcg0","pricing_plan_id":"free"},{"bike_id":"da1e4bf2-42ac-4a5e-b196-fe8aef49bd3d","system_id":"levelo_inurba_marseille","lat":43.311131,"lon":5.377651,"is_reserved":false,"is_disabled":false,"rental_uris":{"android":"levelo://app?vid=da1e4bf2-42ac-4a5e-b196-fe8aef49bd3d","ios":"levelo://app?vid=da1e4bf2-42ac-4a5e-b196-fe8aef49bd3d"},"vehicle_type_id":"4","last_reported":1692491580,"current_range_meters":14400,"station_id":"ce4bgt92rcd13ifvqcg0","pricing_plan_id":"free"},{"bike_id":"eb22a160-87e7-4911-bf49-43b057b3924c","system_id":"levelo_inurba_marseille","lat":43.311131,"lon":5.377651,"is_reserved":false,"is_disabled":false,"rental_uris":{"android":"levelo://app?vid=eb22a160-87e7-4911-bf49-43b057b3924c","ios":"levelo://app?vid=eb22a160-87e7-4911-bf49-43b057b3924c"},"vehicle_type_id":"4","last_reported":1692491580,"current_range_meters":25200,"station_id":"ce4bgt92rcd13ifvqcg0","pricing_plan_id":"free"},{"bike_id":"4eebd8fc-133c-40b1-a62e-f811d1d9902b","system_id":"levelo_inurba_marseille","lat":43.311131,"lon":5.377651,"is_reserved":false,"is_disabled":false,"rental_uris":{"android":"levelo://app?vid=4eebd8fc-133c-40b1-a62e-f811d1d9902b","ios":"levelo://app?vid=4eebd8fc-133c-40b1-a62e-f811d1d9902b"},"vehicle_type_id":"4","last_reported":1692491580,"current_range_meters":24000,"station_id":"ce4bgt92rcd13ifvqcg0","pricing_plan_id":"free"},{"bike_id":"94041592-cdd9-4873-b0a1-721b91db882e","system_id":"levelo_inurba_marseille","lat":43.311131,"lon":5.377651,"is_reserved":false,"is_disabled":false,"rental_uris":{"android":"levelo://app?vid=94041592-cdd9-4873-b0a1-721b91db882e","ios":"levelo://app?vid=94041592-cdd9-4873-b0a1-721b91db882e"},"vehicle_type_id":"4","last_reported":1692491580,"current_range_meters":12800,"station_id":"ce4bgt92rcd13ifvqcg0","pricing_plan_id":"free"},{"bike_id":"cb8d2a5a-c39b-4ace-b0d8-0dd3d44251b4","system_id":"levelo_inurba_marseille","lat":43.311125,"lon":5.377624,"is_reserved":false,"is_disabled":false,"rental_uris":{"android":"levelo://app?vid=cb8d2a5a-c39b-4ace-b0d8-0dd3d44251b4","ios":"levelo://app?vid=cb8d2a5a-c39b-4ace-b0d8-0dd3d44251b4"},"vehicle_type_id":"4","last_reported":1692491580,"current_range_meters":9600,"station_id":"ce4bgt92rcd13ifvqcg0","pricing_plan_id":"free"},{"bike_id":"884b3016-eba9-4d91-bba3-e506fab90d45","system_id":"levelo_inurba_marseille","lat":43.311131,"lon":5.377651,"is_reserved":false,"is_disabled":false,"rental_uris":{"android":"levelo://app?vid=884b3016-eba9-4d91-bba3-e506fab90d45","ios":"levelo://app?vid=884b3016-eba9-4d91-bba3-e506fab90d45"},"vehicle_type_id":"4","last_reported":1692491580,"current_range_meters":800,"station_id":"ce4bgt92rcd13ifvqcg0","pricing_plan_id":"free"},{"bike_id":"bbecaafc-74dc-45ae-accc-aedef8fec9ad","system_id":"levelo_inurba_marseille","lat":43.311131,"lon":5.377651,"is_reserved":false,"is_disabled":false,"rental_uris":{"android":"levelo://app?vid=bbecaafc-74dc-45ae-accc-aedef8fec9ad","ios":"levelo://app?vid=bbecaafc-74dc-45ae-accc-aedef8fec9ad"},"vehicle_type_id":"4","last_reported":1692491580,"current_range_meters":2000,"station_id":"ce4bgt92rcd13ifvqcg0","pricing_plan_id":"free"},{"bike_id":"fc241c8a-e081-46ec-a088-df695c2fd02a","system_id":"levelo_inurba_marseille","lat":43.311131,"lon":5.377651,"is_reserved":false,"is_disabled":false,"rental_uris":{"android":"levelo://app?vid=fc241c8a-e081-46ec-a088-df695c2fd02a","ios":"levelo://app?vid=fc241c8a-e081-46ec-a088-df695c2fd02a"},"vehicle_type_id":"4","last_reported":1692491580,"current_range_meters":30000,"station_id":"ce4bgt92rcd13ifvqcg0","pricing_plan_id":"free"},{"bike_id":"e92c44c6-bfb0-45fa-b2fe-a367fd139d46","system_id":"levelo_inurba_marseille","lat":43.317075,"lon":5.377367,"is_reserved":false,"is_disabled":false,"rental_uris":{"android":"levelo://app?vid=e92c44c6-bfb0-45fa-b2fe-a367fd139d46","ios":"levelo://app?vid=e92c44c6-bfb0-45fa-b2fe-a367fd139d46"},"vehicle_type_id":"4","last_reported":1692491580,"current_range_meters":19200,"station_id":"ce4bgth2rcd13ifvqch0","pricing_plan_id":"free"},{"bike_id":"c392f1ac-2940-4282-9ca2-d0f0e35d6553","system_id":"levelo_inurba_marseille","lat":43.305989,"lon":5.37225,"is_reserved":false,"is_disabled":false,"rental_uris":{"android":"levelo://app?vid=c392f1ac-2940-4282-9ca2-d0f0e35d6553","ios":"levelo://app?vid=c392f1ac-2940-4282-9ca2-d0f0e35d6553"},"vehicle_type_id":"4","last_reported":1692491580,"current_range_meters":26000,"station_id":"ce4bgqh2rcd13ifvqc4g","pricing_plan_id":"free"},{"bike_id":"60a188f1-f9d4-42ff-b4a8-4d65de0c076c","system_id":"levelo_inurba_marseille","lat":43.31528,"lon":5.38026,"is_reserved":false,"is_disabled":false,"rental_uris":{"android":"levelo://app?vid=60a188f1-f9d4-42ff-b4a8-4d65de0c076c","ios":"levelo://app?vid=60a188f1-f9d4-42ff-b4a8-4d65de0c076c"},"vehicle_type_id":"4","last_reported":1692491580,"current_range_meters":0,"station_id":"ce4bhsp2rcd13ifvqi50","pricing_plan_id":"free"},{"bike_id":"0871042d-4c98-4a0d-a09d-36eb6b88fae9","system_id":"levelo_inurba_marseille","lat":43.315293,"lon":5.380349,"is_reserved":false,"is_disabled":false,"rental_uris":{"android":"levelo://app?vid=0871042d-4c98-4a0d-a09d-36eb6b88fae9","ios":"levelo://app?vid=0871042d-4c98-4a0d-a09d-36eb6b88fae9"},"vehicle_type_id":"4","last_reported":1692491580,"current_range_meters":22400,"station_id":"ce4bhsp2rcd13ifvqi50","pricing_plan_id":"free"},{"bike_id":"d25633c2-027a-4b2b-98ca-7f8554f64ae3","system_id":"levelo_inurba_marseille","lat":43.315293,"lon":5.380349,"is_reserved":false,"is_disabled":false,"rental_uris":{"android":"levelo://app?vid=d25633c2-027a-4b2b-98ca-7f8554f64ae3","ios":"levelo://app?vid=d25633c2-027a-4b2b-98ca-7f8554f64ae3"},"vehicle_type_id":"4","last_reported":1692491580,"current_range_meters":20800,"station_id":"ce4bhsp2rcd13ifvqi50","pricing_plan_id":"free"},{"bike_id":"1d7ed1ff-f5f0-47fe-ad8e-49759c170470","system_id":"levelo_inurba_marseille","lat":43.31535,"lon":5.38032,"is_reserved":false,"is_disabled":false,"rental_uris":{"android":"levelo://app?vid=1d7ed1ff-f5f0-47fe-ad8e-49759c170470","ios":"levelo://app?vid=1d7ed1ff-f5f0-47fe-ad8e-49759c170470"},"vehicle_type_id":"4","last_reported":1692491580,"current_range_meters":26400,"station_id":"ce4bhsp2rcd13ifvqi50","pricing_plan_id":"free"},{"bike_id":"b54dc13c-310f-472a-af9e-e8f08100af82","system_id":"levelo_inurba_marseille","lat":43.30798,"lon":5.38133,"is_reserved":false,"is_disabled":false,"rental_uris":{"android":"levelo://app?vid=b54dc13c-310f-472a-af9e-e8f08100af82","ios":"levelo://app?vid=b54dc13c-310f-472a-af9e-e8f08100af82"},"vehicle_type_id":"4","last_reported":1692491580,"current_range_meters":20800,"station_id":"ce4bgt12rcd13ifvqce0","pricing_plan_id":"free"},{"bike_id":"b0ad07a9-d4f1-47f8-8ef1-a34904fe1e0f","system_id":"levelo_inurba_marseille","lat":43.30788,"lon":5.38158,"is_reserved":false,"is_disabled":false,"rental_uris":{"android":"levelo://app?vid=b0ad07a9-d4f1-47f8-8ef1-a34904fe1e0f","ios":"levelo://app?vid=b0ad07a9-d4f1-47f8-8ef1-a34904fe1e0f"},"vehicle_type_id":"4","last_reported":1692491580,"current_range_meters":18000,"station_id":"ce4bgt12rcd13ifvqce0","pricing_plan_id":"free"},{"bike_id":"4306a4f2-97ea-491c-98a8-35ae827c70e5","system_id":"levelo_inurba_marseille","lat":43.30793,"lon":5.38163,"is_reserved":false,"is_disabled":false,"rental_uris":{"android":"levelo://app?vid=4306a4f2-97ea-491c-98a8-35ae827c70e5","ios":"levelo://app?vid=4306a4f2-97ea-491c-98a8-35ae827c70e5"},"vehicle_type_id":"4","last_reported":1692491580,"current_range_meters":17600,"station_id":"ce4bgt12rcd13ifvqce0","pricing_plan_id":"free"},{"bike_id":"f5d2e1ad-0fe1-4b60-9a87-37cce3a93696","system_id":"levelo_inurba_marseille","lat":43.304606,"lon":5.379026,"is_reserved":false,"is_disabled":false,"rental_uris":{"android":"levelo://app?vid=f5d2e1ad-0fe1-4b60-9a87-37cce3a93696","ios":"levelo://app?vid=f5d2e1ad-0fe1-4b60-9a87-37cce3a93696"},"vehicle_type_id":"4","last_reported":1692491580,"current_range_meters":18400,"station_id":"ce4bgup2rcd13ifvqcn0","pricing_plan_id":"free"},{"bike_id":"305d9bbf-4067-44a5-9f97-e68143849c07","system_id":"levelo_inurba_marseille","lat":43.304606,"lon":5.379026,"is_reserved":false,"is_disabled":false,"rental_uris":{"android":"levelo://app?vid=305d9bbf-4067-44a5-9f97-e68143849c07","ios":"levelo://app?vid=305d9bbf-4067-44a5-9f97-e68143849c07"},"vehicle_type_id":"4","last_reported":1692491580,"current_range_meters":29200,"station_id":"ce4bgup2rcd13ifvqcn0","pricing_plan_id":"free"},{"bike_id":"2cd28c41-5992-4acd-9d0b-2816fd9f18fc","system_id":"levelo_inurba_marseille","lat":43.304606,"lon":5.379026,"is_reserved":false,"is_disabled":false,"rental_uris":{"android":"levelo://app?vid=2cd28c41-5992-4acd-9d0b-2816fd9f18fc","ios":"levelo://app?vid=2cd28c41-5992-4acd-9d0b-2816fd9f18fc"},"vehicle_type_id":"4","last_reported":1692491580,"current_range_meters":4400,"station_id":"ce4bgup2rcd13ifvqcn0","pricing_plan_id":"free"},{"bike_id":"2853069c-edb4-47a8-8b6a-798f5cd95477","system_id":"levelo_inurba_marseille","lat":43.319935,"lon":5.381699,"is_reserved":false,"is_disabled":false,"rental_uris":{"android":"levelo://app?vid=2853069c-edb4-47a8-8b6a-798f5cd95477","ios":"levelo://app?vid=2853069c-edb4-47a8-8b6a-798f5cd95477"},"vehicle_type_id":"4","last_reported":1692491580,"current_range_meters":1200,"station_id":"ce4bhr12rcd13ifvqhpg","pricing_plan_id":"free"},{"bike_id":"ddf499a0-9cad-436a-bd9d-beb40632bba1","system_id":"levelo_inurba_marseille","lat":43.31369,"lon":5.38488,"is_reserved":false,"is_disabled":false,"rental_uris":{"android":"levelo://app?vid=ddf499a0-9cad-436a-bd9d-beb40632bba1","ios":"levelo://app?vid=ddf499a0-9cad-436a-bd9d-beb40632bba1"},"vehicle_type_id":"4","last_reported":1692491580,"current_range_meters":12000,"station_id":"ce4bgt92rcd13ifvqcf0","pricing_plan_id":"free"},{"bike_id":"ab0accb4-2f7f-4f5f-b4ad-85e25c20e2d7","system_id":"levelo_inurba_marseille","lat":43.31368,"lon":5.3849,"is_reserved":false,"is_disabled":false,"rental_uris":{"android":"levelo://app?vid=ab0accb4-2f7f-4f5f-b4ad-85e25c20e2d7","ios":"levelo://app?vid=ab0accb4-2f7f-4f5f-b4ad-85e25c20e2d7"},"vehicle_type_id":"4","last_reported":1692491580,"current_range_meters":8800,"station_id":"ce4bgt92rcd13ifvqcf0","pricing_plan_id":"free"},{"bike_id":"560df2f7-48af-4129-aaca-899cbbb3ac92","system_id":"levelo_inurba_marseille","lat":43.31369,"lon":5.3849,"is_reserved":false,"is_disabled":false,"rental_uris":{"android":"levelo://app?vid=560df2f7-48af-4129-aaca-899cbbb3ac92","ios":"levelo://app?vid=560df2f7-48af-4129-aaca-899cbbb3ac92"},"vehicle_type_id":"4","last_reported":1692491580,"current_range_meters":23600,"station_id":"ce4bgt92rcd13ifvqcf0","pricing_plan_id":"free"},{"bike_id":"704cd585-970a-4962-89e0-776ae7869d8c","system_id":"levelo_inurba_marseille","lat":43.31359,"lon":5.38491,"is_reserved":false,"is_disabled":false,"rental_uris":{"android":"levelo://app?vid=704cd585-970a-4962-89e0-776ae7869d8c","ios":"levelo://app?vid=704cd585-970a-4962-89e0-776ae7869d8c"},"vehicle_type_id":"4","last_reported":1692491580,"current_range_meters":0,"station_id":"ce4bgt92rcd13ifvqcf0","pricing_plan_id":"free"},{"bike_id":"66a85102-d3be-452a-bf6c-182362e6a30b","system_id":"levelo_inurba_marseille","lat":43.31363,"lon":5.38491,"is_reserved":false,"is_disabled":false,"rental_uris":{"android":"levelo://app?vid=66a85102-d3be-452a-bf6c-182362e6a30b","ios":"levelo://app?vid=66a85102-d3be-452a-bf6c-182362e6a30b"},"vehicle_type_id":"4","last_reported":1692491580,"current_range_meters":0,"station_id":"ce4bgt92rcd13ifvqcf0","pricing_plan_id":"free"},{"bike_id":"0eeb8e68-8187-4a7a-a934-cf11504f2a19","system_id":"levelo_inurba_marseille","lat":43.31367,"lon":5.38492,"is_reserved":false,"is_disabled":false,"rental_uris":{"android":"levelo://app?vid=0eeb8e68-8187-4a7a-a934-cf11504f2a19","ios":"levelo://app?vid=0eeb8e68-8187-4a7a-a934-cf11504f2a19"},"vehicle_type_id":"4","last_reported":1692491580,"current_range_meters":14400,"station_id":"ce4bgt92rcd13ifvqcf0","pricing_plan_id":"free"},{"bike_id":"5eb5f735-b1c7-4db7-ace5-3e733f2d502b","system_id":"levelo_inurba_marseille","lat":43.31368,"lon":5.38493,"is_reserved":false,"is_disabled":false,"rental_uris":{"android":"levelo://app?vid=5eb5f735-b1c7-4db7-ace5-3e733f2d502b","ios":"levelo://app?vid=5eb5f735-b1c7-4db7-ace5-3e733f2d502b"},"vehicle_type_id":"4","last_reported":1692491580,"current_range_meters":20800,"station_id":"ce4bgt92rcd13ifvqcf0","pricing_plan_id":"free"},{"bike_id":"8cf80f6e-5e13-468d-9cbc-e106ff2260fe","system_id":"levelo_inurba_marseille","lat":43.31364,"lon":5.38495,"is_reserved":false,"is_disabled":false,"rental_uris":{"android":"levelo://app?vid=8cf80f6e-5e13-468d-9cbc-e106ff2260fe","ios":"levelo://app?vid=8cf80f6e-5e13-468d-9cbc-e106ff2260fe"},"vehicle_type_id":"4","last_reported":1692491580,"current_range_meters":10800,"station_id":"ce4bgt92rcd13ifvqcf0","pricing_plan_id":"free"},{"bike_id":"3d4f373c-52a2-4fab-b725-fe40076ab0c8","system_id":"levelo_inurba_marseille","lat":43.260225,"lon":5.375455,"is_reserved":false,"is_disabled":false,"rental_uris":{"android":"levelo://app?vid=3d4f373c-52a2-4fab-b725-fe40076ab0c8","ios":"levelo://app?vid=3d4f373c-52a2-4fab-b725-fe40076ab0c8"},"vehicle_type_id":"4","last_reported":1692491580,"current_range_meters":4800,"station_id":"ce4bhgh2rcd13ifvqfa0","pricing_plan_id":"free"},{"bike_id":"c5047eb8-7376-4f1c-8251-c70be2f06dc3","system_id":"levelo_inurba_marseille","lat":43.31356,"lon":5.38496,"is_reserved":false,"is_disabled":false,"rental_uris":{"android":"levelo://app?vid=c5047eb8-7376-4f1c-8251-c70be2f06dc3","ios":"levelo://app?vid=c5047eb8-7376-4f1c-8251-c70be2f06dc3"},"vehicle_type_id":"4","last_reported":1692491580,"current_range_meters":12800,"station_id":"ce4bgt92rcd13ifvqcf0","pricing_plan_id":"free"},{"bike_id":"ebf4e05b-e36b-4b1b-96f8-08f9c49e318f","system_id":"levelo_inurba_marseille","lat":43.31367,"lon":5.38496,"is_reserved":false,"is_disabled":false,"rental_uris":{"android":"levelo://app?vid=ebf4e05b-e36b-4b1b-96f8-08f9c49e318f","ios":"levelo://app?vid=ebf4e05b-e36b-4b1b-96f8-08f9c49e318f"},"vehicle_type_id":"4","last_reported":1692491580,"current_range_meters":18000,"station_id":"ce4bgt92rcd13ifvqcf0","pricing_plan_id":"free"},{"bike_id":"f56ce5b8-99b3-4081-a848-f7e16cfc9798","system_id":"levelo_inurba_marseille","lat":43.311722,"lon":5.387247,"is_reserved":false,"is_disabled":false,"rental_uris":{"android":"levelo://app?vid=f56ce5b8-99b3-4081-a848-f7e16cfc9798","ios":"levelo://app?vid=f56ce5b8-99b3-4081-a848-f7e16cfc9798"},"vehicle_type_id":"4","last_reported":1692491580,"current_range_meters":16000,"station_id":"ce4bgv12rcd13ifvqcp0","pricing_plan_id":"free"},{"bike_id":"785a6f9c-1faa-4fa0-bb2f-e8c4ad5cd6a1","system_id":"levelo_inurba_marseille","lat":43.311722,"lon":5.387247,"is_reserved":false,"is_disabled":false,"rental_uris":{"android":"levelo://app?vid=785a6f9c-1faa-4fa0-bb2f-e8c4ad5cd6a1","ios":"levelo://app?vid=785a6f9c-1faa-4fa0-bb2f-e8c4ad5cd6a1"},"vehicle_type_id":"4","last_reported":1692491580,"current_range_meters":31600,"station_id":"ce4bgv12rcd13ifvqcp0","pricing_plan_id":"free"},{"bike_id":"a1600a53-f261-4ae9-877b-3628425da18a","system_id":"levelo_inurba_marseille","lat":43.311722,"lon":5.387247,"is_reserved":false,"is_disabled":false,"rental_uris":{"android":"levelo://app?vid=a1600a53-f261-4ae9-877b-3628425da18a","ios":"levelo://app?vid=a1600a53-f261-4ae9-877b-3628425da18a"},"vehicle_type_id":"4","last_reported":1692491580,"current_range_meters":20400,"station_id":"ce4bgv12rcd13ifvqcp0","pricing_plan_id":"free"},{"bike_id":"b885f463-e8c5-42cc-902f-7152167ce1c7","system_id":"levelo_inurba_marseille","lat":43.299243,"lon":5.374807,"is_reserved":false,"is_disabled":false,"rental_uris":{"android":"levelo://app?vid=b885f463-e8c5-42cc-902f-7152167ce1c7","ios":"levelo://app?vid=b885f463-e8c5-42cc-902f-7152167ce1c7"},"vehicle_type_id":"4","last_reported":1692491580,"current_range_meters":31200,"station_id":"ce4bgjh2rcd13ifvqbg0","pricing_plan_id":"free"},{"bike_id":"e2153a1a-b1b0-4abc-9cdd-99a10ecdea74","system_id":"levelo_inurba_marseille","lat":43.311722,"lon":5.387247,"is_reserved":false,"is_disabled":false,"rental_uris":{"android":"levelo://app?vid=e2153a1a-b1b0-4abc-9cdd-99a10ecdea74","ios":"levelo://app?vid=e2153a1a-b1b0-4abc-9cdd-99a10ecdea74"},"vehicle_type_id":"4","last_reported":1692491580,"current_range_meters":24400,"station_id":"ce4bgv12rcd13ifvqcp0","pricing_plan_id":"free"},{"bike_id":"5b5c8cae-b425-4976-9ba8-5ae205664d6b","system_id":"levelo_inurba_marseille","lat":43.3229,"lon":5.38263,"is_reserved":false,"is_disabled":false,"rental_uris":{"android":"levelo://app?vid=5b5c8cae-b425-4976-9ba8-5ae205664d6b","ios":"levelo://app?vid=5b5c8cae-b425-4976-9ba8-5ae205664d6b"},"vehicle_type_id":"4","last_reported":1692491580,"current_range_meters":17200,"station_id":"ce4bhr12rcd13ifvqhqg","pricing_plan_id":"free"},{"bike_id":"b815ce0f-8c6d-460d-8747-b98d1251b4b3","system_id":"levelo_inurba_marseille","lat":43.3229,"lon":5.38267,"is_reserved":false,"is_disabled":false,"rental_uris":{"android":"levelo://app?vid=b815ce0f-8c6d-460d-8747-b98d1251b4b3","ios":"levelo://app?vid=b815ce0f-8c6d-460d-8747-b98d1251b4b3"},"vehicle_type_id":"4","last_reported":1692491580,"current_range_meters":13200,"station_id":"ce4bhr12rcd13ifvqhqg","pricing_plan_id":"free"},{"bike_id":"a1f7b084-f437-4e0c-8b20-334f54c48d59","system_id":"levelo_inurba_marseille","lat":43.32287,"lon":5.38276,"is_reserved":false,"is_disabled":false,"rental_uris":{"android":"levelo://app?vid=a1f7b084-f437-4e0c-8b20-334f54c48d59","ios":"levelo://app?vid=a1f7b084-f437-4e0c-8b20-334f54c48d59"},"vehicle_type_id":"4","last_reported":1692491580,"current_range_meters":17600,"station_id":"ce4bhr12rcd13ifvqhqg","pricing_plan_id":"free"},{"bike_id":"b9784bc4-a1f4-4e7b-a996-3746dcc4c656","system_id":"levelo_inurba_marseille","lat":43.3229,"lon":5.38282,"is_reserved":false,"is_disabled":false,"rental_uris":{"android":"levelo://app?vid=b9784bc4-a1f4-4e7b-a996-3746dcc4c656","ios":"levelo://app?vid=b9784bc4-a1f4-4e7b-a996-3746dcc4c656"},"vehicle_type_id":"4","last_reported":1692491580,"current_range_meters":8400,"station_id":"ce4bhr12rcd13ifvqhqg","pricing_plan_id":"free"},{"bike_id":"2ab2c619-9cfb-4da7-9f78-cfb4995f9eec","system_id":"levelo_inurba_marseille","lat":43.32822,"lon":5.36679,"is_reserved":false,"is_disabled":false,"rental_uris":{"android":"levelo://app?vid=2ab2c619-9cfb-4da7-9f78-cfb4995f9eec","ios":"levelo://app?vid=2ab2c619-9cfb-4da7-9f78-cfb4995f9eec"},"vehicle_type_id":"4","last_reported":1692491580,"current_range_meters":5600,"station_id":"ce4bhs92rcd13ifvqi0g","pricing_plan_id":"free"},{"bike_id":"a6eaca4d-e5e7-4db0-a760-7ab92bd9f747","system_id":"levelo_inurba_marseille","lat":43.328371,"lon":5.366909,"is_reserved":false,"is_disabled":false,"rental_uris":{"android":"levelo://app?vid=a6eaca4d-e5e7-4db0-a760-7ab92bd9f747","ios":"levelo://app?vid=a6eaca4d-e5e7-4db0-a760-7ab92bd9f747"},"vehicle_type_id":"4","last_reported":1692491580,"current_range_meters":6800,"station_id":"ce4bhs92rcd13ifvqi0g","pricing_plan_id":"free"},{"bike_id":"0f135836-946e-4e91-9b15-72b385cbdf04","system_id":"levelo_inurba_marseille","lat":43.32826,"lon":5.36681,"is_reserved":false,"is_disabled":false,"rental_uris":{"android":"levelo://app?vid=0f135836-946e-4e91-9b15-72b385cbdf04","ios":"levelo://app?vid=0f135836-946e-4e91-9b15-72b385cbdf04"},"vehicle_type_id":"4","last_reported":1692491580,"current_range_meters":30400,"station_id":"ce4bhs92rcd13ifvqi0g","pricing_plan_id":"free"},{"bike_id":"e46538af-25f2-4cf7-b48b-cb94e11b800f","system_id":"levelo_inurba_marseille","lat":43.328371,"lon":5.366909,"is_reserved":false,"is_disabled":false,"rental_uris":{"android":"levelo://app?vid=e46538af-25f2-4cf7-b48b-cb94e11b800f","ios":"levelo://app?vid=e46538af-25f2-4cf7-b48b-cb94e11b800f"},"vehicle_type_id":"4","last_reported":1692491580,"current_range_meters":14000,"station_id":"ce4bhs92rcd13ifvqi0g","pricing_plan_id":"free"},{"bike_id":"dd789220-e7b5-42c1-b9dc-dc4243148021","system_id":"levelo_inurba_marseille","lat":43.297163,"lon":5.365866,"is_reserved":false,"is_disabled":false,"rental_uris":{"android":"levelo://app?vid=dd789220-e7b5-42c1-b9dc-dc4243148021","ios":"levelo://app?vid=dd789220-e7b5-42c1-b9dc-dc4243148021"},"vehicle_type_id":"4","last_reported":1692491580,"current_range_meters":31200,"station_id":"ce4bgn12rcd13ifvqbt0","pricing_plan_id":"free"},{"bike_id":"bb155e93-116e-494a-9911-2df351c7dae8","system_id":"levelo_inurba_marseille","lat":43.296131,"lon":5.370773,"is_reserved":false,"is_disabled":false,"rental_uris":{"android":"levelo://app?vid=bb155e93-116e-494a-9911-2df351c7dae8","ios":"levelo://app?vid=bb155e93-116e-494a-9911-2df351c7dae8"},"vehicle_type_id":"4","last_reported":1692491580,"current_range_meters":28800,"station_id":"ce4bgnh2rcd13ifvqc0g","pricing_plan_id":"free"},{"bike_id":"d3139180-8ba9-4c91-b6e4-8baae3c22113","system_id":"levelo_inurba_marseille","lat":43.296131,"lon":5.370773,"is_reserved":false,"is_disabled":false,"rental_uris":{"android":"levelo://app?vid=d3139180-8ba9-4c91-b6e4-8baae3c22113","ios":"levelo://app?vid=d3139180-8ba9-4c91-b6e4-8baae3c22113"},"vehicle_type_id":"4","last_reported":1692491580,"current_range_meters":31200,"station_id":"ce4bgnh2rcd13ifvqc0g","pricing_plan_id":"free"},{"bike_id":"7f4d3259-c3e4-4d77-bdfe-9e932fec4257","system_id":"levelo_inurba_marseille","lat":43.299028,"lon":5.381509,"is_reserved":false,"is_disabled":false,"rental_uris":{"android":"levelo://app?vid=7f4d3259-c3e4-4d77-bdfe-9e932fec4257","ios":"levelo://app?vid=7f4d3259-c3e4-4d77-bdfe-9e932fec4257"},"vehicle_type_id":"4","last_reported":1692491580,"current_range_meters":31200,"station_id":"ce4bgj12rcd13ifvqbc0","pricing_plan_id":"free"},{"bike_id":"20247180-198f-481f-b347-9b9780b1c573","system_id":"levelo_inurba_marseille","lat":43.299028,"lon":5.381509,"is_reserved":false,"is_disabled":false,"rental_uris":{"android":"levelo://app?vid=20247180-198f-481f-b347-9b9780b1c573","ios":"levelo://app?vid=20247180-198f-481f-b347-9b9780b1c573"},"vehicle_type_id":"4","last_reported":1692491580,"current_range_meters":26000,"station_id":"ce4bgj12rcd13ifvqbc0","pricing_plan_id":"free"},{"bike_id":"9e19904f-d1af-44cb-be81-5eb4905b22a5","system_id":"levelo_inurba_marseille","lat":43.317557,"lon":5.390173,"is_reserved":false,"is_disabled":false,"rental_uris":{"android":"levelo://app?vid=9e19904f-d1af-44cb-be81-5eb4905b22a5","ios":"levelo://app?vid=9e19904f-d1af-44cb-be81-5eb4905b22a5"},"vehicle_type_id":"4","last_reported":1692491580,"current_range_meters":4400,"station_id":"ce4bhqp2rcd13ifvqhng","pricing_plan_id":"free"},{"bike_id":"0f4ac455-ab86-4a80-9286-cb3d6d200d29","system_id":"levelo_inurba_marseille","lat":43.311722,"lon":5.387247,"is_reserved":false,"is_disabled":false,"rental_uris":{"android":"levelo://app?vid=0f4ac455-ab86-4a80-9286-cb3d6d200d29","ios":"levelo://app?vid=0f4ac455-ab86-4a80-9286-cb3d6d200d29"},"vehicle_type_id":"4","last_reported":1692491580,"current_range_meters":9600,"station_id":"ce4bgv12rcd13ifvqcp0","pricing_plan_id":"free"},{"bike_id":"b92245dd-bb26-40c0-a62b-f27b8d3a2003","system_id":"levelo_inurba_marseille","lat":43.3095,"lon":5.39038,"is_reserved":false,"is_disabled":false,"rental_uris":{"android":"levelo://app?vid=b92245dd-bb26-40c0-a62b-f27b8d3a2003","ios":"levelo://app?vid=b92245dd-bb26-40c0-a62b-f27b8d3a2003"},"vehicle_type_id":"4","last_reported":1692491580,"current_range_meters":18000,"station_id":"ce4bgup2rcd13ifvqco0","pricing_plan_id":"free"},{"bike_id":"296c8ab9-45e6-4164-9dff-112207cc488a","system_id":"levelo_inurba_marseille","lat":43.31752,"lon":5.39019,"is_reserved":false,"is_disabled":false,"rental_uris":{"android":"levelo://app?vid=296c8ab9-45e6-4164-9dff-112207cc488a","ios":"levelo://app?vid=296c8ab9-45e6-4164-9dff-112207cc488a"},"vehicle_type_id":"4","last_reported":1692491580,"current_range_meters":800,"station_id":"ce4bhqp2rcd13ifvqhng","pricing_plan_id":"free"},{"bike_id":"18ce2835-86aa-429e-b3de-f2665669dc8a","system_id":"levelo_inurba_marseille","lat":43.31753,"lon":5.39019,"is_reserved":false,"is_disabled":false,"rental_uris":{"android":"levelo://app?vid=18ce2835-86aa-429e-b3de-f2665669dc8a","ios":"levelo://app?vid=18ce2835-86aa-429e-b3de-f2665669dc8a"},"vehicle_type_id":"4","last_reported":1692491580,"current_range_meters":28000,"station_id":"ce4bhqp2rcd13ifvqhng","pricing_plan_id":"free"},{"bike_id":"e983744e-b28e-4cdf-b613-9f80fd99dd19","system_id":"levelo_inurba_marseille","lat":43.30439,"lon":5.38892,"is_reserved":false,"is_disabled":false,"rental_uris":{"android":"levelo://app?vid=e983744e-b28e-4cdf-b613-9f80fd99dd19","ios":"levelo://app?vid=e983744e-b28e-4cdf-b613-9f80fd99dd19"},"vehicle_type_id":"4","last_reported":1692491580,"current_range_meters":1600,"station_id":"ce4bgk12rcd13ifvqbi0","pricing_plan_id":"free"},{"bike_id":"cdfdd88f-92d3-44a9-9ead-348b3dfbcef1","system_id":"levelo_inurba_marseille","lat":43.30429,"lon":5.3889,"is_reserved":false,"is_disabled":false,"rental_uris":{"android":"levelo://app?vid=cdfdd88f-92d3-44a9-9ead-348b3dfbcef1","ios":"levelo://app?vid=cdfdd88f-92d3-44a9-9ead-348b3dfbcef1"},"vehicle_type_id":"4","last_reported":1692491580,"current_range_meters":31200,"station_id":"ce4bgk12rcd13ifvqbi0","pricing_plan_id":"free"},{"bike_id":"32543e49-45f6-4d82-a2a0-1148b9f21eb3","system_id":"levelo_inurba_marseille","lat":43.30424,"lon":5.38887,"is_reserved":false,"is_disabled":false,"rental_uris":{"android":"levelo://app?vid=32543e49-45f6-4d82-a2a0-1148b9f21eb3","ios":"levelo://app?vid=32543e49-45f6-4d82-a2a0-1148b9f21eb3"},"vehicle_type_id":"4","last_reported":1692491580,"current_range_meters":28800,"station_id":"ce4bgk12rcd13ifvqbi0","pricing_plan_id":"free"},{"bike_id":"9199d6dc-5f1d-4ee7-8785-0d6d042ebbcf","system_id":"levelo_inurba_marseille","lat":43.30427,"lon":5.3889,"is_reserved":false,"is_disabled":false,"rental_uris":{"android":"levelo://app?vid=9199d6dc-5f1d-4ee7-8785-0d6d042ebbcf","ios":"levelo://app?vid=9199d6dc-5f1d-4ee7-8785-0d6d042ebbcf"},"vehicle_type_id":"4","last_reported":1692491580,"current_range_meters":31200,"station_id":"ce4bgk12rcd13ifvqbi0","pricing_plan_id":"free"},{"bike_id":"a4df99ce-0488-49dd-a888-94686f562e88","system_id":"levelo_inurba_marseille","lat":43.295748,"lon":5.37522,"is_reserved":false,"is_disabled":false,"rental_uris":{"android":"levelo://app?vid=a4df99ce-0488-49dd-a888-94686f562e88","ios":"levelo://app?vid=a4df99ce-0488-49dd-a888-94686f562e88"},"vehicle_type_id":"4","last_reported":1692491580,"current_range_meters":30000,"station_id":"ce4bgh92rcd13ifvqb50","pricing_plan_id":"free"},{"bike_id":"f8b5f5da-75f7-4a68-ba26-b34141c5bace","system_id":"levelo_inurba_marseille","lat":43.30417,"lon":5.38906,"is_reserved":false,"is_disabled":false,"rental_uris":{"android":"levelo://app?vid=f8b5f5da-75f7-4a68-ba26-b34141c5bace","ios":"levelo://app?vid=f8b5f5da-75f7-4a68-ba26-b34141c5bace"},"vehicle_type_id":"4","last_reported":1692491580,"current_range_meters":30400,"station_id":"ce4bgk12rcd13ifvqbi0","pricing_plan_id":"free"},{"bike_id":"db30a62a-73f4-413f-bef0-274d271bc332","system_id":"levelo_inurba_marseille","lat":43.295279,"lon":5.375048,"is_reserved":false,"is_disabled":false,"rental_uris":{"android":"levelo://app?vid=db30a62a-73f4-413f-bef0-274d271bc332","ios":"levelo://app?vid=db30a62a-73f4-413f-bef0-274d271bc332"},"vehicle_type_id":"4","last_reported":1692491580,"current_range_meters":0,"station_id":"ce4bgkp2rcd13ifvqbmg","pricing_plan_id":"free"},{"bike_id":"c36a3642-27f3-4234-a201-7fd9daf00859","system_id":"levelo_inurba_marseille","lat":43.295279,"lon":5.375048,"is_reserved":false,"is_disabled":false,"rental_uris":{"android":"levelo://app?vid=c36a3642-27f3-4234-a201-7fd9daf00859","ios":"levelo://app?vid=c36a3642-27f3-4234-a201-7fd9daf00859"},"vehicle_type_id":"4","last_reported":1692491580,"current_range_meters":0,"station_id":"ce4bgkp2rcd13ifvqbmg","pricing_plan_id":"free"},{"bike_id":"21fcea45-e491-4a85-bcbf-bf5cd0b62ccf","system_id":"levelo_inurba_marseille","lat":43.32359,"lon":5.38878,"is_reserved":false,"is_disabled":false,"rental_uris":{"android":"levelo://app?vid=21fcea45-e491-4a85-bcbf-bf5cd0b62ccf","ios":"levelo://app?vid=21fcea45-e491-4a85-bcbf-bf5cd0b62ccf"},"vehicle_type_id":"4","last_reported":1692491580,"current_range_meters":30000,"station_id":"ce4bhqp2rcd13ifvqhog","pricing_plan_id":"free"},{"bike_id":"55f08f4d-333e-4077-9882-16e72e12ddbf","system_id":"levelo_inurba_marseille","lat":43.32367,"lon":5.388836,"is_reserved":false,"is_disabled":false,"rental_uris":{"android":"levelo://app?vid=55f08f4d-333e-4077-9882-16e72e12ddbf","ios":"levelo://app?vid=55f08f4d-333e-4077-9882-16e72e12ddbf"},"vehicle_type_id":"4","last_reported":1692491580,"current_range_meters":26000,"station_id":"ce4bhqp2rcd13ifvqhog","pricing_plan_id":"free"},{"bike_id":"a97f77a2-1520-4bfc-9df0-0f9c62851caa","system_id":"levelo_inurba_marseille","lat":43.32367,"lon":5.38883,"is_reserved":false,"is_disabled":false,"rental_uris":{"android":"levelo://app?vid=a97f77a2-1520-4bfc-9df0-0f9c62851caa","ios":"levelo://app?vid=a97f77a2-1520-4bfc-9df0-0f9c62851caa"},"vehicle_type_id":"4","last_reported":1692491580,"current_range_meters":26400,"station_id":"ce4bhqp2rcd13ifvqhog","pricing_plan_id":"free"},{"bike_id":"0126f869-77bb-4690-a14f-53e2dd9d4689","system_id":"levelo_inurba_marseille","lat":43.32368,"lon":5.38887,"is_reserved":false,"is_disabled":false,"rental_uris":{"android":"levelo://app?vid=0126f869-77bb-4690-a14f-53e2dd9d4689","ios":"levelo://app?vid=0126f869-77bb-4690-a14f-53e2dd9d4689"},"vehicle_type_id":"4","last_reported":1692491580,"current_range_meters":24000,"station_id":"ce4bhqp2rcd13ifvqhog","pricing_plan_id":"free"},{"bike_id":"6b6cba89-d2b8-44bb-8454-5df08cf65f67","system_id":"levelo_inurba_marseille","lat":43.32367,"lon":5.388836,"is_reserved":false,"is_disabled":false,"rental_uris":{"android":"levelo://app?vid=6b6cba89-d2b8-44bb-8454-5df08cf65f67","ios":"levelo://app?vid=6b6cba89-d2b8-44bb-8454-5df08cf65f67"},"vehicle_type_id":"4","last_reported":1692491580,"current_range_meters":10800,"station_id":"ce4bhqp2rcd13ifvqhog","pricing_plan_id":"free"},{"bike_id":"729585a6-6040-4937-af32-fd49d682d0d6","system_id":"levelo_inurba_marseille","lat":43.32366,"lon":5.38889,"is_reserved":false,"is_disabled":false,"rental_uris":{"android":"levelo://app?vid=729585a6-6040-4937-af32-fd49d682d0d6","ios":"levelo://app?vid=729585a6-6040-4937-af32-fd49d682d0d6"},"vehicle_type_id":"4","last_reported":1692491580,"current_range_meters":0,"station_id":"ce4bhqp2rcd13ifvqhog","pricing_plan_id":"free"},{"bike_id":"cbdfdf6f-4880-4684-826d-8e1c7ca94f15","system_id":"levelo_inurba_marseille","lat":43.32367,"lon":5.388836,"is_reserved":false,"is_disabled":false,"rental_uris":{"android":"levelo://app?vid=cbdfdf6f-4880-4684-826d-8e1c7ca94f15","ios":"levelo://app?vid=cbdfdf6f-4880-4684-826d-8e1c7ca94f15"},"vehicle_type_id":"4","last_reported":1692491580,"current_range_meters":18000,"station_id":"ce4bhqp2rcd13ifvqhog","pricing_plan_id":"free"},{"bike_id":"38fef587-7cc5-4800-b069-87b8f296a10a","system_id":"levelo_inurba_marseille","lat":43.293009,"lon":5.374584,"is_reserved":false,"is_disabled":false,"rental_uris":{"android":"levelo://app?vid=38fef587-7cc5-4800-b069-87b8f296a10a","ios":"levelo://app?vid=38fef587-7cc5-4800-b069-87b8f296a10a"},"vehicle_type_id":"4","last_reported":1692491580,"current_range_meters":31200,"station_id":"ce4bgi12rcd13ifvqb70","pricing_plan_id":"free"},{"bike_id":"833b58f1-be34-41b8-a806-70ca1d6473a8","system_id":"levelo_inurba_marseille","lat":43.305994,"lon":5.393687,"is_reserved":false,"is_disabled":false,"rental_uris":{"android":"levelo://app?vid=833b58f1-be34-41b8-a806-70ca1d6473a8","ios":"levelo://app?vid=833b58f1-be34-41b8-a806-70ca1d6473a8"},"vehicle_type_id":"4","last_reported":1692491580,"current_range_meters":27600,"station_id":"ce4bh0p2rcd13ifvqd80","pricing_plan_id":"free"},{"bike_id":"2b980f2c-ac41-43b8-b3c1-9e46b1e07321","system_id":"levelo_inurba_marseille","lat":43.305994,"lon":5.393687,"is_reserved":false,"is_disabled":false,"rental_uris":{"android":"levelo://app?vid=2b980f2c-ac41-43b8-b3c1-9e46b1e07321","ios":"levelo://app?vid=2b980f2c-ac41-43b8-b3c1-9e46b1e07321"},"vehicle_type_id":"4","last_reported":1692491580,"current_range_meters":15200,"station_id":"ce4bh0p2rcd13ifvqd80","pricing_plan_id":"free"},{"bike_id":"d2243c22-e712-4b09-be82-5ae5a1f9466c","system_id":"levelo_inurba_marseille","lat":43.305994,"lon":5.393687,"is_reserved":false,"is_disabled":false,"rental_uris":{"android":"levelo://app?vid=d2243c22-e712-4b09-be82-5ae5a1f9466c","ios":"levelo://app?vid=d2243c22-e712-4b09-be82-5ae5a1f9466c"},"vehicle_type_id":"4","last_reported":1692491580,"current_range_meters":22000,"station_id":"ce4bh0p2rcd13ifvqd80","pricing_plan_id":"free"},{"bike_id":"dbd18bf1-7ca9-4a64-9cb7-7ffdfba160ac","system_id":"levelo_inurba_marseille","lat":43.293009,"lon":5.374584,"is_reserved":false,"is_disabled":false,"rental_uris":{"android":"levelo://app?vid=dbd18bf1-7ca9-4a64-9cb7-7ffdfba160ac","ios":"levelo://app?vid=dbd18bf1-7ca9-4a64-9cb7-7ffdfba160ac"},"vehicle_type_id":"4","last_reported":1692491580,"current_range_meters":6400,"station_id":"ce4bgi12rcd13ifvqb70","pricing_plan_id":"free"},{"bike_id":"56f1d678-ee02-47b7-8c22-55a2e8e18fa5","system_id":"levelo_inurba_marseille","lat":43.29192,"lon":5.35799,"is_reserved":false,"is_disabled":false,"rental_uris":{"android":"levelo://app?vid=56f1d678-ee02-47b7-8c22-55a2e8e18fa5","ios":"levelo://app?vid=56f1d678-ee02-47b7-8c22-55a2e8e18fa5"},"vehicle_type_id":"4","last_reported":1692491580,"current_range_meters":25200,"station_id":"ce4bhb12rcd13ifvqel0","pricing_plan_id":"free"},{"bike_id":"f1354d52-2b4b-45c7-bd9c-17131a0594c0","system_id":"levelo_inurba_marseille","lat":43.31324,"lon":5.39691,"is_reserved":false,"is_disabled":false,"rental_uris":{"android":"levelo://app?vid=f1354d52-2b4b-45c7-bd9c-17131a0594c0","ios":"levelo://app?vid=f1354d52-2b4b-45c7-bd9c-17131a0594c0"},"vehicle_type_id":"4","last_reported":1692491580,"current_range_meters":8000,"station_id":"ce4bgvp2rcd13ifvqcu0","pricing_plan_id":"free"},{"bike_id":"ef624301-919c-49f6-bb53-f696ce622e93","system_id":"levelo_inurba_marseille","lat":43.31327,"lon":5.39697,"is_reserved":false,"is_disabled":false,"rental_uris":{"android":"levelo://app?vid=ef624301-919c-49f6-bb53-f696ce622e93","ios":"levelo://app?vid=ef624301-919c-49f6-bb53-f696ce622e93"},"vehicle_type_id":"4","last_reported":1692491580,"current_range_meters":800,"station_id":"ce4bgvp2rcd13ifvqcu0","pricing_plan_id":"free"},{"bike_id":"9fe3e2f8-cc7a-484f-9352-c61f9bf384ad","system_id":"levelo_inurba_marseille","lat":43.290779,"lon":5.371482,"is_reserved":false,"is_disabled":false,"rental_uris":{"android":"levelo://app?vid=9fe3e2f8-cc7a-484f-9352-c61f9bf384ad","ios":"levelo://app?vid=9fe3e2f8-cc7a-484f-9352-c61f9bf384ad"},"vehicle_type_id":"4","last_reported":1692491580,"current_range_meters":2800,"station_id":"ce4bh5p2rcd13ifvqe4g","pricing_plan_id":"free"},{"bike_id":"8fecf605-5db9-45b8-aad5-8fa49046348a","system_id":"levelo_inurba_marseille","lat":43.304296,"lon":5.397513,"is_reserved":false,"is_disabled":false,"rental_uris":{"android":"levelo://app?vid=8fecf605-5db9-45b8-aad5-8fa49046348a","ios":"levelo://app?vid=8fecf605-5db9-45b8-aad5-8fa49046348a"},"vehicle_type_id":"4","last_reported":1692491580,"current_range_meters":16800,"station_id":"ce4bh092rcd13ifvqd20","pricing_plan_id":"free"},{"bike_id":"a5d7998c-4c76-4390-bbcf-8c2a2abd7eba","system_id":"levelo_inurba_marseille","lat":43.33041,"lon":5.38916,"is_reserved":false,"is_disabled":false,"rental_uris":{"android":"levelo://app?vid=a5d7998c-4c76-4390-bbcf-8c2a2abd7eba","ios":"levelo://app?vid=a5d7998c-4c76-4390-bbcf-8c2a2abd7eba"},"vehicle_type_id":"4","last_reported":1692491580,"current_range_meters":31200,"station_id":"ce4bhr92rcd13ifvqhrg","pricing_plan_id":"free"},{"bike_id":"86eac789-1e56-496d-abfa-705e29d378c7","system_id":"levelo_inurba_marseille","lat":43.33044,"lon":5.38913,"is_reserved":false,"is_disabled":false,"rental_uris":{"android":"levelo://app?vid=86eac789-1e56-496d-abfa-705e29d378c7","ios":"levelo://app?vid=86eac789-1e56-496d-abfa-705e29d378c7"},"vehicle_type_id":"4","last_reported":1692491580,"current_range_meters":29600,"station_id":"ce4bhr92rcd13ifvqhrg","pricing_plan_id":"free"},{"bike_id":"c8619c93-5f6a-45f4-8e07-c81fcc1e21be","system_id":"levelo_inurba_marseille","lat":43.33045,"lon":5.38912,"is_reserved":false,"is_disabled":false,"rental_uris":{"android":"levelo://app?vid=c8619c93-5f6a-45f4-8e07-c81fcc1e21be","ios":"levelo://app?vid=c8619c93-5f6a-45f4-8e07-c81fcc1e21be"},"vehicle_type_id":"4","last_reported":1692491580,"current_range_meters":27200,"station_id":"ce4bhr92rcd13ifvqhrg","pricing_plan_id":"free"},{"bike_id":"d2b15eb2-4474-4e56-aace-fe335ab0092e","system_id":"levelo_inurba_marseille","lat":43.33039,"lon":5.38922,"is_reserved":false,"is_disabled":false,"rental_uris":{"android":"levelo://app?vid=d2b15eb2-4474-4e56-aace-fe335ab0092e","ios":"levelo://app?vid=d2b15eb2-4474-4e56-aace-fe335ab0092e"},"vehicle_type_id":"4","last_reported":1692491580,"current_range_meters":14800,"station_id":"ce4bhr92rcd13ifvqhrg","pricing_plan_id":"free"},{"bike_id":"3b3e7c42-cded-4bde-b175-99650afa4f17","system_id":"levelo_inurba_marseille","lat":43.33045,"lon":5.38914,"is_reserved":false,"is_disabled":false,"rental_uris":{"android":"levelo://app?vid=3b3e7c42-cded-4bde-b175-99650afa4f17","ios":"levelo://app?vid=3b3e7c42-cded-4bde-b175-99650afa4f17"},"vehicle_type_id":"4","last_reported":1692491580,"current_range_meters":24000,"station_id":"ce4bhr92rcd13ifvqhrg","pricing_plan_id":"free"},{"bike_id":"16105e4d-cb4a-4aae-91bb-2ecd41a7406b","system_id":"levelo_inurba_marseille","lat":43.3304,"lon":5.38922,"is_reserved":false,"is_disabled":false,"rental_uris":{"android":"levelo://app?vid=16105e4d-cb4a-4aae-91bb-2ecd41a7406b","ios":"levelo://app?vid=16105e4d-cb4a-4aae-91bb-2ecd41a7406b"},"vehicle_type_id":"4","last_reported":1692491580,"current_range_meters":22400,"station_id":"ce4bhr92rcd13ifvqhrg","pricing_plan_id":"free"},{"bike_id":"024f4d94-1555-4991-925c-5e7448051bbb","system_id":"levelo_inurba_marseille","lat":43.33041,"lon":5.38921,"is_reserved":false,"is_disabled":false,"rental_uris":{"android":"levelo://app?vid=024f4d94-1555-4991-925c-5e7448051bbb","ios":"levelo://app?vid=024f4d94-1555-4991-925c-5e7448051bbb"},"vehicle_type_id":"4","last_reported":1692491580,"current_range_meters":28400,"station_id":"ce4bhr92rcd13ifvqhrg","pricing_plan_id":"free"},{"bike_id":"70576a93-fbdb-4696-908e-c08c0f1995f8","system_id":"levelo_inurba_marseille","lat":43.33045,"lon":5.38915,"is_reserved":false,"is_disabled":false,"rental_uris":{"android":"levelo://app?vid=70576a93-fbdb-4696-908e-c08c0f1995f8","ios":"levelo://app?vid=70576a93-fbdb-4696-908e-c08c0f1995f8"},"vehicle_type_id":"4","last_reported":1692491580,"current_range_meters":25600,"station_id":"ce4bhr92rcd13ifvqhrg","pricing_plan_id":"free"},{"bike_id":"4acef044-58d4-4046-9f8b-3557af517e74","system_id":"levelo_inurba_marseille","lat":43.33042,"lon":5.3892,"is_reserved":false,"is_disabled":false,"rental_uris":{"android":"levelo://app?vid=4acef044-58d4-4046-9f8b-3557af517e74","ios":"levelo://app?vid=4acef044-58d4-4046-9f8b-3557af517e74"},"vehicle_type_id":"4","last_reported":1692491580,"current_range_meters":12400,"station_id":"ce4bhr92rcd13ifvqhrg","pricing_plan_id":"free"},{"bike_id":"86535332-25ae-4735-984f-2b7a7387a6af","system_id":"levelo_inurba_marseille","lat":43.33041,"lon":5.38922,"is_reserved":false,"is_disabled":false,"rental_uris":{"android":"levelo://app?vid=86535332-25ae-4735-984f-2b7a7387a6af","ios":"levelo://app?vid=86535332-25ae-4735-984f-2b7a7387a6af"},"vehicle_type_id":"4","last_reported":1692491580,"current_range_meters":30000,"station_id":"ce4bhr92rcd13ifvqhrg","pricing_plan_id":"free"},{"bike_id":"eb950724-6c95-4fb2-915f-35b08a8cfd23","system_id":"levelo_inurba_marseille","lat":43.33045,"lon":5.38917,"is_reserved":false,"is_disabled":false,"rental_uris":{"android":"levelo://app?vid=eb950724-6c95-4fb2-915f-35b08a8cfd23","ios":"levelo://app?vid=eb950724-6c95-4fb2-915f-35b08a8cfd23"},"vehicle_type_id":"4","last_reported":1692491580,"current_range_meters":19600,"station_id":"ce4bhr92rcd13ifvqhrg","pricing_plan_id":"free"},{"bike_id":"331b6e0a-8cfc-4305-9eef-0266cde03da7","system_id":"levelo_inurba_marseille","lat":43.33042,"lon":5.38922,"is_reserved":false,"is_disabled":false,"rental_uris":{"android":"levelo://app?vid=331b6e0a-8cfc-4305-9eef-0266cde03da7","ios":"levelo://app?vid=331b6e0a-8cfc-4305-9eef-0266cde03da7"},"vehicle_type_id":"4","last_reported":1692491580,"current_range_meters":16000,"station_id":"ce4bhr92rcd13ifvqhrg","pricing_plan_id":"free"},{"bike_id":"9e24a65c-fe1e-45dc-88b9-dd0cad85064c","system_id":"levelo_inurba_marseille","lat":43.33042,"lon":5.38923,"is_reserved":false,"is_disabled":false,"rental_uris":{"android":"levelo://app?vid=9e24a65c-fe1e-45dc-88b9-dd0cad85064c","ios":"levelo://app?vid=9e24a65c-fe1e-45dc-88b9-dd0cad85064c"},"vehicle_type_id":"4","last_reported":1692491580,"current_range_meters":29600,"station_id":"ce4bhr92rcd13ifvqhrg","pricing_plan_id":"free"},{"bike_id":"5c8c244a-8618-42d9-abf2-521b07f6577d","system_id":"levelo_inurba_marseille","lat":43.33046,"lon":5.38917,"is_reserved":false,"is_disabled":false,"rental_uris":{"android":"levelo://app?vid=5c8c244a-8618-42d9-abf2-521b07f6577d","ios":"levelo://app?vid=5c8c244a-8618-42d9-abf2-521b07f6577d"},"vehicle_type_id":"4","last_reported":1692491580,"current_range_meters":27200,"station_id":"ce4bhr92rcd13ifvqhrg","pricing_plan_id":"free"},{"bike_id":"9ec93851-2c12-4e8a-b52c-89084ec976ac","system_id":"levelo_inurba_marseille","lat":43.33045,"lon":5.38919,"is_reserved":false,"is_disabled":false,"rental_uris":{"android":"levelo://app?vid=9ec93851-2c12-4e8a-b52c-89084ec976ac","ios":"levelo://app?vid=9ec93851-2c12-4e8a-b52c-89084ec976ac"},"vehicle_type_id":"4","last_reported":1692491580,"current_range_meters":2000,"station_id":"ce4bhr92rcd13ifvqhrg","pricing_plan_id":"free"},{"bike_id":"52662068-d06a-40c1-bfee-ce6664dc3a83","system_id":"levelo_inurba_marseille","lat":43.33048,"lon":5.38915,"is_reserved":false,"is_disabled":false,"rental_uris":{"android":"levelo://app?vid=52662068-d06a-40c1-bfee-ce6664dc3a83","ios":"levelo://app?vid=52662068-d06a-40c1-bfee-ce6664dc3a83"},"vehicle_type_id":"4","last_reported":1692491580,"current_range_meters":3200,"station_id":"ce4bhr92rcd13ifvqhrg","pricing_plan_id":"free"},{"bike_id":"5036c72a-6252-47f4-a9fb-50fd514d506a","system_id":"levelo_inurba_marseille","lat":43.33046,"lon":5.38919,"is_reserved":false,"is_disabled":false,"rental_uris":{"android":"levelo://app?vid=5036c72a-6252-47f4-a9fb-50fd514d506a","ios":"levelo://app?vid=5036c72a-6252-47f4-a9fb-50fd514d506a"},"vehicle_type_id":"4","last_reported":1692491580,"current_range_meters":22400,"station_id":"ce4bhr92rcd13ifvqhrg","pricing_plan_id":"free"},{"bike_id":"7d19a255-9f7a-4d0e-beba-2bfebb3c7b5e","system_id":"levelo_inurba_marseille","lat":43.33046,"lon":5.38919,"is_reserved":false,"is_disabled":false,"rental_uris":{"android":"levelo://app?vid=7d19a255-9f7a-4d0e-beba-2bfebb3c7b5e","ios":"levelo://app?vid=7d19a255-9f7a-4d0e-beba-2bfebb3c7b5e"},"vehicle_type_id":"4","last_reported":1692491580,"current_range_meters":22400,"station_id":"ce4bhr92rcd13ifvqhrg","pricing_plan_id":"free"},{"bike_id":"708f7f21-b221-4c14-94b6-b5d8e3289350","system_id":"levelo_inurba_marseille","lat":43.33048,"lon":5.38918,"is_reserved":false,"is_disabled":false,"rental_uris":{"android":"levelo://app?vid=708f7f21-b221-4c14-94b6-b5d8e3289350","ios":"levelo://app?vid=708f7f21-b221-4c14-94b6-b5d8e3289350"},"vehicle_type_id":"4","last_reported":1692491580,"current_range_meters":20800,"station_id":"ce4bhr92rcd13ifvqhrg","pricing_plan_id":"free"},{"bike_id":"de450cac-4370-4660-9455-3e94463307a2","system_id":"levelo_inurba_marseille","lat":43.33047,"lon":5.3892,"is_reserved":false,"is_disabled":false,"rental_uris":{"android":"levelo://app?vid=de450cac-4370-4660-9455-3e94463307a2","ios":"levelo://app?vid=de450cac-4370-4660-9455-3e94463307a2"},"vehicle_type_id":"4","last_reported":1692491580,"current_range_meters":17600,"station_id":"ce4bhr92rcd13ifvqhrg","pricing_plan_id":"free"},{"bike_id":"e539b2c4-e8ae-44aa-9f10-b26f421129ea","system_id":"levelo_inurba_marseille","lat":43.290103,"lon":5.356114,"is_reserved":false,"is_disabled":false,"rental_uris":{"android":"levelo://app?vid=e539b2c4-e8ae-44aa-9f10-b26f421129ea","ios":"levelo://app?vid=e539b2c4-e8ae-44aa-9f10-b26f421129ea"},"vehicle_type_id":"4","last_reported":1692491580,"current_range_meters":21200,"station_id":"ce4bhb92rcd13ifvqen0","pricing_plan_id":"free"},{"bike_id":"fdba5af8-2355-4f92-b9b1-7abebb728036","system_id":"levelo_inurba_marseille","lat":43.30928,"lon":5.40137,"is_reserved":false,"is_disabled":false,"rental_uris":{"android":"levelo://app?vid=fdba5af8-2355-4f92-b9b1-7abebb728036","ios":"levelo://app?vid=fdba5af8-2355-4f92-b9b1-7abebb728036"},"vehicle_type_id":"4","last_reported":1692491580,"current_range_meters":0,"station_id":"ce4bgvp2rcd13ifvqct0","pricing_plan_id":"free"},{"bike_id":"5b62ba76-0add-43f3-8335-64521d878b13","system_id":"levelo_inurba_marseille","lat":43.312609,"lon":5.401662,"is_reserved":false,"is_disabled":false,"rental_uris":{"android":"levelo://app?vid=5b62ba76-0add-43f3-8335-64521d878b13","ios":"levelo://app?vid=5b62ba76-0add-43f3-8335-64521d878b13"},"vehicle_type_id":"4","last_reported":1692491580,"current_range_meters":7200,"station_id":"ce4bh092rcd13ifvqd30","pricing_plan_id":"free"},{"bike_id":"23d3aede-3791-4940-93c7-e4244dfad9e9","system_id":"levelo_inurba_marseille","lat":43.31269,"lon":5.40173,"is_reserved":false,"is_disabled":false,"rental_uris":{"android":"levelo://app?vid=23d3aede-3791-4940-93c7-e4244dfad9e9","ios":"levelo://app?vid=23d3aede-3791-4940-93c7-e4244dfad9e9"},"vehicle_type_id":"4","last_reported":1692491580,"current_range_meters":15200,"station_id":"ce4bh092rcd13ifvqd30","pricing_plan_id":"free"},{"bike_id":"f73fbd3c-1819-46cd-85b9-75a990ede307","system_id":"levelo_inurba_marseille","lat":43.30924,"lon":5.4014,"is_reserved":false,"is_disabled":false,"rental_uris":{"android":"levelo://app?vid=f73fbd3c-1819-46cd-85b9-75a990ede307","ios":"levelo://app?vid=f73fbd3c-1819-46cd-85b9-75a990ede307"},"vehicle_type_id":"4","last_reported":1692491580,"current_range_meters":1200,"station_id":"ce4bgvp2rcd13ifvqct0","pricing_plan_id":"free"},{"bike_id":"ebea3e90-b4a3-4a58-9d43-4dfbd0e962f3","system_id":"levelo_inurba_marseille","lat":43.337457,"lon":5.374633,"is_reserved":false,"is_disabled":false,"rental_uris":{"android":"levelo://app?vid=ebea3e90-b4a3-4a58-9d43-4dfbd0e962f3","ios":"levelo://app?vid=ebea3e90-b4a3-4a58-9d43-4dfbd0e962f3"},"vehicle_type_id":"4","last_reported":1692491580,"current_range_meters":29600,"station_id":"","pricing_plan_id":"free"},{"bike_id":"38cd9f63-a18d-4f06-91c5-b8e14018bad3","system_id":"levelo_inurba_marseille","lat":43.309371,"lon":5.401449,"is_reserved":false,"is_disabled":false,"rental_uris":{"android":"levelo://app?vid=38cd9f63-a18d-4f06-91c5-b8e14018bad3","ios":"levelo://app?vid=38cd9f63-a18d-4f06-91c5-b8e14018bad3"},"vehicle_type_id":"4","last_reported":1692491580,"current_range_meters":0,"station_id":"ce4bgvp2rcd13ifvqct0","pricing_plan_id":"free"},{"bike_id":"694bfc51-811f-4687-b63f-20e7fdf1165d","system_id":"levelo_inurba_marseille","lat":43.3092,"lon":5.40149,"is_reserved":false,"is_disabled":false,"rental_uris":{"android":"levelo://app?vid=694bfc51-811f-4687-b63f-20e7fdf1165d","ios":"levelo://app?vid=694bfc51-811f-4687-b63f-20e7fdf1165d"},"vehicle_type_id":"4","last_reported":1692491580,"current_range_meters":16400,"station_id":"ce4bgvp2rcd13ifvqct0","pricing_plan_id":"free"},{"bike_id":"fd3dbe08-9b98-41ef-b11f-83abfb3fcf4a","system_id":"levelo_inurba_marseille","lat":43.306482,"lon":5.400785,"is_reserved":false,"is_disabled":false,"rental_uris":{"android":"levelo://app?vid=fd3dbe08-9b98-41ef-b11f-83abfb3fcf4a","ios":"levelo://app?vid=fd3dbe08-9b98-41ef-b11f-83abfb3fcf4a"},"vehicle_type_id":"4","last_reported":1692491580,"current_range_meters":3200,"station_id":"ce4bh112rcd13ifvqda0","pricing_plan_id":"free"},{"bike_id":"2a33a944-db45-4680-bf51-9c4db804e7d6","system_id":"levelo_inurba_marseille","lat":43.30651,"lon":5.40088,"is_reserved":false,"is_disabled":false,"rental_uris":{"android":"levelo://app?vid=2a33a944-db45-4680-bf51-9c4db804e7d6","ios":"levelo://app?vid=2a33a944-db45-4680-bf51-9c4db804e7d6"},"vehicle_type_id":"4","last_reported":1692491580,"current_range_meters":27200,"station_id":"ce4bh112rcd13ifvqda0","pricing_plan_id":"free"},{"bike_id":"f329f103-9ace-43b1-a9cc-69644cb1db4c","system_id":"levelo_inurba_marseille","lat":43.30642,"lon":5.401031,"is_reserved":false,"is_disabled":false,"rental_uris":{"android":"levelo://app?vid=f329f103-9ace-43b1-a9cc-69644cb1db4c","ios":"levelo://app?vid=f329f103-9ace-43b1-a9cc-69644cb1db4c"},"vehicle_type_id":"4","last_reported":1692491580,"current_range_meters":8400,"station_id":"ce4bh112rcd13ifvqda0","pricing_plan_id":"free"},{"bike_id":"09688a21-2644-4e12-b32e-cf845c7d62d3","system_id":"levelo_inurba_marseille","lat":43.30642,"lon":5.401031,"is_reserved":false,"is_disabled":false,"rental_uris":{"android":"levelo://app?vid=09688a21-2644-4e12-b32e-cf845c7d62d3","ios":"levelo://app?vid=09688a21-2644-4e12-b32e-cf845c7d62d3"},"vehicle_type_id":"4","last_reported":1692491580,"current_range_meters":23200,"station_id":"ce4bh112rcd13ifvqda0","pricing_plan_id":"free"},{"bike_id":"1c5b92ae-a0e0-45fe-92b7-d278417b2cfe","system_id":"levelo_inurba_marseille","lat":43.301117,"lon":5.398795,"is_reserved":false,"is_disabled":false,"rental_uris":{"android":"levelo://app?vid=1c5b92ae-a0e0-45fe-92b7-d278417b2cfe","ios":"levelo://app?vid=1c5b92ae-a0e0-45fe-92b7-d278417b2cfe"},"vehicle_type_id":"4","last_reported":1692491580,"current_range_meters":5200,"station_id":"ce4bh0h2rcd13ifvqd40","pricing_plan_id":"free"},{"bike_id":"23542ef4-3ab2-45de-b0be-af3f2110fe9d","system_id":"levelo_inurba_marseille","lat":43.304188,"lon":5.412904,"is_reserved":false,"is_disabled":false,"rental_uris":{"android":"levelo://app?vid=23542ef4-3ab2-45de-b0be-af3f2110fe9d","ios":"levelo://app?vid=23542ef4-3ab2-45de-b0be-af3f2110fe9d"},"vehicle_type_id":"4","last_reported":1692491580,"current_range_meters":27600,"station_id":"ce4bhop2rcd13ifvqh8g","pricing_plan_id":"free"},{"bike_id":"40f8dcf3-cbd8-439f-9071-f4c3a56b1dc8","system_id":"levelo_inurba_marseille","lat":43.298681,"lon":5.397225,"is_reserved":false,"is_disabled":false,"rental_uris":{"android":"levelo://app?vid=40f8dcf3-cbd8-439f-9071-f4c3a56b1dc8","ios":"levelo://app?vid=40f8dcf3-cbd8-439f-9071-f4c3a56b1dc8"},"vehicle_type_id":"4","last_reported":1692491580,"current_range_meters":29200,"station_id":"ce4bh0h2rcd13ifvqd50","pricing_plan_id":"free"},{"bike_id":"29c37fc3-ca1c-418a-967e-b6e05f9a7020","system_id":"levelo_inurba_marseille","lat":43.286961,"lon":5.373785,"is_reserved":false,"is_disabled":false,"rental_uris":{"android":"levelo://app?vid=29c37fc3-ca1c-418a-967e-b6e05f9a7020","ios":"levelo://app?vid=29c37fc3-ca1c-418a-967e-b6e05f9a7020"},"vehicle_type_id":"4","last_reported":1692491580,"current_range_meters":31200,"station_id":"ce4bh3p2rcd13ifvqdq0","pricing_plan_id":"free"},{"bike_id":"008ec54c-0841-4c75-919e-f9feac16af21","system_id":"levelo_inurba_marseille","lat":43.286961,"lon":5.373785,"is_reserved":false,"is_disabled":false,"rental_uris":{"android":"levelo://app?vid=008ec54c-0841-4c75-919e-f9feac16af21","ios":"levelo://app?vid=008ec54c-0841-4c75-919e-f9feac16af21"},"vehicle_type_id":"4","last_reported":1692491580,"current_range_meters":30800,"station_id":"ce4bh3p2rcd13ifvqdq0","pricing_plan_id":"free"},{"bike_id":"75199276-b705-4ad7-b6a9-49aeaa84628a","system_id":"levelo_inurba_marseille","lat":43.286591,"lon":5.363346,"is_reserved":false,"is_disabled":false,"rental_uris":{"android":"levelo://app?vid=75199276-b705-4ad7-b6a9-49aeaa84628a","ios":"levelo://app?vid=75199276-b705-4ad7-b6a9-49aeaa84628a"},"vehicle_type_id":"4","last_reported":1692491580,"current_range_meters":30800,"station_id":"ce4bhah2rcd13ifvqej0","pricing_plan_id":"free"},{"bike_id":"34e72656-0b97-464d-bbe9-b1a235f93c4b","system_id":"levelo_inurba_marseille","lat":43.286961,"lon":5.373785,"is_reserved":false,"is_disabled":false,"rental_uris":{"android":"levelo://app?vid=34e72656-0b97-464d-bbe9-b1a235f93c4b","ios":"levelo://app?vid=34e72656-0b97-464d-bbe9-b1a235f93c4b"},"vehicle_type_id":"4","last_reported":1692491580,"current_range_meters":4000,"station_id":"ce4bh3p2rcd13ifvqdq0","pricing_plan_id":"free"},{"bike_id":"83a92dd1-9e90-43e0-899a-ea285c87c716","system_id":"levelo_inurba_marseille","lat":43.298681,"lon":5.397225,"is_reserved":false,"is_disabled":false,"rental_uris":{"android":"levelo://app?vid=83a92dd1-9e90-43e0-899a-ea285c87c716","ios":"levelo://app?vid=83a92dd1-9e90-43e0-899a-ea285c87c716"},"vehicle_type_id":"4","last_reported":1692491580,"current_range_meters":4800,"station_id":"ce4bh0h2rcd13ifvqd50","pricing_plan_id":"free"},{"bike_id":"493dd52a-e3bb-402f-b44b-9d3bf8fff3d3","system_id":"levelo_inurba_marseille","lat":43.286961,"lon":5.373785,"is_reserved":false,"is_disabled":false,"rental_uris":{"android":"levelo://app?vid=493dd52a-e3bb-402f-b44b-9d3bf8fff3d3","ios":"levelo://app?vid=493dd52a-e3bb-402f-b44b-9d3bf8fff3d3"},"vehicle_type_id":"4","last_reported":1692491580,"current_range_meters":31200,"station_id":"ce4bh3p2rcd13ifvqdq0","pricing_plan_id":"free"},{"bike_id":"fa251b9f-22d3-48f0-b91b-8fa252123e59","system_id":"levelo_inurba_marseille","lat":43.298681,"lon":5.397225,"is_reserved":false,"is_disabled":false,"rental_uris":{"android":"levelo://app?vid=fa251b9f-22d3-48f0-b91b-8fa252123e59","ios":"levelo://app?vid=fa251b9f-22d3-48f0-b91b-8fa252123e59"},"vehicle_type_id":"4","last_reported":1692491580,"current_range_meters":21200,"station_id":"ce4bh0h2rcd13ifvqd50","pricing_plan_id":"free"},{"bike_id":"2ce365fd-2fb9-47ef-9dcc-7c7d9b9207d9","system_id":"levelo_inurba_marseille","lat":43.298681,"lon":5.397225,"is_reserved":false,"is_disabled":false,"rental_uris":{"android":"levelo://app?vid=2ce365fd-2fb9-47ef-9dcc-7c7d9b9207d9","ios":"levelo://app?vid=2ce365fd-2fb9-47ef-9dcc-7c7d9b9207d9"},"vehicle_type_id":"4","last_reported":1692491580,"current_range_meters":30400,"station_id":"ce4bh0h2rcd13ifvqd50","pricing_plan_id":"free"},{"bike_id":"e9935a15-e5a4-44f0-9be2-961de36fe6a2","system_id":"levelo_inurba_marseille","lat":43.295193,"lon":5.394005,"is_reserved":false,"is_disabled":false,"rental_uris":{"android":"levelo://app?vid=e9935a15-e5a4-44f0-9be2-961de36fe6a2","ios":"levelo://app?vid=e9935a15-e5a4-44f0-9be2-961de36fe6a2"},"vehicle_type_id":"4","last_reported":1692491580,"current_range_meters":28000,"station_id":"ce4bh292rcd13ifvqdf0","pricing_plan_id":"free"},{"bike_id":"901a67a4-56c6-4152-ae7c-acfe17e89718","system_id":"levelo_inurba_marseille","lat":43.30244,"lon":5.40061,"is_reserved":false,"is_disabled":false,"rental_uris":{"android":"levelo://app?vid=901a67a4-56c6-4152-ae7c-acfe17e89718","ios":"levelo://app?vid=901a67a4-56c6-4152-ae7c-acfe17e89718"},"vehicle_type_id":"4","last_reported":1692491580,"current_range_meters":4400,"station_id":"ce4bgvh2rcd13ifvqcs0","pricing_plan_id":"free"},{"bike_id":"8a621079-2e94-4722-9e67-36c40100c783","system_id":"levelo_inurba_marseille","lat":43.302759,"lon":5.400793,"is_reserved":false,"is_disabled":false,"rental_uris":{"android":"levelo://app?vid=8a621079-2e94-4722-9e67-36c40100c783","ios":"levelo://app?vid=8a621079-2e94-4722-9e67-36c40100c783"},"vehicle_type_id":"4","last_reported":1692491580,"current_range_meters":2000,"station_id":"ce4bgvh2rcd13ifvqcs0","pricing_plan_id":"free"},{"bike_id":"175af7a9-2487-4f22-9b4c-288a0def5e17","system_id":"levelo_inurba_marseille","lat":43.290336,"lon":5.386425,"is_reserved":false,"is_disabled":false,"rental_uris":{"android":"levelo://app?vid=175af7a9-2487-4f22-9b4c-288a0def5e17","ios":"levelo://app?vid=175af7a9-2487-4f22-9b4c-288a0def5e17"},"vehicle_type_id":"4","last_reported":1692491580,"current_range_meters":30400,"station_id":"ce4bh4p2rcd13ifvqe0g","pricing_plan_id":"free"},{"bike_id":"7af33a0f-faa4-459a-8ff7-b29e7a95bfcc","system_id":"levelo_inurba_marseille","lat":43.30257,"lon":5.40077,"is_reserved":false,"is_disabled":false,"rental_uris":{"android":"levelo://app?vid=7af33a0f-faa4-459a-8ff7-b29e7a95bfcc","ios":"levelo://app?vid=7af33a0f-faa4-459a-8ff7-b29e7a95bfcc"},"vehicle_type_id":"4","last_reported":1692491580,"current_range_meters":25600,"station_id":"","pricing_plan_id":"free"},{"bike_id":"24a32764-9cfa-445a-8cc5-9478fca2ecbf","system_id":"levelo_inurba_marseille","lat":43.30244,"lon":5.40072,"is_reserved":false,"is_disabled":false,"rental_uris":{"android":"levelo://app?vid=24a32764-9cfa-445a-8cc5-9478fca2ecbf","ios":"levelo://app?vid=24a32764-9cfa-445a-8cc5-9478fca2ecbf"},"vehicle_type_id":"4","last_reported":1692491580,"current_range_meters":20800,"station_id":"ce4bgvh2rcd13ifvqcs0","pricing_plan_id":"free"},{"bike_id":"4ae00035-f661-4343-8548-c6a621612092","system_id":"levelo_inurba_marseille","lat":43.302759,"lon":5.400793,"is_reserved":false,"is_disabled":false,"rental_uris":{"android":"levelo://app?vid=4ae00035-f661-4343-8548-c6a621612092","ios":"levelo://app?vid=4ae00035-f661-4343-8548-c6a621612092"},"vehicle_type_id":"4","last_reported":1692491580,"current_range_meters":28800,"station_id":"ce4bgvh2rcd13ifvqcs0","pricing_plan_id":"free"},{"bike_id":"51a22133-4ca2-49bd-8e53-bdb6cc510853","system_id":"levelo_inurba_marseille","lat":43.302759,"lon":5.400793,"is_reserved":false,"is_disabled":false,"rental_uris":{"android":"levelo://app?vid=51a22133-4ca2-49bd-8e53-bdb6cc510853","ios":"levelo://app?vid=51a22133-4ca2-49bd-8e53-bdb6cc510853"},"vehicle_type_id":"4","last_reported":1692491580,"current_range_meters":1600,"station_id":"ce4bgvh2rcd13ifvqcs0","pricing_plan_id":"free"},{"bike_id":"0278445c-f55e-478d-b087-1118ca288042","system_id":"levelo_inurba_marseille","lat":43.287184,"lon":5.37937,"is_reserved":false,"is_disabled":false,"rental_uris":{"android":"levelo://app?vid=0278445c-f55e-478d-b087-1118ca288042","ios":"levelo://app?vid=0278445c-f55e-478d-b087-1118ca288042"},"vehicle_type_id":"4","last_reported":1692491580,"current_range_meters":8800,"station_id":"ce4bh9p2rcd13ifvqec0","pricing_plan_id":"free"},{"bike_id":"77f690d2-59aa-4836-8abb-a03fd6b57c3c","system_id":"levelo_inurba_marseille","lat":43.31641,"lon":5.40435,"is_reserved":false,"is_disabled":false,"rental_uris":{"android":"levelo://app?vid=77f690d2-59aa-4836-8abb-a03fd6b57c3c","ios":"levelo://app?vid=77f690d2-59aa-4836-8abb-a03fd6b57c3c"},"vehicle_type_id":"4","last_reported":1692491580,"current_range_meters":31200,"station_id":"ce4bh012rcd13ifvqd00","pricing_plan_id":"free"},{"bike_id":"bb05d5de-a596-4577-ba70-a59463fa439c","system_id":"levelo_inurba_marseille","lat":43.31645,"lon":5.404347,"is_reserved":false,"is_disabled":false,"rental_uris":{"android":"levelo://app?vid=bb05d5de-a596-4577-ba70-a59463fa439c","ios":"levelo://app?vid=bb05d5de-a596-4577-ba70-a59463fa439c"},"vehicle_type_id":"4","last_reported":1692491580,"current_range_meters":31200,"station_id":"","pricing_plan_id":"free"},{"bike_id":"6a13e00c-5c02-4bf2-a000-3257752288a2","system_id":"levelo_inurba_marseille","lat":43.316517,"lon":5.404375,"is_reserved":false,"is_disabled":false,"rental_uris":{"android":"levelo://app?vid=6a13e00c-5c02-4bf2-a000-3257752288a2","ios":"levelo://app?vid=6a13e00c-5c02-4bf2-a000-3257752288a2"},"vehicle_type_id":"4","last_reported":1692491580,"current_range_meters":12400,"station_id":"ce4bh012rcd13ifvqd00","pricing_plan_id":"free"},{"bike_id":"ede3cb35-ef45-47b7-8e45-bfa997cf1250","system_id":"levelo_inurba_marseille","lat":43.31647,"lon":5.40436,"is_reserved":false,"is_disabled":false,"rental_uris":{"android":"levelo://app?vid=ede3cb35-ef45-47b7-8e45-bfa997cf1250","ios":"levelo://app?vid=ede3cb35-ef45-47b7-8e45-bfa997cf1250"},"vehicle_type_id":"4","last_reported":1692491580,"current_range_meters":30000,"station_id":"ce4bh012rcd13ifvqd00","pricing_plan_id":"free"},{"bike_id":"7da9e437-1e79-4b5f-9ab0-65254ac17dd7","system_id":"levelo_inurba_marseille","lat":43.31645,"lon":5.40437,"is_reserved":false,"is_disabled":false,"rental_uris":{"android":"levelo://app?vid=7da9e437-1e79-4b5f-9ab0-65254ac17dd7","ios":"levelo://app?vid=7da9e437-1e79-4b5f-9ab0-65254ac17dd7"},"vehicle_type_id":"4","last_reported":1692491580,"current_range_meters":23600,"station_id":"ce4bh012rcd13ifvqd00","pricing_plan_id":"free"},{"bike_id":"3900aecb-e903-4fb7-be12-31c6fe1392f5","system_id":"levelo_inurba_marseille","lat":43.284538,"lon":5.358657,"is_reserved":false,"is_disabled":false,"rental_uris":{"android":"levelo://app?vid=3900aecb-e903-4fb7-be12-31c6fe1392f5","ios":"levelo://app?vid=3900aecb-e903-4fb7-be12-31c6fe1392f5"},"vehicle_type_id":"4","last_reported":1692491580,"current_range_meters":0,"station_id":"ce4bhah2rcd13ifvqei0","pricing_plan_id":"free"},{"bike_id":"0dfed0fa-28a6-45de-87f0-e7588e6707b6","system_id":"levelo_inurba_marseille","lat":43.284534,"lon":5.358662,"is_reserved":false,"is_disabled":false,"rental_uris":{"android":"levelo://app?vid=0dfed0fa-28a6-45de-87f0-e7588e6707b6","ios":"levelo://app?vid=0dfed0fa-28a6-45de-87f0-e7588e6707b6"},"vehicle_type_id":"4","last_reported":1692491580,"current_range_meters":0,"station_id":"ce4bhah2rcd13ifvqei0","pricing_plan_id":"free"},{"bike_id":"863352c1-a89f-4cfd-bade-b09f3c5f6ecb","system_id":"levelo_inurba_marseille","lat":43.284538,"lon":5.358657,"is_reserved":false,"is_disabled":false,"rental_uris":{"android":"levelo://app?vid=863352c1-a89f-4cfd-bade-b09f3c5f6ecb","ios":"levelo://app?vid=863352c1-a89f-4cfd-bade-b09f3c5f6ecb"},"vehicle_type_id":"4","last_reported":1692491580,"current_range_meters":21600,"station_id":"ce4bhah2rcd13ifvqei0","pricing_plan_id":"free"},{"bike_id":"75bf11c5-641f-469a-a939-e15e8ea98bf8","system_id":"levelo_inurba_marseille","lat":43.284538,"lon":5.358657,"is_reserved":false,"is_disabled":false,"rental_uris":{"android":"levelo://app?vid=75bf11c5-641f-469a-a939-e15e8ea98bf8","ios":"levelo://app?vid=75bf11c5-641f-469a-a939-e15e8ea98bf8"},"vehicle_type_id":"4","last_reported":1692491580,"current_range_meters":3200,"station_id":"ce4bhah2rcd13ifvqei0","pricing_plan_id":"free"},{"bike_id":"c6894e34-03a2-4d4f-bc54-6952aaf665f5","system_id":"levelo_inurba_marseille","lat":43.284534,"lon":5.358662,"is_reserved":false,"is_disabled":false,"rental_uris":{"android":"levelo://app?vid=c6894e34-03a2-4d4f-bc54-6952aaf665f5","ios":"levelo://app?vid=c6894e34-03a2-4d4f-bc54-6952aaf665f5"},"vehicle_type_id":"4","last_reported":1692491580,"current_range_meters":26400,"station_id":"ce4bhah2rcd13ifvqei0","pricing_plan_id":"free"},{"bike_id":"1ef3b066-ccda-4383-a089-7aa578fa4343","system_id":"levelo_inurba_marseille","lat":43.28617,"lon":5.35113,"is_reserved":false,"is_disabled":false,"rental_uris":{"android":"levelo://app?vid=1ef3b066-ccda-4383-a089-7aa578fa4343","ios":"levelo://app?vid=1ef3b066-ccda-4383-a089-7aa578fa4343"},"vehicle_type_id":"4","last_reported":1692491580,"current_range_meters":8800,"station_id":"ce4bhch2rcd13ifvqeug","pricing_plan_id":"free"},{"bike_id":"34f04e64-54c1-440f-880e-1cb7a453be4c","system_id":"levelo_inurba_marseille","lat":43.28614,"lon":5.35112,"is_reserved":false,"is_disabled":false,"rental_uris":{"android":"levelo://app?vid=34f04e64-54c1-440f-880e-1cb7a453be4c","ios":"levelo://app?vid=34f04e64-54c1-440f-880e-1cb7a453be4c"},"vehicle_type_id":"4","last_reported":1692491580,"current_range_meters":0,"station_id":"ce4bhch2rcd13ifvqeug","pricing_plan_id":"free"},{"bike_id":"6a83f08a-c3be-42a0-9355-3a23fb543d05","system_id":"levelo_inurba_marseille","lat":43.28616,"lon":5.35104,"is_reserved":false,"is_disabled":false,"rental_uris":{"android":"levelo://app?vid=6a83f08a-c3be-42a0-9355-3a23fb543d05","ios":"levelo://app?vid=6a83f08a-c3be-42a0-9355-3a23fb543d05"},"vehicle_type_id":"4","last_reported":1692491580,"current_range_meters":31200,"station_id":"ce4bhch2rcd13ifvqeug","pricing_plan_id":"free"},{"bike_id":"1f72f094-c6cd-4030-ba1f-4741651d0d87","system_id":"levelo_inurba_marseille","lat":43.28614,"lon":5.35108,"is_reserved":false,"is_disabled":false,"rental_uris":{"android":"levelo://app?vid=1f72f094-c6cd-4030-ba1f-4741651d0d87","ios":"levelo://app?vid=1f72f094-c6cd-4030-ba1f-4741651d0d87"},"vehicle_type_id":"4","last_reported":1692491580,"current_range_meters":1200,"station_id":"ce4bhch2rcd13ifvqeug","pricing_plan_id":"free"},{"bike_id":"aaa01d43-f060-427f-af9b-7dc3cf21ec80","system_id":"levelo_inurba_marseille","lat":43.28613,"lon":5.35105,"is_reserved":false,"is_disabled":false,"rental_uris":{"android":"levelo://app?vid=aaa01d43-f060-427f-af9b-7dc3cf21ec80","ios":"levelo://app?vid=aaa01d43-f060-427f-af9b-7dc3cf21ec80"},"vehicle_type_id":"4","last_reported":1692491580,"current_range_meters":31200,"station_id":"ce4bhch2rcd13ifvqeug","pricing_plan_id":"free"},{"bike_id":"35eec3a1-aa54-4990-8eb4-78e6c0dd24d0","system_id":"levelo_inurba_marseille","lat":43.28614,"lon":5.35101,"is_reserved":false,"is_disabled":false,"rental_uris":{"android":"levelo://app?vid=35eec3a1-aa54-4990-8eb4-78e6c0dd24d0","ios":"levelo://app?vid=35eec3a1-aa54-4990-8eb4-78e6c0dd24d0"},"vehicle_type_id":"4","last_reported":1692491580,"current_range_meters":8400,"station_id":"ce4bhch2rcd13ifvqeug","pricing_plan_id":"free"},{"bike_id":"3b09688d-849d-4379-93ba-b75c41ed4413","system_id":"levelo_inurba_marseille","lat":43.28417,"lon":5.37518,"is_reserved":false,"is_disabled":false,"rental_uris":{"android":"levelo://app?vid=3b09688d-849d-4379-93ba-b75c41ed4413","ios":"levelo://app?vid=3b09688d-849d-4379-93ba-b75c41ed4413"},"vehicle_type_id":"4","last_reported":1692491580,"current_range_meters":12400,"station_id":"ce4bh412rcd13ifvqds0","pricing_plan_id":"free"},{"bike_id":"2363d3b5-6c15-401a-a59c-ee80bd4af927","system_id":"levelo_inurba_marseille","lat":43.28415,"lon":5.37522,"is_reserved":false,"is_disabled":false,"rental_uris":{"android":"levelo://app?vid=2363d3b5-6c15-401a-a59c-ee80bd4af927","ios":"levelo://app?vid=2363d3b5-6c15-401a-a59c-ee80bd4af927"},"vehicle_type_id":"4","last_reported":1692491580,"current_range_meters":18800,"station_id":"ce4bh412rcd13ifvqds0","pricing_plan_id":"free"},{"bike_id":"fc62c0c5-551b-43b8-bfaf-2a81d2428c26","system_id":"levelo_inurba_marseille","lat":43.28412,"lon":5.3751,"is_reserved":false,"is_disabled":false,"rental_uris":{"android":"levelo://app?vid=fc62c0c5-551b-43b8-bfaf-2a81d2428c26","ios":"levelo://app?vid=fc62c0c5-551b-43b8-bfaf-2a81d2428c26"},"vehicle_type_id":"4","last_reported":1692491580,"current_range_meters":17600,"station_id":"ce4bh412rcd13ifvqds0","pricing_plan_id":"free"},{"bike_id":"7e5fed5d-5df4-48c6-bac9-f328ba1c60c5","system_id":"levelo_inurba_marseille","lat":43.2841,"lon":5.3752,"is_reserved":false,"is_disabled":false,"rental_uris":{"android":"levelo://app?vid=7e5fed5d-5df4-48c6-bac9-f328ba1c60c5","ios":"levelo://app?vid=7e5fed5d-5df4-48c6-bac9-f328ba1c60c5"},"vehicle_type_id":"4","last_reported":1692491580,"current_range_meters":31200,"station_id":"ce4bh412rcd13ifvqds0","pricing_plan_id":"free"},{"bike_id":"421edb56-fd9d-4d06-ac51-d7c7fc385f64","system_id":"levelo_inurba_marseille","lat":43.28409,"lon":5.37521,"is_reserved":false,"is_disabled":false,"rental_uris":{"android":"levelo://app?vid=421edb56-fd9d-4d06-ac51-d7c7fc385f64","ios":"levelo://app?vid=421edb56-fd9d-4d06-ac51-d7c7fc385f64"},"vehicle_type_id":"4","last_reported":1692491580,"current_range_meters":31200,"station_id":"ce4bh412rcd13ifvqds0","pricing_plan_id":"free"},{"bike_id":"2959af56-bdc0-4236-ba26-f3e605a7b7c1","system_id":"levelo_inurba_marseille","lat":43.28405,"lon":5.37511,"is_reserved":false,"is_disabled":false,"rental_uris":{"android":"levelo://app?vid=2959af56-bdc0-4236-ba26-f3e605a7b7c1","ios":"levelo://app?vid=2959af56-bdc0-4236-ba26-f3e605a7b7c1"},"vehicle_type_id":"4","last_reported":1692491580,"current_range_meters":1200,"station_id":"ce4bh412rcd13ifvqds0","pricing_plan_id":"free"},{"bike_id":"2e0eb212-f5e8-48f4-843c-41d24dc183ea","system_id":"levelo_inurba_marseille","lat":43.28406,"lon":5.37521,"is_reserved":false,"is_disabled":false,"rental_uris":{"android":"levelo://app?vid=2e0eb212-f5e8-48f4-843c-41d24dc183ea","ios":"levelo://app?vid=2e0eb212-f5e8-48f4-843c-41d24dc183ea"},"vehicle_type_id":"4","last_reported":1692491580,"current_range_meters":29200,"station_id":"ce4bh412rcd13ifvqds0","pricing_plan_id":"free"},{"bike_id":"d9f035da-122a-4bb3-9100-4d19a5e8ac43","system_id":"levelo_inurba_marseille","lat":43.28404,"lon":5.37516,"is_reserved":false,"is_disabled":false,"rental_uris":{"android":"levelo://app?vid=d9f035da-122a-4bb3-9100-4d19a5e8ac43","ios":"levelo://app?vid=d9f035da-122a-4bb3-9100-4d19a5e8ac43"},"vehicle_type_id":"4","last_reported":1692491580,"current_range_meters":31200,"station_id":"ce4bh412rcd13ifvqds0","pricing_plan_id":"free"},{"bike_id":"e1cd9671-7cff-4e42-b299-4e2d9c5ad02b","system_id":"levelo_inurba_marseille","lat":43.295713,"lon":5.399639,"is_reserved":false,"is_disabled":false,"rental_uris":{"android":"levelo://app?vid=e1cd9671-7cff-4e42-b299-4e2d9c5ad02b","ios":"levelo://app?vid=e1cd9671-7cff-4e42-b299-4e2d9c5ad02b"},"vehicle_type_id":"4","last_reported":1692491580,"current_range_meters":4000,"station_id":"ce4bh312rcd13ifvqdj0","pricing_plan_id":"free"},{"bike_id":"96c271c8-1da8-456a-9c20-168d4ffe99be","system_id":"levelo_inurba_marseille","lat":43.295713,"lon":5.399639,"is_reserved":false,"is_disabled":false,"rental_uris":{"android":"levelo://app?vid=96c271c8-1da8-456a-9c20-168d4ffe99be","ios":"levelo://app?vid=96c271c8-1da8-456a-9c20-168d4ffe99be"},"vehicle_type_id":"4","last_reported":1692491580,"current_range_meters":2400,"station_id":"ce4bh312rcd13ifvqdj0","pricing_plan_id":"free"},{"bike_id":"58785da4-6dcc-4e7a-907c-add8bb83b48f","system_id":"levelo_inurba_marseille","lat":43.29561,"lon":5.39978,"is_reserved":false,"is_disabled":false,"rental_uris":{"android":"levelo://app?vid=58785da4-6dcc-4e7a-907c-add8bb83b48f","ios":"levelo://app?vid=58785da4-6dcc-4e7a-907c-add8bb83b48f"},"vehicle_type_id":"4","last_reported":1692491580,"current_range_meters":10400,"station_id":"ce4bh312rcd13ifvqdj0","pricing_plan_id":"free"},{"bike_id":"e63a24e9-4d9d-4b90-829e-bb9789271d21","system_id":"levelo_inurba_marseille","lat":43.319179,"lon":5.407725,"is_reserved":false,"is_disabled":false,"rental_uris":{"android":"levelo://app?vid=e63a24e9-4d9d-4b90-829e-bb9789271d21","ios":"levelo://app?vid=e63a24e9-4d9d-4b90-829e-bb9789271d21"},"vehicle_type_id":"4","last_reported":1692491580,"current_range_meters":25200,"station_id":"ce4bhq12rcd13ifvqhig","pricing_plan_id":"free"},{"bike_id":"bdc3f47b-e1d1-4a3a-b0c1-e8a91d4b0833","system_id":"levelo_inurba_marseille","lat":43.319179,"lon":5.407725,"is_reserved":false,"is_disabled":false,"rental_uris":{"android":"levelo://app?vid=bdc3f47b-e1d1-4a3a-b0c1-e8a91d4b0833","ios":"levelo://app?vid=bdc3f47b-e1d1-4a3a-b0c1-e8a91d4b0833"},"vehicle_type_id":"4","last_reported":1692491580,"current_range_meters":19600,"station_id":"ce4bhq12rcd13ifvqhig","pricing_plan_id":"free"},{"bike_id":"f13d5e3e-fdf4-4bdd-8a95-6e8a1ceb27f9","system_id":"levelo_inurba_marseille","lat":43.31885,"lon":5.40741,"is_reserved":false,"is_disabled":false,"rental_uris":{"android":"levelo://app?vid=f13d5e3e-fdf4-4bdd-8a95-6e8a1ceb27f9","ios":"levelo://app?vid=f13d5e3e-fdf4-4bdd-8a95-6e8a1ceb27f9"},"vehicle_type_id":"4","last_reported":1692491580,"current_range_meters":31200,"station_id":"ce4bhq12rcd13ifvqhig","pricing_plan_id":"free"},{"bike_id":"e78bd4e4-c14d-4a01-b72e-65351e2b8a18","system_id":"levelo_inurba_marseille","lat":43.30301,"lon":5.40629,"is_reserved":false,"is_disabled":false,"rental_uris":{"android":"levelo://app?vid=e78bd4e4-c14d-4a01-b72e-65351e2b8a18","ios":"levelo://app?vid=e78bd4e4-c14d-4a01-b72e-65351e2b8a18"},"vehicle_type_id":"4","last_reported":1692491580,"current_range_meters":0,"station_id":"","pricing_plan_id":"free"},{"bike_id":"2b3f06e0-8f2d-4133-9563-f19f57fe46e5","system_id":"levelo_inurba_marseille","lat":43.33718,"lon":5.39181,"is_reserved":false,"is_disabled":false,"rental_uris":{"android":"levelo://app?vid=2b3f06e0-8f2d-4133-9563-f19f57fe46e5","ios":"levelo://app?vid=2b3f06e0-8f2d-4133-9563-f19f57fe46e5"},"vehicle_type_id":"4","last_reported":1692491580,"current_range_meters":9200,"station_id":"ce4bhr92rcd13ifvqhsg","pricing_plan_id":"free"},{"bike_id":"efe8b264-ad35-4139-b98d-40041f267f16","system_id":"levelo_inurba_marseille","lat":43.33718,"lon":5.39182,"is_reserved":false,"is_disabled":false,"rental_uris":{"android":"levelo://app?vid=efe8b264-ad35-4139-b98d-40041f267f16","ios":"levelo://app?vid=efe8b264-ad35-4139-b98d-40041f267f16"},"vehicle_type_id":"4","last_reported":1692491580,"current_range_meters":26000,"station_id":"ce4bhr92rcd13ifvqhsg","pricing_plan_id":"free"},{"bike_id":"17105054-6fd8-493b-b0be-1ed88688055c","system_id":"levelo_inurba_marseille","lat":43.33721,"lon":5.39182,"is_reserved":false,"is_disabled":false,"rental_uris":{"android":"levelo://app?vid=17105054-6fd8-493b-b0be-1ed88688055c","ios":"levelo://app?vid=17105054-6fd8-493b-b0be-1ed88688055c"},"vehicle_type_id":"4","last_reported":1692491580,"current_range_meters":28800,"station_id":"ce4bhr92rcd13ifvqhsg","pricing_plan_id":"free"},{"bike_id":"d97a4812-dc20-44c9-9507-728e24101e66","system_id":"levelo_inurba_marseille","lat":43.323464,"lon":5.406297,"is_reserved":false,"is_disabled":false,"rental_uris":{"android":"levelo://app?vid=d97a4812-dc20-44c9-9507-728e24101e66","ios":"levelo://app?vid=d97a4812-dc20-44c9-9507-728e24101e66"},"vehicle_type_id":"4","last_reported":1692491580,"current_range_meters":31200,"station_id":"ce4bhq92rcd13ifvqhjg","pricing_plan_id":"free"},{"bike_id":"02f29c2d-847e-4148-9200-bdb4c19acc46","system_id":"levelo_inurba_marseille","lat":43.33721,"lon":5.39185,"is_reserved":false,"is_disabled":false,"rental_uris":{"android":"levelo://app?vid=02f29c2d-847e-4148-9200-bdb4c19acc46","ios":"levelo://app?vid=02f29c2d-847e-4148-9200-bdb4c19acc46"},"vehicle_type_id":"4","last_reported":1692491580,"current_range_meters":29200,"station_id":"ce4bhr92rcd13ifvqhsg","pricing_plan_id":"free"},{"bike_id":"72fc020d-a1d4-460a-a3d1-6187a1ea65d2","system_id":"levelo_inurba_marseille","lat":43.33725,"lon":5.3918,"is_reserved":false,"is_disabled":false,"rental_uris":{"android":"levelo://app?vid=72fc020d-a1d4-460a-a3d1-6187a1ea65d2","ios":"levelo://app?vid=72fc020d-a1d4-460a-a3d1-6187a1ea65d2"},"vehicle_type_id":"4","last_reported":1692491580,"current_range_meters":26000,"station_id":"ce4bhr92rcd13ifvqhsg","pricing_plan_id":"free"},{"bike_id":"db0a8054-293b-4caa-b72d-316d0557cd0c","system_id":"levelo_inurba_marseille","lat":43.32334,"lon":5.40619,"is_reserved":false,"is_disabled":false,"rental_uris":{"android":"levelo://app?vid=db0a8054-293b-4caa-b72d-316d0557cd0c","ios":"levelo://app?vid=db0a8054-293b-4caa-b72d-316d0557cd0c"},"vehicle_type_id":"4","last_reported":1692491580,"current_range_meters":21200,"station_id":"","pricing_plan_id":"free"},{"bike_id":"c24cecf2-0503-470c-b3d3-fc37f377f710","system_id":"levelo_inurba_marseille","lat":43.33722,"lon":5.39187,"is_reserved":false,"is_disabled":false,"rental_uris":{"android":"levelo://app?vid=c24cecf2-0503-470c-b3d3-fc37f377f710","ios":"levelo://app?vid=c24cecf2-0503-470c-b3d3-fc37f377f710"},"vehicle_type_id":"4","last_reported":1692491580,"current_range_meters":28000,"station_id":"ce4bhr92rcd13ifvqhsg","pricing_plan_id":"free"},{"bike_id":"f2dec21d-e1ba-4c13-a07a-5d853e46abbf","system_id":"levelo_inurba_marseille","lat":43.323464,"lon":5.406297,"is_reserved":false,"is_disabled":false,"rental_uris":{"android":"levelo://app?vid=f2dec21d-e1ba-4c13-a07a-5d853e46abbf","ios":"levelo://app?vid=f2dec21d-e1ba-4c13-a07a-5d853e46abbf"},"vehicle_type_id":"4","last_reported":1692491580,"current_range_meters":31200,"station_id":"ce4bhq92rcd13ifvqhjg","pricing_plan_id":"free"},{"bike_id":"d6b2beca-f6dc-4b6e-8c6e-d6e59c330286","system_id":"levelo_inurba_marseille","lat":43.323464,"lon":5.406297,"is_reserved":false,"is_disabled":false,"rental_uris":{"android":"levelo://app?vid=d6b2beca-f6dc-4b6e-8c6e-d6e59c330286","ios":"levelo://app?vid=d6b2beca-f6dc-4b6e-8c6e-d6e59c330286"},"vehicle_type_id":"4","last_reported":1692491580,"current_range_meters":31200,"station_id":"ce4bhq92rcd13ifvqhjg","pricing_plan_id":"free"},{"bike_id":"baef72cb-b22b-4d30-82e9-ac3a300140d7","system_id":"levelo_inurba_marseille","lat":43.323464,"lon":5.406297,"is_reserved":false,"is_disabled":false,"rental_uris":{"android":"levelo://app?vid=baef72cb-b22b-4d30-82e9-ac3a300140d7","ios":"levelo://app?vid=baef72cb-b22b-4d30-82e9-ac3a300140d7"},"vehicle_type_id":"4","last_reported":1692491580,"current_range_meters":30400,"station_id":"ce4bhq92rcd13ifvqhjg","pricing_plan_id":"free"},{"bike_id":"7d2969ab-a065-4a23-b19e-667095d799c9","system_id":"levelo_inurba_marseille","lat":43.33726,"lon":5.39185,"is_reserved":false,"is_disabled":false,"rental_uris":{"android":"levelo://app?vid=7d2969ab-a065-4a23-b19e-667095d799c9","ios":"levelo://app?vid=7d2969ab-a065-4a23-b19e-667095d799c9"},"vehicle_type_id":"4","last_reported":1692491580,"current_range_meters":8800,"station_id":"ce4bhr92rcd13ifvqhsg","pricing_plan_id":"free"},{"bike_id":"12c0f407-4ac2-49d3-b1e8-783bd26a8644","system_id":"levelo_inurba_marseille","lat":43.33725,"lon":5.39187,"is_reserved":false,"is_disabled":false,"rental_uris":{"android":"levelo://app?vid=12c0f407-4ac2-49d3-b1e8-783bd26a8644","ios":"levelo://app?vid=12c0f407-4ac2-49d3-b1e8-783bd26a8644"},"vehicle_type_id":"4","last_reported":1692491580,"current_range_meters":28800,"station_id":"ce4bhr92rcd13ifvqhsg","pricing_plan_id":"free"},{"bike_id":"0dda2562-498f-4f90-abfb-f3c666db2d2e","system_id":"levelo_inurba_marseille","lat":43.33725,"lon":5.39187,"is_reserved":false,"is_disabled":false,"rental_uris":{"android":"levelo://app?vid=0dda2562-498f-4f90-abfb-f3c666db2d2e","ios":"levelo://app?vid=0dda2562-498f-4f90-abfb-f3c666db2d2e"},"vehicle_type_id":"4","last_reported":1692491580,"current_range_meters":22400,"station_id":"ce4bhr92rcd13ifvqhsg","pricing_plan_id":"free"},{"bike_id":"d3b7ca63-e616-456b-9e2d-d17ed72c8be4","system_id":"levelo_inurba_marseille","lat":43.323464,"lon":5.406297,"is_reserved":false,"is_disabled":false,"rental_uris":{"android":"levelo://app?vid=d3b7ca63-e616-456b-9e2d-d17ed72c8be4","ios":"levelo://app?vid=d3b7ca63-e616-456b-9e2d-d17ed72c8be4"},"vehicle_type_id":"4","last_reported":1692491580,"current_range_meters":31200,"station_id":"ce4bhq92rcd13ifvqhjg","pricing_plan_id":"free"},{"bike_id":"afec74e1-dc2b-42ed-af0f-94d00f5fc581","system_id":"levelo_inurba_marseille","lat":43.323464,"lon":5.406297,"is_reserved":false,"is_disabled":false,"rental_uris":{"android":"levelo://app?vid=afec74e1-dc2b-42ed-af0f-94d00f5fc581","ios":"levelo://app?vid=afec74e1-dc2b-42ed-af0f-94d00f5fc581"},"vehicle_type_id":"4","last_reported":1692491580,"current_range_meters":31200,"station_id":"ce4bhq92rcd13ifvqhjg","pricing_plan_id":"free"},{"bike_id":"e45012d8-673a-4bd6-93d3-a427f767a00d","system_id":"levelo_inurba_marseille","lat":43.33728,"lon":5.39187,"is_reserved":false,"is_disabled":false,"rental_uris":{"android":"levelo://app?vid=e45012d8-673a-4bd6-93d3-a427f767a00d","ios":"levelo://app?vid=e45012d8-673a-4bd6-93d3-a427f767a00d"},"vehicle_type_id":"4","last_reported":1692491580,"current_range_meters":26400,"station_id":"ce4bhr92rcd13ifvqhsg","pricing_plan_id":"free"},{"bike_id":"01f563c5-7ac0-4d44-b1b3-0549f3b949f3","system_id":"levelo_inurba_marseille","lat":43.33729,"lon":5.39187,"is_reserved":false,"is_disabled":false,"rental_uris":{"android":"levelo://app?vid=01f563c5-7ac0-4d44-b1b3-0549f3b949f3","ios":"levelo://app?vid=01f563c5-7ac0-4d44-b1b3-0549f3b949f3"},"vehicle_type_id":"4","last_reported":1692491580,"current_range_meters":28800,"station_id":"ce4bhr92rcd13ifvqhsg","pricing_plan_id":"free"},{"bike_id":"186ddf38-a5ca-44a9-9dd3-9bfe2a53544b","system_id":"levelo_inurba_marseille","lat":43.33732,"lon":5.39184,"is_reserved":false,"is_disabled":false,"rental_uris":{"android":"levelo://app?vid=186ddf38-a5ca-44a9-9dd3-9bfe2a53544b","ios":"levelo://app?vid=186ddf38-a5ca-44a9-9dd3-9bfe2a53544b"},"vehicle_type_id":"4","last_reported":1692491580,"current_range_meters":28000,"station_id":"ce4bhr92rcd13ifvqhsg","pricing_plan_id":"free"},{"bike_id":"6fb36002-bc24-427c-a16e-585470e55deb","system_id":"levelo_inurba_marseille","lat":43.32606,"lon":5.40481,"is_reserved":false,"is_disabled":false,"rental_uris":{"android":"levelo://app?vid=6fb36002-bc24-427c-a16e-585470e55deb","ios":"levelo://app?vid=6fb36002-bc24-427c-a16e-585470e55deb"},"vehicle_type_id":"4","last_reported":1692491580,"current_range_meters":21200,"station_id":"","pricing_plan_id":"free"},{"bike_id":"8bd09c71-02ae-4371-8b55-ce1e7e2bf2df","system_id":"levelo_inurba_marseille","lat":43.33738,"lon":5.39193,"is_reserved":false,"is_disabled":false,"rental_uris":{"android":"levelo://app?vid=8bd09c71-02ae-4371-8b55-ce1e7e2bf2df","ios":"levelo://app?vid=8bd09c71-02ae-4371-8b55-ce1e7e2bf2df"},"vehicle_type_id":"4","last_reported":1692491580,"current_range_meters":29200,"station_id":"ce4bhr92rcd13ifvqhsg","pricing_plan_id":"free"},{"bike_id":"e0be890e-9aa2-4fa9-9c4a-6a79ed37f68e","system_id":"levelo_inurba_marseille","lat":43.28475,"lon":5.38422,"is_reserved":false,"is_disabled":false,"rental_uris":{"android":"levelo://app?vid=e0be890e-9aa2-4fa9-9c4a-6a79ed37f68e","ios":"levelo://app?vid=e0be890e-9aa2-4fa9-9c4a-6a79ed37f68e"},"vehicle_type_id":"4","last_reported":1692491580,"current_range_meters":14800,"station_id":"ce4bh512rcd13ifvqe3g","pricing_plan_id":"free"},{"bike_id":"bd7badb3-5d9e-460f-983e-21a382a4e73f","system_id":"levelo_inurba_marseille","lat":43.297946,"lon":5.404063,"is_reserved":false,"is_disabled":false,"rental_uris":{"android":"levelo://app?vid=bd7badb3-5d9e-460f-983e-21a382a4e73f","ios":"levelo://app?vid=bd7badb3-5d9e-460f-983e-21a382a4e73f"},"vehicle_type_id":"4","last_reported":1692491580,"current_range_meters":400,"station_id":"ce4bh112rcd13ifvqd90","pricing_plan_id":"free"},{"bike_id":"710e09d6-72e8-45ab-8e7c-6ded2af2238f","system_id":"levelo_inurba_marseille","lat":43.283494,"lon":5.380945,"is_reserved":false,"is_disabled":false,"rental_uris":{"android":"levelo://app?vid=710e09d6-72e8-45ab-8e7c-6ded2af2238f","ios":"levelo://app?vid=710e09d6-72e8-45ab-8e7c-6ded2af2238f"},"vehicle_type_id":"4","last_reported":1692491580,"current_range_meters":7600,"station_id":"ce4bh412rcd13ifvqdr0","pricing_plan_id":"free"},{"bike_id":"21b5d05e-2abd-4bf6-b2ad-4a18f51549a7","system_id":"levelo_inurba_marseille","lat":43.288497,"lon":5.393089,"is_reserved":false,"is_disabled":false,"rental_uris":{"android":"levelo://app?vid=21b5d05e-2abd-4bf6-b2ad-4a18f51549a7","ios":"levelo://app?vid=21b5d05e-2abd-4bf6-b2ad-4a18f51549a7"},"vehicle_type_id":"4","last_reported":1692491580,"current_range_meters":22400,"station_id":"ce4bh2p2rcd13ifvqdi0","pricing_plan_id":"free"},{"bike_id":"79e729e0-75bf-4469-ab83-10e38997afda","system_id":"levelo_inurba_marseille","lat":43.288501,"lon":5.393087,"is_reserved":false,"is_disabled":false,"rental_uris":{"android":"levelo://app?vid=79e729e0-75bf-4469-ab83-10e38997afda","ios":"levelo://app?vid=79e729e0-75bf-4469-ab83-10e38997afda"},"vehicle_type_id":"4","last_reported":1692491580,"current_range_meters":22000,"station_id":"ce4bh2p2rcd13ifvqdi0","pricing_plan_id":"free"},{"bike_id":"8d8d44f2-b208-4146-9b05-856001fffee6","system_id":"levelo_inurba_marseille","lat":43.283494,"lon":5.380945,"is_reserved":false,"is_disabled":false,"rental_uris":{"android":"levelo://app?vid=8d8d44f2-b208-4146-9b05-856001fffee6","ios":"levelo://app?vid=8d8d44f2-b208-4146-9b05-856001fffee6"},"vehicle_type_id":"4","last_reported":1692491580,"current_range_meters":25200,"station_id":"ce4bh412rcd13ifvqdr0","pricing_plan_id":"free"},{"bike_id":"9601bc0b-7cec-44d4-afd1-7f02a22af5c2","system_id":"levelo_inurba_marseille","lat":43.29795,"lon":5.404086,"is_reserved":false,"is_disabled":false,"rental_uris":{"android":"levelo://app?vid=9601bc0b-7cec-44d4-afd1-7f02a22af5c2","ios":"levelo://app?vid=9601bc0b-7cec-44d4-afd1-7f02a22af5c2"},"vehicle_type_id":"4","last_reported":1692491580,"current_range_meters":6000,"station_id":"ce4bh112rcd13ifvqd90","pricing_plan_id":"free"},{"bike_id":"a5fe9bef-95b8-4794-a76d-10783b98bce2","system_id":"levelo_inurba_marseille","lat":43.283498,"lon":5.380948,"is_reserved":false,"is_disabled":false,"rental_uris":{"android":"levelo://app?vid=a5fe9bef-95b8-4794-a76d-10783b98bce2","ios":"levelo://app?vid=a5fe9bef-95b8-4794-a76d-10783b98bce2"},"vehicle_type_id":"4","last_reported":1692491580,"current_range_meters":13200,"station_id":"ce4bh412rcd13ifvqdr0","pricing_plan_id":"free"},{"bike_id":"f50aca5f-cf5b-4020-925f-826a2e34874f","system_id":"levelo_inurba_marseille","lat":43.289363,"lon":5.396322,"is_reserved":false,"is_disabled":false,"rental_uris":{"android":"levelo://app?vid=f50aca5f-cf5b-4020-925f-826a2e34874f","ios":"levelo://app?vid=f50aca5f-cf5b-4020-925f-826a2e34874f"},"vehicle_type_id":"4","last_reported":1692491580,"current_range_meters":31200,"station_id":"ce4bh3h2rcd13ifvqdn0","pricing_plan_id":"free"},{"bike_id":"f26a72cd-5af7-4595-9096-1669d24b6ea0","system_id":"levelo_inurba_marseille","lat":43.289363,"lon":5.396322,"is_reserved":false,"is_disabled":false,"rental_uris":{"android":"levelo://app?vid=f26a72cd-5af7-4595-9096-1669d24b6ea0","ios":"levelo://app?vid=f26a72cd-5af7-4595-9096-1669d24b6ea0"},"vehicle_type_id":"4","last_reported":1692491580,"current_range_meters":15200,"station_id":"ce4bh3h2rcd13ifvqdn0","pricing_plan_id":"free"},{"bike_id":"e74947f3-215f-4dd4-be4c-b6aeb3cd7860","system_id":"levelo_inurba_marseille","lat":43.292724,"lon":5.401131,"is_reserved":false,"is_disabled":false,"rental_uris":{"android":"levelo://app?vid=e74947f3-215f-4dd4-be4c-b6aeb3cd7860","ios":"levelo://app?vid=e74947f3-215f-4dd4-be4c-b6aeb3cd7860"},"vehicle_type_id":"4","last_reported":1692491580,"current_range_meters":13600,"station_id":"ce4bh312rcd13ifvqdk0","pricing_plan_id":"free"},{"bike_id":"695fe452-cbbe-4259-a1f3-1e03e29c4b6e","system_id":"levelo_inurba_marseille","lat":43.292724,"lon":5.401131,"is_reserved":false,"is_disabled":false,"rental_uris":{"android":"levelo://app?vid=695fe452-cbbe-4259-a1f3-1e03e29c4b6e","ios":"levelo://app?vid=695fe452-cbbe-4259-a1f3-1e03e29c4b6e"},"vehicle_type_id":"4","last_reported":1692491580,"current_range_meters":10000,"station_id":"ce4bh312rcd13ifvqdk0","pricing_plan_id":"free"},{"bike_id":"5cec26ac-344f-432b-af34-450b75305b9b","system_id":"levelo_inurba_marseille","lat":43.292724,"lon":5.401131,"is_reserved":false,"is_disabled":false,"rental_uris":{"android":"levelo://app?vid=5cec26ac-344f-432b-af34-450b75305b9b","ios":"levelo://app?vid=5cec26ac-344f-432b-af34-450b75305b9b"},"vehicle_type_id":"4","last_reported":1692491580,"current_range_meters":28800,"station_id":"ce4bh312rcd13ifvqdk0","pricing_plan_id":"free"},{"bike_id":"88940920-727e-47f8-bee6-24feedff1167","system_id":"levelo_inurba_marseille","lat":43.282744,"lon":5.350533,"is_reserved":false,"is_disabled":false,"rental_uris":{"android":"levelo://app?vid=88940920-727e-47f8-bee6-24feedff1167","ios":"levelo://app?vid=88940920-727e-47f8-bee6-24feedff1167"},"vehicle_type_id":"4","last_reported":1692491580,"current_range_meters":29600,"station_id":"ce4bhbp2rcd13ifvqerg","pricing_plan_id":"free"},{"bike_id":"f6d9e66a-5df4-4370-a8f7-0d963d7acc3a","system_id":"levelo_inurba_marseille","lat":43.282744,"lon":5.350533,"is_reserved":false,"is_disabled":false,"rental_uris":{"android":"levelo://app?vid=f6d9e66a-5df4-4370-a8f7-0d963d7acc3a","ios":"levelo://app?vid=f6d9e66a-5df4-4370-a8f7-0d963d7acc3a"},"vehicle_type_id":"4","last_reported":1692491580,"current_range_meters":29600,"station_id":"ce4bhbp2rcd13ifvqerg","pricing_plan_id":"free"},{"bike_id":"5f27fa9d-e18e-4e23-a59e-8b0f4131cbc4","system_id":"levelo_inurba_marseille","lat":43.28039,"lon":5.369297,"is_reserved":false,"is_disabled":false,"rental_uris":{"android":"levelo://app?vid=5f27fa9d-e18e-4e23-a59e-8b0f4131cbc4","ios":"levelo://app?vid=5f27fa9d-e18e-4e23-a59e-8b0f4131cbc4"},"vehicle_type_id":"4","last_reported":1692491580,"current_range_meters":14400,"station_id":"ce4bha12rcd13ifvqef0","pricing_plan_id":"free"},{"bike_id":"1188c211-3c69-4700-a33f-ffe0986ec317","system_id":"levelo_inurba_marseille","lat":43.280382,"lon":5.369291,"is_reserved":false,"is_disabled":false,"rental_uris":{"android":"levelo://app?vid=1188c211-3c69-4700-a33f-ffe0986ec317","ios":"levelo://app?vid=1188c211-3c69-4700-a33f-ffe0986ec317"},"vehicle_type_id":"4","last_reported":1692491580,"current_range_meters":24000,"station_id":"ce4bha12rcd13ifvqef0","pricing_plan_id":"free"},{"bike_id":"6da83b3e-7424-493a-9108-6c6ebfee5cd6","system_id":"levelo_inurba_marseille","lat":43.28039,"lon":5.369297,"is_reserved":false,"is_disabled":false,"rental_uris":{"android":"levelo://app?vid=6da83b3e-7424-493a-9108-6c6ebfee5cd6","ios":"levelo://app?vid=6da83b3e-7424-493a-9108-6c6ebfee5cd6"},"vehicle_type_id":"4","last_reported":1692491580,"current_range_meters":3200,"station_id":"ce4bha12rcd13ifvqef0","pricing_plan_id":"free"},{"bike_id":"9f46cfde-4f76-4076-bade-5765c2d3d473","system_id":"levelo_inurba_marseille","lat":43.28039,"lon":5.369297,"is_reserved":false,"is_disabled":false,"rental_uris":{"android":"levelo://app?vid=9f46cfde-4f76-4076-bade-5765c2d3d473","ios":"levelo://app?vid=9f46cfde-4f76-4076-bade-5765c2d3d473"},"vehicle_type_id":"4","last_reported":1692491580,"current_range_meters":32000,"station_id":"ce4bha12rcd13ifvqef0","pricing_plan_id":"free"},{"bike_id":"b236fca7-1265-42f5-b66f-1be9a76c3a1a","system_id":"levelo_inurba_marseille","lat":43.28039,"lon":5.369297,"is_reserved":false,"is_disabled":false,"rental_uris":{"android":"levelo://app?vid=b236fca7-1265-42f5-b66f-1be9a76c3a1a","ios":"levelo://app?vid=b236fca7-1265-42f5-b66f-1be9a76c3a1a"},"vehicle_type_id":"4","last_reported":1692491580,"current_range_meters":29200,"station_id":"ce4bha12rcd13ifvqef0","pricing_plan_id":"free"},{"bike_id":"e517543f-7c7c-4ca0-af7f-769604958cd4","system_id":"levelo_inurba_marseille","lat":43.281044,"lon":5.378308,"is_reserved":false,"is_disabled":false,"rental_uris":{"android":"levelo://app?vid=e517543f-7c7c-4ca0-af7f-769604958cd4","ios":"levelo://app?vid=e517543f-7c7c-4ca0-af7f-769604958cd4"},"vehicle_type_id":"4","last_reported":1692491580,"current_range_meters":18000,"station_id":"ce4bha12rcd13ifvqee0","pricing_plan_id":"free"},{"bike_id":"9a1f7db8-4ea2-419c-b870-c7dae5f9235d","system_id":"levelo_inurba_marseille","lat":43.28108,"lon":5.37835,"is_reserved":false,"is_disabled":false,"rental_uris":{"android":"levelo://app?vid=9a1f7db8-4ea2-419c-b870-c7dae5f9235d","ios":"levelo://app?vid=9a1f7db8-4ea2-419c-b870-c7dae5f9235d"},"vehicle_type_id":"4","last_reported":1692491580,"current_range_meters":17600,"station_id":"ce4bha12rcd13ifvqee0","pricing_plan_id":"free"},{"bike_id":"d27c793e-e279-4b89-9ae7-02bc73880a48","system_id":"levelo_inurba_marseille","lat":43.28109,"lon":5.37845,"is_reserved":false,"is_disabled":false,"rental_uris":{"android":"levelo://app?vid=d27c793e-e279-4b89-9ae7-02bc73880a48","ios":"levelo://app?vid=d27c793e-e279-4b89-9ae7-02bc73880a48"},"vehicle_type_id":"4","last_reported":1692491580,"current_range_meters":31200,"station_id":"ce4bha12rcd13ifvqee0","pricing_plan_id":"free"},{"bike_id":"a8a545d2-73ec-40ef-b15b-03656d0b7938","system_id":"levelo_inurba_marseille","lat":43.28107,"lon":5.37837,"is_reserved":false,"is_disabled":false,"rental_uris":{"android":"levelo://app?vid=a8a545d2-73ec-40ef-b15b-03656d0b7938","ios":"levelo://app?vid=a8a545d2-73ec-40ef-b15b-03656d0b7938"},"vehicle_type_id":"4","last_reported":1692491580,"current_range_meters":26000,"station_id":"ce4bha12rcd13ifvqee0","pricing_plan_id":"free"},{"bike_id":"b37cc8ce-06a7-4f96-9a71-d453852683d3","system_id":"levelo_inurba_marseille","lat":43.281044,"lon":5.378308,"is_reserved":false,"is_disabled":false,"rental_uris":{"android":"levelo://app?vid=b37cc8ce-06a7-4f96-9a71-d453852683d3","ios":"levelo://app?vid=b37cc8ce-06a7-4f96-9a71-d453852683d3"},"vehicle_type_id":"4","last_reported":1692491580,"current_range_meters":28800,"station_id":"ce4bha12rcd13ifvqee0","pricing_plan_id":"free"},{"bike_id":"c4732be9-4cae-4f28-999e-99c5a6bf05c0","system_id":"levelo_inurba_marseille","lat":43.28104,"lon":5.37842,"is_reserved":false,"is_disabled":false,"rental_uris":{"android":"levelo://app?vid=c4732be9-4cae-4f28-999e-99c5a6bf05c0","ios":"levelo://app?vid=c4732be9-4cae-4f28-999e-99c5a6bf05c0"},"vehicle_type_id":"4","last_reported":1692491580,"current_range_meters":9200,"station_id":"ce4bha12rcd13ifvqee0","pricing_plan_id":"free"},