{"last_updated":1685646298,"ttl":30,"version":"2.2","data":{"bikes":[{"bike_id":"df88ba4c-cebd-459c-8f71-b46d7c733dc1","system_id":"levelo_inurba_marseille","lat":43.312239,"lon":5.368562,"is_reserved":false,"is_disabled":false,"rental_uris":{"android":"levelo://app?vid=df88ba4c-cebd-459c-8f71-b46d7c733dc1","ios":"levelo://app?vid=df88ba4c-cebd-459c-8f71-b46d7c733dc1"},"vehicle_type_id":"4","last_reported":1685646298,"current_range_meters":25600,"station_id":"ce4bgl92rcd13ifvqbq0","pricing_plan_id":"free"},{"bike_id":"7d253535-87de-463f-95c6-24ea04281b4a","system_id":"levelo_inurba_marseille","lat":43.309076,"lon":5.368465,"is_reserved":false,"is_disabled":false,"rental_uris":{"android":"levelo://app?vid=7d253535-87de-463f-95c6-24ea04281b4a","ios":"levelo://app?vid=7d253535-87de-463f-95c6-24ea04281b4a"},"vehicle_type_id":"4","last_reported":1685646298,"current_range_meters":10400,"station_id":"ce4bgn92rcd13ifvqbvg","pricing_plan_id":"free"},{"bike_id":"2099d8f5-b16d-40a9-831c-4709b33a15a0","system_id":"levelo_inurba_marseille","lat":43.314811,"lon":5.373103,"is_reserved":false,"is_disabled":false,"rental_uris":{"android":"levelo://app?vid=2099d8f5-b16d-40a9-831c-4709b33a15a0","ios":"levelo://app?vid=2099d8f5-b16d-40a9-831c-4709b33a15a0"},"vehicle_type_id":"4","last_reported":1685646298,"current_range_meters":30000,"station_id":"ce4bgt12rcd13ifvqcd0","pricing_plan_id":"free"},{"bike_id":"4d43e892-ec90-4fce-8475-f727fed3851f","system_id":"levelo_inurba_marseille","lat":43.31724,"lon":5.37092,"is_reserved":false,"is_disabled":false,"rental_uris":{"android":"levelo://app?vid=4d43e892-ec90-4fce-8475-f727fed3851f","ios":"levelo://app?vid=4d43e892-ec90-4fce-8475-f727fed3851f"},"vehicle_type_id":"4","last_reported":1685646298,"current_range_meters":12400,"station_id":"","pricing_plan_id":"free"},{"bike_id":"bab1c040-2f51-408c-a874-cd14b749a387","system_id":"levelo_inurba_marseille","lat":43.305714,"lon":5.365633,"is_reserved":false,"is_disabled":false,"rental_uris":{"android":"levelo://app?vid=bab1c040-2f51-408c-a874-cd14b749a387","ios":"levelo://app?vid=bab1c040-2f51-408c-a874-cd14b749a387"},"vehicle_type_id":"4","last_reported":1685646298,"current_range_meters":24800,"station_id":"ce4bgs12rcd13ifvqcag","pricing_plan_id":"free"},{"bike_id":"e388b596-3d79-4222-8611-38f89e4dd701","system_id":"levelo_inurba_marseille","lat":43.30531,"lon":5.36721,"is_reserved":false,"is_disabled":false,"rental_uris":{"android":"levelo://app?vid=e388b596-3d79-4222-8611-38f89e4dd701","ios":"levelo://app?vid=e388b596-3d79-4222-8611-38f89e4dd701"},"vehicle_type_id":"4","last_reported":1685646298,"current_range_meters":0,"station_id":"","pricing_plan_id":"free"},{"bike_id":"5390fbec-c133-43a8-a679-f8cf60a27660","system_id":"levelo_inurba_marseille","lat":43.305989,"lon":5.37225,"is_reserved":false,"is_disabled":false,"rental_uris":{"android":"levelo://app?vid=5390fbec-c133-43a8-a679-f8cf60a27660","ios":"levelo://app?vid=5390fbec-c133-43a8-a679-f8cf60a27660"},"vehicle_type_id":"4","last_reported":1685646298,"current_range_meters":31600,"station_id":"ce4bgqh2rcd13ifvqc4g","pricing_plan_id":"free"},{"bike_id":"121f3bee-0c6a-4ebf-9395-e0e62ed46c40","system_id":"levelo_inurba_marseille","lat":43.311131,"lon":5.377651,"is_reserved":false,"is_disabled":false,"rental_uris":{"android":"levelo://app?vid=121f3bee-0c6a-4ebf-9395-e0e62ed46c40","ios":"levelo://app?vid=121f3bee-0c6a-4ebf-9395-e0e62ed46c40"},"vehicle_type_id":"4","last_reported":1685646298,"current_range_meters":26800,"station_id":"ce4bgt92rcd13ifvqcg0","pricing_plan_id":"free"},{"bike_id":"02acd43f-cf52-4546-adc7-1e61a8305b6e","system_id":"levelo_inurba_marseille","lat":43.317075,"lon":5.377367,"is_reserved":false,"is_disabled":false,"rental_uris":{"android":"levelo://app?vid=02acd43f-cf52-4546-adc7-1e61a8305b6e","ios":"levelo://app?vid=02acd43f-cf52-4546-adc7-1e61a8305b6e"},"vehicle_type_id":"4","last_reported":1685646298,"current_range_meters":24000,"station_id":"ce4bgth2rcd13ifvqch0","pricing_plan_id":"free"},{"bike_id":"0438951a-b484-47dd-bbb6-22e04f0ed0cd","system_id":"levelo_inurba_marseille","lat":43.317075,"lon":5.377367,"is_reserved":false,"is_disabled":false,"rental_uris":{"android":"levelo://app?vid=0438951a-b484-47dd-bbb6-22e04f0ed0cd","ios":"levelo://app?vid=0438951a-b484-47dd-bbb6-22e04f0ed0cd"},"vehicle_type_id":"4","last_reported":1685646298,"current_range_meters":22800,"station_id":"ce4bgth2rcd13ifvqch0","pricing_plan_id":"free"},{"bike_id":"64668d62-2c56-40da-9e4a-cb84a2c2ea4d","system_id":"levelo_inurba_marseille","lat":43.31002,"lon":5.38021,"is_reserved":false,"is_disabled":false,"rental_uris":{"android":"levelo://app?vid=64668d62-2c56-40da-9e4a-cb84a2c2ea4d","ios":"levelo://app?vid=64668d62-2c56-40da-9e4a-cb84a2c2ea4d"},"vehicle_type_id":"4","last_reported":1685646298,"current_range_meters":4000,"station_id":"","pricing_plan_id":"free"},{"bike_id":"23d97f3a-aed4-4c2e-b3e9-5fc239520087","system_id":"levelo_inurba_marseille","lat":43.299222,"lon":5.365554,"is_reserved":false,"is_disabled":false,"rental_uris":{"android":"levelo://app?vid=23d97f3a-aed4-4c2e-b3e9-5fc239520087","ios":"levelo://app?vid=23d97f3a-aed4-4c2e-b3e9-5fc239520087"},"vehicle_type_id":"4","last_reported":1685646298,"current_range_meters":22800,"station_id":"ce4bgm92rcd13ifvqbr0","pricing_plan_id":"free"},{"bike_id":"f8309795-c2f1-4ec5-b69d-7b015ef6d142","system_id":"levelo_inurba_marseille","lat":43.32372,"lon":5.3694,"is_reserved":false,"is_disabled":false,"rental_uris":{"android":"levelo://app?vid=f8309795-c2f1-4ec5-b69d-7b015ef6d142","ios":"levelo://app?vid=f8309795-c2f1-4ec5-b69d-7b015ef6d142"},"vehicle_type_id":"4","last_reported":1685646298,"current_range_meters":18000,"station_id":"","pricing_plan_id":"free"},{"bike_id":"bb253cb4-0b20-49a4-80a0-5b5488a353bd","system_id":"levelo_inurba_marseille","lat":43.308012,"lon":5.381511,"is_reserved":false,"is_disabled":false,"rental_uris":{"android":"levelo://app?vid=bb253cb4-0b20-49a4-80a0-5b5488a353bd","ios":"levelo://app?vid=bb253cb4-0b20-49a4-80a0-5b5488a353bd"},"vehicle_type_id":"4","last_reported":1685646298,"current_range_meters":0,"station_id":"ce4bgt12rcd13ifvqce0","pricing_plan_id":"free"},{"bike_id":"6a1b2ce1-8208-4c9a-be30-eb5eec741e7e","system_id":"levelo_inurba_marseille","lat":43.308012,"lon":5.381511,"is_reserved":false,"is_disabled":false,"rental_uris":{"android":"levelo://app?vid=6a1b2ce1-8208-4c9a-be30-eb5eec741e7e","ios":"levelo://app?vid=6a1b2ce1-8208-4c9a-be30-eb5eec741e7e"},"vehicle_type_id":"4","last_reported":1685646298,"current_range_meters":5600,"station_id":"ce4bgt12rcd13ifvqce0","pricing_plan_id":"free"},{"bike_id":"a243ce1a-9b8e-44b3-b576-f133339bc316","system_id":"levelo_inurba_marseille","lat":43.31809,"lon":5.38167,"is_reserved":false,"is_disabled":false,"rental_uris":{"android":"levelo://app?vid=a243ce1a-9b8e-44b3-b576-f133339bc316","ios":"levelo://app?vid=a243ce1a-9b8e-44b3-b576-f133339bc316"},"vehicle_type_id":"4","last_reported":1685646298,"current_range_meters":0,"station_id":"","pricing_plan_id":"free"},{"bike_id":"b7a28efd-bc25-41ba-814b-ea8712831193","system_id":"levelo_inurba_marseille","lat":43.319935,"lon":5.381699,"is_reserved":false,"is_disabled":false,"rental_uris":{"android":"levelo://app?vid=b7a28efd-bc25-41ba-814b-ea8712831193","ios":"levelo://app?vid=b7a28efd-bc25-41ba-814b-ea8712831193"},"vehicle_type_id":"4","last_reported":1685646298,"current_range_meters":18800,"station_id":"ce4bhr12rcd13ifvqhpg","pricing_plan_id":"free"},{"bike_id":"2f4bd6eb-93ef-4919-8d23-6fe4f1b9a334","system_id":"levelo_inurba_marseille","lat":43.313571,"lon":5.384829,"is_reserved":false,"is_disabled":false,"rental_uris":{"android":"levelo://app?vid=2f4bd6eb-93ef-4919-8d23-6fe4f1b9a334","ios":"levelo://app?vid=2f4bd6eb-93ef-4919-8d23-6fe4f1b9a334"},"vehicle_type_id":"4","last_reported":1685646298,"current_range_meters":24000,"station_id":"ce4bgt92rcd13ifvqcf0","pricing_plan_id":"free"},{"bike_id":"1a0c1371-bf08-4005-a48c-2ac5af7bdbf2","system_id":"levelo_inurba_marseille","lat":43.298433,"lon":5.362774,"is_reserved":false,"is_disabled":false,"rental_uris":{"android":"levelo://app?vid=1a0c1371-bf08-4005-a48c-2ac5af7bdbf2","ios":"levelo://app?vid=1a0c1371-bf08-4005-a48c-2ac5af7bdbf2"},"vehicle_type_id":"4","last_reported":1685646298,"current_range_meters":12400,"station_id":"ce4bgpp2rcd13ifvqc3g","pricing_plan_id":"free"},{"bike_id":"f820d3d4-a583-4bb6-9b7f-df64a7a2f4f2","system_id":"levelo_inurba_marseille","lat":43.298433,"lon":5.362774,"is_reserved":false,"is_disabled":false,"rental_uris":{"android":"levelo://app?vid=f820d3d4-a583-4bb6-9b7f-df64a7a2f4f2","ios":"levelo://app?vid=f820d3d4-a583-4bb6-9b7f-df64a7a2f4f2"},"vehicle_type_id":"4","last_reported":1685646298,"current_range_meters":23200,"station_id":"ce4bgpp2rcd13ifvqc3g","pricing_plan_id":"free"},{"bike_id":"97dd9c85-028e-46a7-ac0e-02e637ea1186","system_id":"levelo_inurba_marseille","lat":43.298433,"lon":5.362774,"is_reserved":false,"is_disabled":false,"rental_uris":{"android":"levelo://app?vid=97dd9c85-028e-46a7-ac0e-02e637ea1186","ios":"levelo://app?vid=97dd9c85-028e-46a7-ac0e-02e637ea1186"},"vehicle_type_id":"4","last_reported":1685646298,"current_range_meters":3200,"station_id":"ce4bgpp2rcd13ifvqc3g","pricing_plan_id":"free"},{"bike_id":"b1d9df0e-d41d-4d98-a23c-2c21e9ba65f1","system_id":"levelo_inurba_marseille","lat":43.29919,"lon":5.37452,"is_reserved":false,"is_disabled":false,"rental_uris":{"android":"levelo://app?vid=b1d9df0e-d41d-4d98-a23c-2c21e9ba65f1","ios":"levelo://app?vid=b1d9df0e-d41d-4d98-a23c-2c21e9ba65f1"},"vehicle_type_id":"4","last_reported":1685646298,"current_range_meters":6000,"station_id":"ce4bgjh2rcd13ifvqbg0","pricing_plan_id":"free"},{"bike_id":"07dddfb2-28f9-466b-b1f1-d527bb535b94","system_id":"levelo_inurba_marseille","lat":43.298433,"lon":5.362774,"is_reserved":false,"is_disabled":false,"rental_uris":{"android":"levelo://app?vid=07dddfb2-28f9-466b-b1f1-d527bb535b94","ios":"levelo://app?vid=07dddfb2-28f9-466b-b1f1-d527bb535b94"},"vehicle_type_id":"4","last_reported":1685646298,"current_range_meters":21200,"station_id":"ce4bgpp2rcd13ifvqc3g","pricing_plan_id":"free"},{"bike_id":"ae5fbe3d-f638-4d99-b0e3-e46e4f1a026a","system_id":"levelo_inurba_marseille","lat":43.298433,"lon":5.362774,"is_reserved":false,"is_disabled":false,"rental_uris":{"android":"levelo://app?vid=ae5fbe3d-f638-4d99-b0e3-e46e4f1a026a","ios":"levelo://app?vid=ae5fbe3d-f638-4d99-b0e3-e46e4f1a026a"},"vehicle_type_id":"4","last_reported":1685646298,"current_range_meters":2000,"station_id":"ce4bgpp2rcd13ifvqc3g","pricing_plan_id":"free"},{"bike_id":"bba4f20a-4edc-4aac-b41b-264fc641f13f","system_id":"levelo_inurba_marseille","lat":43.311722,"lon":5.387247,"is_reserved":false,"is_disabled":false,"rental_uris":{"android":"levelo://app?vid=bba4f20a-4edc-4aac-b41b-264fc641f13f","ios":"levelo://app?vid=bba4f20a-4edc-4aac-b41b-264fc641f13f"},"vehicle_type_id":"4","last_reported":1685646298,"current_range_meters":20800,"station_id":"ce4bgv12rcd13ifvqcp0","pricing_plan_id":"free"},{"bike_id":"95c77e70-6a0c-4421-9e70-3561b62fd6df","system_id":"levelo_inurba_marseille","lat":43.29888,"lon":5.37412,"is_reserved":false,"is_disabled":false,"rental_uris":{"android":"levelo://app?vid=95c77e70-6a0c-4421-9e70-3561b62fd6df","ios":"levelo://app?vid=95c77e70-6a0c-4421-9e70-3561b62fd6df"},"vehicle_type_id":"4","last_reported":1685646298,"current_range_meters":5200,"station_id":"","pricing_plan_id":"free"},{"bike_id":"fe91c682-40dd-4122-9331-dcd7c355855f","system_id":"levelo_inurba_marseille","lat":43.297774,"lon":5.370875,"is_reserved":false,"is_disabled":false,"rental_uris":{"android":"levelo://app?vid=fe91c682-40dd-4122-9331-dcd7c355855f","ios":"levelo://app?vid=fe91c682-40dd-4122-9331-dcd7c355855f"},"vehicle_type_id":"4","last_reported":1685646298,"current_range_meters":8800,"station_id":"ce4bgop2rcd13ifvqc1g","pricing_plan_id":"free"},{"bike_id":"0302bb7a-e2fc-4d8f-85c3-b73695e12268","system_id":"levelo_inurba_marseille","lat":43.29774,"lon":5.37115,"is_reserved":false,"is_disabled":false,"rental_uris":{"android":"levelo://app?vid=0302bb7a-e2fc-4d8f-85c3-b73695e12268","ios":"levelo://app?vid=0302bb7a-e2fc-4d8f-85c3-b73695e12268"},"vehicle_type_id":"4","last_reported":1685646298,"current_range_meters":30400,"station_id":"ce4bgop2rcd13ifvqc1g","pricing_plan_id":"free"},{"bike_id":"0b0d3d39-ad77-4452-a1cc-60bfdf58c9d3","system_id":"levelo_inurba_marseille","lat":43.328371,"lon":5.366909,"is_reserved":false,"is_disabled":false,"rental_uris":{"android":"levelo://app?vid=0b0d3d39-ad77-4452-a1cc-60bfdf58c9d3","ios":"levelo://app?vid=0b0d3d39-ad77-4452-a1cc-60bfdf58c9d3"},"vehicle_type_id":"4","last_reported":1685646298,"current_range_meters":24400,"station_id":"ce4bhs92rcd13ifvqi0g","pricing_plan_id":"free"},{"bike_id":"79d1ff90-732a-4cd9-aaf7-91b1beacb885","system_id":"levelo_inurba_marseille","lat":43.3283,"lon":5.36676,"is_reserved":false,"is_disabled":false,"rental_uris":{"android":"levelo://app?vid=79d1ff90-732a-4cd9-aaf7-91b1beacb885","ios":"levelo://app?vid=79d1ff90-732a-4cd9-aaf7-91b1beacb885"},"vehicle_type_id":"4","last_reported":1685646298,"current_range_meters":23200,"station_id":"ce4bhs92rcd13ifvqi0g","pricing_plan_id":"free"},{"bike_id":"7de22db2-3ad1-4d39-9f99-94cd81d8cdc9","system_id":"levelo_inurba_marseille","lat":43.29712,"lon":5.36609,"is_reserved":false,"is_disabled":false,"rental_uris":{"android":"levelo://app?vid=7de22db2-3ad1-4d39-9f99-94cd81d8cdc9","ios":"levelo://app?vid=7de22db2-3ad1-4d39-9f99-94cd81d8cdc9"},"vehicle_type_id":"4","last_reported":1685646298,"current_range_meters":10000,"station_id":"","pricing_plan_id":"free"},{"bike_id":"4e59d601-c3c5-4bdb-8b37-ed1809ea3da4","system_id":"levelo_inurba_marseille","lat":43.2968,"lon":5.37291,"is_reserved":false,"is_disabled":false,"rental_uris":{"android":"levelo://app?vid=4e59d601-c3c5-4bdb-8b37-ed1809ea3da4","ios":"levelo://app?vid=4e59d601-c3c5-4bdb-8b37-ed1809ea3da4"},"vehicle_type_id":"4","last_reported":1685646298,"current_range_meters":22000,"station_id":"ce4bgk12rcd13ifvqbj0","pricing_plan_id":"free"},{"bike_id":"06262d55-76e4-4c56-9051-f63ad3606a19","system_id":"levelo_inurba_marseille","lat":43.29573,"lon":5.367355,"is_reserved":false,"is_disabled":false,"rental_uris":{"android":"levelo://app?vid=06262d55-76e4-4c56-9051-f63ad3606a19","ios":"levelo://app?vid=06262d55-76e4-4c56-9051-f63ad3606a19"},"vehicle_type_id":"4","last_reported":1685646298,"current_range_meters":22800,"station_id":"ce4bgph2rcd13ifvqc2g","pricing_plan_id":"free"},{"bike_id":"7024ed37-fc62-4fa0-bea4-5e8646f8639b","system_id":"levelo_inurba_marseille","lat":43.29573,"lon":5.367355,"is_reserved":false,"is_disabled":false,"rental_uris":{"android":"levelo://app?vid=7024ed37-fc62-4fa0-bea4-5e8646f8639b","ios":"levelo://app?vid=7024ed37-fc62-4fa0-bea4-5e8646f8639b"},"vehicle_type_id":"4","last_reported":1685646298,"current_range_meters":20800,"station_id":"ce4bgph2rcd13ifvqc2g","pricing_plan_id":"free"},{"bike_id":"b566a11a-84e3-41a7-9c4a-926f25a77bb1","system_id":"levelo_inurba_marseille","lat":43.29573,"lon":5.367355,"is_reserved":false,"is_disabled":false,"rental_uris":{"android":"levelo://app?vid=b566a11a-84e3-41a7-9c4a-926f25a77bb1","ios":"levelo://app?vid=b566a11a-84e3-41a7-9c4a-926f25a77bb1"},"vehicle_type_id":"4","last_reported":1685646298,"current_range_meters":26400,"station_id":"ce4bgph2rcd13ifvqc2g","pricing_plan_id":"free"},{"bike_id":"329f4d25-24a6-433a-a371-2c87393a9e2f","system_id":"levelo_inurba_marseille","lat":43.29573,"lon":5.367355,"is_reserved":false,"is_disabled":false,"rental_uris":{"android":"levelo://app?vid=329f4d25-24a6-433a-a371-2c87393a9e2f","ios":"levelo://app?vid=329f4d25-24a6-433a-a371-2c87393a9e2f"},"vehicle_type_id":"4","last_reported":1685646298,"current_range_meters":30400,"station_id":"ce4bgph2rcd13ifvqc2g","pricing_plan_id":"free"},{"bike_id":"d6e8436b-aac3-4de3-bc4b-0bb4af527068","system_id":"levelo_inurba_marseille","lat":43.29573,"lon":5.367355,"is_reserved":false,"is_disabled":false,"rental_uris":{"android":"levelo://app?vid=d6e8436b-aac3-4de3-bc4b-0bb4af527068","ios":"levelo://app?vid=d6e8436b-aac3-4de3-bc4b-0bb4af527068"},"vehicle_type_id":"4","last_reported":1685646298,"current_range_meters":31600,"station_id":"ce4bgph2rcd13ifvqc2g","pricing_plan_id":"free"},{"bike_id":"f1041b6b-7306-45a3-b3c7-1e337aa9f47e","system_id":"levelo_inurba_marseille","lat":43.29573,"lon":5.367355,"is_reserved":false,"is_disabled":false,"rental_uris":{"android":"levelo://app?vid=f1041b6b-7306-45a3-b3c7-1e337aa9f47e","ios":"levelo://app?vid=f1041b6b-7306-45a3-b3c7-1e337aa9f47e"},"vehicle_type_id":"4","last_reported":1685646298,"current_range_meters":28000,"station_id":"ce4bgph2rcd13ifvqc2g","pricing_plan_id":"free"},{"bike_id":"29418387-0b15-4fad-9d82-1fa2fc83ff7b","system_id":"levelo_inurba_marseille","lat":43.317557,"lon":5.390173,"is_reserved":false,"is_disabled":false,"rental_uris":{"android":"levelo://app?vid=29418387-0b15-4fad-9d82-1fa2fc83ff7b","ios":"levelo://app?vid=29418387-0b15-4fad-9d82-1fa2fc83ff7b"},"vehicle_type_id":"4","last_reported":1685646298,"current_range_meters":22800,"station_id":"ce4bhqp2rcd13ifvqhng","pricing_plan_id":"free"},{"bike_id":"407019a5-dada-4c4b-a58a-53b41965e600","system_id":"levelo_inurba_marseille","lat":43.295279,"lon":5.375048,"is_reserved":false,"is_disabled":false,"rental_uris":{"android":"levelo://app?vid=407019a5-dada-4c4b-a58a-53b41965e600","ios":"levelo://app?vid=407019a5-dada-4c4b-a58a-53b41965e600"},"vehicle_type_id":"4","last_reported":1685646298,"current_range_meters":11600,"station_id":"ce4bgkp2rcd13ifvqbmg","pricing_plan_id":"free"},{"bike_id":"df46dd86-302d-4929-ba94-5972fceb7bd6","system_id":"levelo_inurba_marseille","lat":43.299717,"lon":5.384845,"is_reserved":false,"is_disabled":false,"rental_uris":{"android":"levelo://app?vid=df46dd86-302d-4929-ba94-5972fceb7bd6","ios":"levelo://app?vid=df46dd86-302d-4929-ba94-5972fceb7bd6"},"vehicle_type_id":"4","last_reported":1685646298,"current_range_meters":14400,"station_id":"ce4bgj92rcd13ifvqbd0","pricing_plan_id":"free"},{"bike_id":"372ab021-a6e3-48cb-a8fb-e73c86368e35","system_id":"levelo_inurba_marseille","lat":43.295279,"lon":5.375048,"is_reserved":false,"is_disabled":false,"rental_uris":{"android":"levelo://app?vid=372ab021-a6e3-48cb-a8fb-e73c86368e35","ios":"levelo://app?vid=372ab021-a6e3-48cb-a8fb-e73c86368e35"},"vehicle_type_id":"4","last_reported":1685646298,"current_range_meters":22400,"station_id":"ce4bgkp2rcd13ifvqbmg","pricing_plan_id":"free"},{"bike_id":"062fe851-9cfd-4b70-87ad-cda6fe3b3595","system_id":"levelo_inurba_marseille","lat":43.32367,"lon":5.388836,"is_reserved":false,"is_disabled":false,"rental_uris":{"android":"levelo://app?vid=062fe851-9cfd-4b70-87ad-cda6fe3b3595","ios":"levelo://app?vid=062fe851-9cfd-4b70-87ad-cda6fe3b3595"},"vehicle_type_id":"4","last_reported":1685646298,"current_range_meters":15600,"station_id":"ce4bhqp2rcd13ifvqhog","pricing_plan_id":"free"},{"bike_id":"51f09e86-abd5-49cc-bbe3-d70ebb06ce65","system_id":"levelo_inurba_marseille","lat":43.29601,"lon":5.381084,"is_reserved":false,"is_disabled":false,"rental_uris":{"android":"levelo://app?vid=51f09e86-abd5-49cc-bbe3-d70ebb06ce65","ios":"levelo://app?vid=51f09e86-abd5-49cc-bbe3-d70ebb06ce65"},"vehicle_type_id":"4","last_reported":1685646298,"current_range_meters":3200,"station_id":"ce4bgl12rcd13ifvqbo0","pricing_plan_id":"free"},{"bike_id":"1638987e-4184-4fec-b066-015fd7655596","system_id":"levelo_inurba_marseille","lat":43.29595,"lon":5.381079,"is_reserved":false,"is_disabled":false,"rental_uris":{"android":"levelo://app?vid=1638987e-4184-4fec-b066-015fd7655596","ios":"levelo://app?vid=1638987e-4184-4fec-b066-015fd7655596"},"vehicle_type_id":"4","last_reported":1685646298,"current_range_meters":16000,"station_id":"","pricing_plan_id":"free"},{"bike_id":"2a527ff0-c7a1-4af8-80f2-d8151682a5df","system_id":"levelo_inurba_marseille","lat":43.290624,"lon":5.359245,"is_reserved":false,"is_disabled":false,"rental_uris":{"android":"levelo://app?vid=2a527ff0-c7a1-4af8-80f2-d8151682a5df","ios":"levelo://app?vid=2a527ff0-c7a1-4af8-80f2-d8151682a5df"},"vehicle_type_id":"4","last_reported":1685646298,"current_range_meters":8800,"station_id":"ce4bha92rcd13ifvqeg0","pricing_plan_id":"free"},{"bike_id":"d7344048-5abd-4cc1-9be0-96839ffffdf2","system_id":"levelo_inurba_marseille","lat":43.293009,"lon":5.374584,"is_reserved":false,"is_disabled":false,"rental_uris":{"android":"levelo://app?vid=d7344048-5abd-4cc1-9be0-96839ffffdf2","ios":"levelo://app?vid=d7344048-5abd-4cc1-9be0-96839ffffdf2"},"vehicle_type_id":"4","last_reported":1685646298,"current_range_meters":5200,"station_id":"ce4bgi12rcd13ifvqb70","pricing_plan_id":"free"},{"bike_id":"c9058939-6568-496f-a69b-ea60d171582b","system_id":"levelo_inurba_marseille","lat":43.29258,"lon":5.37214,"is_reserved":false,"is_disabled":false,"rental_uris":{"android":"levelo://app?vid=c9058939-6568-496f-a69b-ea60d171582b","ios":"levelo://app?vid=c9058939-6568-496f-a69b-ea60d171582b"},"vehicle_type_id":"4","last_reported":1685646298,"current_range_meters":17200,"station_id":"","pricing_plan_id":"free"},{"bike_id":"fabffe9b-ec0f-4bca-afb2-e16910ce9d11","system_id":"levelo_inurba_marseille","lat":43.293589,"lon":5.378466,"is_reserved":false,"is_disabled":false,"rental_uris":{"android":"levelo://app?vid=fabffe9b-ec0f-4bca-afb2-e16910ce9d11","ios":"levelo://app?vid=fabffe9b-ec0f-4bca-afb2-e16910ce9d11"},"vehicle_type_id":"4","last_reported":1685646298,"current_range_meters":7600,"station_id":"ce4bh092rcd13ifvqd20","pricing_plan_id":"free"},{"bike_id":"5c7b350a-ed3b-485c-a949-2d21262a5cde","system_id":"levelo_inurba_marseille","lat":43.292311,"lon":5.360731,"is_reserved":false,"is_disabled":false,"rental_uris":{"android":"levelo://app?vid=5c7b350a-ed3b-485c-a949-2d21262a5cde","ios":"levelo://app?vid=5c7b350a-ed3b-485c-a949-2d21262a5cde"},"vehicle_type_id":"4","last_reported":1685646298,"current_range_meters":20000,"station_id":"ce4bhbh2rcd13ifvqeqg","pricing_plan_id":"free"},{"bike_id":"e4429d9f-41a9-4996-9cfa-c1165ad3f7a6","system_id":"levelo_inurba_marseille","lat":43.292311,"lon":5.360731,"is_reserved":false,"is_disabled":false,"rental_uris":{"android":"levelo://app?vid=e4429d9f-41a9-4996-9cfa-c1165ad3f7a6","ios":"levelo://app?vid=e4429d9f-41a9-4996-9cfa-c1165ad3f7a6"},"vehicle_type_id":"4","last_reported":1685646298,"current_range_meters":0,"station_id":"ce4bhbh2rcd13ifvqeqg","pricing_plan_id":"free"},{"bike_id":"b25260a3-6d8c-4096-a2c3-3bc70ed1c203","system_id":"levelo_inurba_marseille","lat":43.30085,"lon":5.390856,"is_reserved":false,"is_disabled":false,"rental_uris":{"android":"levelo://app?vid=b25260a3-6d8c-4096-a2c3-3bc70ed1c203","ios":"levelo://app?vid=b25260a3-6d8c-4096-a2c3-3bc70ed1c203"},"vehicle_type_id":"4","last_reported":1685646298,"current_range_meters":0,"station_id":"ce4bh192rcd13ifvqdb0","pricing_plan_id":"free"},{"bike_id":"cf35f392-1feb-4c42-836e-2a5c6ff6cd18","system_id":"levelo_inurba_marseille","lat":43.29221,"lon":5.36045,"is_reserved":false,"is_disabled":false,"rental_uris":{"android":"levelo://app?vid=cf35f392-1feb-4c42-836e-2a5c6ff6cd18","ios":"levelo://app?vid=cf35f392-1feb-4c42-836e-2a5c6ff6cd18"},"vehicle_type_id":"4","last_reported":1685646298,"current_range_meters":28400,"station_id":"ce4bhbh2rcd13ifvqeqg","pricing_plan_id":"free"},{"bike_id":"dbdd6926-99d5-48a3-8286-5658159016ea","system_id":"levelo_inurba_marseille","lat":43.298764,"lon":5.388973,"is_reserved":false,"is_disabled":false,"rental_uris":{"android":"levelo://app?vid=dbdd6926-99d5-48a3-8286-5658159016ea","ios":"levelo://app?vid=dbdd6926-99d5-48a3-8286-5658159016ea"},"vehicle_type_id":"4","last_reported":1685646298,"current_range_meters":18400,"station_id":"ce4bh392rcd13ifvqdl0","pricing_plan_id":"free"},{"bike_id":"52b41aeb-5429-48b4-a141-2d4878ef75b0","system_id":"levelo_inurba_marseille","lat":43.31326,"lon":5.39686,"is_reserved":false,"is_disabled":false,"rental_uris":{"android":"levelo://app?vid=52b41aeb-5429-48b4-a141-2d4878ef75b0","ios":"levelo://app?vid=52b41aeb-5429-48b4-a141-2d4878ef75b0"},"vehicle_type_id":"4","last_reported":1685646298,"current_range_meters":18800,"station_id":"ce4bgvp2rcd13ifvqcu0","pricing_plan_id":"free"},{"bike_id":"ae294d5f-0d32-4da8-9af7-da6fb50d5212","system_id":"levelo_inurba_marseille","lat":43.31326,"lon":5.39687,"is_reserved":false,"is_disabled":false,"rental_uris":{"android":"levelo://app?vid=ae294d5f-0d32-4da8-9af7-da6fb50d5212","ios":"levelo://app?vid=ae294d5f-0d32-4da8-9af7-da6fb50d5212"},"vehicle_type_id":"4","last_reported":1685646298,"current_range_meters":22000,"station_id":"ce4bgvp2rcd13ifvqcu0","pricing_plan_id":"free"},{"bike_id":"85d6c452-bc3f-4562-95cb-7ccb387049b2","system_id":"levelo_inurba_marseille","lat":43.309038,"lon":5.396546,"is_reserved":false,"is_disabled":false,"rental_uris":{"android":"levelo://app?vid=85d6c452-bc3f-4562-95cb-7ccb387049b2","ios":"levelo://app?vid=85d6c452-bc3f-4562-95cb-7ccb387049b2"},"vehicle_type_id":"4","last_reported":1685646298,"current_range_meters":23600,"station_id":"ce4bh012rcd13ifvqcv0","pricing_plan_id":"free"},{"bike_id":"3ebe3fa8-765e-4d5c-b056-5ac3a948adb4","system_id":"levelo_inurba_marseille","lat":43.31325,"lon":5.39689,"is_reserved":false,"is_disabled":false,"rental_uris":{"android":"levelo://app?vid=3ebe3fa8-765e-4d5c-b056-5ac3a948adb4","ios":"levelo://app?vid=3ebe3fa8-765e-4d5c-b056-5ac3a948adb4"},"vehicle_type_id":"4","last_reported":1685646298,"current_range_meters":6800,"station_id":"ce4bgvp2rcd13ifvqcu0","pricing_plan_id":"free"},{"bike_id":"465a2b15-e875-473a-b0a1-300e34872236","system_id":"levelo_inurba_marseille","lat":43.31332,"lon":5.39689,"is_reserved":false,"is_disabled":false,"rental_uris":{"android":"levelo://app?vid=465a2b15-e875-473a-b0a1-300e34872236","ios":"levelo://app?vid=465a2b15-e875-473a-b0a1-300e34872236"},"vehicle_type_id":"4","last_reported":1685646298,"current_range_meters":800,"station_id":"ce4bgvp2rcd13ifvqcu0","pricing_plan_id":"free"},{"bike_id":"0c8361ef-eca7-4b2d-be1b-f5d7589cd90c","system_id":"levelo_inurba_marseille","lat":43.31327,"lon":5.3969,"is_reserved":false,"is_disabled":false,"rental_uris":{"android":"levelo://app?vid=0c8361ef-eca7-4b2d-be1b-f5d7589cd90c","ios":"levelo://app?vid=0c8361ef-eca7-4b2d-be1b-f5d7589cd90c"},"vehicle_type_id":"4","last_reported":1685646298,"current_range_meters":8000,"station_id":"ce4bgvp2rcd13ifvqcu0","pricing_plan_id":"free"},{"bike_id":"dabdd553-400c-4525-b812-12f4ed329f9f","system_id":"levelo_inurba_marseille","lat":43.31328,"lon":5.3969,"is_reserved":false,"is_disabled":false,"rental_uris":{"android":"levelo://app?vid=dabdd553-400c-4525-b812-12f4ed329f9f","ios":"levelo://app?vid=dabdd553-400c-4525-b812-12f4ed329f9f"},"vehicle_type_id":"4","last_reported":1685646298,"current_range_meters":16000,"station_id":"ce4bgvp2rcd13ifvqcu0","pricing_plan_id":"free"},{"bike_id":"df136335-6520-4d85-90d5-0bec90673ea4","system_id":"levelo_inurba_marseille","lat":43.31322,"lon":5.39691,"is_reserved":false,"is_disabled":false,"rental_uris":{"android":"levelo://app?vid=df136335-6520-4d85-90d5-0bec90673ea4","ios":"levelo://app?vid=df136335-6520-4d85-90d5-0bec90673ea4"},"vehicle_type_id":"4","last_reported":1685646298,"current_range_meters":14000,"station_id":"ce4bgvp2rcd13ifvqcu0","pricing_plan_id":"free"},{"bike_id":"738d77c5-8639-44f2-8e33-e82677203f77","system_id":"levelo_inurba_marseille","lat":43.31327,"lon":5.39691,"is_reserved":false,"is_disabled":false,"rental_uris":{"android":"levelo://app?vid=738d77c5-8639-44f2-8e33-e82677203f77","ios":"levelo://app?vid=738d77c5-8639-44f2-8e33-e82677203f77"},"vehicle_type_id":"4","last_reported":1685646298,"current_range_meters":12400,"station_id":"ce4bgvp2rcd13ifvqcu0","pricing_plan_id":"free"},{"bike_id":"8cdb64b2-c3f6-4924-90fb-31cb9b5d099e","system_id":"levelo_inurba_marseille","lat":43.31321,"lon":5.39692,"is_reserved":false,"is_disabled":false,"rental_uris":{"android":"levelo://app?vid=8cdb64b2-c3f6-4924-90fb-31cb9b5d099e","ios":"levelo://app?vid=8cdb64b2-c3f6-4924-90fb-31cb9b5d099e"},"vehicle_type_id":"4","last_reported":1685646298,"current_range_meters":8800,"station_id":"ce4bgvp2rcd13ifvqcu0","pricing_plan_id":"free"},{"bike_id":"ef086cdc-33d5-4119-b021-279124035e6c","system_id":"levelo_inurba_marseille","lat":43.29166,"lon":5.35912,"is_reserved":false,"is_disabled":false,"rental_uris":{"android":"levelo://app?vid=ef086cdc-33d5-4119-b021-279124035e6c","ios":"levelo://app?vid=ef086cdc-33d5-4119-b021-279124035e6c"},"vehicle_type_id":"4","last_reported":1685646298,"current_range_meters":1200,"station_id":"","pricing_plan_id":"free"},{"bike_id":"54c35c09-8117-48de-a2cb-b1bab30ec19e","system_id":"levelo_inurba_marseille","lat":43.31333,"lon":5.39692,"is_reserved":false,"is_disabled":false,"rental_uris":{"android":"levelo://app?vid=54c35c09-8117-48de-a2cb-b1bab30ec19e","ios":"levelo://app?vid=54c35c09-8117-48de-a2cb-b1bab30ec19e"},"vehicle_type_id":"4","last_reported":1685646298,"current_range_meters":6800,"station_id":"ce4bgvp2rcd13ifvqcu0","pricing_plan_id":"free"},{"bike_id":"e9278c7e-5eb7-4059-96d6-7aeb978a038e","system_id":"levelo_inurba_marseille","lat":43.309038,"lon":5.396546,"is_reserved":false,"is_disabled":false,"rental_uris":{"android":"levelo://app?vid=e9278c7e-5eb7-4059-96d6-7aeb978a038e","ios":"levelo://app?vid=e9278c7e-5eb7-4059-96d6-7aeb978a038e"},"vehicle_type_id":"4","last_reported":1685646298,"current_range_meters":12400,"station_id":"ce4bh012rcd13ifvqcv0","pricing_plan_id":"free"},{"bike_id":"5767ba4a-c74c-4afe-8f5d-39b30ace49b9","system_id":"levelo_inurba_marseille","lat":43.31318,"lon":5.39693,"is_reserved":false,"is_disabled":false,"rental_uris":{"android":"levelo://app?vid=5767ba4a-c74c-4afe-8f5d-39b30ace49b9","ios":"levelo://app?vid=5767ba4a-c74c-4afe-8f5d-39b30ace49b9"},"vehicle_type_id":"4","last_reported":1685646298,"current_range_meters":16400,"station_id":"ce4bgvp2rcd13ifvqcu0","pricing_plan_id":"free"},{"bike_id":"f7786558-042b-4297-985d-642f6edc68c9","system_id":"levelo_inurba_marseille","lat":43.31327,"lon":5.39694,"is_reserved":false,"is_disabled":false,"rental_uris":{"android":"levelo://app?vid=f7786558-042b-4297-985d-642f6edc68c9","ios":"levelo://app?vid=f7786558-042b-4297-985d-642f6edc68c9"},"vehicle_type_id":"4","last_reported":1685646298,"current_range_meters":7200,"station_id":"ce4bgvp2rcd13ifvqcu0","pricing_plan_id":"free"},{"bike_id":"869ca85c-098e-499b-8978-4b1e0ef991e1","system_id":"levelo_inurba_marseille","lat":43.31325,"lon":5.39697,"is_reserved":false,"is_disabled":false,"rental_uris":{"android":"levelo://app?vid=869ca85c-098e-499b-8978-4b1e0ef991e1","ios":"levelo://app?vid=869ca85c-098e-499b-8978-4b1e0ef991e1"},"vehicle_type_id":"4","last_reported":1685646298,"current_range_meters":9600,"station_id":"ce4bgvp2rcd13ifvqcu0","pricing_plan_id":"free"},{"bike_id":"168be0c8-f75b-4c5c-8dc3-70c6c785c00e","system_id":"levelo_inurba_marseille","lat":43.31327,"lon":5.39697,"is_reserved":false,"is_disabled":false,"rental_uris":{"android":"levelo://app?vid=168be0c8-f75b-4c5c-8dc3-70c6c785c00e","ios":"levelo://app?vid=168be0c8-f75b-4c5c-8dc3-70c6c785c00e"},"vehicle_type_id":"4","last_reported":1685646298,"current_range_meters":16400,"station_id":"ce4bgvp2rcd13ifvqcu0","pricing_plan_id":"free"},{"bike_id":"37713633-0c35-4f86-af32-61b58117d3c3","system_id":"levelo_inurba_marseille","lat":43.31327,"lon":5.39698,"is_reserved":false,"is_disabled":false,"rental_uris":{"android":"levelo://app?vid=37713633-0c35-4f86-af32-61b58117d3c3","ios":"levelo://app?vid=37713633-0c35-4f86-af32-61b58117d3c3"},"vehicle_type_id":"4","last_reported":1685646298,"current_range_meters":0,"station_id":"ce4bgvp2rcd13ifvqcu0","pricing_plan_id":"free"},{"bike_id":"e61bb5b2-bd54-4dd3-95bd-4efeeb75cff6","system_id":"levelo_inurba_marseille","lat":43.31325,"lon":5.39699,"is_reserved":false,"is_disabled":false,"rental_uris":{"android":"levelo://app?vid=e61bb5b2-bd54-4dd3-95bd-4efeeb75cff6","ios":"levelo://app?vid=e61bb5b2-bd54-4dd3-95bd-4efeeb75cff6"},"vehicle_type_id":"4","last_reported":1685646298,"current_range_meters":8800,"station_id":"ce4bgvp2rcd13ifvqcu0","pricing_plan_id":"free"},{"bike_id":"df18fba3-4883-4df4-a0cf-e31186648a37","system_id":"levelo_inurba_marseille","lat":43.31333,"lon":5.39699,"is_reserved":false,"is_disabled":false,"rental_uris":{"android":"levelo://app?vid=df18fba3-4883-4df4-a0cf-e31186648a37","ios":"levelo://app?vid=df18fba3-4883-4df4-a0cf-e31186648a37"},"vehicle_type_id":"4","last_reported":1685646298,"current_range_meters":1200,"station_id":"ce4bgvp2rcd13ifvqcu0","pricing_plan_id":"free"},{"bike_id":"5a660338-3281-43aa-affc-986af7b1f5e7","system_id":"levelo_inurba_marseille","lat":43.31932,"lon":5.39571,"is_reserved":false,"is_disabled":false,"rental_uris":{"android":"levelo://app?vid=5a660338-3281-43aa-affc-986af7b1f5e7","ios":"levelo://app?vid=5a660338-3281-43aa-affc-986af7b1f5e7"},"vehicle_type_id":"4","last_reported":1685646298,"current_range_meters":6800,"station_id":"","pricing_plan_id":"free"},{"bike_id":"615ccff6-89ff-4ce6-b1c1-69e1bb04780a","system_id":"levelo_inurba_marseille","lat":43.294153,"lon":5.386305,"is_reserved":false,"is_disabled":false,"rental_uris":{"android":"levelo://app?vid=615ccff6-89ff-4ce6-b1c1-69e1bb04780a","ios":"levelo://app?vid=615ccff6-89ff-4ce6-b1c1-69e1bb04780a"},"vehicle_type_id":"4","last_reported":1685646298,"current_range_meters":24800,"station_id":"ce4bh2h2rcd13ifvqdh0","pricing_plan_id":"free"},{"bike_id":"6cd3d03c-94b2-47ef-9e69-451c74503939","system_id":"levelo_inurba_marseille","lat":43.29421,"lon":5.38623,"is_reserved":false,"is_disabled":false,"rental_uris":{"android":"levelo://app?vid=6cd3d03c-94b2-47ef-9e69-451c74503939","ios":"levelo://app?vid=6cd3d03c-94b2-47ef-9e69-451c74503939"},"vehicle_type_id":"4","last_reported":1685646298,"current_range_meters":18800,"station_id":"ce4bh2h2rcd13ifvqdh0","pricing_plan_id":"free"},{"bike_id":"f101f2f2-2db2-481b-8c31-ded284e28dd5","system_id":"levelo_inurba_marseille","lat":43.289184,"lon":5.366408,"is_reserved":false,"is_disabled":false,"rental_uris":{"android":"levelo://app?vid=f101f2f2-2db2-481b-8c31-ded284e28dd5","ios":"levelo://app?vid=f101f2f2-2db2-481b-8c31-ded284e28dd5"},"vehicle_type_id":"4","last_reported":1685646298,"current_range_meters":5200,"station_id":"ce4bhap2rcd13ifvqek0","pricing_plan_id":"free"},{"bike_id":"8fc557c2-b120-4d32-bdd8-0dcf55bf74e0","system_id":"levelo_inurba_marseille","lat":43.29418,"lon":5.38623,"is_reserved":false,"is_disabled":false,"rental_uris":{"android":"levelo://app?vid=8fc557c2-b120-4d32-bdd8-0dcf55bf74e0","ios":"levelo://app?vid=8fc557c2-b120-4d32-bdd8-0dcf55bf74e0"},"vehicle_type_id":"4","last_reported":1685646298,"current_range_meters":23200,"station_id":"ce4bh2h2rcd13ifvqdh0","pricing_plan_id":"free"},{"bike_id":"decdd5d4-0c0a-4251-9470-42b71779b675","system_id":"levelo_inurba_marseille","lat":43.289468,"lon":5.363719,"is_reserved":false,"is_disabled":false,"rental_uris":{"android":"levelo://app?vid=decdd5d4-0c0a-4251-9470-42b71779b675","ios":"levelo://app?vid=decdd5d4-0c0a-4251-9470-42b71779b675"},"vehicle_type_id":"4","last_reported":1685646298,"current_range_meters":21600,"station_id":"ce4bhc92rcd13ifvqetg","pricing_plan_id":"free"},{"bike_id":"27266ec9-59a1-44b4-b87d-130e24f7733b","system_id":"levelo_inurba_marseille","lat":43.292644,"lon":5.384257,"is_reserved":false,"is_disabled":false,"rental_uris":{"android":"levelo://app?vid=27266ec9-59a1-44b4-b87d-130e24f7733b","ios":"levelo://app?vid=27266ec9-59a1-44b4-b87d-130e24f7733b"},"vehicle_type_id":"4","last_reported":1685646298,"current_range_meters":20000,"station_id":"ce4bh692rcd13ifvqea0","pricing_plan_id":"free"},{"bike_id":"1c0a30af-e138-4c7c-9dfb-19339f914cde","system_id":"levelo_inurba_marseille","lat":43.292644,"lon":5.384257,"is_reserved":false,"is_disabled":false,"rental_uris":{"android":"levelo://app?vid=1c0a30af-e138-4c7c-9dfb-19339f914cde","ios":"levelo://app?vid=1c0a30af-e138-4c7c-9dfb-19339f914cde"},"vehicle_type_id":"4","last_reported":1685646298,"current_range_meters":3200,"station_id":"ce4bh692rcd13ifvqea0","pricing_plan_id":"free"},{"bike_id":"23f89c34-b72c-46d9-88ca-cc3cc66c2925","system_id":"levelo_inurba_marseille","lat":43.2927,"lon":5.38444,"is_reserved":false,"is_disabled":false,"rental_uris":{"android":"levelo://app?vid=23f89c34-b72c-46d9-88ca-cc3cc66c2925","ios":"levelo://app?vid=23f89c34-b72c-46d9-88ca-cc3cc66c2925"},"vehicle_type_id":"4","last_reported":1685646298,"current_range_meters":12000,"station_id":"ce4bh692rcd13ifvqea0","pricing_plan_id":"free"},{"bike_id":"1c2f35fc-b3bf-42fc-9038-fdd66d09fc78","system_id":"levelo_inurba_marseille","lat":43.292644,"lon":5.384257,"is_reserved":false,"is_disabled":false,"rental_uris":{"android":"levelo://app?vid=1c2f35fc-b3bf-42fc-9038-fdd66d09fc78","ios":"levelo://app?vid=1c2f35fc-b3bf-42fc-9038-fdd66d09fc78"},"vehicle_type_id":"4","last_reported":1685646298,"current_range_meters":17600,"station_id":"ce4bh692rcd13ifvqea0","pricing_plan_id":"free"},{"bike_id":"ead7bdc9-66ea-44f5-8b0f-f153f18efb44","system_id":"levelo_inurba_marseille","lat":43.292642,"lon":5.384254,"is_reserved":false,"is_disabled":false,"rental_uris":{"android":"levelo://app?vid=ead7bdc9-66ea-44f5-8b0f-f153f18efb44","ios":"levelo://app?vid=ead7bdc9-66ea-44f5-8b0f-f153f18efb44"},"vehicle_type_id":"4","last_reported":1685646298,"current_range_meters":21200,"station_id":"ce4bh692rcd13ifvqea0","pricing_plan_id":"free"},{"bike_id":"149cdada-c0c6-45ee-979b-6cc38b3f3ecd","system_id":"levelo_inurba_marseille","lat":43.292642,"lon":5.384254,"is_reserved":false,"is_disabled":false,"rental_uris":{"android":"levelo://app?vid=149cdada-c0c6-45ee-979b-6cc38b3f3ecd","ios":"levelo://app?vid=149cdada-c0c6-45ee-979b-6cc38b3f3ecd"},"vehicle_type_id":"4","last_reported":1685646298,"current_range_meters":7200,"station_id":"ce4bh692rcd13ifvqea0","pricing_plan_id":"free"},{"bike_id":"28c97719-0466-4d01-b4fb-73e1983f7773","system_id":"levelo_inurba_marseille","lat":43.292642,"lon":5.384254,"is_reserved":false,"is_disabled":false,"rental_uris":{"android":"levelo://app?vid=28c97719-0466-4d01-b4fb-73e1983f7773","ios":"levelo://app?vid=28c97719-0466-4d01-b4fb-73e1983f7773"},"vehicle_type_id":"4","last_reported":1685646298,"current_range_meters":14400,"station_id":"ce4bh692rcd13ifvqea0","pricing_plan_id":"free"},{"bike_id":"e9ee4d99-550c-4b63-857f-346264c080af","system_id":"levelo_inurba_marseille","lat":43.292644,"lon":5.384257,"is_reserved":false,"is_disabled":false,"rental_uris":{"android":"levelo://app?vid=e9ee4d99-550c-4b63-857f-346264c080af","ios":"levelo://app?vid=e9ee4d99-550c-4b63-857f-346264c080af"},"vehicle_type_id":"4","last_reported":1685646298,"current_range_meters":15600,"station_id":"ce4bh692rcd13ifvqea0","pricing_plan_id":"free"},{"bike_id":"e6d525be-266d-470f-a031-9c387e7a6e93","system_id":"levelo_inurba_marseille","lat":43.29264,"lon":5.38439,"is_reserved":false,"is_disabled":false,"rental_uris":{"android":"levelo://app?vid=e6d525be-266d-470f-a031-9c387e7a6e93","ios":"levelo://app?vid=e6d525be-266d-470f-a031-9c387e7a6e93"},"vehicle_type_id":"4","last_reported":1685646298,"current_range_meters":2800,"station_id":"ce4bh692rcd13ifvqea0","pricing_plan_id":"free"},{"bike_id":"32e47d45-b44e-41f8-830c-b807bd2322f8","system_id":"levelo_inurba_marseille","lat":43.292644,"lon":5.384257,"is_reserved":false,"is_disabled":false,"rental_uris":{"android":"levelo://app?vid=32e47d45-b44e-41f8-830c-b807bd2322f8","ios":"levelo://app?vid=32e47d45-b44e-41f8-830c-b807bd2322f8"},"vehicle_type_id":"4","last_reported":1685646298,"current_range_meters":5200,"station_id":"ce4bh692rcd13ifvqea0","pricing_plan_id":"free"},{"bike_id":"71d6021b-47da-4f43-85e7-627c9cabd0b1","system_id":"levelo_inurba_marseille","lat":43.292642,"lon":5.384254,"is_reserved":false,"is_disabled":false,"rental_uris":{"android":"levelo://app?vid=71d6021b-47da-4f43-85e7-627c9cabd0b1","ios":"levelo://app?vid=71d6021b-47da-4f43-85e7-627c9cabd0b1"},"vehicle_type_id":"4","last_reported":1685646298,"current_range_meters":12000,"station_id":"ce4bh692rcd13ifvqea0","pricing_plan_id":"free"},{"bike_id":"24da243a-47ff-4871-8e64-6b530aef82ac","system_id":"levelo_inurba_marseille","lat":43.292644,"lon":5.384257,"is_reserved":false,"is_disabled":false,"rental_uris":{"android":"levelo://app?vid=24da243a-47ff-4871-8e64-6b530aef82ac","ios":"levelo://app?vid=24da243a-47ff-4871-8e64-6b530aef82ac"},"vehicle_type_id":"4","last_reported":1685646298,"current_range_meters":20800,"station_id":"ce4bh692rcd13ifvqea0","pricing_plan_id":"free"},{"bike_id":"d12f5d70-72bb-4ace-b79e-30402b1b062d","system_id":"levelo_inurba_marseille","lat":43.292642,"lon":5.384254,"is_reserved":false,"is_disabled":false,"rental_uris":{"android":"levelo://app?vid=d12f5d70-72bb-4ace-b79e-30402b1b062d","ios":"levelo://app?vid=d12f5d70-72bb-4ace-b79e-30402b1b062d"},"vehicle_type_id":"4","last_reported":1685646298,"current_range_meters":8400,"station_id":"ce4bh692rcd13ifvqea0","pricing_plan_id":"free"},{"bike_id":"cc2233ca-8e28-4502-89ac-b43bbc57d0fd","system_id":"levelo_inurba_marseille","lat":43.292644,"lon":5.384257,"is_reserved":false,"is_disabled":false,"rental_uris":{"android":"levelo://app?vid=cc2233ca-8e28-4502-89ac-b43bbc57d0fd","ios":"levelo://app?vid=cc2233ca-8e28-4502-89ac-b43bbc57d0fd"},"vehicle_type_id":"4","last_reported":1685646298,"current_range_meters":2800,"station_id":"ce4bh692rcd13ifvqea0","pricing_plan_id":"free"},{"bike_id":"91ce591a-7961-45d6-8907-9426f35ab131","system_id":"levelo_inurba_marseille","lat":43.33045,"lon":5.38918,"is_reserved":false,"is_disabled":false,"rental_uris":{"android":"levelo://app?vid=91ce591a-7961-45d6-8907-9426f35ab131","ios":"levelo://app?vid=91ce591a-7961-45d6-8907-9426f35ab131"},"vehicle_type_id":"4","last_reported":1685646298,"current_range_meters":24000,"station_id":"ce4bhr92rcd13ifvqhrg","pricing_plan_id":"free"},{"bike_id":"d9f1ae5e-db76-4c4c-bfe2-b0ea6dbf1be7","system_id":"levelo_inurba_marseille","lat":43.290995,"lon":5.381361,"is_reserved":false,"is_disabled":false,"rental_uris":{"android":"levelo://app?vid=d9f1ae5e-db76-4c4c-bfe2-b0ea6dbf1be7","ios":"levelo://app?vid=d9f1ae5e-db76-4c4c-bfe2-b0ea6dbf1be7"},"vehicle_type_id":"4","last_reported":1685646298,"current_range_meters":0,"station_id":"ce4bh512rcd13ifvqe2g","pricing_plan_id":"free"},{"bike_id":"aa1e6f17-ef78-4667-8655-e3b42bc04563","system_id":"levelo_inurba_marseille","lat":43.295169,"lon":5.390426,"is_reserved":false,"is_disabled":false,"rental_uris":{"android":"levelo://app?vid=aa1e6f17-ef78-4667-8655-e3b42bc04563","ios":"levelo://app?vid=aa1e6f17-ef78-4667-8655-e3b42bc04563"},"vehicle_type_id":"4","last_reported":1685646298,"current_range_meters":27200,"station_id":"ce4bh3p2rcd13ifvqdp0","pricing_plan_id":"free"},{"bike_id":"a74a92f2-9b86-4d26-8200-02781cb351ba","system_id":"levelo_inurba_marseille","lat":43.289832,"lon":5.37828,"is_reserved":false,"is_disabled":false,"rental_uris":{"android":"levelo://app?vid=a74a92f2-9b86-4d26-8200-02781cb351ba","ios":"levelo://app?vid=a74a92f2-9b86-4d26-8200-02781cb351ba"},"vehicle_type_id":"4","last_reported":1685646298,"current_range_meters":26800,"station_id":"ce4bh4p2rcd13ifvqe1g","pricing_plan_id":"free"},{"bike_id":"87758425-4f32-4815-b69c-ff82ecf72e9e","system_id":"levelo_inurba_marseille","lat":43.297814,"lon":5.393513,"is_reserved":false,"is_disabled":false,"rental_uris":{"android":"levelo://app?vid=87758425-4f32-4815-b69c-ff82ecf72e9e","ios":"levelo://app?vid=87758425-4f32-4815-b69c-ff82ecf72e9e"},"vehicle_type_id":"4","last_reported":1685646298,"current_range_meters":0,"station_id":"chh1huq6cuj3fo74tm60","pricing_plan_id":"free"},{"bike_id":"429ea6f0-961a-4f21-827c-c3b2ac303925","system_id":"levelo_inurba_marseille","lat":43.295169,"lon":5.390426,"is_reserved":false,"is_disabled":false,"rental_uris":{"android":"levelo://app?vid=429ea6f0-961a-4f21-827c-c3b2ac303925","ios":"levelo://app?vid=429ea6f0-961a-4f21-827c-c3b2ac303925"},"vehicle_type_id":"4","last_reported":1685646298,"current_range_meters":16000,"station_id":"ce4bh3p2rcd13ifvqdp0","pricing_plan_id":"free"},{"bike_id":"d8eb4c26-04df-4679-a27b-0a08a70f7666","system_id":"levelo_inurba_marseille","lat":43.295169,"lon":5.390426,"is_reserved":false,"is_disabled":false,"rental_uris":{"android":"levelo://app?vid=d8eb4c26-04df-4679-a27b-0a08a70f7666","ios":"levelo://app?vid=d8eb4c26-04df-4679-a27b-0a08a70f7666"},"vehicle_type_id":"4","last_reported":1685646298,"current_range_meters":12800,"station_id":"ce4bh3p2rcd13ifvqdp0","pricing_plan_id":"free"},{"bike_id":"60ddf706-3427-476c-be6e-b9eae5bfdd27","system_id":"levelo_inurba_marseille","lat":43.28856,"lon":5.358371,"is_reserved":false,"is_disabled":false,"rental_uris":{"android":"levelo://app?vid=60ddf706-3427-476c-be6e-b9eae5bfdd27","ios":"levelo://app?vid=60ddf706-3427-476c-be6e-b9eae5bfdd27"},"vehicle_type_id":"4","last_reported":1685646298,"current_range_meters":31600,"station_id":"ce4bhb12rcd13ifvqem0","pricing_plan_id":"free"},{"bike_id":"a637a477-0499-491f-b3aa-af24b9837e02","system_id":"levelo_inurba_marseille","lat":43.28856,"lon":5.358371,"is_reserved":false,"is_disabled":false,"rental_uris":{"android":"levelo://app?vid=a637a477-0499-491f-b3aa-af24b9837e02","ios":"levelo://app?vid=a637a477-0499-491f-b3aa-af24b9837e02"},"vehicle_type_id":"4","last_reported":1685646298,"current_range_meters":800,"station_id":"ce4bhb12rcd13ifvqem0","pricing_plan_id":"free"},{"bike_id":"a192f9f3-dd22-4ca0-9fd1-9509181347e5","system_id":"levelo_inurba_marseille","lat":43.30642,"lon":5.401031,"is_reserved":false,"is_disabled":false,"rental_uris":{"android":"levelo://app?vid=a192f9f3-dd22-4ca0-9fd1-9509181347e5","ios":"levelo://app?vid=a192f9f3-dd22-4ca0-9fd1-9509181347e5"},"vehicle_type_id":"4","last_reported":1685646298,"current_range_meters":10000,"station_id":"ce4bh112rcd13ifvqda0","pricing_plan_id":"free"},{"bike_id":"178c8f48-bd41-4e96-a8d8-8f6b997a2dd2","system_id":"levelo_inurba_marseille","lat":43.298681,"lon":5.397225,"is_reserved":false,"is_disabled":false,"rental_uris":{"android":"levelo://app?vid=178c8f48-bd41-4e96-a8d8-8f6b997a2dd2","ios":"levelo://app?vid=178c8f48-bd41-4e96-a8d8-8f6b997a2dd2"},"vehicle_type_id":"4","last_reported":1685646298,"current_range_meters":23600,"station_id":"ce4bh0h2rcd13ifvqd50","pricing_plan_id":"free"},{"bike_id":"0bf36780-0b62-445b-8b64-24e12df6f8a5","system_id":"levelo_inurba_marseille","lat":43.33763,"lon":5.37459,"is_reserved":false,"is_disabled":false,"rental_uris":{"android":"levelo://app?vid=0bf36780-0b62-445b-8b64-24e12df6f8a5","ios":"levelo://app?vid=0bf36780-0b62-445b-8b64-24e12df6f8a5"},"vehicle_type_id":"4","last_reported":1685646298,"current_range_meters":31200,"station_id":"","pricing_plan_id":"free"},{"bike_id":"0eed8958-69dd-4aa7-98f9-fd6d60ebbb69","system_id":"levelo_inurba_marseille","lat":43.301117,"lon":5.398795,"is_reserved":false,"is_disabled":false,"rental_uris":{"android":"levelo://app?vid=0eed8958-69dd-4aa7-98f9-fd6d60ebbb69","ios":"levelo://app?vid=0eed8958-69dd-4aa7-98f9-fd6d60ebbb69"},"vehicle_type_id":"4","last_reported":1685646298,"current_range_meters":5600,"station_id":"ce4bh0h2rcd13ifvqd40","pricing_plan_id":"free"},{"bike_id":"41cb60d0-bd3e-4130-b368-cae4ded0345e","system_id":"levelo_inurba_marseille","lat":43.301117,"lon":5.398795,"is_reserved":false,"is_disabled":false,"rental_uris":{"android":"levelo://app?vid=41cb60d0-bd3e-4130-b368-cae4ded0345e","ios":"levelo://app?vid=41cb60d0-bd3e-4130-b368-cae4ded0345e"},"vehicle_type_id":"4","last_reported":1685646298,"current_range_meters":29600,"station_id":"ce4bh0h2rcd13ifvqd40","pricing_plan_id":"free"},{"bike_id":"81fae868-6619-4c14-84fe-507ad858fd1f","system_id":"levelo_inurba_marseille","lat":43.306412,"lon":5.401035,"is_reserved":false,"is_disabled":false,"rental_uris":{"android":"levelo://app?vid=81fae868-6619-4c14-84fe-507ad858fd1f","ios":"levelo://app?vid=81fae868-6619-4c14-84fe-507ad858fd1f"},"vehicle_type_id":"4","last_reported":1685646298,"current_range_meters":9600,"station_id":"ce4bh112rcd13ifvqda0","pricing_plan_id":"free"},{"bike_id":"65b8d466-20f3-4cad-b330-1f75020243b5","system_id":"levelo_inurba_marseille","lat":43.306412,"lon":5.401035,"is_reserved":false,"is_disabled":false,"rental_uris":{"android":"levelo://app?vid=65b8d466-20f3-4cad-b330-1f75020243b5","ios":"levelo://app?vid=65b8d466-20f3-4cad-b330-1f75020243b5"},"vehicle_type_id":"4","last_reported":1685646298,"current_range_meters":12000,"station_id":"ce4bh112rcd13ifvqda0","pricing_plan_id":"free"},{"bike_id":"34b0c6d2-d4fd-480e-add7-f8a821a3a4d0","system_id":"levelo_inurba_marseille","lat":43.301117,"lon":5.398795,"is_reserved":false,"is_disabled":false,"rental_uris":{"android":"levelo://app?vid=34b0c6d2-d4fd-480e-add7-f8a821a3a4d0","ios":"levelo://app?vid=34b0c6d2-d4fd-480e-add7-f8a821a3a4d0"},"vehicle_type_id":"4","last_reported":1685646298,"current_range_meters":18000,"station_id":"ce4bh0h2rcd13ifvqd40","pricing_plan_id":"free"},{"bike_id":"da4f1d7b-1fe8-4cb0-a45d-55e5198ee9aa","system_id":"levelo_inurba_marseille","lat":43.301117,"lon":5.398795,"is_reserved":false,"is_disabled":false,"rental_uris":{"android":"levelo://app?vid=da4f1d7b-1fe8-4cb0-a45d-55e5198ee9aa","ios":"levelo://app?vid=da4f1d7b-1fe8-4cb0-a45d-55e5198ee9aa"},"vehicle_type_id":"4","last_reported":1685646298,"current_range_meters":5200,"station_id":"ce4bh0h2rcd13ifvqd40","pricing_plan_id":"free"},{"bike_id":"aadc5f9d-e852-44e7-87d3-4132cdf578d0","system_id":"levelo_inurba_marseille","lat":43.286591,"lon":5.363346,"is_reserved":false,"is_disabled":false,"rental_uris":{"android":"levelo://app?vid=aadc5f9d-e852-44e7-87d3-4132cdf578d0","ios":"levelo://app?vid=aadc5f9d-e852-44e7-87d3-4132cdf578d0"},"vehicle_type_id":"4","last_reported":1685646298,"current_range_meters":30800,"station_id":"ce4bhah2rcd13ifvqej0","pricing_plan_id":"free"},{"bike_id":"e4e075ed-be92-489f-8a0b-6d8a9b9b1d2e","system_id":"levelo_inurba_marseille","lat":43.28706,"lon":5.37384,"is_reserved":false,"is_disabled":false,"rental_uris":{"android":"levelo://app?vid=e4e075ed-be92-489f-8a0b-6d8a9b9b1d2e","ios":"levelo://app?vid=e4e075ed-be92-489f-8a0b-6d8a9b9b1d2e"},"vehicle_type_id":"4","last_reported":1685646298,"current_range_meters":16400,"station_id":"","pricing_plan_id":"free"},{"bike_id":"7689c907-8dcc-47cb-aa15-a477a9d5335f","system_id":"levelo_inurba_marseille","lat":43.286591,"lon":5.363346,"is_reserved":false,"is_disabled":false,"rental_uris":{"android":"levelo://app?vid=7689c907-8dcc-47cb-aa15-a477a9d5335f","ios":"levelo://app?vid=7689c907-8dcc-47cb-aa15-a477a9d5335f"},"vehicle_type_id":"4","last_reported":1685646298,"current_range_meters":28000,"station_id":"ce4bhah2rcd13ifvqej0","pricing_plan_id":"free"},{"bike_id":"cc3ed620-46a7-4d27-b33c-7884d409f252","system_id":"levelo_inurba_marseille","lat":43.30428,"lon":5.40108,"is_reserved":false,"is_disabled":false,"rental_uris":{"android":"levelo://app?vid=cc3ed620-46a7-4d27-b33c-7884d409f252","ios":"levelo://app?vid=cc3ed620-46a7-4d27-b33c-7884d409f252"},"vehicle_type_id":"4","last_reported":1685646298,"current_range_meters":3200,"station_id":"","pricing_plan_id":"free"},{"bike_id":"ee52cf9a-be33-46f6-b007-ccfe28050bf7","system_id":"levelo_inurba_marseille","lat":43.29524,"lon":5.39406,"is_reserved":false,"is_disabled":false,"rental_uris":{"android":"levelo://app?vid=ee52cf9a-be33-46f6-b007-ccfe28050bf7","ios":"levelo://app?vid=ee52cf9a-be33-46f6-b007-ccfe28050bf7"},"vehicle_type_id":"4","last_reported":1685646298,"current_range_meters":4800,"station_id":"ce4bh292rcd13ifvqdf0","pricing_plan_id":"free"},{"bike_id":"e9501898-d086-4ce7-b2f2-33ada3d64a5a","system_id":"levelo_inurba_marseille","lat":43.295196,"lon":5.39397,"is_reserved":false,"is_disabled":false,"rental_uris":{"android":"levelo://app?vid=e9501898-d086-4ce7-b2f2-33ada3d64a5a","ios":"levelo://app?vid=e9501898-d086-4ce7-b2f2-33ada3d64a5a"},"vehicle_type_id":"4","last_reported":1685646298,"current_range_meters":29600,"station_id":"ce4bh292rcd13ifvqdf0","pricing_plan_id":"free"},{"bike_id":"3373a59b-76ba-4699-a701-d2cbf95852ef","system_id":"levelo_inurba_marseille","lat":43.295194,"lon":5.39397,"is_reserved":false,"is_disabled":false,"rental_uris":{"android":"levelo://app?vid=3373a59b-76ba-4699-a701-d2cbf95852ef","ios":"levelo://app?vid=3373a59b-76ba-4699-a701-d2cbf95852ef"},"vehicle_type_id":"4","last_reported":1685646298,"current_range_meters":800,"station_id":"ce4bh292rcd13ifvqdf0","pricing_plan_id":"free"},{"bike_id":"b68c9b61-34fa-4ec4-82d7-c1da8ec1a250","system_id":"levelo_inurba_marseille","lat":43.295196,"lon":5.39397,"is_reserved":false,"is_disabled":false,"rental_uris":{"android":"levelo://app?vid=b68c9b61-34fa-4ec4-82d7-c1da8ec1a250","ios":"levelo://app?vid=b68c9b61-34fa-4ec4-82d7-c1da8ec1a250"},"vehicle_type_id":"4","last_reported":1685646298,"current_range_meters":20800,"station_id":"ce4bh292rcd13ifvqdf0","pricing_plan_id":"free"},{"bike_id":"1e11bdbd-0350-44b3-bb5b-160439442b95","system_id":"levelo_inurba_marseille","lat":43.295194,"lon":5.39397,"is_reserved":false,"is_disabled":false,"rental_uris":{"android":"levelo://app?vid=1e11bdbd-0350-44b3-bb5b-160439442b95","ios":"levelo://app?vid=1e11bdbd-0350-44b3-bb5b-160439442b95"},"vehicle_type_id":"4","last_reported":1685646298,"current_range_meters":22000,"station_id":"ce4bh292rcd13ifvqdf0","pricing_plan_id":"free"},{"bike_id":"2ae7ef79-5b39-4007-937b-5c1359f8a2cd","system_id":"levelo_inurba_marseille","lat":43.295194,"lon":5.39397,"is_reserved":false,"is_disabled":false,"rental_uris":{"android":"levelo://app?vid=2ae7ef79-5b39-4007-937b-5c1359f8a2cd","ios":"levelo://app?vid=2ae7ef79-5b39-4007-937b-5c1359f8a2cd"},"vehicle_type_id":"4","last_reported":1685646298,"current_range_meters":22800,"station_id":"ce4bh292rcd13ifvqdf0","pricing_plan_id":"free"},{"bike_id":"85fbc950-ae07-4143-84c5-0d08dfed67a7","system_id":"levelo_inurba_marseille","lat":43.29524,"lon":5.39413,"is_reserved":false,"is_disabled":false,"rental_uris":{"android":"levelo://app?vid=85fbc950-ae07-4143-84c5-0d08dfed67a7","ios":"levelo://app?vid=85fbc950-ae07-4143-84c5-0d08dfed67a7"},"vehicle_type_id":"4","last_reported":1685646298,"current_range_meters":5200,"station_id":"ce4bh292rcd13ifvqdf0","pricing_plan_id":"free"},{"bike_id":"733586c1-ec2e-4a2c-a6bd-5f53481bc5cc","system_id":"levelo_inurba_marseille","lat":43.295196,"lon":5.39397,"is_reserved":false,"is_disabled":false,"rental_uris":{"android":"levelo://app?vid=733586c1-ec2e-4a2c-a6bd-5f53481bc5cc","ios":"levelo://app?vid=733586c1-ec2e-4a2c-a6bd-5f53481bc5cc"},"vehicle_type_id":"4","last_reported":1685646298,"current_range_meters":22400,"station_id":"ce4bh292rcd13ifvqdf0","pricing_plan_id":"free"},{"bike_id":"1975dfc5-ad2d-4500-ae96-b2b887059d5e","system_id":"levelo_inurba_marseille","lat":43.302759,"lon":5.400793,"is_reserved":false,"is_disabled":false,"rental_uris":{"android":"levelo://app?vid=1975dfc5-ad2d-4500-ae96-b2b887059d5e","ios":"levelo://app?vid=1975dfc5-ad2d-4500-ae96-b2b887059d5e"},"vehicle_type_id":"4","last_reported":1685646298,"current_range_meters":30800,"station_id":"ce4bgvh2rcd13ifvqcs0","pricing_plan_id":"free"},{"bike_id":"94657e95-2c8f-4d49-bfb7-f9748580fde0","system_id":"levelo_inurba_marseille","lat":43.290336,"lon":5.386425,"is_reserved":false,"is_disabled":false,"rental_uris":{"android":"levelo://app?vid=94657e95-2c8f-4d49-bfb7-f9748580fde0","ios":"levelo://app?vid=94657e95-2c8f-4d49-bfb7-f9748580fde0"},"vehicle_type_id":"4","last_reported":1685646298,"current_range_meters":4000,"station_id":"ce4bh4p2rcd13ifvqe0g","pricing_plan_id":"free"},{"bike_id":"e335ce68-acea-4359-8225-ec6bf390aa13","system_id":"levelo_inurba_marseille","lat":43.290345,"lon":5.38646,"is_reserved":false,"is_disabled":false,"rental_uris":{"android":"levelo://app?vid=e335ce68-acea-4359-8225-ec6bf390aa13","ios":"levelo://app?vid=e335ce68-acea-4359-8225-ec6bf390aa13"},"vehicle_type_id":"4","last_reported":1685646298,"current_range_meters":4400,"station_id":"ce4bh4p2rcd13ifvqe0g","pricing_plan_id":"free"},{"bike_id":"1b9666c9-0a30-476a-965e-2e3b96e77318","system_id":"levelo_inurba_marseille","lat":43.290336,"lon":5.386425,"is_reserved":false,"is_disabled":false,"rental_uris":{"android":"levelo://app?vid=1b9666c9-0a30-476a-965e-2e3b96e77318","ios":"levelo://app?vid=1b9666c9-0a30-476a-965e-2e3b96e77318"},"vehicle_type_id":"4","last_reported":1685646298,"current_range_meters":16400,"station_id":"ce4bh4p2rcd13ifvqe0g","pricing_plan_id":"free"},{"bike_id":"cc2b191d-c886-4600-b843-4750d4a3911e","system_id":"levelo_inurba_marseille","lat":43.290336,"lon":5.386425,"is_reserved":false,"is_disabled":false,"rental_uris":{"android":"levelo://app?vid=cc2b191d-c886-4600-b843-4750d4a3911e","ios":"levelo://app?vid=cc2b191d-c886-4600-b843-4750d4a3911e"},"vehicle_type_id":"4","last_reported":1685646298,"current_range_meters":11600,"station_id":"ce4bh4p2rcd13ifvqe0g","pricing_plan_id":"free"},{"bike_id":"e885715d-1e74-4540-8d98-b44f40c6075e","system_id":"levelo_inurba_marseille","lat":43.290336,"lon":5.386425,"is_reserved":false,"is_disabled":false,"rental_uris":{"android":"levelo://app?vid=e885715d-1e74-4540-8d98-b44f40c6075e","ios":"levelo://app?vid=e885715d-1e74-4540-8d98-b44f40c6075e"},"vehicle_type_id":"4","last_reported":1685646298,"current_range_meters":19200,"station_id":"ce4bh4p2rcd13ifvqe0g","pricing_plan_id":"free"},{"bike_id":"af31de88-d7b5-486c-a1f7-12c3e82e670c","system_id":"levelo_inurba_marseille","lat":43.290345,"lon":5.38646,"is_reserved":false,"is_disabled":false,"rental_uris":{"android":"levelo://app?vid=af31de88-d7b5-486c-a1f7-12c3e82e670c","ios":"levelo://app?vid=af31de88-d7b5-486c-a1f7-12c3e82e670c"},"vehicle_type_id":"4","last_reported":1685646298,"current_range_meters":15200,"station_id":"ce4bh4p2rcd13ifvqe0g","pricing_plan_id":"free"},{"bike_id":"ad9efa28-dbaf-4c0e-be3c-957b739b856b","system_id":"levelo_inurba_marseille","lat":43.29025,"lon":5.38644,"is_reserved":false,"is_disabled":false,"rental_uris":{"android":"levelo://app?vid=ad9efa28-dbaf-4c0e-be3c-957b739b856b","ios":"levelo://app?vid=ad9efa28-dbaf-4c0e-be3c-957b739b856b"},"vehicle_type_id":"4","last_reported":1685646298,"current_range_meters":14800,"station_id":"ce4bh4p2rcd13ifvqe0g","pricing_plan_id":"free"},{"bike_id":"659fb273-752c-4168-88c8-b4ee71c5000b","system_id":"levelo_inurba_marseille","lat":43.286039,"lon":5.370679,"is_reserved":false,"is_disabled":false,"rental_uris":{"android":"levelo://app?vid=659fb273-752c-4168-88c8-b4ee71c5000b","ios":"levelo://app?vid=659fb273-752c-4168-88c8-b4ee71c5000b"},"vehicle_type_id":"4","last_reported":1685646298,"current_range_meters":20000,"station_id":"ce4bht12rcd13ifvqi60","pricing_plan_id":"free"},{"bike_id":"fc7a587c-a07f-404c-b162-abbf09de806a","system_id":"levelo_inurba_marseille","lat":43.286039,"lon":5.370679,"is_reserved":false,"is_disabled":false,"rental_uris":{"android":"levelo://app?vid=fc7a587c-a07f-404c-b162-abbf09de806a","ios":"levelo://app?vid=fc7a587c-a07f-404c-b162-abbf09de806a"},"vehicle_type_id":"4","last_reported":1685646298,"current_range_meters":9600,"station_id":"ce4bht12rcd13ifvqi60","pricing_plan_id":"free"},{"bike_id":"a424f68d-af1e-4afa-b1a1-85a6c7b8d04c","system_id":"levelo_inurba_marseille","lat":43.286039,"lon":5.370679,"is_reserved":false,"is_disabled":false,"rental_uris":{"android":"levelo://app?vid=a424f68d-af1e-4afa-b1a1-85a6c7b8d04c","ios":"levelo://app?vid=a424f68d-af1e-4afa-b1a1-85a6c7b8d04c"},"vehicle_type_id":"4","last_reported":1685646298,"current_range_meters":0,"station_id":"ce4bht12rcd13ifvqi60","pricing_plan_id":"free"},{"bike_id":"91479459-2415-43d1-8aa3-4879f652dd3c","system_id":"levelo_inurba_marseille","lat":43.286039,"lon":5.370679,"is_reserved":false,"is_disabled":false,"rental_uris":{"android":"levelo://app?vid=91479459-2415-43d1-8aa3-4879f652dd3c","ios":"levelo://app?vid=91479459-2415-43d1-8aa3-4879f652dd3c"},"vehicle_type_id":"4","last_reported":1685646298,"current_range_meters":31600,"station_id":"ce4bht12rcd13ifvqi60","pricing_plan_id":"free"},{"bike_id":"34023f9d-8d59-48f6-8660-001c876218bc","system_id":"levelo_inurba_marseille","lat":43.316517,"lon":5.404375,"is_reserved":false,"is_disabled":false,"rental_uris":{"android":"levelo://app?vid=34023f9d-8d59-48f6-8660-001c876218bc","ios":"levelo://app?vid=34023f9d-8d59-48f6-8660-001c876218bc"},"vehicle_type_id":"4","last_reported":1685646298,"current_range_meters":28800,"station_id":"ce4bh012rcd13ifvqd00","pricing_plan_id":"free"},{"bike_id":"f9f8b1f8-a275-4426-9025-08eec5bc494c","system_id":"levelo_inurba_marseille","lat":43.316517,"lon":5.404375,"is_reserved":false,"is_disabled":false,"rental_uris":{"android":"levelo://app?vid=f9f8b1f8-a275-4426-9025-08eec5bc494c","ios":"levelo://app?vid=f9f8b1f8-a275-4426-9025-08eec5bc494c"},"vehicle_type_id":"4","last_reported":1685646298,"current_range_meters":4800,"station_id":"ce4bh012rcd13ifvqd00","pricing_plan_id":"free"},{"bike_id":"15b5811e-b2a2-41d9-ba28-0e162fbda5b5","system_id":"levelo_inurba_marseille","lat":43.291994,"lon":5.392907,"is_reserved":false,"is_disabled":false,"rental_uris":{"android":"levelo://app?vid=15b5811e-b2a2-41d9-ba28-0e162fbda5b5","ios":"levelo://app?vid=15b5811e-b2a2-41d9-ba28-0e162fbda5b5"},"vehicle_type_id":"4","last_reported":1685646298,"current_range_meters":6800,"station_id":"ce4bh192rcd13ifvqdd0","pricing_plan_id":"free"},{"bike_id":"5bb02964-eccc-4fe2-a540-6e6c8596f4a8","system_id":"levelo_inurba_marseille","lat":43.284534,"lon":5.358662,"is_reserved":false,"is_disabled":false,"rental_uris":{"android":"levelo://app?vid=5bb02964-eccc-4fe2-a540-6e6c8596f4a8","ios":"levelo://app?vid=5bb02964-eccc-4fe2-a540-6e6c8596f4a8"},"vehicle_type_id":"4","last_reported":1685646298,"current_range_meters":0,"station_id":"ce4bhah2rcd13ifvqei0","pricing_plan_id":"free"},{"bike_id":"7481e2dc-776e-4640-b55f-b8f349686acd","system_id":"levelo_inurba_marseille","lat":43.284534,"lon":5.358662,"is_reserved":false,"is_disabled":false,"rental_uris":{"android":"levelo://app?vid=7481e2dc-776e-4640-b55f-b8f349686acd","ios":"levelo://app?vid=7481e2dc-776e-4640-b55f-b8f349686acd"},"vehicle_type_id":"4","last_reported":1685646298,"current_range_meters":15200,"station_id":"ce4bhah2rcd13ifvqei0","pricing_plan_id":"free"},{"bike_id":"f00a73a5-e34d-42fb-ad1e-21e17d8589bf","system_id":"levelo_inurba_marseille","lat":43.28617,"lon":5.35107,"is_reserved":false,"is_disabled":false,"rental_uris":{"android":"levelo://app?vid=f00a73a5-e34d-42fb-ad1e-21e17d8589bf","ios":"levelo://app?vid=f00a73a5-e34d-42fb-ad1e-21e17d8589bf"},"vehicle_type_id":"4","last_reported":1685646298,"current_range_meters":25200,"station_id":"","pricing_plan_id":"free"},{"bike_id":"a6af4066-0fff-4011-aa3a-2351ea9b3364","system_id":"levelo_inurba_marseille","lat":43.285856,"lon":5.350771,"is_reserved":false,"is_disabled":false,"rental_uris":{"android":"levelo://app?vid=a6af4066-0fff-4011-aa3a-2351ea9b3364","ios":"levelo://app?vid=a6af4066-0fff-4011-aa3a-2351ea9b3364"},"vehicle_type_id":"4","last_reported":1685646298,"current_range_meters":26400,"station_id":"ce4bhch2rcd13ifvqeug","pricing_plan_id":"free"},{"bike_id":"b205e703-9cc6-479d-b47b-dcec15459f4d","system_id":"levelo_inurba_marseille","lat":43.32705,"lon":5.40367,"is_reserved":false,"is_disabled":false,"rental_uris":{"android":"levelo://app?vid=b205e703-9cc6-479d-b47b-dcec15459f4d","ios":"levelo://app?vid=b205e703-9cc6-479d-b47b-dcec15459f4d"},"vehicle_type_id":"4","last_reported":1685646298,"current_range_meters":24800,"station_id":"","pricing_plan_id":"free"},{"bike_id":"ad3b4fc5-d39b-480f-b7a2-35fd52f0f794","system_id":"levelo_inurba_marseille","lat":43.323464,"lon":5.406297,"is_reserved":false,"is_disabled":false,"rental_uris":{"android":"levelo://app?vid=ad3b4fc5-d39b-480f-b7a2-35fd52f0f794","ios":"levelo://app?vid=ad3b4fc5-d39b-480f-b7a2-35fd52f0f794"},"vehicle_type_id":"4","last_reported":1685646298,"current_range_meters":11200,"station_id":"ce4bhq92rcd13ifvqhjg","pricing_plan_id":"free"},{"bike_id":"e246230d-3a9c-43ea-b753-02fca111fbc1","system_id":"levelo_inurba_marseille","lat":43.323464,"lon":5.406297,"is_reserved":false,"is_disabled":false,"rental_uris":{"android":"levelo://app?vid=e246230d-3a9c-43ea-b753-02fca111fbc1","ios":"levelo://app?vid=e246230d-3a9c-43ea-b753-02fca111fbc1"},"vehicle_type_id":"4","last_reported":1685646298,"current_range_meters":16000,"station_id":"ce4bhq92rcd13ifvqhjg","pricing_plan_id":"free"},{"bike_id":"11e24285-9fee-4666-bf30-bbcc6d1fd00b","system_id":"levelo_inurba_marseille","lat":43.323464,"lon":5.406297,"is_reserved":false,"is_disabled":false,"rental_uris":{"android":"levelo://app?vid=11e24285-9fee-4666-bf30-bbcc6d1fd00b","ios":"levelo://app?vid=11e24285-9fee-4666-bf30-bbcc6d1fd00b"},"vehicle_type_id":"4","last_reported":1685646298,"current_range_meters":25200,"station_id":"ce4bhq92rcd13ifvqhjg","pricing_plan_id":"free"},{"bike_id":"6b6e6550-a570-4017-8c87-39e899e1fe64","system_id":"levelo_inurba_marseille","lat":43.33728,"lon":5.39195,"is_reserved":false,"is_disabled":false,"rental_uris":{"android":"levelo://app?vid=6b6e6550-a570-4017-8c87-39e899e1fe64","ios":"levelo://app?vid=6b6e6550-a570-4017-8c87-39e899e1fe64"},"vehicle_type_id":"4","last_reported":1685646298,"current_range_meters":4000,"station_id":"","pricing_plan_id":"free"},{"bike_id":"e8867a2d-7987-4e3a-89bb-685ee79b5633","system_id":"levelo_inurba_marseille","lat":43.284793,"lon":5.384119,"is_reserved":false,"is_disabled":false,"rental_uris":{"android":"levelo://app?vid=e8867a2d-7987-4e3a-89bb-685ee79b5633","ios":"levelo://app?vid=e8867a2d-7987-4e3a-89bb-685ee79b5633"},"vehicle_type_id":"4","last_reported":1685646298,"current_range_meters":18400,"station_id":"ce4bh512rcd13ifvqe3g","pricing_plan_id":"free"},{"bike_id":"7d55fbad-8a5d-44e9-975a-f4ad9d7ac535","system_id":"levelo_inurba_marseille","lat":43.284787,"lon":5.384116,"is_reserved":false,"is_disabled":false,"rental_uris":{"android":"levelo://app?vid=7d55fbad-8a5d-44e9-975a-f4ad9d7ac535","ios":"levelo://app?vid=7d55fbad-8a5d-44e9-975a-f4ad9d7ac535"},"vehicle_type_id":"4","last_reported":1685646298,"current_range_meters":20400,"station_id":"ce4bh512rcd13ifvqe3g","pricing_plan_id":"free"},{"bike_id":"68ff332e-428b-4474-906a-35f5ae0520ad","system_id":"levelo_inurba_marseille","lat":43.273613,"lon":5.362705,"is_reserved":false,"is_disabled":false,"rental_uris":{"android":"levelo://app?vid=68ff332e-428b-4474-906a-35f5ae0520ad","ios":"levelo://app?vid=68ff332e-428b-4474-906a-35f5ae0520ad"},"vehicle_type_id":"4","last_reported":1685646298,"current_range_meters":31200,"station_id":"ce4bhbh2rcd13ifvqeo0","pricing_plan_id":"free"},{"bike_id":"cf71f1b1-b3d1-4dd5-a913-5ad31d3c392d","system_id":"levelo_inurba_marseille","lat":43.284219,"lon":5.3497,"is_reserved":false,"is_disabled":false,"rental_uris":{"android":"levelo://app?vid=cf71f1b1-b3d1-4dd5-a913-5ad31d3c392d","ios":"levelo://app?vid=cf71f1b1-b3d1-4dd5-a913-5ad31d3c392d"},"vehicle_type_id":"4","last_reported":1685646298,"current_range_meters":7200,"station_id":"ce4bhbh2rcd13ifvqepg","pricing_plan_id":"free"},{"bike_id":"2d2e4aa8-c68c-40d8-96eb-a651c29879e1","system_id":"levelo_inurba_marseille","lat":43.2842,"lon":5.34987,"is_reserved":false,"is_disabled":false,"rental_uris":{"android":"levelo://app?vid=2d2e4aa8-c68c-40d8-96eb-a651c29879e1","ios":"levelo://app?vid=2d2e4aa8-c68c-40d8-96eb-a651c29879e1"},"vehicle_type_id":"4","last_reported":1685646298,"current_range_meters":30000,"station_id":"ce4bhbh2rcd13ifvqepg","pricing_plan_id":"free"},{"bike_id":"4bf6aed0-4c90-4f9d-be72-ac9bf88b18a7","system_id":"levelo_inurba_marseille","lat":43.284219,"lon":5.3497,"is_reserved":false,"is_disabled":false,"rental_uris":{"android":"levelo://app?vid=4bf6aed0-4c90-4f9d-be72-ac9bf88b18a7","ios":"levelo://app?vid=4bf6aed0-4c90-4f9d-be72-ac9bf88b18a7"},"vehicle_type_id":"4","last_reported":1685646298,"current_range_meters":2000,"station_id":"ce4bhbh2rcd13ifvqepg","pricing_plan_id":"free"},{"bike_id":"3cad2118-6535-4396-ab59-77195082d2d2","system_id":"levelo_inurba_marseille","lat":43.28421,"lon":5.34982,"is_reserved":false,"is_disabled":false,"rental_uris":{"android":"levelo://app?vid=3cad2118-6535-4396-ab59-77195082d2d2","ios":"levelo://app?vid=3cad2118-6535-4396-ab59-77195082d2d2"},"vehicle_type_id":"4","last_reported":1685646298,"current_range_meters":800,"station_id":"ce4bhbh2rcd13ifvqepg","pricing_plan_id":"free"},{"bike_id":"733a7182-88cb-4e72-a838-6d5e64acb37f","system_id":"levelo_inurba_marseille","lat":43.284217,"lon":5.349697,"is_reserved":false,"is_disabled":false,"rental_uris":{"android":"levelo://app?vid=733a7182-88cb-4e72-a838-6d5e64acb37f","ios":"levelo://app?vid=733a7182-88cb-4e72-a838-6d5e64acb37f"},"vehicle_type_id":"4","last_reported":1685646298,"current_range_meters":24800,"station_id":"ce4bhbh2rcd13ifvqepg","pricing_plan_id":"free"},{"bike_id":"3c2eb3ff-5214-4108-b049-06084eae045f","system_id":"levelo_inurba_marseille","lat":43.284218,"lon":5.349744,"is_reserved":false,"is_disabled":false,"rental_uris":{"android":"levelo://app?vid=3c2eb3ff-5214-4108-b049-06084eae045f","ios":"levelo://app?vid=3c2eb3ff-5214-4108-b049-06084eae045f"},"vehicle_type_id":"4","last_reported":1685646298,"current_range_meters":24000,"station_id":"ce4bhbh2rcd13ifvqepg","pricing_plan_id":"free"},{"bike_id":"5a033f97-d1a3-42c5-8e1c-f63472b3c334","system_id":"levelo_inurba_marseille","lat":43.284217,"lon":5.349697,"is_reserved":false,"is_disabled":false,"rental_uris":{"android":"levelo://app?vid=5a033f97-d1a3-42c5-8e1c-f63472b3c334","ios":"levelo://app?vid=5a033f97-d1a3-42c5-8e1c-f63472b3c334"},"vehicle_type_id":"4","last_reported":1685646298,"current_range_meters":26000,"station_id":"ce4bhbh2rcd13ifvqepg","pricing_plan_id":"free"},{"bike_id":"46487ad5-43f1-4327-9ffb-823f2ea2ca07","system_id":"levelo_inurba_marseille","lat":43.28272,"lon":5.3507,"is_reserved":false,"is_disabled":false,"rental_uris":{"android":"levelo://app?vid=46487ad5-43f1-4327-9ffb-823f2ea2ca07","ios":"levelo://app?vid=46487ad5-43f1-4327-9ffb-823f2ea2ca07"},"vehicle_type_id":"4","last_reported":1685646298,"current_range_meters":2800,"station_id":"ce4bhbp2rcd13ifvqerg","pricing_plan_id":"free"},{"bike_id":"a840c439-acf6-4520-8f5b-5a91aea94484","system_id":"levelo_inurba_marseille","lat":43.282754,"lon":5.350519,"is_reserved":false,"is_disabled":false,"rental_uris":{"android":"levelo://app?vid=a840c439-acf6-4520-8f5b-5a91aea94484","ios":"levelo://app?vid=a840c439-acf6-4520-8f5b-5a91aea94484"},"vehicle_type_id":"4","last_reported":1685646298,"current_range_meters":31200,"station_id":"ce4bhbp2rcd13ifvqerg","pricing_plan_id":"free"},{"bike_id":"963e5f36-2169-4b66-8335-9d382f45a256","system_id":"levelo_inurba_marseille","lat":43.282754,"lon":5.350519,"is_reserved":false,"is_disabled":false,"rental_uris":{"android":"levelo://app?vid=963e5f36-2169-4b66-8335-9d382f45a256","ios":"levelo://app?vid=963e5f36-2169-4b66-8335-9d382f45a256"},"vehicle_type_id":"4","last_reported":1685646298,"current_range_meters":13200,"station_id":"ce4bhbp2rcd13ifvqerg","pricing_plan_id":"free"},{"bike_id":"3a1d6f49-f937-4b60-81ef-4f1d25d044d5","system_id":"levelo_inurba_marseille","lat":43.282744,"lon":5.350533,"is_reserved":false,"is_disabled":false,"rental_uris":{"android":"levelo://app?vid=3a1d6f49-f937-4b60-81ef-4f1d25d044d5","ios":"levelo://app?vid=3a1d6f49-f937-4b60-81ef-4f1d25d044d5"},"vehicle_type_id":"4","last_reported":1685646298,"current_range_meters":32000,"station_id":"ce4bhbp2rcd13ifvqerg","pricing_plan_id":"free"},{"bike_id":"31ca69fb-313b-4a9c-aaa4-188a28f60ae8","system_id":"levelo_inurba_marseille","lat":43.282744,"lon":5.350533,"is_reserved":false,"is_disabled":false,"rental_uris":{"android":"levelo://app?vid=31ca69fb-313b-4a9c-aaa4-188a28f60ae8","ios":"levelo://app?vid=31ca69fb-313b-4a9c-aaa4-188a28f60ae8"},"vehicle_type_id":"4","last_reported":1685646298,"current_range_meters":11600,"station_id":"ce4bhbp2rcd13ifvqerg","pricing_plan_id":"free"},{"bike_id":"67110973-ba87-4beb-bda1-67d9f356db89","system_id":"levelo_inurba_marseille","lat":43.282744,"lon":5.350533,"is_reserved":false,"is_disabled":false,"rental_uris":{"android":"levelo://app?vid=67110973-ba87-4beb-bda1-67d9f356db89","ios":"levelo://app?vid=67110973-ba87-4beb-bda1-67d9f356db89"},"vehicle_type_id":"4","last_reported":1685646298,"current_range_meters":1600,"station_id":"ce4bhbp2rcd13ifvqerg","pricing_plan_id":"free"},{"bike_id":"87cc2990-a0ac-42e0-a3de-b53473147b59","system_id":"levelo_inurba_marseille","lat":43.28268,"lon":5.3506,"is_reserved":false,"is_disabled":false,"rental_uris":{"android":"levelo://app?vid=87cc2990-a0ac-42e0-a3de-b53473147b59","ios":"levelo://app?vid=87cc2990-a0ac-42e0-a3de-b53473147b59"},"vehicle_type_id":"4","last_reported":1685646298,"current_range_meters":0,"station_id":"ce4bhbp2rcd13ifvqerg","pricing_plan_id":"free"},{"bike_id":"90fd62db-4a7f-4e8f-9f0c-8e6b78773412","system_id":"levelo_inurba_marseille","lat":43.282754,"lon":5.350519,"is_reserved":false,"is_disabled":false,"rental_uris":{"android":"levelo://app?vid=90fd62db-4a7f-4e8f-9f0c-8e6b78773412","ios":"levelo://app?vid=90fd62db-4a7f-4e8f-9f0c-8e6b78773412"},"vehicle_type_id":"4","last_reported":1685646298,"current_range_meters":26000,"station_id":"ce4bhbp2rcd13ifvqerg","pricing_plan_id":"free"},{"bike_id":"b97224c9-ed88-4acd-8d03-36a3ff7d6ec0","system_id":"levelo_inurba_marseille","lat":43.282754,"lon":5.350519,"is_reserved":false,"is_disabled":false,"rental_uris":{"android":"levelo://app?vid=b97224c9-ed88-4acd-8d03-36a3ff7d6ec0","ios":"levelo://app?vid=b97224c9-ed88-4acd-8d03-36a3ff7d6ec0"},"vehicle_type_id":"4","last_reported":1685646298,"current_range_meters":18800,"station_id":"ce4bhbp2rcd13ifvqerg","pricing_plan_id":"free"},{"bike_id":"d7eb3147-06fe-4427-b210-6a3fe055b2e9","system_id":"levelo_inurba_marseille","lat":43.29573,"lon":5.367355,"is_reserved":false,"is_disabled":false,"rental_uris":{"android":"levelo://app?vid=d7eb3147-06fe-4427-b210-6a3fe055b2e9","ios":"levelo://app?vid=d7eb3147-06fe-4427-b210-6a3fe055b2e9"},"vehicle_type_id":"4","last_reported":1685646298,"current_range_meters":20000,"station_id":"ce4bgph2rcd13ifvqc2g","pricing_plan_id":"free"},{"bike_id":"6fdbe50e-dc44-4a02-98d0-3fab4dc2dd80","system_id":"levelo_inurba_marseille","lat":43.28039,"lon":5.369297,"is_reserved":false,"is_disabled":false,"rental_uris":{"android":"levelo://app?vid=6fdbe50e-dc44-4a02-98d0-3fab4dc2dd80","ios":"levelo://app?vid=6fdbe50e-dc44-4a02-98d0-3fab4dc2dd80"},"vehicle_type_id":"4","last_reported":1685646298,"current_range_meters":11600,"station_id":"ce4bha12rcd13ifvqef0","pricing_plan_id":"free"},{"bike_id":"f0f9257e-4280-487e-91e3-63573b4bc2ce","system_id":"levelo_inurba_marseille","lat":43.28039,"lon":5.369297,"is_reserved":false,"is_disabled":false,"rental_uris":{"android":"levelo://app?vid=f0f9257e-4280-487e-91e3-63573b4bc2ce","ios":"levelo://app?vid=f0f9257e-4280-487e-91e3-63573b4bc2ce"},"vehicle_type_id":"4","last_reported":1685646298,"current_range_meters":27600,"station_id":"ce4bha12rcd13ifvqef0","pricing_plan_id":"free"},{"bike_id":"79a6599a-a540-42d4-b494-15b4baa94a32","system_id":"levelo_inurba_marseille","lat":43.280382,"lon":5.369291,"is_reserved":false,"is_disabled":false,"rental_uris":{"android":"levelo://app?vid=79a6599a-a540-42d4-b494-15b4baa94a32","ios":"levelo://app?vid=79a6599a-a540-42d4-b494-15b4baa94a32"},"vehicle_type_id":"4","last_reported":1685646298,"current_range_meters":3600,"station_id":"ce4bha12rcd13ifvqef0","pricing_plan_id":"free"},{"bike_id":"0b795b6d-d075-4b92-abff-41d6068fe33d","system_id":"levelo_inurba_marseille","lat":43.28039,"lon":5.369297,"is_reserved":false,"is_disabled":false,"rental_uris":{"android":"levelo://app?vid=0b795b6d-d075-4b92-abff-41d6068fe33d","ios":"levelo://app?vid=0b795b6d-d075-4b92-abff-41d6068fe33d"},"vehicle_type_id":"4","last_reported":1685646298,"current_range_meters":10000,"station_id":"ce4bha12rcd13ifvqef0","pricing_plan_id":"free"},{"bike_id":"dab1a37c-14c0-4c1c-a543-b587c8481f2b","system_id":"levelo_inurba_marseille","lat":43.280382,"lon":5.369291,"is_reserved":false,"is_disabled":false,"rental_uris":{"android":"levelo://app?vid=dab1a37c-14c0-4c1c-a543-b587c8481f2b","ios":"levelo://app?vid=dab1a37c-14c0-4c1c-a543-b587c8481f2b"},"vehicle_type_id":"4","last_reported":1685646298,"current_range_meters":22800,"station_id":"ce4bha12rcd13ifvqef0","pricing_plan_id":"free"},{"bike_id":"c5e554c4-9473-4e20-9a87-6fc3eb03ba5d","system_id":"levelo_inurba_marseille","lat":43.28039,"lon":5.369297,"is_reserved":false,"is_disabled":false,"rental_uris":{"android":"levelo://app?vid=c5e554c4-9473-4e20-9a87-6fc3eb03ba5d","ios":"levelo://app?vid=c5e554c4-9473-4e20-9a87-6fc3eb03ba5d"},"vehicle_type_id":"4","last_reported":1685646298,"current_range_meters":13600,"station_id":"ce4bha12rcd13ifvqef0","pricing_plan_id":"free"},{"bike_id":"1869b417-76c7-4c84-b40d-64625b4dcf30","system_id":"levelo_inurba_marseille","lat":43.28039,"lon":5.369297,"is_reserved":false,"is_disabled":false,"rental_uris":{"android":"levelo://app?vid=1869b417-76c7-4c84-b40d-64625b4dcf30","ios":"levelo://app?vid=1869b417-76c7-4c84-b40d-64625b4dcf30"},"vehicle_type_id":"4","last_reported":1685646298,"current_range_meters":32000,"station_id":"ce4bha12rcd13ifvqef0","pricing_plan_id":"free"},{"bike_id":"5624a150-1c3a-4259-a725-290d2e7d5b2c","system_id":"levelo_inurba_marseille","lat":43.28039,"lon":5.369297,"is_reserved":false,"is_disabled":false,"rental_uris":{"android":"levelo://app?vid=5624a150-1c3a-4259-a725-290d2e7d5b2c","ios":"levelo://app?vid=5624a150-1c3a-4259-a725-290d2e7d5b2c"},"vehicle_type_id":"4","last_reported":1685646298,"current_range_meters":10000,"station_id":"ce4bha12rcd13ifvqef0","pricing_plan_id":"free"},{"bike_id":"62335e8e-e127-4159-9090-17fc257555fd","system_id":"levelo_inurba_marseille","lat":43.29045,"lon":5.39961,"is_reserved":false,"is_disabled":false,"rental_uris":{"android":"levelo://app?vid=62335e8e-e127-4159-9090-17fc257555fd","ios":"levelo://app?vid=62335e8e-e127-4159-9090-17fc257555fd"},"vehicle_type_id":"4","last_reported":1685646298,"current_range_meters":24800,"station_id":"ce4bh392rcd13ifvqdm0","pricing_plan_id":"free"},{"bike_id":"bc2cd970-d416-4dca-900a-0734c7e281f9","system_id":"levelo_inurba_marseille","lat":43.296263,"lon":5.40601,"is_reserved":false,"is_disabled":false,"rental_uris":{"android":"levelo://app?vid=bc2cd970-d416-4dca-900a-0734c7e281f9","ios":"levelo://app?vid=bc2cd970-d416-4dca-900a-0734c7e281f9"},"vehicle_type_id":"4","last_reported":1685646298,"current_range_meters":22400,"station_id":"ce4bh0h2rcd13ifvqd60","pricing_plan_id":"free"},{"bike_id":"f171b1ae-135d-4fb6-a8cf-6023dfcf2634","system_id":"levelo_inurba_marseille","lat":43.296263,"lon":5.40601,"is_reserved":false,"is_disabled":false,"rental_uris":{"android":"levelo://app?vid=f171b1ae-135d-4fb6-a8cf-6023dfcf2634","ios":"levelo://app?vid=f171b1ae-135d-4fb6-a8cf-6023dfcf2634"},"vehicle_type_id":"4","last_reported":1685646298,"current_range_meters":31600,"station_id":"ce4bh0h2rcd13ifvqd60","pricing_plan_id":"free"},{"bike_id":"55830cc1-2a00-49a3-a766-789ae3f48d2d","system_id":"levelo_inurba_marseille","lat":43.29632,"lon":5.40593,"is_reserved":false,"is_disabled":false,"rental_uris":{"android":"levelo://app?vid=55830cc1-2a00-49a3-a766-789ae3f48d2d","ios":"levelo://app?vid=55830cc1-2a00-49a3-a766-789ae3f48d2d"},"vehicle_type_id":"4","last_reported":1685646298,"current_range_meters":400,"station_id":"ce4bh0h2rcd13ifvqd60","pricing_plan_id":"free"},{"bike_id":"230282c2-43f7-4c6c-aaf3-c68b61094961","system_id":"levelo_inurba_marseille","lat":43.296263,"lon":5.40601,"is_reserved":false,"is_disabled":false,"rental_uris":{"android":"levelo://app?vid=230282c2-43f7-4c6c-aaf3-c68b61094961","ios":"levelo://app?vid=230282c2-43f7-4c6c-aaf3-c68b61094961"},"vehicle_type_id":"4","last_reported":1685646298,"current_range_meters":2800,"station_id":"ce4bh0h2rcd13ifvqd60","pricing_plan_id":"free"},{"bike_id":"a985d01a-eb18-4b1f-bff9-c3def3c3129d","system_id":"levelo_inurba_marseille","lat":43.296263,"lon":5.40601,"is_reserved":false,"is_disabled":false,"rental_uris":{"android":"levelo://app?vid=a985d01a-eb18-4b1f-bff9-c3def3c3129d","ios":"levelo://app?vid=a985d01a-eb18-4b1f-bff9-c3def3c3129d"},"vehicle_type_id":"4","last_reported":1685646298,"current_range_meters":28800,"station_id":"ce4bh0h2rcd13ifvqd60","pricing_plan_id":"free"},{"bike_id":"f4fa55ca-df3f-4fb6-9a44-bdafb6ddd7ee","system_id":"levelo_inurba_marseille","lat":43.296263,"lon":5.40601,"is_reserved":false,"is_disabled":false,"rental_uris":{"android":"levelo://app?vid=f4fa55ca-df3f-4fb6-9a44-bdafb6ddd7ee","ios":"levelo://app?vid=f4fa55ca-df3f-4fb6-9a44-bdafb6ddd7ee"},"vehicle_type_id":"4","last_reported":1685646298,"current_range_meters":6400,"station_id":"ce4bh0h2rcd13ifvqd60","pricing_plan_id":"free"},{"bike_id":"6498b85a-a105-45b0-b316-a7c99a34da5c","system_id":"levelo_inurba_marseille","lat":43.32629,"lon":5.4093,"is_reserved":false,"is_disabled":false,"rental_uris":{"android":"levelo://app?vid=6498b85a-a105-45b0-b316-a7c99a34da5c","ios":"levelo://app?vid=6498b85a-a105-45b0-b316-a7c99a34da5c"},"vehicle_type_id":"4","last_reported":1685646298,"current_range_meters":24000,"station_id":"","pricing_plan_id":"free"},{"bike_id":"08ae63ba-9aff-453f-a68b-ca2afcddba85","system_id":"levelo_inurba_marseille","lat":43.28573,"lon":5.394992,"is_reserved":false,"is_disabled":false,"rental_uris":{"android":"levelo://app?vid=08ae63ba-9aff-453f-a68b-ca2afcddba85","ios":"levelo://app?vid=08ae63ba-9aff-453f-a68b-ca2afcddba85"},"vehicle_type_id":"4","last_reported":1685646298,"current_range_meters":11200,"station_id":"ce4bh292rcd13ifvqdg0","pricing_plan_id":"free"},{"bike_id":"893914a9-bf2b-47d2-98d1-e7cc038f2758","system_id":"levelo_inurba_marseille","lat":43.28573,"lon":5.394992,"is_reserved":false,"is_disabled":false,"rental_uris":{"android":"levelo://app?vid=893914a9-bf2b-47d2-98d1-e7cc038f2758","ios":"levelo://app?vid=893914a9-bf2b-47d2-98d1-e7cc038f2758"},"vehicle_type_id":"4","last_reported":1685646298,"current_range_meters":4400,"station_id":"ce4bh292rcd13ifvqdg0","pricing_plan_id":"free"},{"bike_id":"c26fb558-4bf0-4fce-9136-e6bf6fc2e85f","system_id":"levelo_inurba_marseille","lat":43.28573,"lon":5.394992,"is_reserved":false,"is_disabled":false,"rental_uris":{"android":"levelo://app?vid=c26fb558-4bf0-4fce-9136-e6bf6fc2e85f","ios":"levelo://app?vid=c26fb558-4bf0-4fce-9136-e6bf6fc2e85f"},"vehicle_type_id":"4","last_reported":1685646298,"current_range_meters":24400,"station_id":"ce4bh292rcd13ifvqdg0","pricing_plan_id":"free"},{"bike_id":"0cc00d85-2197-43d6-8812-93f72e1b8d04","system_id":"levelo_inurba_marseille","lat":43.3042,"lon":5.4127,"is_reserved":false,"is_disabled":false,"rental_uris":{"android":"levelo://app?vid=0cc00d85-2197-43d6-8812-93f72e1b8d04","ios":"levelo://app?vid=0cc00d85-2197-43d6-8812-93f72e1b8d04"},"vehicle_type_id":"4","last_reported":1685646298,"current_range_meters":1600,"station_id":"ce4bhop2rcd13ifvqh8g","pricing_plan_id":"free"},{"bike_id":"bb8cc84c-7ade-4b15-9185-f926bddb5baf","system_id":"levelo_inurba_marseille","lat":43.30417,"lon":5.41273,"is_reserved":false,"is_disabled":false,"rental_uris":{"android":"levelo://app?vid=bb8cc84c-7ade-4b15-9185-f926bddb5baf","ios":"levelo://app?vid=bb8cc84c-7ade-4b15-9185-f926bddb5baf"},"vehicle_type_id":"4","last_reported":1685646298,"current_range_meters":23200,"station_id":"ce4bhop2rcd13ifvqh8g","pricing_plan_id":"free"},{"bike_id":"2e6bf5be-a7f4-4f08-936d-aa5389ea2d12","system_id":"levelo_inurba_marseille","lat":43.27905,"lon":5.38022,"is_reserved":false,"is_disabled":false,"rental_uris":{"android":"levelo://app?vid=2e6bf5be-a7f4-4f08-936d-aa5389ea2d12","ios":"levelo://app?vid=2e6bf5be-a7f4-4f08-936d-aa5389ea2d12"},"vehicle_type_id":"4","last_reported":1685646298,"current_range_meters":7200,"station_id":"","pricing_plan_id":"free"},{"bike_id":"f201aaa8-2284-45b1-bfb3-71d06ffaba90","system_id":"levelo_inurba_marseille","lat":43.27899,"lon":5.38013,"is_reserved":false,"is_disabled":false,"rental_uris":{"android":"levelo://app?vid=f201aaa8-2284-45b1-bfb3-71d06ffaba90","ios":"levelo://app?vid=f201aaa8-2284-45b1-bfb3-71d06ffaba90"},"vehicle_type_id":"4","last_reported":1685646298,"current_range_meters":0,"station_id":"","pricing_plan_id":"free"},{"bike_id":"80bb86dc-9e52-4368-8475-ee46ca1753d1","system_id":"levelo_inurba_marseille","lat":43.287154,"lon":5.399979,"is_reserved":false,"is_disabled":false,"rental_uris":{"android":"levelo://app?vid=80bb86dc-9e52-4368-8475-ee46ca1753d1","ios":"levelo://app?vid=80bb86dc-9e52-4368-8475-ee46ca1753d1"},"vehicle_type_id":"4","last_reported":1685646298,"current_range_meters":15200,"station_id":"ce4bho92rcd13ifvqh3g","pricing_plan_id":"free"},{"bike_id":"7faca00a-db47-4522-85ed-ef99936acccc","system_id":"levelo_inurba_marseille","lat":43.287154,"lon":5.399979,"is_reserved":false,"is_disabled":false,"rental_uris":{"android":"levelo://app?vid=7faca00a-db47-4522-85ed-ef99936acccc","ios":"levelo://app?vid=7faca00a-db47-4522-85ed-ef99936acccc"},"vehicle_type_id":"4","last_reported":1685646298,"current_range_meters":3200,"station_id":"ce4bho92rcd13ifvqh3g","pricing_plan_id":"free"},{"bike_id":"cefe1a05-1dcb-454e-b534-c474203b9a44","system_id":"levelo_inurba_marseille","lat":43.279742,"lon":5.38744,"is_reserved":false,"is_disabled":false,"rental_uris":{"android":"levelo://app?vid=cefe1a05-1dcb-454e-b534-c474203b9a44","ios":"levelo://app?vid=cefe1a05-1dcb-454e-b534-c474203b9a44"},"vehicle_type_id":"4","last_reported":1685646298,"current_range_meters":6000,"station_id":"ce4bhg12rcd13ifvqf80","pricing_plan_id":"free"},{"bike_id":"64a04445-9070-49d3-b533-416db62729f7","system_id":"levelo_inurba_marseille","lat":43.27618,"lon":5.361009,"is_reserved":false,"is_disabled":false,"rental_uris":{"android":"levelo://app?vid=64a04445-9070-49d3-b533-416db62729f7","ios":"levelo://app?vid=64a04445-9070-49d3-b533-416db62729f7"},"vehicle_type_id":"4","last_reported":1685646298,"current_range_meters":18800,"station_id":"ce4bgj92rcd13ifvqbe0","pricing_plan_id":"free"},{"bike_id":"35291467-6ced-40de-a294-245fd54c10d1","system_id":"levelo_inurba_marseille","lat":43.27618,"lon":5.361009,"is_reserved":false,"is_disabled":false,"rental_uris":{"android":"levelo://app?vid=35291467-6ced-40de-a294-245fd54c10d1","ios":"levelo://app?vid=35291467-6ced-40de-a294-245fd54c10d1"},"vehicle_type_id":"4","last_reported":1685646298,"current_range_meters":14800,"station_id":"ce4bgj92rcd13ifvqbe0","pricing_plan_id":"free"},{"bike_id":"5ff57a70-624d-4ca0-af36-39aaa9c3c5b0","system_id":"levelo_inurba_marseille","lat":43.27618,"lon":5.361009,"is_reserved":false,"is_disabled":false,"rental_uris":{"android":"levelo://app?vid=5ff57a70-624d-4ca0-af36-39aaa9c3c5b0","ios":"levelo://app?vid=5ff57a70-624d-4ca0-af36-39aaa9c3c5b0"},"vehicle_type_id":"4","last_reported":1685646298,"current_range_meters":2800,"station_id":"ce4bgj92rcd13ifvqbe0","pricing_plan_id":"free"},{"bike_id":"32fbd8b1-c421-44d2-9ba2-afff43c61df7","system_id":"levelo_inurba_marseille","lat":43.325243,"lon":5.414326,"is_reserved":false,"is_disabled":false,"rental_uris":{"android":"levelo://app?vid=32fbd8b1-c421-44d2-9ba2-afff43c61df7","ios":"levelo://app?vid=32fbd8b1-c421-44d2-9ba2-afff43c61df7"},"vehicle_type_id":"4","last_reported":1685646298,"current_range_meters":16000,"station_id":"ce4bhq12rcd13ifvqhhg","pricing_plan_id":"free"},{"bike_id":"a3a133a6-ae98-4b08-855e-fad1e41dfc17","system_id":"levelo_inurba_marseille","lat":43.27612,"lon":5.36108,"is_reserved":false,"is_disabled":false,"rental_uris":{"android":"levelo://app?vid=a3a133a6-ae98-4b08-855e-fad1e41dfc17","ios":"levelo://app?vid=a3a133a6-ae98-4b08-855e-fad1e41dfc17"},"vehicle_type_id":"4","last_reported":1685646298,"current_range_meters":21600,"station_id":"ce4bgj92rcd13ifvqbe0","pricing_plan_id":"free"},{"bike_id":"7fb27749-1b6b-4f92-a727-8dfc4d8ee5e6","system_id":"levelo_inurba_marseille","lat":43.278399,"lon":5.392139,"is_reserved":false,"is_disabled":false,"rental_uris":{"android":"levelo://app?vid=7fb27749-1b6b-4f92-a727-8dfc4d8ee5e6","ios":"levelo://app?vid=7fb27749-1b6b-4f92-a727-8dfc4d8ee5e6"},"vehicle_type_id":"4","last_reported":1685646298,"current_range_meters":30800,"station_id":"ce4bhjp2rcd13ifvqga0","pricing_plan_id":"free"},{"bike_id":"cea323e7-227d-422a-a684-aa9827c13417","system_id":"levelo_inurba_marseille","lat":43.278399,"lon":5.392139,"is_reserved":false,"is_disabled":false,"rental_uris":{"android":"levelo://app?vid=cea323e7-227d-422a-a684-aa9827c13417","ios":"levelo://app?vid=cea323e7-227d-422a-a684-aa9827c13417"},"vehicle_type_id":"4","last_reported":1685646298,"current_range_meters":0,"station_id":"ce4bhjp2rcd13ifvqga0","pricing_plan_id":"free"},{"bike_id":"11681796-f35b-4a13-bc8c-58f2672b04bb","system_id":"levelo_inurba_marseille","lat":43.278401,"lon":5.392152,"is_reserved":false,"is_disabled":false,"rental_uris":{"android":"levelo://app?vid=11681796-f35b-4a13-bc8c-58f2672b04bb","ios":"levelo://app?vid=11681796-f35b-4a13-bc8c-58f2672b04bb"},"vehicle_type_id":"4","last_reported":1685646298,"current_range_meters":31600,"station_id":"ce4bhjp2rcd13ifvqga0","pricing_plan_id":"free"},{"bike_id":"e7017d71-61e1-4d24-bb6d-62f3a93fd3a3","system_id":"levelo_inurba_marseille","lat":43.27826,"lon":5.39208,"is_reserved":false,"is_disabled":false,"rental_uris":{"android":"levelo://app?vid=e7017d71-61e1-4d24-bb6d-62f3a93fd3a3","ios":"levelo://app?vid=e7017d71-61e1-4d24-bb6d-62f3a93fd3a3"},"vehicle_type_id":"4","last_reported":1685646298,"current_range_meters":14400,"station_id":"ce4bhjp2rcd13ifvqga0","pricing_plan_id":"free"},{"bike_id":"7e0b81ce-9aaa-411d-ba1f-c3d268727126","system_id":"levelo_inurba_marseille","lat":43.273613,"lon":5.362705,"is_reserved":false,"is_disabled":false,"rental_uris":{"android":"levelo://app?vid=7e0b81ce-9aaa-411d-ba1f-c3d268727126","ios":"levelo://app?vid=7e0b81ce-9aaa-411d-ba1f-c3d268727126"},"vehicle_type_id":"4","last_reported":1685646298,"current_range_meters":23600,"station_id":"ce4bhbh2rcd13ifvqeo0","pricing_plan_id":"free"},{"bike_id":"747a6114-5958-44fe-a9c0-9091dcd815b6","system_id":"levelo_inurba_marseille","lat":43.33612,"lon":5.410321,"is_reserved":false,"is_disabled":false,"rental_uris":{"android":"levelo://app?vid=747a6114-5958-44fe-a9c0-9091dcd815b6","ios":"levelo://app?vid=747a6114-5958-44fe-a9c0-9091dcd815b6"},"vehicle_type_id":"4","last_reported":1685646298,"current_range_meters":5600,"station_id":"ce4bhqh2rcd13ifvqhmg","pricing_plan_id":"free"},{"bike_id":"3b3a14d5-2728-483c-bcc4-48fd302b83a9","system_id":"levelo_inurba_marseille","lat":43.276771,"lon":5.388799,"is_reserved":false,"is_disabled":false,"rental_uris":{"android":"levelo://app?vid=3b3a14d5-2728-483c-bcc4-48fd302b83a9","ios":"levelo://app?vid=3b3a14d5-2728-483c-bcc4-48fd302b83a9"},"vehicle_type_id":"4","last_reported":1685646298,"current_range_meters":26400,"station_id":"ce4bhi12rcd13ifvqfo0","pricing_plan_id":"free"},{"bike_id":"7a3a1174-7319-47ac-b584-ad63de3d767a","system_id":"levelo_inurba_marseille","lat":43.336134,"lon":5.410341,"is_reserved":false,"is_disabled":false,"rental_uris":{"android":"levelo://app?vid=7a3a1174-7319-47ac-b584-ad63de3d767a","ios":"levelo://app?vid=7a3a1174-7319-47ac-b584-ad63de3d767a"},"vehicle_type_id":"4","last_reported":1685646298,"current_range_meters":27600,"station_id":"ce4bhqh2rcd13ifvqhmg","pricing_plan_id":"free"},{"bike_id":"0acb47e8-a3b8-4932-88cd-d7b134dad706","system_id":"levelo_inurba_marseille","lat":43.27582,"lon":5.38979,"is_reserved":false,"is_disabled":false,"rental_uris":{"android":"levelo://app?vid=0acb47e8-a3b8-4932-88cd-d7b134dad706","ios":"levelo://app?vid=0acb47e8-a3b8-4932-88cd-d7b134dad706"},"vehicle_type_id":"4","last_reported":1685646298,"current_range_meters":0,"station_id":"","pricing_plan_id":"free"},{"bike_id":"647a12f1-ff86-4bdc-a955-470cd7a60b49","system_id":"levelo_inurba_marseille","lat":43.30604,"lon":5.4224,"is_reserved":false,"is_disabled":false,"rental_uris":{"android":"levelo://app?vid=647a12f1-ff86-4bdc-a955-470cd7a60b49","ios":"levelo://app?vid=647a12f1-ff86-4bdc-a955-470cd7a60b49"},"vehicle_type_id":"4","last_reported":1685646298,"current_range_meters":23200,"station_id":"","pricing_plan_id":"free"},{"bike_id":"e983f764-91b5-48d2-9b2f-05b897d8f6e7","system_id":"levelo_inurba_marseille","lat":43.317121,"lon":5.423936,"is_reserved":false,"is_disabled":false,"rental_uris":{"android":"levelo://app?vid=e983f764-91b5-48d2-9b2f-05b897d8f6e7","ios":"levelo://app?vid=e983f764-91b5-48d2-9b2f-05b897d8f6e7"},"vehicle_type_id":"4","last_reported":1685646298,"current_range_meters":28400,"station_id":"ce4bhp92rcd13ifvqhbg","pricing_plan_id":"free"},{"bike_id":"99a41045-ee60-42b4-aca0-348ab09a4f25","system_id":"levelo_inurba_marseille","lat":43.317121,"lon":5.423936,"is_reserved":false,"is_disabled":false,"rental_uris":{"android":"levelo://app?vid=99a41045-ee60-42b4-aca0-348ab09a4f25","ios":"levelo://app?vid=99a41045-ee60-42b4-aca0-348ab09a4f25"},"vehicle_type_id":"4","last_reported":1685646298,"current_range_meters":10000,"station_id":"ce4bhp92rcd13ifvqhbg","pricing_plan_id":"free"},{"bike_id":"b7e3519c-aac6-4944-bfb6-cf08cb910e16","system_id":"levelo_inurba_marseille","lat":43.27423,"lon":5.39407,"is_reserved":false,"is_disabled":false,"rental_uris":{"android":"levelo://app?vid=b7e3519c-aac6-4944-bfb6-cf08cb910e16","ios":"levelo://app?vid=b7e3519c-aac6-4944-bfb6-cf08cb910e16"},"vehicle_type_id":"4","last_reported":1685646298,"current_range_meters":2800,"station_id":"","pricing_plan_id":"free"},{"bike_id":"ae3297b7-6fe1-46d9-bd26-edb2994c9feb","system_id":"levelo_inurba_marseille","lat":43.304096,"lon":5.425385,"is_reserved":false,"is_disabled":false,"rental_uris":{"android":"levelo://app?vid=ae3297b7-6fe1-46d9-bd26-edb2994c9feb","ios":"levelo://app?vid=ae3297b7-6fe1-46d9-bd26-edb2994c9feb"},"vehicle_type_id":"4","last_reported":1685646298,"current_range_meters":13600,"station_id":"ce4bhoh2rcd13ifvqh6g","pricing_plan_id":"free"},{"bike_id":"833c3a30-5543-4de2-a90f-93e96cf55bc3","system_id":"levelo_inurba_marseille","lat":43.304096,"lon":5.425385,"is_reserved":false,"is_disabled":false,"rental_uris":{"android":"levelo://app?vid=833c3a30-5543-4de2-a90f-93e96cf55bc3","ios":"levelo://app?vid=833c3a30-5543-4de2-a90f-93e96cf55bc3"},"vehicle_type_id":"4","last_reported":1685646298,"current_range_meters":22800,"station_id":"ce4bhoh2rcd13ifvqh6g","pricing_plan_id":"free"},{"bike_id":"c265a28b-eafb-42e1-867e-a9bcc5c9ea7e","system_id":"levelo_inurba_marseille","lat":43.29555,"lon":5.42282,"is_reserved":false,"is_disabled":false,"rental_uris":{"android":"levelo://app?vid=c265a28b-eafb-42e1-867e-a9bcc5c9ea7e","ios":"levelo://app?vid=c265a28b-eafb-42e1-867e-a9bcc5c9ea7e"},"vehicle_type_id":"4","last_reported":1685646298,"current_range_meters":28400,"station_id":"ce4bhph2rcd13ifvqhdg","pricing_plan_id":"free"},{"bike_id":"e82122c6-b642-478a-a64a-3adae6c0bd95","system_id":"levelo_inurba_marseille","lat":43.29549,"lon":5.4228,"is_reserved":false,"is_disabled":false,"rental_uris":{"android":"levelo://app?vid=e82122c6-b642-478a-a64a-3adae6c0bd95","ios":"levelo://app?vid=e82122c6-b642-478a-a64a-3adae6c0bd95"},"vehicle_type_id":"4","last_reported":1685646298,"current_range_meters":31200,"station_id":"ce4bhph2rcd13ifvqhdg","pricing_plan_id":"free"},{"bike_id":"be64db6b-afcd-4e7c-a257-2e3015e007c5","system_id":"levelo_inurba_marseille","lat":43.29552,"lon":5.42291,"is_reserved":false,"is_disabled":false,"rental_uris":{"android":"levelo://app?vid=be64db6b-afcd-4e7c-a257-2e3015e007c5","ios":"levelo://app?vid=be64db6b-afcd-4e7c-a257-2e3015e007c5"},"vehicle_type_id":"4","last_reported":1685646298,"current_range_meters":24800,"station_id":"ce4bhph2rcd13ifvqhdg","pricing_plan_id":"free"},{"bike_id":"ad14d362-7cf7-464e-97d9-12b4e0764fc1","system_id":"levelo_inurba_marseille","lat":43.29494,"lon":5.42264,"is_reserved":false,"is_disabled":false,"rental_uris":{"android":"levelo://app?vid=ad14d362-7cf7-464e-97d9-12b4e0764fc1","ios":"levelo://app?vid=ad14d362-7cf7-464e-97d9-12b4e0764fc1"},"vehicle_type_id":"4","last_reported":1685646298,"current_range_meters":10400,"station_id":"","pricing_plan_id":"free"},{"bike_id":"f2ccad2d-a8f5-4192-b9b2-f16f5816884b","system_id":"levelo_inurba_marseille","lat":43.278128,"lon":5.407195,"is_reserved":false,"is_disabled":false,"rental_uris":{"android":"levelo://app?vid=f2ccad2d-a8f5-4192-b9b2-f16f5816884b","ios":"levelo://app?vid=f2ccad2d-a8f5-4192-b9b2-f16f5816884b"},"vehicle_type_id":"4","last_reported":1685646298,"current_range_meters":20000,"station_id":"ce4bhnh2rcd13ifvqgtg","pricing_plan_id":"free"},{"bike_id":"14fde3a2-0c04-4548-87f0-a275e6eedcda","system_id":"levelo_inurba_marseille","lat":43.278128,"lon":5.407195,"is_reserved":false,"is_disabled":false,"rental_uris":{"android":"levelo://app?vid=14fde3a2-0c04-4548-87f0-a275e6eedcda","ios":"levelo://app?vid=14fde3a2-0c04-4548-87f0-a275e6eedcda"},"vehicle_type_id":"4","last_reported":1685646298,"current_range_meters":21200,"station_id":"ce4bhnh2rcd13ifvqgtg","pricing_plan_id":"free"},{"bike_id":"37743dca-ffe3-484a-9c07-85108af5b8b9","system_id":"levelo_inurba_marseille","lat":43.278128,"lon":5.407195,"is_reserved":false,"is_disabled":false,"rental_uris":{"android":"levelo://app?vid=37743dca-ffe3-484a-9c07-85108af5b8b9","ios":"levelo://app?vid=37743dca-ffe3-484a-9c07-85108af5b8b9"},"vehicle_type_id":"4","last_reported":1685646298,"current_range_meters":12400,"station_id":"ce4bhnh2rcd13ifvqgtg","pricing_plan_id":"free"},{"bike_id":"94ba5473-da17-4881-9aa1-23950c5e2c1d","system_id":"levelo_inurba_marseille","lat":43.26823,"lon":5.38205,"is_reserved":false,"is_disabled":false,"rental_uris":{"android":"levelo://app?vid=94ba5473-da17-4881-9aa1-23950c5e2c1d","ios":"levelo://app?vid=94ba5473-da17-4881-9aa1-23950c5e2c1d"},"vehicle_type_id":"4","last_reported":1685646298,"current_range_meters":6800,"station_id":"","pricing_plan_id":"free"},{"bike_id":"a1dfb1ea-6134-4525-bb00-1121014a92f6","system_id":"levelo_inurba_marseille","lat":43.26647,"lon":5.38213,"is_reserved":false,"is_disabled":false,"rental_uris":{"android":"levelo://app?vid=a1dfb1ea-6134-4525-bb00-1121014a92f6","ios":"levelo://app?vid=a1dfb1ea-6134-4525-bb00-1121014a92f6"},"vehicle_type_id":"4","last_reported":1685646298,"current_range_meters":17200,"station_id":"","pricing_plan_id":"free"},{"bike_id":"477c9b24-a1bd-4af2-9e3a-7a10b9af13d1","system_id":"levelo_inurba_marseille","lat":43.31718,"lon":5.43305,"is_reserved":false,"is_disabled":false,"rental_uris":{"android":"levelo://app?vid=477c9b24-a1bd-4af2-9e3a-7a10b9af13d1","ios":"levelo://app?vid=477c9b24-a1bd-4af2-9e3a-7a10b9af13d1"},"vehicle_type_id":"4","last_reported":1685646298,"current_range_meters":0,"station_id":"","pricing_plan_id":"free"},{"bike_id":"ba692804-94d2-46cc-b558-5e11cae28dd8","system_id":"levelo_inurba_marseille","lat":43.28485,"lon":5.4219,"is_reserved":false,"is_disabled":false,"rental_uris":{"android":"levelo://app?vid=ba692804-94d2-46cc-b558-5e11cae28dd8","ios":"levelo://app?vid=ba692804-94d2-46cc-b558-5e11cae28dd8"},"vehicle_type_id":"4","last_reported":1685646298,"current_range_meters":17200,"station_id":"","pricing_plan_id":"free"},{"bike_id":"4bcb9e91-b4f5-4500-b5a1-7710aacc21ed","system_id":"levelo_inurba_marseille","lat":43.27996,"lon":5.416624,"is_reserved":false,"is_disabled":false,"rental_uris":{"android":"levelo://app?vid=4bcb9e91-b4f5-4500-b5a1-7710aacc21ed","ios":"levelo://app?vid=4bcb9e91-b4f5-4500-b5a1-7710aacc21ed"},"vehicle_type_id":"4","last_reported":1685646298,"current_range_meters":21600,"station_id":"ce4bho12rcd13ifvqh1g","pricing_plan_id":"free"},{"bike_id":"1f969f30-0cbe-4bb5-a63c-311a75242683","system_id":"levelo_inurba_marseille","lat":43.265569,"lon":5.390047,"is_reserved":false,"is_disabled":false,"rental_uris":{"android":"levelo://app?vid=1f969f30-0cbe-4bb5-a63c-311a75242683","ios":"levelo://app?vid=1f969f30-0cbe-4bb5-a63c-311a75242683"},"vehicle_type_id":"4","last_reported":1685646298,"current_range_meters":0,"station_id":"ce4bhe12rcd13ifvqf30","pricing_plan_id":"free"},