{"last_updated":1742667141,"ttl":60,"version":"2.2","data":{"bikes":[{"bike_id":"309a2a20-c014-416d-b804-935a990b00d0","system_id":"levelo_inurba_marseille","lat":43.27975,"lon":5.38738,"is_reserved":false,"is_disabled":false,"rental_uris":{"android":"levelo://app?vid=309a2a20-c014-416d-b804-935a990b00d0","ios":"levelo://app?vid=309a2a20-c014-416d-b804-935a990b00d0"},"vehicle_type_id":"4","last_reported":1742667141,"current_range_meters":2800,"station_id":"ce4bhg12rcd13ifvqf80","pricing_plan_id":"cebpf4jnsgd1na2vs0mg"},{"bike_id":"62bf2f5c-9819-4816-afad-4a268d7a76b8","system_id":"levelo_inurba_marseille","lat":43.24165,"lon":5.36402,"is_reserved":false,"is_disabled":true,"rental_uris":{"android":"levelo://app?vid=62bf2f5c-9819-4816-afad-4a268d7a76b8","ios":"levelo://app?vid=62bf2f5c-9819-4816-afad-4a268d7a76b8"},"vehicle_type_id":"4","last_reported":1742667141,"current_range_meters":2800,"station_id":"cpo36qri1sfpv3e86is0","pricing_plan_id":"cebpf4jnsgd1na2vs0mg"},{"bike_id":"f0b7eb0f-5235-40e7-9049-b8138789269e","system_id":"levelo_inurba_marseille","lat":43.30154,"lon":5.38097,"is_reserved":false,"is_disabled":false,"rental_uris":{"android":"levelo://app?vid=f0b7eb0f-5235-40e7-9049-b8138789269e","ios":"levelo://app?vid=f0b7eb0f-5235-40e7-9049-b8138789269e"},"vehicle_type_id":"4","last_reported":1742667141,"current_range_meters":2800,"station_id":"ce4bgjp2rcd13ifvqbh0","pricing_plan_id":"cebpf4jnsgd1na2vs0mg"},{"bike_id":"b81ecf39-0951-464a-a8f3-e0a95f66cdc1","system_id":"levelo_inurba_marseille","lat":43.30312,"lon":5.36887,"is_reserved":false,"is_disabled":false,"rental_uris":{"android":"levelo://app?vid=b81ecf39-0951-464a-a8f3-e0a95f66cdc1","ios":"levelo://app?vid=b81ecf39-0951-464a-a8f3-e0a95f66cdc1"},"vehicle_type_id":"4","last_reported":1742667141,"current_range_meters":2800,"station_id":"ce4bgqh2rcd13ifvqc5g","pricing_plan_id":"cebpf4jnsgd1na2vs0mg"},{"bike_id":"a8130923-3256-49fd-a78d-5ff2c6f7cef1","system_id":"levelo_inurba_marseille","lat":43.31673,"lon":5.40473,"is_reserved":false,"is_disabled":false,"rental_uris":{"android":"levelo://app?vid=a8130923-3256-49fd-a78d-5ff2c6f7cef1","ios":"levelo://app?vid=a8130923-3256-49fd-a78d-5ff2c6f7cef1"},"vehicle_type_id":"4","last_reported":1742667141,"current_range_meters":3200,"station_id":"ce4bh012rcd13ifvqd00","pricing_plan_id":"cebpf4jnsgd1na2vs0mg"},{"bike_id":"07afb6ea-b31c-44e4-a141-97c596fd9ad4","system_id":"levelo_inurba_marseille","lat":43.3015,"lon":5.38081,"is_reserved":false,"is_disabled":false,"rental_uris":{"android":"levelo://app?vid=07afb6ea-b31c-44e4-a141-97c596fd9ad4","ios":"levelo://app?vid=07afb6ea-b31c-44e4-a141-97c596fd9ad4"},"vehicle_type_id":"4","last_reported":1742667141,"current_range_meters":3200,"station_id":"ce4bgjp2rcd13ifvqbh0","pricing_plan_id":"cebpf4jnsgd1na2vs0mg"},{"bike_id":"b25c16cc-fcf3-4005-ae0f-e8353c1178cb","system_id":"levelo_inurba_marseille","lat":43.24654,"lon":5.38203,"is_reserved":false,"is_disabled":true,"rental_uris":{"android":"levelo://app?vid=b25c16cc-fcf3-4005-ae0f-e8353c1178cb","ios":"levelo://app?vid=b25c16cc-fcf3-4005-ae0f-e8353c1178cb"},"vehicle_type_id":"4","last_reported":1742667141,"current_range_meters":3200,"station_id":"ce4bhih2rcd13ifvqfr0","pricing_plan_id":"cebpf4jnsgd1na2vs0mg"},{"bike_id":"513d638e-579c-476a-b761-04137468524b","system_id":"levelo_inurba_marseille","lat":43.3012,"lon":5.39882,"is_reserved":false,"is_disabled":false,"rental_uris":{"android":"levelo://app?vid=513d638e-579c-476a-b761-04137468524b","ios":"levelo://app?vid=513d638e-579c-476a-b761-04137468524b"},"vehicle_type_id":"4","last_reported":1742667141,"current_range_meters":3200,"station_id":"ce4bh0h2rcd13ifvqd40","pricing_plan_id":"cebpf4jnsgd1na2vs0mg"},{"bike_id":"17de0b1c-38f9-42d7-ada4-d6aea461f417","system_id":"levelo_inurba_marseille","lat":43.30158,"lon":5.38083,"is_reserved":false,"is_disabled":false,"rental_uris":{"android":"levelo://app?vid=17de0b1c-38f9-42d7-ada4-d6aea461f417","ios":"levelo://app?vid=17de0b1c-38f9-42d7-ada4-d6aea461f417"},"vehicle_type_id":"4","last_reported":1742667141,"current_range_meters":3200,"station_id":"ce4bgjp2rcd13ifvqbh0","pricing_plan_id":"cebpf4jnsgd1na2vs0mg"},{"bike_id":"21bba5ae-f7cd-478c-ba35-908e147b878c","system_id":"levelo_inurba_marseille","lat":43.27947,"lon":5.41048,"is_reserved":false,"is_disabled":false,"rental_uris":{"android":"levelo://app?vid=21bba5ae-f7cd-478c-ba35-908e147b878c","ios":"levelo://app?vid=21bba5ae-f7cd-478c-ba35-908e147b878c"},"vehicle_type_id":"4","last_reported":1742667141,"current_range_meters":3200,"station_id":"ce4bhnp2rcd13ifvqh0g","pricing_plan_id":"cebpf4jnsgd1na2vs0mg"},{"bike_id":"702dafca-725f-42e8-952f-174bc91d327e","system_id":"levelo_inurba_marseille","lat":43.29605,"lon":5.38105,"is_reserved":false,"is_disabled":false,"rental_uris":{"android":"levelo://app?vid=702dafca-725f-42e8-952f-174bc91d327e","ios":"levelo://app?vid=702dafca-725f-42e8-952f-174bc91d327e"},"vehicle_type_id":"4","last_reported":1742667141,"current_range_meters":3200,"station_id":"ce4bgl12rcd13ifvqbo0","pricing_plan_id":"cebpf4jnsgd1na2vs0mg"},{"bike_id":"0045342e-5c1f-4022-a13a-e3eeb34b64de","system_id":"levelo_inurba_marseille","lat":43.28934,"lon":5.36639,"is_reserved":false,"is_disabled":false,"rental_uris":{"android":"levelo://app?vid=0045342e-5c1f-4022-a13a-e3eeb34b64de","ios":"levelo://app?vid=0045342e-5c1f-4022-a13a-e3eeb34b64de"},"vehicle_type_id":"4","last_reported":1742667141,"current_range_meters":3600,"station_id":"ce4bhap2rcd13ifvqek0","pricing_plan_id":"cebpf4jnsgd1na2vs0mg"},{"bike_id":"2e69c0cc-739f-4b10-ae10-f590a4dba239","system_id":"levelo_inurba_marseille","lat":43.28624,"lon":5.35108,"is_reserved":false,"is_disabled":false,"rental_uris":{"android":"levelo://app?vid=2e69c0cc-739f-4b10-ae10-f590a4dba239","ios":"levelo://app?vid=2e69c0cc-739f-4b10-ae10-f590a4dba239"},"vehicle_type_id":"4","last_reported":1742667141,"current_range_meters":3600,"station_id":"ce4bhch2rcd13ifvqeug","pricing_plan_id":"cebpf4jnsgd1na2vs0mg"},{"bike_id":"807600bf-b6e8-41b9-88c5-f130d57b316a","system_id":"levelo_inurba_marseille","lat":43.28679,"lon":5.3866,"is_reserved":false,"is_disabled":false,"rental_uris":{"android":"levelo://app?vid=807600bf-b6e8-41b9-88c5-f130d57b316a","ios":"levelo://app?vid=807600bf-b6e8-41b9-88c5-f130d57b316a"},"vehicle_type_id":"4","last_reported":1742667141,"current_range_meters":3200,"station_id":"ce4bh492rcd13ifvqdug","pricing_plan_id":"cebpf4jnsgd1na2vs0mg"},{"bike_id":"ae116b14-deb4-4ff8-bb5c-1d3d91650f5d","system_id":"levelo_inurba_marseille","lat":43.28107,"lon":5.37842,"is_reserved":false,"is_disabled":false,"rental_uris":{"android":"levelo://app?vid=ae116b14-deb4-4ff8-bb5c-1d3d91650f5d","ios":"levelo://app?vid=ae116b14-deb4-4ff8-bb5c-1d3d91650f5d"},"vehicle_type_id":"4","last_reported":1742667141,"current_range_meters":3600,"station_id":"ce4bha12rcd13ifvqee0","pricing_plan_id":"cebpf4jnsgd1na2vs0mg"},{"bike_id":"a423dca9-8bcd-4834-98bb-ca30f2060f15","system_id":"levelo_inurba_marseille","lat":43.30926,"lon":5.40148,"is_reserved":false,"is_disabled":false,"rental_uris":{"android":"levelo://app?vid=a423dca9-8bcd-4834-98bb-ca30f2060f15","ios":"levelo://app?vid=a423dca9-8bcd-4834-98bb-ca30f2060f15"},"vehicle_type_id":"4","last_reported":1742667141,"current_range_meters":3200,"station_id":"ce4bgvp2rcd13ifvqct0","pricing_plan_id":"cebpf4jnsgd1na2vs0mg"},{"bike_id":"730d3f0b-86e8-483b-911a-da3ea9f347d8","system_id":"levelo_inurba_marseille","lat":43.279871,"lon":5.416569,"is_reserved":false,"is_disabled":false,"rental_uris":{"android":"levelo://app?vid=730d3f0b-86e8-483b-911a-da3ea9f347d8","ios":"levelo://app?vid=730d3f0b-86e8-483b-911a-da3ea9f347d8"},"vehicle_type_id":"4","last_reported":1742667141,"current_range_meters":3600,"station_id":"ce4bho12rcd13ifvqh1g","pricing_plan_id":"cebpf4jnsgd1na2vs0mg"},{"bike_id":"37235c89-edfa-4deb-b4b5-c889cd5c59d9","system_id":"levelo_inurba_marseille","lat":43.29294,"lon":5.37464,"is_reserved":false,"is_disabled":false,"rental_uris":{"android":"levelo://app?vid=37235c89-edfa-4deb-b4b5-c889cd5c59d9","ios":"levelo://app?vid=37235c89-edfa-4deb-b4b5-c889cd5c59d9"},"vehicle_type_id":"4","last_reported":1742667141,"current_range_meters":4000,"station_id":"ce4bgi12rcd13ifvqb70","pricing_plan_id":"cebpf4jnsgd1na2vs0mg"},{"bike_id":"2d5233dc-81df-459b-8032-ba24f7001f25","system_id":"levelo_inurba_marseille","lat":43.29809,"lon":5.40423,"is_reserved":false,"is_disabled":false,"rental_uris":{"android":"levelo://app?vid=2d5233dc-81df-459b-8032-ba24f7001f25","ios":"levelo://app?vid=2d5233dc-81df-459b-8032-ba24f7001f25"},"vehicle_type_id":"4","last_reported":1742667141,"current_range_meters":4000,"station_id":"ce4bh112rcd13ifvqd90","pricing_plan_id":"cebpf4jnsgd1na2vs0mg"},{"bike_id":"86eee6a7-1df8-4733-8c2b-58bb36e7d1e1","system_id":"levelo_inurba_marseille","lat":43.26066,"lon":5.39395,"is_reserved":false,"is_disabled":true,"rental_uris":{"android":"levelo://app?vid=86eee6a7-1df8-4733-8c2b-58bb36e7d1e1","ios":"levelo://app?vid=86eee6a7-1df8-4733-8c2b-58bb36e7d1e1"},"vehicle_type_id":"4","last_reported":1742667141,"current_range_meters":4000,"station_id":"ce4bhh92rcd13ifvqfj0","pricing_plan_id":"cebpf4jnsgd1na2vs0mg"},{"bike_id":"38464f2c-7f1d-46cf-8edc-00ea9738e22f","system_id":"levelo_inurba_marseille","lat":43.27176,"lon":5.40999,"is_reserved":false,"is_disabled":false,"rental_uris":{"android":"levelo://app?vid=38464f2c-7f1d-46cf-8edc-00ea9738e22f","ios":"levelo://app?vid=38464f2c-7f1d-46cf-8edc-00ea9738e22f"},"vehicle_type_id":"4","last_reported":1742667141,"current_range_meters":4000,"station_id":"ce4bhl12rcd13ifvqgf0","pricing_plan_id":"cebpf4jnsgd1na2vs0mg"},{"bike_id":"a525c266-6f99-43ad-aa18-f95aca0e4faf","system_id":"levelo_inurba_marseille","lat":43.30431,"lon":5.39754,"is_reserved":false,"is_disabled":false,"rental_uris":{"android":"levelo://app?vid=a525c266-6f99-43ad-aa18-f95aca0e4faf","ios":"levelo://app?vid=a525c266-6f99-43ad-aa18-f95aca0e4faf"},"vehicle_type_id":"4","last_reported":1742667141,"current_range_meters":4400,"station_id":"ce4bh092rcd13ifvqd20","pricing_plan_id":"cebpf4jnsgd1na2vs0mg"},{"bike_id":"8fa46f32-a330-471f-86e7-709a7b8966db","system_id":"levelo_inurba_marseille","lat":43.32365,"lon":5.38898,"is_reserved":false,"is_disabled":false,"rental_uris":{"android":"levelo://app?vid=8fa46f32-a330-471f-86e7-709a7b8966db","ios":"levelo://app?vid=8fa46f32-a330-471f-86e7-709a7b8966db"},"vehicle_type_id":"4","last_reported":1742667141,"current_range_meters":4800,"station_id":"ce4bhqp2rcd13ifvqhog","pricing_plan_id":"cebpf4jnsgd1na2vs0mg"},{"bike_id":"5598a285-a859-428b-94b8-9502fa251890","system_id":"levelo_inurba_marseille","lat":43.25579,"lon":5.38272,"is_reserved":false,"is_disabled":false,"rental_uris":{"android":"levelo://app?vid=5598a285-a859-428b-94b8-9502fa251890","ios":"levelo://app?vid=5598a285-a859-428b-94b8-9502fa251890"},"vehicle_type_id":"4","last_reported":1742667141,"current_range_meters":4800,"station_id":"ce4bhih2rcd13ifvqfs0","pricing_plan_id":"cebpf4jnsgd1na2vs0mg"},{"bike_id":"24fc2a53-e3d4-499b-8dab-3cb4baa24685","system_id":"levelo_inurba_marseille","lat":43.27051,"lon":5.40271,"is_reserved":false,"is_disabled":false,"rental_uris":{"android":"levelo://app?vid=24fc2a53-e3d4-499b-8dab-3cb4baa24685","ios":"levelo://app?vid=24fc2a53-e3d4-499b-8dab-3cb4baa24685"},"vehicle_type_id":"4","last_reported":1742667141,"current_range_meters":4400,"station_id":"ce4bhk92rcd13ifvqgc0","pricing_plan_id":"cebpf4jnsgd1na2vs0mg"},{"bike_id":"c5aeec01-0f17-49a6-9f22-06aeee18953c","system_id":"levelo_inurba_marseille","lat":43.27916,"lon":5.39584,"is_reserved":false,"is_disabled":false,"rental_uris":{"android":"levelo://app?vid=c5aeec01-0f17-49a6-9f22-06aeee18953c","ios":"levelo://app?vid=c5aeec01-0f17-49a6-9f22-06aeee18953c"},"vehicle_type_id":"4","last_reported":1742667141,"current_range_meters":4800,"station_id":"ce4bhf92rcd13ifvqf40","pricing_plan_id":"cebpf4jnsgd1na2vs0mg"},{"bike_id":"3ae790fb-f2b5-48a6-8139-937ebbb3db56","system_id":"levelo_inurba_marseille","lat":43.31127,"lon":5.40046,"is_reserved":false,"is_disabled":false,"rental_uris":{"android":"levelo://app?vid=3ae790fb-f2b5-48a6-8139-937ebbb3db56","ios":"levelo://app?vid=3ae790fb-f2b5-48a6-8139-937ebbb3db56"},"vehicle_type_id":"4","last_reported":1742667141,"current_range_meters":4800,"station_id":"","pricing_plan_id":"cebpf4jnsgd1na2vs0mg"},{"bike_id":"e521ea18-169e-435f-969e-5b9c0b8cd450","system_id":"levelo_inurba_marseille","lat":43.29787,"lon":5.38109,"is_reserved":false,"is_disabled":false,"rental_uris":{"android":"levelo://app?vid=e521ea18-169e-435f-969e-5b9c0b8cd450","ios":"levelo://app?vid=e521ea18-169e-435f-969e-5b9c0b8cd450"},"vehicle_type_id":"4","last_reported":1742667141,"current_range_meters":4800,"station_id":"ce4bgip2rcd13ifvqbb0","pricing_plan_id":"cebpf4jnsgd1na2vs0mg"},{"bike_id":"2e1d1926-61a6-47f5-ac30-3d6cb69695a9","system_id":"levelo_inurba_marseille","lat":43.30292,"lon":5.39215,"is_reserved":false,"is_disabled":false,"rental_uris":{"android":"levelo://app?vid=2e1d1926-61a6-47f5-ac30-3d6cb69695a9","ios":"levelo://app?vid=2e1d1926-61a6-47f5-ac30-3d6cb69695a9"},"vehicle_type_id":"4","last_reported":1742667141,"current_range_meters":4800,"station_id":"ce4bgkh2rcd13ifvqbk0","pricing_plan_id":"cebpf4jnsgd1na2vs0mg"},{"bike_id":"c6d5a9a7-87fc-43ad-a6bb-b96f9bcf688e","system_id":"levelo_inurba_marseille","lat":43.26226,"lon":5.40456,"is_reserved":false,"is_disabled":false,"rental_uris":{"android":"levelo://app?vid=c6d5a9a7-87fc-43ad-a6bb-b96f9bcf688e","ios":"levelo://app?vid=c6d5a9a7-87fc-43ad-a6bb-b96f9bcf688e"},"vehicle_type_id":"4","last_reported":1742667141,"current_range_meters":5600,"station_id":"ce4bhmh2rcd13ifvqgmg","pricing_plan_id":"cebpf4jnsgd1na2vs0mg"},{"bike_id":"21fb3cf7-e378-4d7b-903b-e7908e47b146","system_id":"levelo_inurba_marseille","lat":43.26489,"lon":5.39552,"is_reserved":false,"is_disabled":false,"rental_uris":{"android":"levelo://app?vid=21fb3cf7-e378-4d7b-903b-e7908e47b146","ios":"levelo://app?vid=21fb3cf7-e378-4d7b-903b-e7908e47b146"},"vehicle_type_id":"4","last_reported":1742667141,"current_range_meters":5600,"station_id":"ce4bhi12rcd13ifvqfq0","pricing_plan_id":"cebpf4jnsgd1na2vs0mg"},{"bike_id":"33699633-0b54-429a-b857-3ee4f5f58ed4","system_id":"levelo_inurba_marseille","lat":43.29877,"lon":5.39743,"is_reserved":false,"is_disabled":false,"rental_uris":{"android":"levelo://app?vid=33699633-0b54-429a-b857-3ee4f5f58ed4","ios":"levelo://app?vid=33699633-0b54-429a-b857-3ee4f5f58ed4"},"vehicle_type_id":"4","last_reported":1742667141,"current_range_meters":6000,"station_id":"ce4bh0h2rcd13ifvqd50","pricing_plan_id":"cebpf4jnsgd1na2vs0mg"},{"bike_id":"88f6456d-0b0f-446e-8ebe-60995709bfae","system_id":"levelo_inurba_marseille","lat":43.32482,"lon":5.36569,"is_reserved":false,"is_disabled":false,"rental_uris":{"android":"levelo://app?vid=88f6456d-0b0f-446e-8ebe-60995709bfae","ios":"levelo://app?vid=88f6456d-0b0f-446e-8ebe-60995709bfae"},"vehicle_type_id":"4","last_reported":1742667141,"current_range_meters":6000,"station_id":"ce4bhs12rcd13ifvqhvg","pricing_plan_id":"cebpf4jnsgd1na2vs0mg"},{"bike_id":"ddfa4bae-0daa-44f5-ad40-61d34921b0bf","system_id":"levelo_inurba_marseille","lat":43.29907,"lon":5.36524,"is_reserved":false,"is_disabled":false,"rental_uris":{"android":"levelo://app?vid=ddfa4bae-0daa-44f5-ad40-61d34921b0bf","ios":"levelo://app?vid=ddfa4bae-0daa-44f5-ad40-61d34921b0bf"},"vehicle_type_id":"4","last_reported":1742667141,"current_range_meters":6000,"station_id":"ce4bgm92rcd13ifvqbr0","pricing_plan_id":"cebpf4jnsgd1na2vs0mg"},{"bike_id":"e347fcd1-fecb-4bc4-8bd0-1841f88cba91","system_id":"levelo_inurba_marseille","lat":43.26052,"lon":5.39371,"is_reserved":false,"is_disabled":false,"rental_uris":{"android":"levelo://app?vid=e347fcd1-fecb-4bc4-8bd0-1841f88cba91","ios":"levelo://app?vid=e347fcd1-fecb-4bc4-8bd0-1841f88cba91"},"vehicle_type_id":"4","last_reported":1742667141,"current_range_meters":6000,"station_id":"ce4bhh92rcd13ifvqfj0","pricing_plan_id":"cebpf4jnsgd1na2vs0mg"},{"bike_id":"26247666-dc43-4f8c-badb-1dca18145970","system_id":"levelo_inurba_marseille","lat":43.24042,"lon":5.37824,"is_reserved":false,"is_disabled":false,"rental_uris":{"android":"levelo://app?vid=26247666-dc43-4f8c-badb-1dca18145970","ios":"levelo://app?vid=26247666-dc43-4f8c-badb-1dca18145970"},"vehicle_type_id":"4","last_reported":1742667141,"current_range_meters":6000,"station_id":"ce4bhnp2rcd13ifvqgvg","pricing_plan_id":"cebpf4jnsgd1na2vs0mg"},{"bike_id":"b10d600e-8afe-4050-bfe0-f30a928c83ab","system_id":"levelo_inurba_marseille","lat":43.2971,"lon":5.37706,"is_reserved":false,"is_disabled":false,"rental_uris":{"android":"levelo://app?vid=b10d600e-8afe-4050-bfe0-f30a928c83ab","ios":"levelo://app?vid=b10d600e-8afe-4050-bfe0-f30a928c83ab"},"vehicle_type_id":"4","last_reported":1742667141,"current_range_meters":6000,"station_id":"ce4bgkh2rcd13ifvqbl0","pricing_plan_id":"cebpf4jnsgd1na2vs0mg"},{"bike_id":"527463a9-7cf9-462b-b20a-c7ac15f97e4b","system_id":"levelo_inurba_marseille","lat":43.29602,"lon":5.36743,"is_reserved":false,"is_disabled":true,"rental_uris":{"android":"levelo://app?vid=527463a9-7cf9-462b-b20a-c7ac15f97e4b","ios":"levelo://app?vid=527463a9-7cf9-462b-b20a-c7ac15f97e4b"},"vehicle_type_id":"4","last_reported":1742667141,"current_range_meters":6400,"station_id":"ce4bgph2rcd13ifvqc2g","pricing_plan_id":"cebpf4jnsgd1na2vs0mg"},{"bike_id":"1d799419-4e8d-4313-8aba-e1c20e20fa8e","system_id":"levelo_inurba_marseille","lat":43.231962,"lon":5.355493,"is_reserved":false,"is_disabled":false,"rental_uris":{"android":"levelo://app?vid=1d799419-4e8d-4313-8aba-e1c20e20fa8e","ios":"levelo://app?vid=1d799419-4e8d-4313-8aba-e1c20e20fa8e"},"vehicle_type_id":"4","last_reported":1742667141,"current_range_meters":6400,"station_id":"ce4bhu92rcd13ifvqi70","pricing_plan_id":"cebpf4jnsgd1na2vs0mg"},{"bike_id":"f2febf95-7fbd-4da1-9b57-8310b0487b2d","system_id":"levelo_inurba_marseille","lat":43.28161,"lon":5.42657,"is_reserved":false,"is_disabled":false,"rental_uris":{"android":"levelo://app?vid=f2febf95-7fbd-4da1-9b57-8310b0487b2d","ios":"levelo://app?vid=f2febf95-7fbd-4da1-9b57-8310b0487b2d"},"vehicle_type_id":"4","last_reported":1742667141,"current_range_meters":6400,"station_id":"ce4bhnh2rcd13ifvqgug","pricing_plan_id":"cebpf4jnsgd1na2vs0mg"},{"bike_id":"92c336ba-7a84-43b2-99bd-ff79932167ce","system_id":"levelo_inurba_marseille","lat":43.31757,"lon":5.3901,"is_reserved":false,"is_disabled":false,"rental_uris":{"android":"levelo://app?vid=92c336ba-7a84-43b2-99bd-ff79932167ce","ios":"levelo://app?vid=92c336ba-7a84-43b2-99bd-ff79932167ce"},"vehicle_type_id":"4","last_reported":1742667141,"current_range_meters":6400,"station_id":"ce4bhqp2rcd13ifvqhng","pricing_plan_id":"cebpf4jnsgd1na2vs0mg"},{"bike_id":"a25bc692-3427-450b-8e85-76a49579a07d","system_id":"levelo_inurba_marseille","lat":43.28668,"lon":5.36354,"is_reserved":false,"is_disabled":false,"rental_uris":{"android":"levelo://app?vid=a25bc692-3427-450b-8e85-76a49579a07d","ios":"levelo://app?vid=a25bc692-3427-450b-8e85-76a49579a07d"},"vehicle_type_id":"4","last_reported":1742667141,"current_range_meters":6400,"station_id":"ce4bhah2rcd13ifvqej0","pricing_plan_id":"cebpf4jnsgd1na2vs0mg"},{"bike_id":"fc7de87c-81ca-483f-96ae-416b6d743078","system_id":"levelo_inurba_marseille","lat":43.29924,"lon":5.36548,"is_reserved":false,"is_disabled":false,"rental_uris":{"android":"levelo://app?vid=fc7de87c-81ca-483f-96ae-416b6d743078","ios":"levelo://app?vid=fc7de87c-81ca-483f-96ae-416b6d743078"},"vehicle_type_id":"4","last_reported":1742667141,"current_range_meters":6400,"station_id":"ce4bgm92rcd13ifvqbr0","pricing_plan_id":"cebpf4jnsgd1na2vs0mg"},{"bike_id":"4e130c3f-1e9a-4e1a-a546-fa10a03dc915","system_id":"levelo_inurba_marseille","lat":43.24677,"lon":5.38176,"is_reserved":false,"is_disabled":false,"rental_uris":{"android":"levelo://app?vid=4e130c3f-1e9a-4e1a-a546-fa10a03dc915","ios":"levelo://app?vid=4e130c3f-1e9a-4e1a-a546-fa10a03dc915"},"vehicle_type_id":"4","last_reported":1742667141,"current_range_meters":6400,"station_id":"ce4bhih2rcd13ifvqfr0","pricing_plan_id":"cebpf4jnsgd1na2vs0mg"},{"bike_id":"ffc4b885-255c-445f-8e08-0ba68ce9e367","system_id":"levelo_inurba_marseille","lat":43.29794,"lon":5.381,"is_reserved":false,"is_disabled":false,"rental_uris":{"android":"levelo://app?vid=ffc4b885-255c-445f-8e08-0ba68ce9e367","ios":"levelo://app?vid=ffc4b885-255c-445f-8e08-0ba68ce9e367"},"vehicle_type_id":"4","last_reported":1742667141,"current_range_meters":6400,"station_id":"ce4bgip2rcd13ifvqbb0","pricing_plan_id":"cebpf4jnsgd1na2vs0mg"},{"bike_id":"7006c77f-d212-46ca-838e-a77d1e593ec5","system_id":"levelo_inurba_marseille","lat":43.30129,"lon":5.39837,"is_reserved":false,"is_disabled":false,"rental_uris":{"android":"levelo://app?vid=7006c77f-d212-46ca-838e-a77d1e593ec5","ios":"levelo://app?vid=7006c77f-d212-46ca-838e-a77d1e593ec5"},"vehicle_type_id":"4","last_reported":1742667141,"current_range_meters":6800,"station_id":"ce4bh0h2rcd13ifvqd40","pricing_plan_id":"cebpf4jnsgd1na2vs0mg"},{"bike_id":"9e5bf935-41c5-439f-91c0-c36d88e08f3a","system_id":"levelo_inurba_marseille","lat":43.30875,"lon":5.3965,"is_reserved":false,"is_disabled":false,"rental_uris":{"android":"levelo://app?vid=9e5bf935-41c5-439f-91c0-c36d88e08f3a","ios":"levelo://app?vid=9e5bf935-41c5-439f-91c0-c36d88e08f3a"},"vehicle_type_id":"4","last_reported":1742667141,"current_range_meters":6800,"station_id":"ce4bh012rcd13ifvqcv0","pricing_plan_id":"cebpf4jnsgd1na2vs0mg"},{"bike_id":"b00605e3-b50e-457e-a9d6-59adef6bb5fb","system_id":"levelo_inurba_marseille","lat":43.28165,"lon":5.42661,"is_reserved":false,"is_disabled":false,"rental_uris":{"android":"levelo://app?vid=b00605e3-b50e-457e-a9d6-59adef6bb5fb","ios":"levelo://app?vid=b00605e3-b50e-457e-a9d6-59adef6bb5fb"},"vehicle_type_id":"4","last_reported":1742667141,"current_range_meters":6800,"station_id":"ce4bhnh2rcd13ifvqgug","pricing_plan_id":"cebpf4jnsgd1na2vs0mg"},{"bike_id":"5feb90e0-2f32-40da-b62c-d8a4cb9715f5","system_id":"levelo_inurba_marseille","lat":43.30126,"lon":5.39841,"is_reserved":false,"is_disabled":false,"rental_uris":{"android":"levelo://app?vid=5feb90e0-2f32-40da-b62c-d8a4cb9715f5","ios":"levelo://app?vid=5feb90e0-2f32-40da-b62c-d8a4cb9715f5"},"vehicle_type_id":"4","last_reported":1742667141,"current_range_meters":6800,"station_id":"ce4bh0h2rcd13ifvqd40","pricing_plan_id":"cebpf4jnsgd1na2vs0mg"},{"bike_id":"5d802eb1-adfb-4b42-8f8d-1aa824716606","system_id":"levelo_inurba_marseille","lat":43.29205,"lon":5.39308,"is_reserved":false,"is_disabled":false,"rental_uris":{"android":"levelo://app?vid=5d802eb1-adfb-4b42-8f8d-1aa824716606","ios":"levelo://app?vid=5d802eb1-adfb-4b42-8f8d-1aa824716606"},"vehicle_type_id":"4","last_reported":1742667141,"current_range_meters":6400,"station_id":"ce4bh192rcd13ifvqdd0","pricing_plan_id":"cebpf4jnsgd1na2vs0mg"},{"bike_id":"94fa3f94-d2ad-47d9-9f11-5c4168e8fc92","system_id":"levelo_inurba_marseille","lat":43.2794,"lon":5.4104,"is_reserved":false,"is_disabled":false,"rental_uris":{"android":"levelo://app?vid=94fa3f94-d2ad-47d9-9f11-5c4168e8fc92","ios":"levelo://app?vid=94fa3f94-d2ad-47d9-9f11-5c4168e8fc92"},"vehicle_type_id":"4","last_reported":1742667141,"current_range_meters":6800,"station_id":"ce4bhnp2rcd13ifvqh0g","pricing_plan_id":"cebpf4jnsgd1na2vs0mg"},{"bike_id":"0faeda17-87f9-4308-b369-97acc6c5068b","system_id":"levelo_inurba_marseille","lat":43.2455,"lon":5.39531,"is_reserved":false,"is_disabled":false,"rental_uris":{"android":"levelo://app?vid=0faeda17-87f9-4308-b369-97acc6c5068b","ios":"levelo://app?vid=0faeda17-87f9-4308-b369-97acc6c5068b"},"vehicle_type_id":"4","last_reported":1742667141,"current_range_meters":7200,"station_id":"ce4bhlp2rcd13ifvqgjg","pricing_plan_id":"cebpf4jnsgd1na2vs0mg"},{"bike_id":"1495a663-5ed9-460f-9668-feb9639daf3e","system_id":"levelo_inurba_marseille","lat":43.29528,"lon":5.394,"is_reserved":false,"is_disabled":false,"rental_uris":{"android":"levelo://app?vid=1495a663-5ed9-460f-9668-feb9639daf3e","ios":"levelo://app?vid=1495a663-5ed9-460f-9668-feb9639daf3e"},"vehicle_type_id":"4","last_reported":1742667141,"current_range_meters":7200,"station_id":"ce4bh292rcd13ifvqdf0","pricing_plan_id":"cebpf4jnsgd1na2vs0mg"},{"bike_id":"12d38157-1e42-448f-afd8-087ce999b20c","system_id":"levelo_inurba_marseille","lat":43.29528,"lon":5.394,"is_reserved":false,"is_disabled":false,"rental_uris":{"android":"levelo://app?vid=12d38157-1e42-448f-afd8-087ce999b20c","ios":"levelo://app?vid=12d38157-1e42-448f-afd8-087ce999b20c"},"vehicle_type_id":"4","last_reported":1742667141,"current_range_meters":7200,"station_id":"ce4bh292rcd13ifvqdf0","pricing_plan_id":"cebpf4jnsgd1na2vs0mg"},{"bike_id":"6435455b-3182-4a0d-989d-eab2f26e428b","system_id":"levelo_inurba_marseille","lat":43.31902,"lon":5.4074,"is_reserved":false,"is_disabled":false,"rental_uris":{"android":"levelo://app?vid=6435455b-3182-4a0d-989d-eab2f26e428b","ios":"levelo://app?vid=6435455b-3182-4a0d-989d-eab2f26e428b"},"vehicle_type_id":"4","last_reported":1742667141,"current_range_meters":7200,"station_id":"ce4bhq12rcd13ifvqhig","pricing_plan_id":"cebpf4jnsgd1na2vs0mg"},{"bike_id":"ba0f9229-fed7-47a9-8af2-20780722866a","system_id":"levelo_inurba_marseille","lat":43.3015,"lon":5.39852,"is_reserved":false,"is_disabled":false,"rental_uris":{"android":"levelo://app?vid=ba0f9229-fed7-47a9-8af2-20780722866a","ios":"levelo://app?vid=ba0f9229-fed7-47a9-8af2-20780722866a"},"vehicle_type_id":"4","last_reported":1742667141,"current_range_meters":6800,"station_id":"ce4bh0h2rcd13ifvqd40","pricing_plan_id":"cebpf4jnsgd1na2vs0mg"},{"bike_id":"7dcd1fc2-c467-4ff8-a5d0-39e6627b6101","system_id":"levelo_inurba_marseille","lat":43.29514,"lon":5.39401,"is_reserved":false,"is_disabled":false,"rental_uris":{"android":"levelo://app?vid=7dcd1fc2-c467-4ff8-a5d0-39e6627b6101","ios":"levelo://app?vid=7dcd1fc2-c467-4ff8-a5d0-39e6627b6101"},"vehicle_type_id":"4","last_reported":1742667141,"current_range_meters":7200,"station_id":"ce4bh292rcd13ifvqdf0","pricing_plan_id":"cebpf4jnsgd1na2vs0mg"},{"bike_id":"551b893c-b2f0-4f1f-8a5b-06699a2a4fdc","system_id":"levelo_inurba_marseille","lat":43.31721,"lon":5.40484,"is_reserved":false,"is_disabled":false,"rental_uris":{"android":"levelo://app?vid=551b893c-b2f0-4f1f-8a5b-06699a2a4fdc","ios":"levelo://app?vid=551b893c-b2f0-4f1f-8a5b-06699a2a4fdc"},"vehicle_type_id":"4","last_reported":1742667141,"current_range_meters":7200,"station_id":"ce4bh012rcd13ifvqd00","pricing_plan_id":"cebpf4jnsgd1na2vs0mg"},{"bike_id":"34791d82-19d8-45ce-83b9-0d4f19bcc6ae","system_id":"levelo_inurba_marseille","lat":43.28153,"lon":5.42651,"is_reserved":false,"is_disabled":false,"rental_uris":{"android":"levelo://app?vid=34791d82-19d8-45ce-83b9-0d4f19bcc6ae","ios":"levelo://app?vid=34791d82-19d8-45ce-83b9-0d4f19bcc6ae"},"vehicle_type_id":"4","last_reported":1742667141,"current_range_meters":7200,"station_id":"ce4bhnh2rcd13ifvqgug","pricing_plan_id":"cebpf4jnsgd1na2vs0mg"},{"bike_id":"8a06863b-9b36-47c2-b6d3-7eb49ebe143c","system_id":"levelo_inurba_marseille","lat":43.30269,"lon":5.37729,"is_reserved":false,"is_disabled":false,"rental_uris":{"android":"levelo://app?vid=8a06863b-9b36-47c2-b6d3-7eb49ebe143c","ios":"levelo://app?vid=8a06863b-9b36-47c2-b6d3-7eb49ebe143c"},"vehicle_type_id":"4","last_reported":1742667141,"current_range_meters":8000,"station_id":"ce4bguh2rcd13ifvqcj0","pricing_plan_id":"cebpf4jnsgd1na2vs0mg"},{"bike_id":"225b9cdd-8dcc-4bfd-8301-e7adbc52aedc","system_id":"levelo_inurba_marseille","lat":43.23192,"lon":5.39997,"is_reserved":false,"is_disabled":false,"rental_uris":{"android":"levelo://app?vid=225b9cdd-8dcc-4bfd-8301-e7adbc52aedc","ios":"levelo://app?vid=225b9cdd-8dcc-4bfd-8301-e7adbc52aedc"},"vehicle_type_id":"4","last_reported":1742667141,"current_range_meters":8000,"station_id":"ce4bhn12rcd13ifvqgqg","pricing_plan_id":"cebpf4jnsgd1na2vs0mg"},{"bike_id":"3e91bb67-3494-4fe9-9626-c3e1231887f8","system_id":"levelo_inurba_marseille","lat":43.24807,"lon":5.37468,"is_reserved":false,"is_disabled":false,"rental_uris":{"android":"levelo://app?vid=3e91bb67-3494-4fe9-9626-c3e1231887f8","ios":"levelo://app?vid=3e91bb67-3494-4fe9-9626-c3e1231887f8"},"vehicle_type_id":"4","last_reported":1742667141,"current_range_meters":8000,"station_id":"ce4bhgh2rcd13ifvqfb0","pricing_plan_id":"cebpf4jnsgd1na2vs0mg"},{"bike_id":"1e30043a-2577-4b43-8837-06b8036a4b33","system_id":"levelo_inurba_marseille","lat":43.31065,"lon":5.38354,"is_reserved":false,"is_disabled":false,"rental_uris":{"android":"levelo://app?vid=1e30043a-2577-4b43-8837-06b8036a4b33","ios":"levelo://app?vid=1e30043a-2577-4b43-8837-06b8036a4b33"},"vehicle_type_id":"4","last_reported":1742667141,"current_range_meters":8000,"station_id":"ce4bgv92rcd13ifvqcr0","pricing_plan_id":"cebpf4jnsgd1na2vs0mg"},{"bike_id":"67ef932e-c07e-4bb9-83d4-1bf8d8650745","system_id":"levelo_inurba_marseille","lat":43.29702,"lon":5.36609,"is_reserved":false,"is_disabled":false,"rental_uris":{"android":"levelo://app?vid=67ef932e-c07e-4bb9-83d4-1bf8d8650745","ios":"levelo://app?vid=67ef932e-c07e-4bb9-83d4-1bf8d8650745"},"vehicle_type_id":"4","last_reported":1742667141,"current_range_meters":8000,"station_id":"ce4bh2h2rcd13ifvqdh0","pricing_plan_id":"cebpf4jnsgd1na2vs0mg"},{"bike_id":"30f74d27-9970-4afa-b900-f9accdc2d04a","system_id":"levelo_inurba_marseille","lat":43.2617,"lon":5.40562,"is_reserved":false,"is_disabled":false,"rental_uris":{"android":"levelo://app?vid=30f74d27-9970-4afa-b900-f9accdc2d04a","ios":"levelo://app?vid=30f74d27-9970-4afa-b900-f9accdc2d04a"},"vehicle_type_id":"4","last_reported":1742667141,"current_range_meters":8000,"station_id":"ce4bhmh2rcd13ifvqgmg","pricing_plan_id":"cebpf4jnsgd1na2vs0mg"},{"bike_id":"276613ec-3310-44d6-ae3f-44328dd4fd15","system_id":"levelo_inurba_marseille","lat":43.25838,"lon":5.39419,"is_reserved":false,"is_disabled":false,"rental_uris":{"android":"levelo://app?vid=276613ec-3310-44d6-ae3f-44328dd4fd15","ios":"levelo://app?vid=276613ec-3310-44d6-ae3f-44328dd4fd15"},"vehicle_type_id":"4","last_reported":1742667141,"current_range_meters":8000,"station_id":"ce4bhip2rcd13ifvqft0","pricing_plan_id":"cebpf4jnsgd1na2vs0mg"},{"bike_id":"a95b6832-380b-411e-8d5c-eb6a7f4c51cb","system_id":"levelo_inurba_marseille","lat":43.29535,"lon":5.38558,"is_reserved":false,"is_disabled":true,"rental_uris":{"android":"levelo://app?vid=a95b6832-380b-411e-8d5c-eb6a7f4c51cb","ios":"levelo://app?vid=a95b6832-380b-411e-8d5c-eb6a7f4c51cb"},"vehicle_type_id":"4","last_reported":1742667141,"current_range_meters":8000,"station_id":"ce4bgih2rcd13ifvqba0","pricing_plan_id":"cebpf4jnsgd1na2vs0mg"},{"bike_id":"708bb2b9-5e4e-4a23-9887-fc90538959bc","system_id":"levelo_inurba_marseille","lat":43.27568,"lon":5.38437,"is_reserved":false,"is_disabled":false,"rental_uris":{"android":"levelo://app?vid=708bb2b9-5e4e-4a23-9887-fc90538959bc","ios":"levelo://app?vid=708bb2b9-5e4e-4a23-9887-fc90538959bc"},"vehicle_type_id":"4","last_reported":1742667141,"current_range_meters":8000,"station_id":"ce4bhh92rcd13ifvqfi0","pricing_plan_id":"cebpf4jnsgd1na2vs0mg"},{"bike_id":"47c3e081-c584-41f4-abb7-2b1d74172793","system_id":"levelo_inurba_marseille","lat":43.31696,"lon":5.40443,"is_reserved":false,"is_disabled":false,"rental_uris":{"android":"levelo://app?vid=47c3e081-c584-41f4-abb7-2b1d74172793","ios":"levelo://app?vid=47c3e081-c584-41f4-abb7-2b1d74172793"},"vehicle_type_id":"4","last_reported":1742667141,"current_range_meters":8000,"station_id":"ce4bh012rcd13ifvqd00","pricing_plan_id":"cebpf4jnsgd1na2vs0mg"},{"bike_id":"5c7c8803-7963-4d73-adf0-9a7341c81fcc","system_id":"levelo_inurba_marseille","lat":43.23186,"lon":5.39977,"is_reserved":false,"is_disabled":false,"rental_uris":{"android":"levelo://app?vid=5c7c8803-7963-4d73-adf0-9a7341c81fcc","ios":"levelo://app?vid=5c7c8803-7963-4d73-adf0-9a7341c81fcc"},"vehicle_type_id":"4","last_reported":1742667141,"current_range_meters":8000,"station_id":"ce4bhn12rcd13ifvqgqg","pricing_plan_id":"cebpf4jnsgd1na2vs0mg"},{"bike_id":"d7ecf0b7-2430-4e23-a8c3-92233081769e","system_id":"levelo_inurba_marseille","lat":43.24076,"lon":5.37742,"is_reserved":false,"is_disabled":false,"rental_uris":{"android":"levelo://app?vid=d7ecf0b7-2430-4e23-a8c3-92233081769e","ios":"levelo://app?vid=d7ecf0b7-2430-4e23-a8c3-92233081769e"},"vehicle_type_id":"4","last_reported":1742667141,"current_range_meters":8000,"station_id":"ce4bhnp2rcd13ifvqgvg","pricing_plan_id":"cebpf4jnsgd1na2vs0mg"},{"bike_id":"6bbc9e69-4297-4cab-b99c-af048260b56e","system_id":"levelo_inurba_marseille","lat":43.28156,"lon":5.42653,"is_reserved":false,"is_disabled":false,"rental_uris":{"android":"levelo://app?vid=6bbc9e69-4297-4cab-b99c-af048260b56e","ios":"levelo://app?vid=6bbc9e69-4297-4cab-b99c-af048260b56e"},"vehicle_type_id":"4","last_reported":1742667141,"current_range_meters":8000,"station_id":"ce4bhnh2rcd13ifvqgug","pricing_plan_id":"cebpf4jnsgd1na2vs0mg"},{"bike_id":"2bb823b9-75f7-41cb-823e-5ebf6ce84c28","system_id":"levelo_inurba_marseille","lat":43.27813,"lon":5.40703,"is_reserved":false,"is_disabled":false,"rental_uris":{"android":"levelo://app?vid=2bb823b9-75f7-41cb-823e-5ebf6ce84c28","ios":"levelo://app?vid=2bb823b9-75f7-41cb-823e-5ebf6ce84c28"},"vehicle_type_id":"4","last_reported":1742667141,"current_range_meters":8400,"station_id":"ce4bhnh2rcd13ifvqgtg","pricing_plan_id":"cebpf4jnsgd1na2vs0mg"},{"bike_id":"7a80749b-56dc-4ab1-a2d7-268dfcb799e2","system_id":"levelo_inurba_marseille","lat":43.23959,"lon":5.3663,"is_reserved":false,"is_disabled":false,"rental_uris":{"android":"levelo://app?vid=7a80749b-56dc-4ab1-a2d7-268dfcb799e2","ios":"levelo://app?vid=7a80749b-56dc-4ab1-a2d7-268dfcb799e2"},"vehicle_type_id":"4","last_reported":1742667141,"current_range_meters":8400,"station_id":"ce4bhi12rcd13ifvqfp0","pricing_plan_id":"cebpf4jnsgd1na2vs0mg"},{"bike_id":"66b14029-9bd9-4267-8d06-0481cb6c232e","system_id":"levelo_inurba_marseille","lat":43.296,"lon":5.36727,"is_reserved":false,"is_disabled":false,"rental_uris":{"android":"levelo://app?vid=66b14029-9bd9-4267-8d06-0481cb6c232e","ios":"levelo://app?vid=66b14029-9bd9-4267-8d06-0481cb6c232e"},"vehicle_type_id":"4","last_reported":1742667141,"current_range_meters":8400,"station_id":"ce4bgph2rcd13ifvqc2g","pricing_plan_id":"cebpf4jnsgd1na2vs0mg"},{"bike_id":"3c2a7dcf-f6cd-4a5b-ac2d-0c447364948d","system_id":"levelo_inurba_marseille","lat":43.29716,"lon":5.37738,"is_reserved":false,"is_disabled":false,"rental_uris":{"android":"levelo://app?vid=3c2a7dcf-f6cd-4a5b-ac2d-0c447364948d","ios":"levelo://app?vid=3c2a7dcf-f6cd-4a5b-ac2d-0c447364948d"},"vehicle_type_id":"4","last_reported":1742667141,"current_range_meters":8400,"station_id":"ce4bgkh2rcd13ifvqbl0","pricing_plan_id":"cebpf4jnsgd1na2vs0mg"},{"bike_id":"a255a12b-22ca-41f1-b551-b8c80cc2f6d8","system_id":"levelo_inurba_marseille","lat":43.32128,"lon":5.36784,"is_reserved":false,"is_disabled":false,"rental_uris":{"android":"levelo://app?vid=a255a12b-22ca-41f1-b551-b8c80cc2f6d8","ios":"levelo://app?vid=a255a12b-22ca-41f1-b551-b8c80cc2f6d8"},"vehicle_type_id":"4","last_reported":1742667141,"current_range_meters":8400,"station_id":"ce4bhrh2rcd13ifvqhug","pricing_plan_id":"cebpf4jnsgd1na2vs0mg"},{"bike_id":"36276dd3-031d-4fd5-a69e-51e755d2265c","system_id":"levelo_inurba_marseille","lat":43.27672,"lon":5.38902,"is_reserved":false,"is_disabled":false,"rental_uris":{"android":"levelo://app?vid=36276dd3-031d-4fd5-a69e-51e755d2265c","ios":"levelo://app?vid=36276dd3-031d-4fd5-a69e-51e755d2265c"},"vehicle_type_id":"4","last_reported":1742667141,"current_range_meters":8400,"station_id":"ce4bhi12rcd13ifvqfo0","pricing_plan_id":"cebpf4jnsgd1na2vs0mg"},{"bike_id":"e1e493b8-6ddd-477f-a5c7-ce583728c84a","system_id":"levelo_inurba_marseille","lat":43.29029,"lon":5.38157,"is_reserved":false,"is_disabled":false,"rental_uris":{"android":"levelo://app?vid=e1e493b8-6ddd-477f-a5c7-ce583728c84a","ios":"levelo://app?vid=e1e493b8-6ddd-477f-a5c7-ce583728c84a"},"vehicle_type_id":"4","last_reported":1742667141,"current_range_meters":8400,"station_id":"ce4bh4p2rcd13ifvqe1g","pricing_plan_id":"cebpf4jnsgd1na2vs0mg"},{"bike_id":"c9467e3d-d8f1-4468-8e7d-2d71b05cdcb4","system_id":"levelo_inurba_marseille","lat":43.29326,"lon":5.37176,"is_reserved":false,"is_disabled":false,"rental_uris":{"android":"levelo://app?vid=c9467e3d-d8f1-4468-8e7d-2d71b05cdcb4","ios":"levelo://app?vid=c9467e3d-d8f1-4468-8e7d-2d71b05cdcb4"},"vehicle_type_id":"4","last_reported":1742667141,"current_range_meters":8000,"station_id":"ce4bgh92rcd13ifvqb40","pricing_plan_id":"cebpf4jnsgd1na2vs0mg"},{"bike_id":"0007fce5-562c-4dc0-afc3-21cf7828d9fe","system_id":"levelo_inurba_marseille","lat":43.30145,"lon":5.37405,"is_reserved":false,"is_disabled":false,"rental_uris":{"android":"levelo://app?vid=0007fce5-562c-4dc0-afc3-21cf7828d9fe","ios":"levelo://app?vid=0007fce5-562c-4dc0-afc3-21cf7828d9fe"},"vehicle_type_id":"4","last_reported":1742667141,"current_range_meters":8400,"station_id":"ce4bgs92rcd13ifvqcc0","pricing_plan_id":"cebpf4jnsgd1na2vs0mg"},{"bike_id":"a521eee5-e892-4fc4-b770-5d4cd4046f29","system_id":"levelo_inurba_marseille","lat":43.29274,"lon":5.38439,"is_reserved":false,"is_disabled":false,"rental_uris":{"android":"levelo://app?vid=a521eee5-e892-4fc4-b770-5d4cd4046f29","ios":"levelo://app?vid=a521eee5-e892-4fc4-b770-5d4cd4046f29"},"vehicle_type_id":"4","last_reported":1742667141,"current_range_meters":8400,"station_id":"ce4bh692rcd13ifvqea0","pricing_plan_id":"cebpf4jnsgd1na2vs0mg"},{"bike_id":"91dff4d8-55e9-4689-ba53-5ea034e7c75a","system_id":"levelo_inurba_marseille","lat":43.30161,"lon":5.3808,"is_reserved":false,"is_disabled":false,"rental_uris":{"android":"levelo://app?vid=91dff4d8-55e9-4689-ba53-5ea034e7c75a","ios":"levelo://app?vid=91dff4d8-55e9-4689-ba53-5ea034e7c75a"},"vehicle_type_id":"4","last_reported":1742667141,"current_range_meters":8800,"station_id":"ce4bgjp2rcd13ifvqbh0","pricing_plan_id":"cebpf4jnsgd1na2vs0mg"},{"bike_id":"4877cd21-c263-415a-9736-19b0391907f6","system_id":"levelo_inurba_marseille","lat":43.25579,"lon":5.38232,"is_reserved":false,"is_disabled":false,"rental_uris":{"android":"levelo://app?vid=4877cd21-c263-415a-9736-19b0391907f6","ios":"levelo://app?vid=4877cd21-c263-415a-9736-19b0391907f6"},"vehicle_type_id":"4","last_reported":1742667141,"current_range_meters":8400,"station_id":"ce4bhih2rcd13ifvqfs0","pricing_plan_id":"cebpf4jnsgd1na2vs0mg"},{"bike_id":"9bc52287-b448-499e-b61f-ca39be4eda48","system_id":"levelo_inurba_marseille","lat":43.26201,"lon":5.37931,"is_reserved":false,"is_disabled":false,"rental_uris":{"android":"levelo://app?vid=9bc52287-b448-499e-b61f-ca39be4eda48","ios":"levelo://app?vid=9bc52287-b448-499e-b61f-ca39be4eda48"},"vehicle_type_id":"4","last_reported":1742667141,"current_range_meters":8400,"station_id":"ce4bhjp2rcd13ifvqg90","pricing_plan_id":"cebpf4jnsgd1na2vs0mg"},{"bike_id":"374b0972-8f50-4943-9a74-38cf1ad42a8f","system_id":"levelo_inurba_marseille","lat":43.3092,"lon":5.4015,"is_reserved":false,"is_disabled":false,"rental_uris":{"android":"levelo://app?vid=374b0972-8f50-4943-9a74-38cf1ad42a8f","ios":"levelo://app?vid=374b0972-8f50-4943-9a74-38cf1ad42a8f"},"vehicle_type_id":"4","last_reported":1742667141,"current_range_meters":8400,"station_id":"ce4bgvp2rcd13ifvqct0","pricing_plan_id":"cebpf4jnsgd1na2vs0mg"},{"bike_id":"b5fcb98a-c8d5-4f1a-a9b4-b3362af2a9c7","system_id":"levelo_inurba_marseille","lat":43.23057,"lon":5.35507,"is_reserved":false,"is_disabled":false,"rental_uris":{"android":"levelo://app?vid=b5fcb98a-c8d5-4f1a-a9b4-b3362af2a9c7","ios":"levelo://app?vid=b5fcb98a-c8d5-4f1a-a9b4-b3362af2a9c7"},"vehicle_type_id":"4","last_reported":1742667141,"current_range_meters":8400,"station_id":"cpo3342slgdg3j2ifvpg","pricing_plan_id":"cebpf4jnsgd1na2vs0mg"},{"bike_id":"8320a7a4-be06-4a64-b000-a40eea93ac3f","system_id":"levelo_inurba_marseille","lat":43.23189,"lon":5.39985,"is_reserved":false,"is_disabled":false,"rental_uris":{"android":"levelo://app?vid=8320a7a4-be06-4a64-b000-a40eea93ac3f","ios":"levelo://app?vid=8320a7a4-be06-4a64-b000-a40eea93ac3f"},"vehicle_type_id":"4","last_reported":1742667141,"current_range_meters":8400,"station_id":"ce4bhn12rcd13ifvqgqg","pricing_plan_id":"cebpf4jnsgd1na2vs0mg"},{"bike_id":"10138f8f-5e1a-452f-abeb-ca35dc3d0b70","system_id":"levelo_inurba_marseille","lat":43.28928,"lon":5.36645,"is_reserved":false,"is_disabled":false,"rental_uris":{"android":"levelo://app?vid=10138f8f-5e1a-452f-abeb-ca35dc3d0b70","ios":"levelo://app?vid=10138f8f-5e1a-452f-abeb-ca35dc3d0b70"},"vehicle_type_id":"4","last_reported":1742667141,"current_range_meters":8400,"station_id":"ce4bhap2rcd13ifvqek0","pricing_plan_id":"cebpf4jnsgd1na2vs0mg"},{"bike_id":"e98a1a68-7b1d-4738-b5c2-afbefdefca9a","system_id":"levelo_inurba_marseille","lat":43.29967,"lon":5.38489,"is_reserved":false,"is_disabled":false,"rental_uris":{"android":"levelo://app?vid=e98a1a68-7b1d-4738-b5c2-afbefdefca9a","ios":"levelo://app?vid=e98a1a68-7b1d-4738-b5c2-afbefdefca9a"},"vehicle_type_id":"4","last_reported":1742667141,"current_range_meters":8000,"station_id":"ce4bgj92rcd13ifvqbd0","pricing_plan_id":"cebpf4jnsgd1na2vs0mg"},{"bike_id":"a564807e-5bd6-4a71-b02f-5054fff067f9","system_id":"levelo_inurba_marseille","lat":43.24664,"lon":5.3819,"is_reserved":false,"is_disabled":false,"rental_uris":{"android":"levelo://app?vid=a564807e-5bd6-4a71-b02f-5054fff067f9","ios":"levelo://app?vid=a564807e-5bd6-4a71-b02f-5054fff067f9"},"vehicle_type_id":"4","last_reported":1742667141,"current_range_meters":8400,"station_id":"ce4bhih2rcd13ifvqfr0","pricing_plan_id":"cebpf4jnsgd1na2vs0mg"},{"bike_id":"5d9889d1-8be9-4d72-91fc-48412ce7070c","system_id":"levelo_inurba_marseille","lat":43.26682,"lon":5.38273,"is_reserved":false,"is_disabled":false,"rental_uris":{"android":"levelo://app?vid=5d9889d1-8be9-4d72-91fc-48412ce7070c","ios":"levelo://app?vid=5d9889d1-8be9-4d72-91fc-48412ce7070c"},"vehicle_type_id":"4","last_reported":1742667141,"current_range_meters":8000,"station_id":"ce4bhg92rcd13ifvqf90","pricing_plan_id":"cebpf4jnsgd1na2vs0mg"},{"bike_id":"395a6abc-4d8a-435b-8e3d-758afed4d7b6","system_id":"levelo_inurba_marseille","lat":43.25583,"lon":5.38231,"is_reserved":false,"is_disabled":false,"rental_uris":{"android":"levelo://app?vid=395a6abc-4d8a-435b-8e3d-758afed4d7b6","ios":"levelo://app?vid=395a6abc-4d8a-435b-8e3d-758afed4d7b6"},"vehicle_type_id":"4","last_reported":1742667141,"current_range_meters":8400,"station_id":"ce4bhih2rcd13ifvqfs0","pricing_plan_id":"cebpf4jnsgd1na2vs0mg"},{"bike_id":"fe239f3d-5c83-42bd-8b99-e0b3f3784fb5","system_id":"levelo_inurba_marseille","lat":43.24615,"lon":5.38403,"is_reserved":false,"is_disabled":false,"rental_uris":{"android":"levelo://app?vid=fe239f3d-5c83-42bd-8b99-e0b3f3784fb5","ios":"levelo://app?vid=fe239f3d-5c83-42bd-8b99-e0b3f3784fb5"},"vehicle_type_id":"4","last_reported":1742667141,"current_range_meters":8400,"station_id":"","pricing_plan_id":"cebpf4jnsgd1na2vs0mg"},{"bike_id":"e0db22cf-d82d-4e42-8fdf-4247744b906c","system_id":"levelo_inurba_marseille","lat":43.31087,"lon":5.3831,"is_reserved":false,"is_disabled":false,"rental_uris":{"android":"levelo://app?vid=e0db22cf-d82d-4e42-8fdf-4247744b906c","ios":"levelo://app?vid=e0db22cf-d82d-4e42-8fdf-4247744b906c"},"vehicle_type_id":"4","last_reported":1742667141,"current_range_meters":8800,"station_id":"ce4bgv92rcd13ifvqcr0","pricing_plan_id":"cebpf4jnsgd1na2vs0mg"},{"bike_id":"bdfe0a74-5fff-4339-81db-b0391082b404","system_id":"levelo_inurba_marseille","lat":43.262,"lon":5.37933,"is_reserved":false,"is_disabled":false,"rental_uris":{"android":"levelo://app?vid=bdfe0a74-5fff-4339-81db-b0391082b404","ios":"levelo://app?vid=bdfe0a74-5fff-4339-81db-b0391082b404"},"vehicle_type_id":"4","last_reported":1742667141,"current_range_meters":8400,"station_id":"ce4bhjp2rcd13ifvqg90","pricing_plan_id":"cebpf4jnsgd1na2vs0mg"},{"bike_id":"c80bb6d0-985b-4c2e-88b2-9aa7a467f7e0","system_id":"levelo_inurba_marseille","lat":43.32365,"lon":5.38885,"is_reserved":false,"is_disabled":false,"rental_uris":{"android":"levelo://app?vid=c80bb6d0-985b-4c2e-88b2-9aa7a467f7e0","ios":"levelo://app?vid=c80bb6d0-985b-4c2e-88b2-9aa7a467f7e0"},"vehicle_type_id":"4","last_reported":1742667141,"current_range_meters":8800,"station_id":"ce4bhqp2rcd13ifvqhog","pricing_plan_id":"cebpf4jnsgd1na2vs0mg"},{"bike_id":"c5f44f79-cf52-4dcb-8bd2-d2dbc5c2d0bf","system_id":"levelo_inurba_marseille","lat":43.23073,"lon":5.35503,"is_reserved":false,"is_disabled":false,"rental_uris":{"android":"levelo://app?vid=c5f44f79-cf52-4dcb-8bd2-d2dbc5c2d0bf","ios":"levelo://app?vid=c5f44f79-cf52-4dcb-8bd2-d2dbc5c2d0bf"},"vehicle_type_id":"4","last_reported":1742667141,"current_range_meters":8800,"station_id":"cpo3342slgdg3j2ifvpg","pricing_plan_id":"cebpf4jnsgd1na2vs0mg"},{"bike_id":"22974a3c-2c10-4968-8643-ac5fb53e0947","system_id":"levelo_inurba_marseille","lat":43.24675,"lon":5.38153,"is_reserved":false,"is_disabled":false,"rental_uris":{"android":"levelo://app?vid=22974a3c-2c10-4968-8643-ac5fb53e0947","ios":"levelo://app?vid=22974a3c-2c10-4968-8643-ac5fb53e0947"},"vehicle_type_id":"4","last_reported":1742667141,"current_range_meters":8800,"station_id":"ce4bhih2rcd13ifvqfr0","pricing_plan_id":"cebpf4jnsgd1na2vs0mg"},{"bike_id":"09cd3a53-f843-483d-b4b6-c243b2785c45","system_id":"levelo_inurba_marseille","lat":43.25101,"lon":5.39495,"is_reserved":false,"is_disabled":false,"rental_uris":{"android":"levelo://app?vid=09cd3a53-f843-483d-b4b6-c243b2785c45","ios":"levelo://app?vid=09cd3a53-f843-483d-b4b6-c243b2785c45"},"vehicle_type_id":"4","last_reported":1742667141,"current_range_meters":9200,"station_id":"ce4bhm12rcd13ifvqgkg","pricing_plan_id":"cebpf4jnsgd1na2vs0mg"},{"bike_id":"a90cac6d-25f5-4467-83f2-05609bbda941","system_id":"levelo_inurba_marseille","lat":43.27317,"lon":5.39109,"is_reserved":false,"is_disabled":false,"rental_uris":{"android":"levelo://app?vid=a90cac6d-25f5-4467-83f2-05609bbda941","ios":"levelo://app?vid=a90cac6d-25f5-4467-83f2-05609bbda941"},"vehicle_type_id":"4","last_reported":1742667141,"current_range_meters":9200,"station_id":"ce4bhgp2rcd13ifvqfe0","pricing_plan_id":"cebpf4jnsgd1na2vs0mg"},{"bike_id":"80407e0e-cfda-4afe-b3a7-4238a19ae2a7","system_id":"levelo_inurba_marseille","lat":43.2591,"lon":5.39928,"is_reserved":false,"is_disabled":false,"rental_uris":{"android":"levelo://app?vid=80407e0e-cfda-4afe-b3a7-4238a19ae2a7","ios":"levelo://app?vid=80407e0e-cfda-4afe-b3a7-4238a19ae2a7"},"vehicle_type_id":"4","last_reported":1742667141,"current_range_meters":9200,"station_id":"","pricing_plan_id":"cebpf4jnsgd1na2vs0mg"},{"bike_id":"2f66c452-48a3-45fc-a7d1-64a647e10a6b","system_id":"levelo_inurba_marseille","lat":43.27383,"lon":5.36256,"is_reserved":false,"is_disabled":false,"rental_uris":{"android":"levelo://app?vid=2f66c452-48a3-45fc-a7d1-64a647e10a6b","ios":"levelo://app?vid=2f66c452-48a3-45fc-a7d1-64a647e10a6b"},"vehicle_type_id":"4","last_reported":1742667141,"current_range_meters":9200,"station_id":"ce4bhbh2rcd13ifvqeo0","pricing_plan_id":"cebpf4jnsgd1na2vs0mg"},{"bike_id":"f757b8f5-76ae-4a1e-a56a-3bf252f83e5a","system_id":"levelo_inurba_marseille","lat":43.299133,"lon":5.374523,"is_reserved":false,"is_disabled":false,"rental_uris":{"android":"levelo://app?vid=f757b8f5-76ae-4a1e-a56a-3bf252f83e5a","ios":"levelo://app?vid=f757b8f5-76ae-4a1e-a56a-3bf252f83e5a"},"vehicle_type_id":"4","last_reported":1742667141,"current_range_meters":9200,"station_id":"ce4bgk12rcd13ifvqbi0","pricing_plan_id":"cebpf4jnsgd1na2vs0mg"},{"bike_id":"da2ad5f6-0ada-4cac-a1cd-a0584cc7c0f8","system_id":"levelo_inurba_marseille","lat":43.29563,"lon":5.37519,"is_reserved":false,"is_disabled":false,"rental_uris":{"android":"levelo://app?vid=da2ad5f6-0ada-4cac-a1cd-a0584cc7c0f8","ios":"levelo://app?vid=da2ad5f6-0ada-4cac-a1cd-a0584cc7c0f8"},"vehicle_type_id":"4","last_reported":1742667141,"current_range_meters":9200,"station_id":"ce4bgh92rcd13ifvqb50","pricing_plan_id":"cebpf4jnsgd1na2vs0mg"},{"bike_id":"b86b17e6-f035-428e-9a82-d399c5269920","system_id":"levelo_inurba_marseille","lat":43.27942,"lon":5.38705,"is_reserved":false,"is_disabled":false,"rental_uris":{"android":"levelo://app?vid=b86b17e6-f035-428e-9a82-d399c5269920","ios":"levelo://app?vid=b86b17e6-f035-428e-9a82-d399c5269920"},"vehicle_type_id":"4","last_reported":1742667141,"current_range_meters":9200,"station_id":"ce4bhg12rcd13ifvqf80","pricing_plan_id":"cebpf4jnsgd1na2vs0mg"},{"bike_id":"41298d06-4d04-450a-b19f-11c1120769d1","system_id":"levelo_inurba_marseille","lat":43.32362,"lon":5.38891,"is_reserved":false,"is_disabled":false,"rental_uris":{"android":"levelo://app?vid=41298d06-4d04-450a-b19f-11c1120769d1","ios":"levelo://app?vid=41298d06-4d04-450a-b19f-11c1120769d1"},"vehicle_type_id":"4","last_reported":1742667141,"current_range_meters":9600,"station_id":"ce4bhqp2rcd13ifvqhog","pricing_plan_id":"cebpf4jnsgd1na2vs0mg"},{"bike_id":"5a79d095-34a6-4b73-b152-1e70b8b81fa2","system_id":"levelo_inurba_marseille","lat":43.24548,"lon":5.39541,"is_reserved":false,"is_disabled":false,"rental_uris":{"android":"levelo://app?vid=5a79d095-34a6-4b73-b152-1e70b8b81fa2","ios":"levelo://app?vid=5a79d095-34a6-4b73-b152-1e70b8b81fa2"},"vehicle_type_id":"4","last_reported":1742667141,"current_range_meters":9600,"station_id":"ce4bhlp2rcd13ifvqgjg","pricing_plan_id":"cebpf4jnsgd1na2vs0mg"},{"bike_id":"f715a61c-da85-4304-af34-4dc47aac6268","system_id":"levelo_inurba_marseille","lat":43.26939,"lon":5.40257,"is_reserved":false,"is_disabled":false,"rental_uris":{"android":"levelo://app?vid=f715a61c-da85-4304-af34-4dc47aac6268","ios":"levelo://app?vid=f715a61c-da85-4304-af34-4dc47aac6268"},"vehicle_type_id":"4","last_reported":1742667141,"current_range_meters":9600,"station_id":"cjm6bp8fraef2m0cb0m0","pricing_plan_id":"cebpf4jnsgd1na2vs0mg"},{"bike_id":"5fa092c2-95ff-4810-9c47-517422895e59","system_id":"levelo_inurba_marseille","lat":43.30364,"lon":5.39285,"is_reserved":false,"is_disabled":false,"rental_uris":{"android":"levelo://app?vid=5fa092c2-95ff-4810-9c47-517422895e59","ios":"levelo://app?vid=5fa092c2-95ff-4810-9c47-517422895e59"},"vehicle_type_id":"4","last_reported":1742667141,"current_range_meters":9600,"station_id":"","pricing_plan_id":"cebpf4jnsgd1na2vs0mg"},{"bike_id":"83f9e4f1-8ba9-484b-b268-44036f91a351","system_id":"levelo_inurba_marseille","lat":43.30462,"lon":5.37915,"is_reserved":false,"is_disabled":false,"rental_uris":{"android":"levelo://app?vid=83f9e4f1-8ba9-484b-b268-44036f91a351","ios":"levelo://app?vid=83f9e4f1-8ba9-484b-b268-44036f91a351"},"vehicle_type_id":"4","last_reported":1742667141,"current_range_meters":9600,"station_id":"ce4bgup2rcd13ifvqcn0","pricing_plan_id":"cebpf4jnsgd1na2vs0mg"},{"bike_id":"c0559961-f151-4d3e-97ba-2a937966139e","system_id":"levelo_inurba_marseille","lat":43.29631,"lon":5.37729,"is_reserved":false,"is_disabled":false,"rental_uris":{"android":"levelo://app?vid=c0559961-f151-4d3e-97ba-2a937966139e","ios":"levelo://app?vid=c0559961-f151-4d3e-97ba-2a937966139e"},"vehicle_type_id":"4","last_reported":1742667141,"current_range_meters":9600,"station_id":"ce4bgi92rcd13ifvqb90","pricing_plan_id":"cebpf4jnsgd1na2vs0mg"},{"bike_id":"0b92762f-5257-4585-9358-9c7a94b71014","system_id":"levelo_inurba_marseille","lat":43.28272,"lon":5.35074,"is_reserved":false,"is_disabled":false,"rental_uris":{"android":"levelo://app?vid=0b92762f-5257-4585-9358-9c7a94b71014","ios":"levelo://app?vid=0b92762f-5257-4585-9358-9c7a94b71014"},"vehicle_type_id":"4","last_reported":1742667141,"current_range_meters":9200,"station_id":"ce4bhbp2rcd13ifvqerg","pricing_plan_id":"cebpf4jnsgd1na2vs0mg"},{"bike_id":"dc0b5eb4-361e-4785-b0b9-f3eefce109c0","system_id":"levelo_inurba_marseille","lat":43.28418,"lon":5.34988,"is_reserved":false,"is_disabled":false,"rental_uris":{"android":"levelo://app?vid=dc0b5eb4-361e-4785-b0b9-f3eefce109c0","ios":"levelo://app?vid=dc0b5eb4-361e-4785-b0b9-f3eefce109c0"},"vehicle_type_id":"4","last_reported":1742667141,"current_range_meters":9600,"station_id":"ce4bhbh2rcd13ifvqepg","pricing_plan_id":"cebpf4jnsgd1na2vs0mg"},{"bike_id":"a347e11c-2cd1-4d70-91d7-1519614a036d","system_id":"levelo_inurba_marseille","lat":43.25083,"lon":5.39525,"is_reserved":false,"is_disabled":false,"rental_uris":{"android":"levelo://app?vid=a347e11c-2cd1-4d70-91d7-1519614a036d","ios":"levelo://app?vid=a347e11c-2cd1-4d70-91d7-1519614a036d"},"vehicle_type_id":"4","last_reported":1742667141,"current_range_meters":9600,"station_id":"ce4bhm12rcd13ifvqgkg","pricing_plan_id":"cebpf4jnsgd1na2vs0mg"},{"bike_id":"7c01b8f3-881e-4887-ad05-903f28ee870c","system_id":"levelo_inurba_marseille","lat":43.30122,"lon":5.39851,"is_reserved":false,"is_disabled":false,"rental_uris":{"android":"levelo://app?vid=7c01b8f3-881e-4887-ad05-903f28ee870c","ios":"levelo://app?vid=7c01b8f3-881e-4887-ad05-903f28ee870c"},"vehicle_type_id":"4","last_reported":1742667141,"current_range_meters":9600,"station_id":"ce4bh0h2rcd13ifvqd40","pricing_plan_id":"cebpf4jnsgd1na2vs0mg"},{"bike_id":"c8e6a965-0371-4cdb-a045-b618f45d1285","system_id":"levelo_inurba_marseille","lat":43.32481,"lon":5.36566,"is_reserved":false,"is_disabled":false,"rental_uris":{"android":"levelo://app?vid=c8e6a965-0371-4cdb-a045-b618f45d1285","ios":"levelo://app?vid=c8e6a965-0371-4cdb-a045-b618f45d1285"},"vehicle_type_id":"4","last_reported":1742667141,"current_range_meters":9600,"station_id":"ce4bhs12rcd13ifvqhvg","pricing_plan_id":"cebpf4jnsgd1na2vs0mg"},{"bike_id":"f168d197-fee5-4c16-bc0f-2e2278746297","system_id":"levelo_inurba_marseille","lat":43.27685,"lon":5.38893,"is_reserved":false,"is_disabled":false,"rental_uris":{"android":"levelo://app?vid=f168d197-fee5-4c16-bc0f-2e2278746297","ios":"levelo://app?vid=f168d197-fee5-4c16-bc0f-2e2278746297"},"vehicle_type_id":"4","last_reported":1742667141,"current_range_meters":10000,"station_id":"ce4bhi12rcd13ifvqfo0","pricing_plan_id":"cebpf4jnsgd1na2vs0mg"},{"bike_id":"95138a18-29f5-436c-8291-54d741166363","system_id":"levelo_inurba_marseille","lat":43.30149,"lon":5.37418,"is_reserved":false,"is_disabled":false,"rental_uris":{"android":"levelo://app?vid=95138a18-29f5-436c-8291-54d741166363","ios":"levelo://app?vid=95138a18-29f5-436c-8291-54d741166363"},"vehicle_type_id":"4","last_reported":1742667141,"current_range_meters":10000,"station_id":"ce4bgs92rcd13ifvqcc0","pricing_plan_id":"cebpf4jnsgd1na2vs0mg"},{"bike_id":"20a4f757-f3d8-4591-b883-1b7af08a61ec","system_id":"levelo_inurba_marseille","lat":43.30098,"lon":5.39079,"is_reserved":false,"is_disabled":false,"rental_uris":{"android":"levelo://app?vid=20a4f757-f3d8-4591-b883-1b7af08a61ec","ios":"levelo://app?vid=20a4f757-f3d8-4591-b883-1b7af08a61ec"},"vehicle_type_id":"4","last_reported":1742667141,"current_range_meters":10000,"station_id":"ce4bh192rcd13ifvqdb0","pricing_plan_id":"cebpf4jnsgd1na2vs0mg"},{"bike_id":"014cf003-1505-49cd-ba72-06250a2191ab","system_id":"levelo_inurba_marseille","lat":43.23064,"lon":5.35492,"is_reserved":false,"is_disabled":false,"rental_uris":{"android":"levelo://app?vid=014cf003-1505-49cd-ba72-06250a2191ab","ios":"levelo://app?vid=014cf003-1505-49cd-ba72-06250a2191ab"},"vehicle_type_id":"4","last_reported":1742667141,"current_range_meters":10000,"station_id":"cpo3342slgdg3j2ifvpg","pricing_plan_id":"cebpf4jnsgd1na2vs0mg"},{"bike_id":"dd89ae27-2fe0-48ae-9a86-c058e65d1d1a","system_id":"levelo_inurba_marseille","lat":43.28507,"lon":5.38532,"is_reserved":false,"is_disabled":false,"rental_uris":{"android":"levelo://app?vid=dd89ae27-2fe0-48ae-9a86-c058e65d1d1a","ios":"levelo://app?vid=dd89ae27-2fe0-48ae-9a86-c058e65d1d1a"},"vehicle_type_id":"4","last_reported":1742667141,"current_range_meters":10000,"station_id":"ce4bh8p2rcd13ifvqeb0","pricing_plan_id":"cebpf4jnsgd1na2vs0mg"},{"bike_id":"8ed1ac19-a2dd-4532-af16-423d1df5a6d4","system_id":"levelo_inurba_marseille","lat":43.23112,"lon":5.4138,"is_reserved":false,"is_disabled":false,"rental_uris":{"android":"levelo://app?vid=8ed1ac19-a2dd-4532-af16-423d1df5a6d4","ios":"levelo://app?vid=8ed1ac19-a2dd-4532-af16-423d1df5a6d4"},"vehicle_type_id":"4","last_reported":1742667141,"current_range_meters":10000,"station_id":"","pricing_plan_id":"cebpf4jnsgd1na2vs0mg"},{"bike_id":"b3a118e7-4ea7-4e12-b3d0-0411d8b7a4b6","system_id":"levelo_inurba_marseille","lat":43.29783,"lon":5.37089,"is_reserved":false,"is_disabled":false,"rental_uris":{"android":"levelo://app?vid=b3a118e7-4ea7-4e12-b3d0-0411d8b7a4b6","ios":"levelo://app?vid=b3a118e7-4ea7-4e12-b3d0-0411d8b7a4b6"},"vehicle_type_id":"4","last_reported":1742667141,"current_range_meters":10000,"station_id":"ce4bgop2rcd13ifvqc1g","pricing_plan_id":"cebpf4jnsgd1na2vs0mg"},{"bike_id":"768ca5e6-f1bb-42f2-ac3f-2632b474747d","system_id":"levelo_inurba_marseille","lat":43.25827,"lon":5.39441,"is_reserved":false,"is_disabled":false,"rental_uris":{"android":"levelo://app?vid=768ca5e6-f1bb-42f2-ac3f-2632b474747d","ios":"levelo://app?vid=768ca5e6-f1bb-42f2-ac3f-2632b474747d"},"vehicle_type_id":"4","last_reported":1742667141,"current_range_meters":10000,"station_id":"ce4bhip2rcd13ifvqft0","pricing_plan_id":"cebpf4jnsgd1na2vs0mg"},{"bike_id":"16784492-6bb0-4dfd-a37c-0b309868075c","system_id":"levelo_inurba_marseille","lat":43.3062,"lon":5.36605,"is_reserved":false,"is_disabled":false,"rental_uris":{"android":"levelo://app?vid=16784492-6bb0-4dfd-a37c-0b309868075c","ios":"levelo://app?vid=16784492-6bb0-4dfd-a37c-0b309868075c"},"vehicle_type_id":"4","last_reported":1742667141,"current_range_meters":10800,"station_id":"","pricing_plan_id":"cebpf4jnsgd1na2vs0mg"},{"bike_id":"0d77bab8-7b70-44b4-bdbd-4b8a6ca1be8e","system_id":"levelo_inurba_marseille","lat":43.279707,"lon":5.398424,"is_reserved":false,"is_disabled":false,"rental_uris":{"android":"levelo://app?vid=0d77bab8-7b70-44b4-bdbd-4b8a6ca1be8e","ios":"levelo://app?vid=0d77bab8-7b70-44b4-bdbd-4b8a6ca1be8e"},"vehicle_type_id":"4","last_reported":1742667141,"current_range_meters":10000,"station_id":"ce4bhhp2rcd13ifvqfm0","pricing_plan_id":"cebpf4jnsgd1na2vs0mg"},{"bike_id":"8e7753b0-de98-424a-850c-a2fe3a031ad0","system_id":"levelo_inurba_marseille","lat":43.31513,"lon":5.37265,"is_reserved":false,"is_disabled":false,"rental_uris":{"android":"levelo://app?vid=8e7753b0-de98-424a-850c-a2fe3a031ad0","ios":"levelo://app?vid=8e7753b0-de98-424a-850c-a2fe3a031ad0"},"vehicle_type_id":"4","last_reported":1742667141,"current_range_meters":10800,"station_id":"","pricing_plan_id":"cebpf4jnsgd1na2vs0mg"},{"bike_id":"445a1923-c5f3-4c4c-b0b0-c38fcb8a73c9","system_id":"levelo_inurba_marseille","lat":43.29718,"lon":5.377,"is_reserved":false,"is_disabled":false,"rental_uris":{"android":"levelo://app?vid=445a1923-c5f3-4c4c-b0b0-c38fcb8a73c9","ios":"levelo://app?vid=445a1923-c5f3-4c4c-b0b0-c38fcb8a73c9"},"vehicle_type_id":"4","last_reported":1742667141,"current_range_meters":10800,"station_id":"ce4bgkh2rcd13ifvqbl0","pricing_plan_id":"cebpf4jnsgd1na2vs0mg"},{"bike_id":"3f3f99da-6673-441e-a5b3-6857219a400e","system_id":"levelo_inurba_marseille","lat":43.25024,"lon":5.38907,"is_reserved":false,"is_disabled":false,"rental_uris":{"android":"levelo://app?vid=3f3f99da-6673-441e-a5b3-6857219a400e","ios":"levelo://app?vid=3f3f99da-6673-441e-a5b3-6857219a400e"},"vehicle_type_id":"4","last_reported":1742667141,"current_range_meters":10800,"station_id":"ce4bhgp2rcd13ifvqfd0","pricing_plan_id":"cebpf4jnsgd1na2vs0mg"},{"bike_id":"1a304035-4f21-40fc-9a67-b3ac19adc6f9","system_id":"levelo_inurba_marseille","lat":43.29006,"lon":5.35607,"is_reserved":false,"is_disabled":false,"rental_uris":{"android":"levelo://app?vid=1a304035-4f21-40fc-9a67-b3ac19adc6f9","ios":"levelo://app?vid=1a304035-4f21-40fc-9a67-b3ac19adc6f9"},"vehicle_type_id":"4","last_reported":1742667141,"current_range_meters":10000,"station_id":"ce4bhb92rcd13ifvqen0","pricing_plan_id":"cebpf4jnsgd1na2vs0mg"},{"bike_id":"0793cc52-402f-46cc-bc2d-03128eccedd7","system_id":"levelo_inurba_marseille","lat":43.32065,"lon":5.41532,"is_reserved":false,"is_disabled":false,"rental_uris":{"android":"levelo://app?vid=0793cc52-402f-46cc-bc2d-03128eccedd7","ios":"levelo://app?vid=0793cc52-402f-46cc-bc2d-03128eccedd7"},"vehicle_type_id":"4","last_reported":1742667141,"current_range_meters":10800,"station_id":"ce4bhq92rcd13ifvqhkg","pricing_plan_id":"cebpf4jnsgd1na2vs0mg"},{"bike_id":"e03dabff-0b39-48fe-8886-d2c189d38229","system_id":"levelo_inurba_marseille","lat":43.30089,"lon":5.39071,"is_reserved":false,"is_disabled":false,"rental_uris":{"android":"levelo://app?vid=e03dabff-0b39-48fe-8886-d2c189d38229","ios":"levelo://app?vid=e03dabff-0b39-48fe-8886-d2c189d38229"},"vehicle_type_id":"4","last_reported":1742667141,"current_range_meters":10800,"station_id":"ce4bh192rcd13ifvqdb0","pricing_plan_id":"cebpf4jnsgd1na2vs0mg"},{"bike_id":"3e8582b0-5e50-4a42-a864-a36e4c4983f2","system_id":"levelo_inurba_marseille","lat":43.26804,"lon":5.40271,"is_reserved":false,"is_disabled":false,"rental_uris":{"android":"levelo://app?vid=3e8582b0-5e50-4a42-a864-a36e4c4983f2","ios":"levelo://app?vid=3e8582b0-5e50-4a42-a864-a36e4c4983f2"},"vehicle_type_id":"4","last_reported":1742667141,"current_range_meters":11200,"station_id":"ce501612rcd8frsf0b60","pricing_plan_id":"cebpf4jnsgd1na2vs0mg"},{"bike_id":"72503a27-a949-4a46-b139-c44d4f416a58","system_id":"levelo_inurba_marseille","lat":43.23189,"lon":5.35561,"is_reserved":false,"is_disabled":false,"rental_uris":{"android":"levelo://app?vid=72503a27-a949-4a46-b139-c44d4f416a58","ios":"levelo://app?vid=72503a27-a949-4a46-b139-c44d4f416a58"},"vehicle_type_id":"4","last_reported":1742667141,"current_range_meters":11200,"station_id":"ce4bhu92rcd13ifvqi70","pricing_plan_id":"cebpf4jnsgd1na2vs0mg"},{"bike_id":"6fb63123-1a12-4ff9-a407-84ae3ac28000","system_id":"levelo_inurba_marseille","lat":43.303,"lon":5.36927,"is_reserved":false,"is_disabled":false,"rental_uris":{"android":"levelo://app?vid=6fb63123-1a12-4ff9-a407-84ae3ac28000","ios":"levelo://app?vid=6fb63123-1a12-4ff9-a407-84ae3ac28000"},"vehicle_type_id":"4","last_reported":1742667141,"current_range_meters":11200,"station_id":"ce4bgqh2rcd13ifvqc5g","pricing_plan_id":"cebpf4jnsgd1na2vs0mg"},{"bike_id":"23aae21a-1ee8-4544-a323-476ec541691a","system_id":"levelo_inurba_marseille","lat":43.23205,"lon":5.39938,"is_reserved":false,"is_disabled":false,"rental_uris":{"android":"levelo://app?vid=23aae21a-1ee8-4544-a323-476ec541691a","ios":"levelo://app?vid=23aae21a-1ee8-4544-a323-476ec541691a"},"vehicle_type_id":"4","last_reported":1742667141,"current_range_meters":11200,"station_id":"","pricing_plan_id":"cebpf4jnsgd1na2vs0mg"},{"bike_id":"07d5ffdd-b6a1-489f-98d2-ea76af006653","system_id":"levelo_inurba_marseille","lat":43.2573,"lon":5.41109,"is_reserved":false,"is_disabled":false,"rental_uris":{"android":"levelo://app?vid=07d5ffdd-b6a1-489f-98d2-ea76af006653","ios":"levelo://app?vid=07d5ffdd-b6a1-489f-98d2-ea76af006653"},"vehicle_type_id":"4","last_reported":1742667141,"current_range_meters":11200,"station_id":"ce4bhkp2rcd13ifvqgd0","pricing_plan_id":"cebpf4jnsgd1na2vs0mg"},{"bike_id":"ffabe649-baf7-4292-bf39-6270c104483e","system_id":"levelo_inurba_marseille","lat":43.28948,"lon":5.36648,"is_reserved":false,"is_disabled":false,"rental_uris":{"android":"levelo://app?vid=ffabe649-baf7-4292-bf39-6270c104483e","ios":"levelo://app?vid=ffabe649-baf7-4292-bf39-6270c104483e"},"vehicle_type_id":"4","last_reported":1742667141,"current_range_meters":11200,"station_id":"ce4bhap2rcd13ifvqek0","pricing_plan_id":"cebpf4jnsgd1na2vs0mg"},{"bike_id":"0e9ecfbb-b739-4da0-ae4f-5f93ee77a934","system_id":"levelo_inurba_marseille","lat":43.29576,"lon":5.36742,"is_reserved":false,"is_disabled":false,"rental_uris":{"android":"levelo://app?vid=0e9ecfbb-b739-4da0-ae4f-5f93ee77a934","ios":"levelo://app?vid=0e9ecfbb-b739-4da0-ae4f-5f93ee77a934"},"vehicle_type_id":"4","last_reported":1742667141,"current_range_meters":11200,"station_id":"ce4bgph2rcd13ifvqc2g","pricing_plan_id":"cebpf4jnsgd1na2vs0mg"},{"bike_id":"801ac92f-133f-417e-90ff-e9cdca3569b0","system_id":"levelo_inurba_marseille","lat":43.24075,"lon":5.37763,"is_reserved":false,"is_disabled":false,"rental_uris":{"android":"levelo://app?vid=801ac92f-133f-417e-90ff-e9cdca3569b0","ios":"levelo://app?vid=801ac92f-133f-417e-90ff-e9cdca3569b0"},"vehicle_type_id":"4","last_reported":1742667141,"current_range_meters":11200,"station_id":"ce4bhnp2rcd13ifvqgvg","pricing_plan_id":"cebpf4jnsgd1na2vs0mg"},{"bike_id":"72a800f3-bbcb-45d5-8da0-8b16f1d2c5ef","system_id":"levelo_inurba_marseille","lat":43.31334,"lon":5.36735,"is_reserved":false,"is_disabled":false,"rental_uris":{"android":"levelo://app?vid=72a800f3-bbcb-45d5-8da0-8b16f1d2c5ef","ios":"levelo://app?vid=72a800f3-bbcb-45d5-8da0-8b16f1d2c5ef"},"vehicle_type_id":"4","last_reported":1742667141,"current_range_meters":11200,"station_id":"ce4bgr92rcd13ifvqc6g","pricing_plan_id":"cebpf4jnsgd1na2vs0mg"},{"bike_id":"ba0a9964-ab62-4807-b18d-12500e496f19","system_id":"levelo_inurba_marseille","lat":43.28605,"lon":5.35128,"is_reserved":false,"is_disabled":true,"rental_uris":{"android":"levelo://app?vid=ba0a9964-ab62-4807-b18d-12500e496f19","ios":"levelo://app?vid=ba0a9964-ab62-4807-b18d-12500e496f19"},"vehicle_type_id":"4","last_reported":1742667141,"current_range_meters":11200,"station_id":"ce4bhch2rcd13ifvqeug","pricing_plan_id":"cebpf4jnsgd1na2vs0mg"},{"bike_id":"453e35ee-c236-47de-87f3-2d87b0085737","system_id":"levelo_inurba_marseille","lat":43.28401,"lon":5.386,"is_reserved":false,"is_disabled":false,"rental_uris":{"android":"levelo://app?vid=453e35ee-c236-47de-87f3-2d87b0085737","ios":"levelo://app?vid=453e35ee-c236-47de-87f3-2d87b0085737"},"vehicle_type_id":"4","last_reported":1742667141,"current_range_meters":11600,"station_id":"ce4bh492rcd13ifvqdvg","pricing_plan_id":"cebpf4jnsgd1na2vs0mg"},{"bike_id":"3e51e5bb-695d-42b6-b3f7-71cee8fb31de","system_id":"levelo_inurba_marseille","lat":43.30416,"lon":5.41285,"is_reserved":false,"is_disabled":false,"rental_uris":{"android":"levelo://app?vid=3e51e5bb-695d-42b6-b3f7-71cee8fb31de","ios":"levelo://app?vid=3e51e5bb-695d-42b6-b3f7-71cee8fb31de"},"vehicle_type_id":"4","last_reported":1742667141,"current_range_meters":11600,"station_id":"ce4bhop2rcd13ifvqh8g","pricing_plan_id":"cebpf4jnsgd1na2vs0mg"},{"bike_id":"7dff0d61-f3b4-42de-8e95-a63f03cbc4f6","system_id":"levelo_inurba_marseille","lat":43.31369,"lon":5.38497,"is_reserved":false,"is_disabled":false,"rental_uris":{"android":"levelo://app?vid=7dff0d61-f3b4-42de-8e95-a63f03cbc4f6","ios":"levelo://app?vid=7dff0d61-f3b4-42de-8e95-a63f03cbc4f6"},"vehicle_type_id":"4","last_reported":1742667141,"current_range_meters":11600,"station_id":"ce4bgt92rcd13ifvqcf0","pricing_plan_id":"cebpf4jnsgd1na2vs0mg"},{"bike_id":"727588f1-2aee-44e9-b2fb-38d7415aa29a","system_id":"levelo_inurba_marseille","lat":43.3026,"lon":5.40075,"is_reserved":false,"is_disabled":false,"rental_uris":{"android":"levelo://app?vid=727588f1-2aee-44e9-b2fb-38d7415aa29a","ios":"levelo://app?vid=727588f1-2aee-44e9-b2fb-38d7415aa29a"},"vehicle_type_id":"4","last_reported":1742667141,"current_range_meters":11200,"station_id":"ce4bgvh2rcd13ifvqcs0","pricing_plan_id":"cebpf4jnsgd1na2vs0mg"},{"bike_id":"4a292a20-3ff2-480a-8e0b-703b4e124853","system_id":"levelo_inurba_marseille","lat":43.28609,"lon":5.35106,"is_reserved":false,"is_disabled":false,"rental_uris":{"android":"levelo://app?vid=4a292a20-3ff2-480a-8e0b-703b4e124853","ios":"levelo://app?vid=4a292a20-3ff2-480a-8e0b-703b4e124853"},"vehicle_type_id":"4","last_reported":1742667141,"current_range_meters":11600,"station_id":"ce4bhch2rcd13ifvqeug","pricing_plan_id":"cebpf4jnsgd1na2vs0mg"},{"bike_id":"72123cf2-9d2b-41b8-9bee-4f35b0be3549","system_id":"levelo_inurba_marseille","lat":43.2305,"lon":5.35506,"is_reserved":false,"is_disabled":true,"rental_uris":{"android":"levelo://app?vid=72123cf2-9d2b-41b8-9bee-4f35b0be3549","ios":"levelo://app?vid=72123cf2-9d2b-41b8-9bee-4f35b0be3549"},"vehicle_type_id":"4","last_reported":1742667141,"current_range_meters":11600,"station_id":"cpo3342slgdg3j2ifvpg","pricing_plan_id":"cebpf4jnsgd1na2vs0mg"},{"bike_id":"d3bb89fb-1175-4e54-9132-7c6bae891916","system_id":"levelo_inurba_marseille","lat":43.29024,"lon":5.38659,"is_reserved":false,"is_disabled":false,"rental_uris":{"android":"levelo://app?vid=d3bb89fb-1175-4e54-9132-7c6bae891916","ios":"levelo://app?vid=d3bb89fb-1175-4e54-9132-7c6bae891916"},"vehicle_type_id":"4","last_reported":1742667141,"current_range_meters":12000,"station_id":"ce4bh4p2rcd13ifvqe0g","pricing_plan_id":"cebpf4jnsgd1na2vs0mg"},{"bike_id":"2032e81a-8d24-4036-9cc6-bf67698b8322","system_id":"levelo_inurba_marseille","lat":43.24175,"lon":5.39718,"is_reserved":false,"is_disabled":false,"rental_uris":{"android":"levelo://app?vid=2032e81a-8d24-4036-9cc6-bf67698b8322","ios":"levelo://app?vid=2032e81a-8d24-4036-9cc6-bf67698b8322"},"vehicle_type_id":"4","last_reported":1742667141,"current_range_meters":12000,"station_id":"ce4bhn12rcd13ifvqgpg","pricing_plan_id":"cebpf4jnsgd1na2vs0mg"},{"bike_id":"272bd483-3c2c-49ec-b30d-44ac080cfd01","system_id":"levelo_inurba_marseille","lat":43.32341,"lon":5.40628,"is_reserved":false,"is_disabled":false,"rental_uris":{"android":"levelo://app?vid=272bd483-3c2c-49ec-b30d-44ac080cfd01","ios":"levelo://app?vid=272bd483-3c2c-49ec-b30d-44ac080cfd01"},"vehicle_type_id":"4","last_reported":1742667141,"current_range_meters":12000,"station_id":"ce4bhq92rcd13ifvqhjg","pricing_plan_id":"cebpf4jnsgd1na2vs0mg"},{"bike_id":"dba8b61a-1f26-452c-8c30-53fb931df2d0","system_id":"levelo_inurba_marseille","lat":43.2862,"lon":5.35102,"is_reserved":false,"is_disabled":false,"rental_uris":{"android":"levelo://app?vid=dba8b61a-1f26-452c-8c30-53fb931df2d0","ios":"levelo://app?vid=dba8b61a-1f26-452c-8c30-53fb931df2d0"},"vehicle_type_id":"4","last_reported":1742667141,"current_range_meters":12000,"station_id":"ce4bhch2rcd13ifvqeug","pricing_plan_id":"cebpf4jnsgd1na2vs0mg"},{"bike_id":"f0efccb8-d8b7-4849-ae49-630cce0ea173","system_id":"levelo_inurba_marseille","lat":43.25119,"lon":5.40317,"is_reserved":false,"is_disabled":false,"rental_uris":{"android":"levelo://app?vid=f0efccb8-d8b7-4849-ae49-630cce0ea173","ios":"levelo://app?vid=f0efccb8-d8b7-4849-ae49-630cce0ea173"},"vehicle_type_id":"4","last_reported":1742667141,"current_range_meters":12000,"station_id":"ce4bhlh2rcd13ifvqgig","pricing_plan_id":"cebpf4jnsgd1na2vs0mg"},{"bike_id":"bb2ebd34-9190-40c3-b427-a509f79ce1e9","system_id":"levelo_inurba_marseille","lat":43.27812,"lon":5.40733,"is_reserved":false,"is_disabled":false,"rental_uris":{"android":"levelo://app?vid=bb2ebd34-9190-40c3-b427-a509f79ce1e9","ios":"levelo://app?vid=bb2ebd34-9190-40c3-b427-a509f79ce1e9"},"vehicle_type_id":"4","last_reported":1742667141,"current_range_meters":12400,"station_id":"ce4bhnh2rcd13ifvqgtg","pricing_plan_id":"cebpf4jnsgd1na2vs0mg"},{"bike_id":"041746e8-f612-4f02-ba2c-e784ef31f6c4","system_id":"levelo_inurba_marseille","lat":43.2317,"lon":5.43688,"is_reserved":false,"is_disabled":false,"rental_uris":{"android":"levelo://app?vid=041746e8-f612-4f02-ba2c-e784ef31f6c4","ios":"levelo://app?vid=041746e8-f612-4f02-ba2c-e784ef31f6c4"},"vehicle_type_id":"4","last_reported":1742667141,"current_range_meters":12400,"station_id":"ce4bhmp2rcd13ifvqgog","pricing_plan_id":"cebpf4jnsgd1na2vs0mg"},{"bike_id":"86361096-0528-40c8-933a-2749ce3e2e42","system_id":"levelo_inurba_marseille","lat":43.25869,"lon":5.39898,"is_reserved":false,"is_disabled":false,"rental_uris":{"android":"levelo://app?vid=86361096-0528-40c8-933a-2749ce3e2e42","ios":"levelo://app?vid=86361096-0528-40c8-933a-2749ce3e2e42"},"vehicle_type_id":"4","last_reported":1742667141,"current_range_meters":12000,"station_id":"ce4bhl92rcd13ifvqghg","pricing_plan_id":"cebpf4jnsgd1na2vs0mg"},{"bike_id":"1af800a6-859a-4b83-beee-35bcbf7b66ea","system_id":"levelo_inurba_marseille","lat":43.28667,"lon":5.36355,"is_reserved":false,"is_disabled":false,"rental_uris":{"android":"levelo://app?vid=1af800a6-859a-4b83-beee-35bcbf7b66ea","ios":"levelo://app?vid=1af800a6-859a-4b83-beee-35bcbf7b66ea"},"vehicle_type_id":"4","last_reported":1742667141,"current_range_meters":12400,"station_id":"ce4bhah2rcd13ifvqej0","pricing_plan_id":"cebpf4jnsgd1na2vs0mg"},{"bike_id":"dc2407f4-d476-43c5-97ef-0012890b8899","system_id":"levelo_inurba_marseille","lat":43.29899,"lon":5.38303,"is_reserved":false,"is_disabled":false,"rental_uris":{"android":"levelo://app?vid=dc2407f4-d476-43c5-97ef-0012890b8899","ios":"levelo://app?vid=dc2407f4-d476-43c5-97ef-0012890b8899"},"vehicle_type_id":"4","last_reported":1742667141,"current_range_meters":12400,"station_id":"","pricing_plan_id":"cebpf4jnsgd1na2vs0mg"},{"bike_id":"b7bef736-5bbc-4208-b45d-21213cf80a0f","system_id":"levelo_inurba_marseille","lat":43.28703,"lon":5.40009,"is_reserved":false,"is_disabled":false,"rental_uris":{"android":"levelo://app?vid=b7bef736-5bbc-4208-b45d-21213cf80a0f","ios":"levelo://app?vid=b7bef736-5bbc-4208-b45d-21213cf80a0f"},"vehicle_type_id":"4","last_reported":1742667141,"current_range_meters":12400,"station_id":"ce4bho92rcd13ifvqh3g","pricing_plan_id":"cebpf4jnsgd1na2vs0mg"},{"bike_id":"1e92cf27-4bbd-4756-97a7-d3b835621fe1","system_id":"levelo_inurba_marseille","lat":43.27212,"lon":5.39178,"is_reserved":false,"is_disabled":false,"rental_uris":{"android":"levelo://app?vid=1e92cf27-4bbd-4756-97a7-d3b835621fe1","ios":"levelo://app?vid=1e92cf27-4bbd-4756-97a7-d3b835621fe1"},"vehicle_type_id":"4","last_reported":1742667141,"current_range_meters":12400,"station_id":"ce4bhhp2rcd13ifvqfm0","pricing_plan_id":"cebpf4jnsgd1na2vs0mg"},{"bike_id":"e7f334a1-f21e-4225-a073-862fa87c95f1","system_id":"levelo_inurba_marseille","lat":43.25584,"lon":5.4119,"is_reserved":false,"is_disabled":false,"rental_uris":{"android":"levelo://app?vid=e7f334a1-f21e-4225-a073-862fa87c95f1","ios":"levelo://app?vid=e7f334a1-f21e-4225-a073-862fa87c95f1"},"vehicle_type_id":"4","last_reported":1742667141,"current_range_meters":12800,"station_id":"","pricing_plan_id":"cebpf4jnsgd1na2vs0mg"},{"bike_id":"140d1708-b02b-4f3d-8b67-ad95553b03f4","system_id":"levelo_inurba_marseille","lat":43.30141,"lon":5.37414,"is_reserved":false,"is_disabled":false,"rental_uris":{"android":"levelo://app?vid=140d1708-b02b-4f3d-8b67-ad95553b03f4","ios":"levelo://app?vid=140d1708-b02b-4f3d-8b67-ad95553b03f4"},"vehicle_type_id":"4","last_reported":1742667141,"current_range_meters":12800,"station_id":"ce4bgs92rcd13ifvqcc0","pricing_plan_id":"cebpf4jnsgd1na2vs0mg"},{"bike_id":"cee7165c-6020-4946-bcfa-56667555c30e","system_id":"levelo_inurba_marseille","lat":43.31109,"lon":5.37768,"is_reserved":false,"is_disabled":false,"rental_uris":{"android":"levelo://app?vid=cee7165c-6020-4946-bcfa-56667555c30e","ios":"levelo://app?vid=cee7165c-6020-4946-bcfa-56667555c30e"},"vehicle_type_id":"4","last_reported":1742667141,"current_range_meters":12800,"station_id":"ce4bgt92rcd13ifvqcg0","pricing_plan_id":"cebpf4jnsgd1na2vs0mg"},{"bike_id":"1c791fa2-9405-48c1-9835-895ee618b900","system_id":"levelo_inurba_marseille","lat":43.31453,"lon":5.37374,"is_reserved":false,"is_disabled":false,"rental_uris":{"android":"levelo://app?vid=1c791fa2-9405-48c1-9835-895ee618b900","ios":"levelo://app?vid=1c791fa2-9405-48c1-9835-895ee618b900"},"vehicle_type_id":"4","last_reported":1742667141,"current_range_meters":12800,"station_id":"","pricing_plan_id":"cebpf4jnsgd1na2vs0mg"},{"bike_id":"f00cfb07-5cf3-4901-9f4b-dbc0e0c38f26","system_id":"levelo_inurba_marseille","lat":43.29969,"lon":5.385,"is_reserved":false,"is_disabled":false,"rental_uris":{"android":"levelo://app?vid=f00cfb07-5cf3-4901-9f4b-dbc0e0c38f26","ios":"levelo://app?vid=f00cfb07-5cf3-4901-9f4b-dbc0e0c38f26"},"vehicle_type_id":"4","last_reported":1742667141,"current_range_meters":12800,"station_id":"ce4bgj92rcd13ifvqbd0","pricing_plan_id":"cebpf4jnsgd1na2vs0mg"},{"bike_id":"772cccad-5512-4677-9d7a-c9a9f44d0e53","system_id":"levelo_inurba_marseille","lat":43.26489,"lon":5.39545,"is_reserved":false,"is_disabled":false,"rental_uris":{"android":"levelo://app?vid=772cccad-5512-4677-9d7a-c9a9f44d0e53","ios":"levelo://app?vid=772cccad-5512-4677-9d7a-c9a9f44d0e53"},"vehicle_type_id":"4","last_reported":1742667141,"current_range_meters":13600,"station_id":"ce4bhi12rcd13ifvqfq0","pricing_plan_id":"cebpf4jnsgd1na2vs0mg"},{"bike_id":"cf4c5ef7-45b4-411b-8229-79791b11da44","system_id":"levelo_inurba_marseille","lat":43.29529,"lon":5.39401,"is_reserved":false,"is_disabled":false,"rental_uris":{"android":"levelo://app?vid=cf4c5ef7-45b4-411b-8229-79791b11da44","ios":"levelo://app?vid=cf4c5ef7-45b4-411b-8229-79791b11da44"},"vehicle_type_id":"4","last_reported":1742667141,"current_range_meters":13600,"station_id":"ce4bh292rcd13ifvqdf0","pricing_plan_id":"cebpf4jnsgd1na2vs0mg"},{"bike_id":"836f1089-8cc4-41d6-af75-9bbffbdd1201","system_id":"levelo_inurba_marseille","lat":43.26206,"lon":5.37445,"is_reserved":false,"is_disabled":false,"rental_uris":{"android":"levelo://app?vid=836f1089-8cc4-41d6-af75-9bbffbdd1201","ios":"levelo://app?vid=836f1089-8cc4-41d6-af75-9bbffbdd1201"},"vehicle_type_id":"4","last_reported":1742667141,"current_range_meters":13600,"station_id":"ce4bhgp2rcd13ifvqfc0","pricing_plan_id":"cebpf4jnsgd1na2vs0mg"},{"bike_id":"635e00f1-7672-4c20-b9a9-b9c7613e4d27","system_id":"levelo_inurba_marseille","lat":43.24088,"lon":5.3776,"is_reserved":false,"is_disabled":false,"rental_uris":{"android":"levelo://app?vid=635e00f1-7672-4c20-b9a9-b9c7613e4d27","ios":"levelo://app?vid=635e00f1-7672-4c20-b9a9-b9c7613e4d27"},"vehicle_type_id":"4","last_reported":1742667141,"current_range_meters":13600,"station_id":"ce4bhnp2rcd13ifvqgvg","pricing_plan_id":"cebpf4jnsgd1na2vs0mg"},{"bike_id":"06f55614-0097-4793-917e-617de92a8f52","system_id":"levelo_inurba_marseille","lat":43.29525,"lon":5.39049,"is_reserved":false,"is_disabled":false,"rental_uris":{"android":"levelo://app?vid=06f55614-0097-4793-917e-617de92a8f52","ios":"levelo://app?vid=06f55614-0097-4793-917e-617de92a8f52"},"vehicle_type_id":"4","last_reported":1742667141,"current_range_meters":13600,"station_id":"ce4bh3p2rcd13ifvqdp0","pricing_plan_id":"cebpf4jnsgd1na2vs0mg"},{"bike_id":"855cc672-3fe2-4592-84db-4719dd4814ea","system_id":"levelo_inurba_marseille","lat":43.24176,"lon":5.39723,"is_reserved":false,"is_disabled":false,"rental_uris":{"android":"levelo://app?vid=855cc672-3fe2-4592-84db-4719dd4814ea","ios":"levelo://app?vid=855cc672-3fe2-4592-84db-4719dd4814ea"},"vehicle_type_id":"4","last_reported":1742667141,"current_range_meters":13600,"station_id":"ce4bhn12rcd13ifvqgpg","pricing_plan_id":"cebpf4jnsgd1na2vs0mg"},{"bike_id":"a0b9b463-4064-4c5c-a352-b3edb859338a","system_id":"levelo_inurba_marseille","lat":43.3144,"lon":5.37576,"is_reserved":false,"is_disabled":false,"rental_uris":{"android":"levelo://app?vid=a0b9b463-4064-4c5c-a352-b3edb859338a","ios":"levelo://app?vid=a0b9b463-4064-4c5c-a352-b3edb859338a"},"vehicle_type_id":"4","last_reported":1742667141,"current_range_meters":14000,"station_id":"","pricing_plan_id":"cebpf4jnsgd1na2vs0mg"},{"bike_id":"f00a85f1-54fa-4e47-9c73-073e8270ac2d","system_id":"levelo_inurba_marseille","lat":43.30191,"lon":5.36619,"is_reserved":false,"is_disabled":false,"rental_uris":{"android":"levelo://app?vid=f00a85f1-54fa-4e47-9c73-073e8270ac2d","ios":"levelo://app?vid=f00a85f1-54fa-4e47-9c73-073e8270ac2d"},"vehicle_type_id":"4","last_reported":1742667141,"current_range_meters":14000,"station_id":"ce4bgrh2rcd13ifvqc8g","pricing_plan_id":"cebpf4jnsgd1na2vs0mg"},{"bike_id":"654fbbe5-e551-4296-9779-f2b68d38fba9","system_id":"levelo_inurba_marseille","lat":43.29525,"lon":5.39042,"is_reserved":false,"is_disabled":false,"rental_uris":{"android":"levelo://app?vid=654fbbe5-e551-4296-9779-f2b68d38fba9","ios":"levelo://app?vid=654fbbe5-e551-4296-9779-f2b68d38fba9"},"vehicle_type_id":"4","last_reported":1742667141,"current_range_meters":14000,"station_id":"ce4bh3p2rcd13ifvqdp0","pricing_plan_id":"cebpf4jnsgd1na2vs0mg"},{"bike_id":"d8878601-3ef9-4b69-ae9e-1dde88f059ac","system_id":"levelo_inurba_marseille","lat":43.24168,"lon":5.36388,"is_reserved":false,"is_disabled":false,"rental_uris":{"android":"levelo://app?vid=d8878601-3ef9-4b69-ae9e-1dde88f059ac","ios":"levelo://app?vid=d8878601-3ef9-4b69-ae9e-1dde88f059ac"},"vehicle_type_id":"4","last_reported":1742667141,"current_range_meters":14000,"station_id":"cpo36qri1sfpv3e86is0","pricing_plan_id":"cebpf4jnsgd1na2vs0mg"},{"bike_id":"4e296e1d-bdc1-47fc-b6d0-68660c2f76a0","system_id":"levelo_inurba_marseille","lat":43.26567,"lon":5.39016,"is_reserved":false,"is_disabled":false,"rental_uris":{"android":"levelo://app?vid=4e296e1d-bdc1-47fc-b6d0-68660c2f76a0","ios":"levelo://app?vid=4e296e1d-bdc1-47fc-b6d0-68660c2f76a0"},"vehicle_type_id":"4","last_reported":1742667141,"current_range_meters":14000,"station_id":"ce4bhe12rcd13ifvqf30","pricing_plan_id":"cebpf4jnsgd1na2vs0mg"},{"bike_id":"5d4cc92c-eafe-478c-8820-ef016b1e9d02","system_id":"levelo_inurba_marseille","lat":43.29906,"lon":5.43664,"is_reserved":false,"is_disabled":false,"rental_uris":{"android":"levelo://app?vid=5d4cc92c-eafe-478c-8820-ef016b1e9d02","ios":"levelo://app?vid=5d4cc92c-eafe-478c-8820-ef016b1e9d02"},"vehicle_type_id":"4","last_reported":1742667141,"current_range_meters":14000,"station_id":"ce4bhpp2rcd13ifvqhfg","pricing_plan_id":"cebpf4jnsgd1na2vs0mg"},{"bike_id":"6d06a25d-dcc8-480d-9d2f-5734e96b66bc","system_id":"levelo_inurba_marseille","lat":43.27847,"lon":5.39229,"is_reserved":false,"is_disabled":false,"rental_uris":{"android":"levelo://app?vid=6d06a25d-dcc8-480d-9d2f-5734e96b66bc","ios":"levelo://app?vid=6d06a25d-dcc8-480d-9d2f-5734e96b66bc"},"vehicle_type_id":"4","last_reported":1742667141,"current_range_meters":14000,"station_id":"ce4bhjp2rcd13ifvqga0","pricing_plan_id":"cebpf4jnsgd1na2vs0mg"},{"bike_id":"da598ac3-13a7-47ae-aec1-b356b24c593b","system_id":"levelo_inurba_marseille","lat":43.29557,"lon":5.37533,"is_reserved":false,"is_disabled":false,"rental_uris":{"android":"levelo://app?vid=da598ac3-13a7-47ae-aec1-b356b24c593b","ios":"levelo://app?vid=da598ac3-13a7-47ae-aec1-b356b24c593b"},"vehicle_type_id":"4","last_reported":1742667141,"current_range_meters":14000,"station_id":"ce4bgh92rcd13ifvqb50","pricing_plan_id":"cebpf4jnsgd1na2vs0mg"},{"bike_id":"0731e620-6850-437f-934b-eda66e686ae2","system_id":"levelo_inurba_marseille","lat":43.31755,"lon":5.39025,"is_reserved":false,"is_disabled":false,"rental_uris":{"android":"levelo://app?vid=0731e620-6850-437f-934b-eda66e686ae2","ios":"levelo://app?vid=0731e620-6850-437f-934b-eda66e686ae2"},"vehicle_type_id":"4","last_reported":1742667141,"current_range_meters":14400,"station_id":"ce4bhqp2rcd13ifvqhng","pricing_plan_id":"cebpf4jnsgd1na2vs0mg"},{"bike_id":"7b75d449-7c71-498f-b2ce-f002530eba03","system_id":"levelo_inurba_marseille","lat":43.3018,"lon":5.37416,"is_reserved":false,"is_disabled":false,"rental_uris":{"android":"levelo://app?vid=7b75d449-7c71-498f-b2ce-f002530eba03","ios":"levelo://app?vid=7b75d449-7c71-498f-b2ce-f002530eba03"},"vehicle_type_id":"4","last_reported":1742667141,"current_range_meters":14400,"station_id":"ce4bgs92rcd13ifvqcc0","pricing_plan_id":"cebpf4jnsgd1na2vs0mg"},{"bike_id":"8a858ea1-7bd2-46ea-89e0-0e3881916363","system_id":"levelo_inurba_marseille","lat":43.25125,"lon":5.40346,"is_reserved":false,"is_disabled":true,"rental_uris":{"android":"levelo://app?vid=8a858ea1-7bd2-46ea-89e0-0e3881916363","ios":"levelo://app?vid=8a858ea1-7bd2-46ea-89e0-0e3881916363"},"vehicle_type_id":"4","last_reported":1742667141,"current_range_meters":14400,"station_id":"ce4bhlh2rcd13ifvqgig","pricing_plan_id":"cebpf4jnsgd1na2vs0mg"},{"bike_id":"c2660785-6cdd-4e48-a860-a9859f6460bf","system_id":"levelo_inurba_marseille","lat":43.26201,"lon":5.37963,"is_reserved":false,"is_disabled":false,"rental_uris":{"android":"levelo://app?vid=c2660785-6cdd-4e48-a860-a9859f6460bf","ios":"levelo://app?vid=c2660785-6cdd-4e48-a860-a9859f6460bf"},"vehicle_type_id":"4","last_reported":1742667141,"current_range_meters":14400,"station_id":"ce4bhjp2rcd13ifvqg90","pricing_plan_id":"cebpf4jnsgd1na2vs0mg"},{"bike_id":"b8a9691a-dcc7-4512-8860-89b76650304b","system_id":"levelo_inurba_marseille","lat":43.27822,"lon":5.4071,"is_reserved":false,"is_disabled":false,"rental_uris":{"android":"levelo://app?vid=b8a9691a-dcc7-4512-8860-89b76650304b","ios":"levelo://app?vid=b8a9691a-dcc7-4512-8860-89b76650304b"},"vehicle_type_id":"4","last_reported":1742667141,"current_range_meters":14400,"station_id":"ce4bhnh2rcd13ifvqgtg","pricing_plan_id":"cebpf4jnsgd1na2vs0mg"},{"bike_id":"d954b141-3cee-4de0-9c29-d5babd11cd82","system_id":"levelo_inurba_marseille","lat":43.25096,"lon":5.39554,"is_reserved":false,"is_disabled":false,"rental_uris":{"android":"levelo://app?vid=d954b141-3cee-4de0-9c29-d5babd11cd82","ios":"levelo://app?vid=d954b141-3cee-4de0-9c29-d5babd11cd82"},"vehicle_type_id":"4","last_reported":1742667141,"current_range_meters":14400,"station_id":"ce4bhm12rcd13ifvqgkg","pricing_plan_id":"cebpf4jnsgd1na2vs0mg"},{"bike_id":"04048044-a942-4929-a12b-0e54dabbead5","system_id":"levelo_inurba_marseille","lat":43.275681,"lon":5.384353,"is_reserved":false,"is_disabled":false,"rental_uris":{"android":"levelo://app?vid=04048044-a942-4929-a12b-0e54dabbead5","ios":"levelo://app?vid=04048044-a942-4929-a12b-0e54dabbead5"},"vehicle_type_id":"4","last_reported":1742667141,"current_range_meters":14800,"station_id":"ce4bgj92rcd13ifvqbd0","pricing_plan_id":"cebpf4jnsgd1na2vs0mg"},{"bike_id":"7ffc8013-1676-41b5-a807-1edeb46c5b02","system_id":"levelo_inurba_marseille","lat":43.30429,"lon":5.39753,"is_reserved":false,"is_disabled":false,"rental_uris":{"android":"levelo://app?vid=7ffc8013-1676-41b5-a807-1edeb46c5b02","ios":"levelo://app?vid=7ffc8013-1676-41b5-a807-1edeb46c5b02"},"vehicle_type_id":"4","last_reported":1742667141,"current_range_meters":14800,"station_id":"ce4bh092rcd13ifvqd20","pricing_plan_id":"cebpf4jnsgd1na2vs0mg"},{"bike_id":"eca434b2-c3cc-4b30-9979-93f369a0bd6b","system_id":"levelo_inurba_marseille","lat":43.34145,"lon":5.40908,"is_reserved":false,"is_disabled":false,"rental_uris":{"android":"levelo://app?vid=eca434b2-c3cc-4b30-9979-93f369a0bd6b","ios":"levelo://app?vid=eca434b2-c3cc-4b30-9979-93f369a0bd6b"},"vehicle_type_id":"4","last_reported":1742667141,"current_range_meters":14800,"station_id":"ce4bhqh2rcd13ifvqhlg","pricing_plan_id":"cebpf4jnsgd1na2vs0mg"},{"bike_id":"54835c02-6158-4aac-b2e9-f6650d514f97","system_id":"levelo_inurba_marseille","lat":43.24085,"lon":5.37756,"is_reserved":false,"is_disabled":false,"rental_uris":{"android":"levelo://app?vid=54835c02-6158-4aac-b2e9-f6650d514f97","ios":"levelo://app?vid=54835c02-6158-4aac-b2e9-f6650d514f97"},"vehicle_type_id":"4","last_reported":1742667141,"current_range_meters":14800,"station_id":"ce4bhnp2rcd13ifvqgvg","pricing_plan_id":"cebpf4jnsgd1na2vs0mg"},{"bike_id":"fc76d12e-313b-41d3-af33-ba7494c68e4d","system_id":"levelo_inurba_marseille","lat":43.28659,"lon":5.36364,"is_reserved":false,"is_disabled":false,"rental_uris":{"android":"levelo://app?vid=fc76d12e-313b-41d3-af33-ba7494c68e4d","ios":"levelo://app?vid=fc76d12e-313b-41d3-af33-ba7494c68e4d"},"vehicle_type_id":"4","last_reported":1742667141,"current_range_meters":14800,"station_id":"ce4bhah2rcd13ifvqej0","pricing_plan_id":"cebpf4jnsgd1na2vs0mg"},{"bike_id":"f9397cdf-4681-4ebd-9ed2-299c0517f62e","system_id":"levelo_inurba_marseille","lat":43.30278,"lon":5.37699,"is_reserved":false,"is_disabled":false,"rental_uris":{"android":"levelo://app?vid=f9397cdf-4681-4ebd-9ed2-299c0517f62e","ios":"levelo://app?vid=f9397cdf-4681-4ebd-9ed2-299c0517f62e"},"vehicle_type_id":"4","last_reported":1742667141,"current_range_meters":14800,"station_id":"ce4bguh2rcd13ifvqcj0","pricing_plan_id":"cebpf4jnsgd1na2vs0mg"},{"bike_id":"d47c8647-452f-4088-894d-f260dd185502","system_id":"levelo_inurba_marseille","lat":43.268,"lon":5.40244,"is_reserved":false,"is_disabled":false,"rental_uris":{"android":"levelo://app?vid=d47c8647-452f-4088-894d-f260dd185502","ios":"levelo://app?vid=d47c8647-452f-4088-894d-f260dd185502"},"vehicle_type_id":"4","last_reported":1742667141,"current_range_meters":14800,"station_id":"ce501612rcd8frsf0b60","pricing_plan_id":"cebpf4jnsgd1na2vs0mg"},{"bike_id":"a7c269ac-750b-4e61-a0a4-f774b818338f","system_id":"levelo_inurba_marseille","lat":43.28084,"lon":5.39654,"is_reserved":false,"is_disabled":false,"rental_uris":{"android":"levelo://app?vid=a7c269ac-750b-4e61-a0a4-f774b818338f","ios":"levelo://app?vid=a7c269ac-750b-4e61-a0a4-f774b818338f"},"vehicle_type_id":"4","last_reported":1742667141,"current_range_meters":14800,"station_id":"ce4bho12rcd13ifvqh2g","pricing_plan_id":"cebpf4jnsgd1na2vs0mg"},{"bike_id":"4f24a189-7aff-47e6-ae4b-828ce6c28b1a","system_id":"levelo_inurba_marseille","lat":43.27915,"lon":5.39581,"is_reserved":false,"is_disabled":false,"rental_uris":{"android":"levelo://app?vid=4f24a189-7aff-47e6-ae4b-828ce6c28b1a","ios":"levelo://app?vid=4f24a189-7aff-47e6-ae4b-828ce6c28b1a"},"vehicle_type_id":"4","last_reported":1742667141,"current_range_meters":14800,"station_id":"ce4bhf92rcd13ifvqf40","pricing_plan_id":"cebpf4jnsgd1na2vs0mg"},{"bike_id":"b70a7dd1-1549-4122-8d42-8db2d55856b2","system_id":"levelo_inurba_marseille","lat":43.26188,"lon":5.40456,"is_reserved":false,"is_disabled":false,"rental_uris":{"android":"levelo://app?vid=b70a7dd1-1549-4122-8d42-8db2d55856b2","ios":"levelo://app?vid=b70a7dd1-1549-4122-8d42-8db2d55856b2"},"vehicle_type_id":"4","last_reported":1742667141,"current_range_meters":14800,"station_id":"ce4bhmh2rcd13ifvqgmg","pricing_plan_id":"cebpf4jnsgd1na2vs0mg"},{"bike_id":"c77de131-3ac8-450f-bdf0-6a0f73cfae17","system_id":"levelo_inurba_marseille","lat":43.30926,"lon":5.40183,"is_reserved":false,"is_disabled":false,"rental_uris":{"android":"levelo://app?vid=c77de131-3ac8-450f-bdf0-6a0f73cfae17","ios":"levelo://app?vid=c77de131-3ac8-450f-bdf0-6a0f73cfae17"},"vehicle_type_id":"4","last_reported":1742667141,"current_range_meters":14800,"station_id":"ce4bgvp2rcd13ifvqct0","pricing_plan_id":"cebpf4jnsgd1na2vs0mg"},{"bike_id":"b6da0cea-b960-4652-be57-f2bb8065fb68","system_id":"levelo_inurba_marseille","lat":43.23156,"lon":5.43738,"is_reserved":false,"is_disabled":false,"rental_uris":{"android":"levelo://app?vid=b6da0cea-b960-4652-be57-f2bb8065fb68","ios":"levelo://app?vid=b6da0cea-b960-4652-be57-f2bb8065fb68"},"vehicle_type_id":"4","last_reported":1742667141,"current_range_meters":14800,"station_id":"ce4bhmp2rcd13ifvqgog","pricing_plan_id":"cebpf4jnsgd1na2vs0mg"},{"bike_id":"0af74a1a-d6e1-4579-b1c6-27467ba405fe","system_id":"levelo_inurba_marseille","lat":43.298824,"lon":5.397438,"is_reserved":false,"is_disabled":true,"rental_uris":{"android":"levelo://app?vid=0af74a1a-d6e1-4579-b1c6-27467ba405fe","ios":"levelo://app?vid=0af74a1a-d6e1-4579-b1c6-27467ba405fe"},"vehicle_type_id":"4","last_reported":1742667141,"current_range_meters":15200,"station_id":"ce4bh0h2rcd13ifvqd50","pricing_plan_id":"cebpf4jnsgd1na2vs0mg"},{"bike_id":"5bab419c-0790-4193-9793-75a3deac9c91","system_id":"levelo_inurba_marseille","lat":43.29282,"lon":5.4013,"is_reserved":false,"is_disabled":false,"rental_uris":{"android":"levelo://app?vid=5bab419c-0790-4193-9793-75a3deac9c91","ios":"levelo://app?vid=5bab419c-0790-4193-9793-75a3deac9c91"},"vehicle_type_id":"4","last_reported":1742667141,"current_range_meters":15200,"station_id":"ce4bh312rcd13ifvqdk0","pricing_plan_id":"cebpf4jnsgd1na2vs0mg"},{"bike_id":"dd5d6d06-0e34-4684-b128-c77a8d50ab86","system_id":"levelo_inurba_marseille","lat":43.30139,"lon":5.37407,"is_reserved":false,"is_disabled":false,"rental_uris":{"android":"levelo://app?vid=dd5d6d06-0e34-4684-b128-c77a8d50ab86","ios":"levelo://app?vid=dd5d6d06-0e34-4684-b128-c77a8d50ab86"},"vehicle_type_id":"4","last_reported":1742667141,"current_range_meters":15200,"station_id":"ce4bgs92rcd13ifvqcc0","pricing_plan_id":"cebpf4jnsgd1na2vs0mg"},{"bike_id":"00e71d99-3760-4b41-807e-a1fc18a1d94b","system_id":"levelo_inurba_marseille","lat":43.30171,"lon":5.38079,"is_reserved":false,"is_disabled":false,"rental_uris":{"android":"levelo://app?vid=00e71d99-3760-4b41-807e-a1fc18a1d94b","ios":"levelo://app?vid=00e71d99-3760-4b41-807e-a1fc18a1d94b"},"vehicle_type_id":"4","last_reported":1742667141,"current_range_meters":15200,"station_id":"ce4bgjp2rcd13ifvqbh0","pricing_plan_id":"cebpf4jnsgd1na2vs0mg"},{"bike_id":"d77ea824-1ea6-4980-80c7-ce0e34efe7ca","system_id":"levelo_inurba_marseille","lat":43.28161,"lon":5.42629,"is_reserved":false,"is_disabled":false,"rental_uris":{"android":"levelo://app?vid=d77ea824-1ea6-4980-80c7-ce0e34efe7ca","ios":"levelo://app?vid=d77ea824-1ea6-4980-80c7-ce0e34efe7ca"},"vehicle_type_id":"4","last_reported":1742667141,"current_range_meters":15200,"station_id":"ce4bhnh2rcd13ifvqgug","pricing_plan_id":"cebpf4jnsgd1na2vs0mg"},{"bike_id":"751ff1ed-b498-4578-9bd4-943bf6c9d8eb","system_id":"levelo_inurba_marseille","lat":43.23221,"lon":5.35546,"is_reserved":false,"is_disabled":false,"rental_uris":{"android":"levelo://app?vid=751ff1ed-b498-4578-9bd4-943bf6c9d8eb","ios":"levelo://app?vid=751ff1ed-b498-4578-9bd4-943bf6c9d8eb"},"vehicle_type_id":"4","last_reported":1742667141,"current_range_meters":15200,"station_id":"ce4bhu92rcd13ifvqi70","pricing_plan_id":"cebpf4jnsgd1na2vs0mg"},{"bike_id":"8d333f5b-1da7-498c-81ac-4e68aef51059","system_id":"levelo_inurba_marseille","lat":43.31523,"lon":5.38036,"is_reserved":false,"is_disabled":false,"rental_uris":{"android":"levelo://app?vid=8d333f5b-1da7-498c-81ac-4e68aef51059","ios":"levelo://app?vid=8d333f5b-1da7-498c-81ac-4e68aef51059"},"vehicle_type_id":"4","last_reported":1742667141,"current_range_meters":14800,"station_id":"ce4bhsp2rcd13ifvqi50","pricing_plan_id":"cebpf4jnsgd1na2vs0mg"},{"bike_id":"1542e904-806a-47f4-9338-21788e6e778e","system_id":"levelo_inurba_marseille","lat":43.23966,"lon":5.36641,"is_reserved":false,"is_disabled":false,"rental_uris":{"android":"levelo://app?vid=1542e904-806a-47f4-9338-21788e6e778e","ios":"levelo://app?vid=1542e904-806a-47f4-9338-21788e6e778e"},"vehicle_type_id":"4","last_reported":1742667141,"current_range_meters":15200,"station_id":"ce4bhi12rcd13ifvqfp0","pricing_plan_id":"cebpf4jnsgd1na2vs0mg"},{"bike_id":"7f475659-4631-4c31-997b-65be912ef243","system_id":"levelo_inurba_marseille","lat":43.25015,"lon":5.38934,"is_reserved":false,"is_disabled":false,"rental_uris":{"android":"levelo://app?vid=7f475659-4631-4c31-997b-65be912ef243","ios":"levelo://app?vid=7f475659-4631-4c31-997b-65be912ef243"},"vehicle_type_id":"4","last_reported":1742667141,"current_range_meters":15200,"station_id":"ce4bhgp2rcd13ifvqfd0","pricing_plan_id":"cebpf4jnsgd1na2vs0mg"},{"bike_id":"865b693e-334b-4fa4-9766-b6da85e3d3e2","system_id":"levelo_inurba_marseille","lat":43.30533,"lon":5.36585,"is_reserved":false,"is_disabled":false,"rental_uris":{"android":"levelo://app?vid=865b693e-334b-4fa4-9766-b6da85e3d3e2","ios":"levelo://app?vid=865b693e-334b-4fa4-9766-b6da85e3d3e2"},"vehicle_type_id":"4","last_reported":1742667141,"current_range_meters":15200,"station_id":"ce4bgs12rcd13ifvqcag","pricing_plan_id":"cebpf4jnsgd1na2vs0mg"},{"bike_id":"07541760-82c4-4d38-b58c-85ffff07e965","system_id":"levelo_inurba_marseille","lat":43.23957,"lon":5.36622,"is_reserved":false,"is_disabled":false,"rental_uris":{"android":"levelo://app?vid=07541760-82c4-4d38-b58c-85ffff07e965","ios":"levelo://app?vid=07541760-82c4-4d38-b58c-85ffff07e965"},"vehicle_type_id":"4","last_reported":1742667141,"current_range_meters":15200,"station_id":"ce4bhi12rcd13ifvqfp0","pricing_plan_id":"cebpf4jnsgd1na2vs0mg"},{"bike_id":"4c406a29-ee9e-4446-b3db-6d7899ff79a2","system_id":"levelo_inurba_marseille","lat":43.24149,"lon":5.36435,"is_reserved":false,"is_disabled":false,"rental_uris":{"android":"levelo://app?vid=4c406a29-ee9e-4446-b3db-6d7899ff79a2","ios":"levelo://app?vid=4c406a29-ee9e-4446-b3db-6d7899ff79a2"},"vehicle_type_id":"4","last_reported":1742667141,"current_range_meters":15200,"station_id":"cpo36qri1sfpv3e86is0","pricing_plan_id":"cebpf4jnsgd1na2vs0mg"},{"bike_id":"251b91fa-5ffa-45df-889c-d4c296c962cd","system_id":"levelo_inurba_marseille","lat":43.24807,"lon":5.37456,"is_reserved":false,"is_disabled":false,"rental_uris":{"android":"levelo://app?vid=251b91fa-5ffa-45df-889c-d4c296c962cd","ios":"levelo://app?vid=251b91fa-5ffa-45df-889c-d4c296c962cd"},"vehicle_type_id":"4","last_reported":1742667141,"current_range_meters":15200,"station_id":"ce4bhgh2rcd13ifvqfb0","pricing_plan_id":"cebpf4jnsgd1na2vs0mg"},{"bike_id":"4996d5b0-2b39-4d8d-bc20-3d8ec360f7bb","system_id":"levelo_inurba_marseille","lat":43.27911,"lon":5.39595,"is_reserved":false,"is_disabled":false,"rental_uris":{"android":"levelo://app?vid=4996d5b0-2b39-4d8d-bc20-3d8ec360f7bb","ios":"levelo://app?vid=4996d5b0-2b39-4d8d-bc20-3d8ec360f7bb"},"vehicle_type_id":"4","last_reported":1742667141,"current_range_meters":15200,"station_id":"ce4bhf92rcd13ifvqf40","pricing_plan_id":"cebpf4jnsgd1na2vs0mg"},{"bike_id":"196e5527-f8ec-47c9-88d8-c0c49611574a","system_id":"levelo_inurba_marseille","lat":43.23078,"lon":5.35503,"is_reserved":false,"is_disabled":false,"rental_uris":{"android":"levelo://app?vid=196e5527-f8ec-47c9-88d8-c0c49611574a","ios":"levelo://app?vid=196e5527-f8ec-47c9-88d8-c0c49611574a"},"vehicle_type_id":"4","last_reported":1742667141,"current_range_meters":15200,"station_id":"cpo3342slgdg3j2ifvpg","pricing_plan_id":"cebpf4jnsgd1na2vs0mg"},{"bike_id":"e41bf9f2-5cdf-4a27-9e19-85dd8eb5dce8","system_id":"levelo_inurba_marseille","lat":43.30137,"lon":5.37413,"is_reserved":false,"is_disabled":false,"rental_uris":{"android":"levelo://app?vid=e41bf9f2-5cdf-4a27-9e19-85dd8eb5dce8","ios":"levelo://app?vid=e41bf9f2-5cdf-4a27-9e19-85dd8eb5dce8"},"vehicle_type_id":"4","last_reported":1742667141,"current_range_meters":16000,"station_id":"ce4bgs92rcd13ifvqcc0","pricing_plan_id":"cebpf4jnsgd1na2vs0mg"},{"bike_id":"c657f8e5-e455-4ccd-ba09-c81dee576b4a","system_id":"levelo_inurba_marseille","lat":43.28158,"lon":5.42641,"is_reserved":false,"is_disabled":false,"rental_uris":{"android":"levelo://app?vid=c657f8e5-e455-4ccd-ba09-c81dee576b4a","ios":"levelo://app?vid=c657f8e5-e455-4ccd-ba09-c81dee576b4a"},"vehicle_type_id":"4","last_reported":1742667141,"current_range_meters":16000,"station_id":"ce4bhnh2rcd13ifvqgug","pricing_plan_id":"cebpf4jnsgd1na2vs0mg"},{"bike_id":"050381e0-666b-4c98-aa42-54b443a035a5","system_id":"levelo_inurba_marseille","lat":43.30306,"lon":5.368835,"is_reserved":false,"is_disabled":false,"rental_uris":{"android":"levelo://app?vid=050381e0-666b-4c98-aa42-54b443a035a5","ios":"levelo://app?vid=050381e0-666b-4c98-aa42-54b443a035a5"},"vehicle_type_id":"4","last_reported":1742667141,"current_range_meters":16000,"station_id":"ce4bgqh2rcd13ifvqc5g","pricing_plan_id":"cebpf4jnsgd1na2vs0mg"},{"bike_id":"9c8a1880-3006-46b1-982b-2d4b1e75ce43","system_id":"levelo_inurba_marseille","lat":43.25579,"lon":5.38233,"is_reserved":false,"is_disabled":false,"rental_uris":{"android":"levelo://app?vid=9c8a1880-3006-46b1-982b-2d4b1e75ce43","ios":"levelo://app?vid=9c8a1880-3006-46b1-982b-2d4b1e75ce43"},"vehicle_type_id":"4","last_reported":1742667141,"current_range_meters":16000,"station_id":"ce4bhih2rcd13ifvqfs0","pricing_plan_id":"cebpf4jnsgd1na2vs0mg"},{"bike_id":"80beaee8-2975-44c4-aa81-0c3db38fa3c3","system_id":"levelo_inurba_marseille","lat":43.27967,"lon":5.38741,"is_reserved":false,"is_disabled":false,"rental_uris":{"android":"levelo://app?vid=80beaee8-2975-44c4-aa81-0c3db38fa3c3","ios":"levelo://app?vid=80beaee8-2975-44c4-aa81-0c3db38fa3c3"},"vehicle_type_id":"4","last_reported":1742667141,"current_range_meters":16000,"station_id":"ce4bhg12rcd13ifvqf80","pricing_plan_id":"cebpf4jnsgd1na2vs0mg"},{"bike_id":"c3c1b77c-fa8a-4b9f-b52a-bdd459f02e65","system_id":"levelo_inurba_marseille","lat":43.29252,"lon":5.40915,"is_reserved":false,"is_disabled":false,"rental_uris":{"android":"levelo://app?vid=c3c1b77c-fa8a-4b9f-b52a-bdd459f02e65","ios":"levelo://app?vid=c3c1b77c-fa8a-4b9f-b52a-bdd459f02e65"},"vehicle_type_id":"4","last_reported":1742667141,"current_range_meters":16000,"station_id":"ce4bh192rcd13ifvqdc0","pricing_plan_id":"cebpf4jnsgd1na2vs0mg"},