{"last_updated":1778910239,"ttl":60,"version":"2.2","data":{"bikes":[{"bike_id":"d194f185-ad3d-4bc0-b272-b72d19a7822c","system_id":"levelo_inurba_marseille","lat":43.24086,"lon":5.37744,"is_reserved":false,"is_disabled":false,"rental_uris":{"android":"levelo://app?vid=d194f185-ad3d-4bc0-b272-b72d19a7822c","ios":"levelo://app?vid=d194f185-ad3d-4bc0-b272-b72d19a7822c"},"vehicle_type_id":"4","last_reported":1778910240,"current_range_meters":2800,"station_id":"ce4bhnp2rcd13ifvqgvg","pricing_plan_id":"cebpf4jnsgd1na2vs0mg"},{"bike_id":"9b2cbbc1-9dda-4f79-bc45-8694c91bb5f6","system_id":"levelo_inurba_marseille","lat":43.28255,"lon":5.35109,"is_reserved":false,"is_disabled":true,"rental_uris":{"android":"levelo://app?vid=9b2cbbc1-9dda-4f79-bc45-8694c91bb5f6","ios":"levelo://app?vid=9b2cbbc1-9dda-4f79-bc45-8694c91bb5f6"},"vehicle_type_id":"4","last_reported":1778910240,"current_range_meters":2800,"station_id":"","pricing_plan_id":"cebpf4jnsgd1na2vs0mg"},{"bike_id":"9d4c387e-1c02-4a0b-923b-2bd238138bad","system_id":"levelo_inurba_marseille","lat":43.255,"lon":5.3765,"is_reserved":false,"is_disabled":false,"rental_uris":{"android":"levelo://app?vid=9d4c387e-1c02-4a0b-923b-2bd238138bad","ios":"levelo://app?vid=9d4c387e-1c02-4a0b-923b-2bd238138bad"},"vehicle_type_id":"4","last_reported":1778910240,"current_range_meters":2800,"station_id":"ce4bhh12rcd13ifvqff0","pricing_plan_id":"cebpf4jnsgd1na2vs0mg"},{"bike_id":"9fc6bad3-de97-4c5e-aa13-12610e9c80ff","system_id":"levelo_inurba_marseille","lat":43.30798,"lon":5.38167,"is_reserved":false,"is_disabled":false,"rental_uris":{"android":"levelo://app?vid=9fc6bad3-de97-4c5e-aa13-12610e9c80ff","ios":"levelo://app?vid=9fc6bad3-de97-4c5e-aa13-12610e9c80ff"},"vehicle_type_id":"4","last_reported":1778910240,"current_range_meters":2800,"station_id":"ce4bgt12rcd13ifvqce0","pricing_plan_id":"cebpf4jnsgd1na2vs0mg"},{"bike_id":"99a4e885-b612-4bd3-8956-29255e17cff2","system_id":"levelo_inurba_marseille","lat":43.26194,"lon":5.37432,"is_reserved":false,"is_disabled":true,"rental_uris":{"android":"levelo://app?vid=99a4e885-b612-4bd3-8956-29255e17cff2","ios":"levelo://app?vid=99a4e885-b612-4bd3-8956-29255e17cff2"},"vehicle_type_id":"4","last_reported":1778910240,"current_range_meters":2800,"station_id":"ce4bhgp2rcd13ifvqfc0","pricing_plan_id":"cebpf4jnsgd1na2vs0mg"},{"bike_id":"fe519f23-bc65-44f4-bfe2-0db55882f3fb","system_id":"levelo_inurba_marseille","lat":43.3245,"lon":5.36559,"is_reserved":false,"is_disabled":false,"rental_uris":{"android":"levelo://app?vid=fe519f23-bc65-44f4-bfe2-0db55882f3fb","ios":"levelo://app?vid=fe519f23-bc65-44f4-bfe2-0db55882f3fb"},"vehicle_type_id":"4","last_reported":1778910240,"current_range_meters":2800,"station_id":"ce4bhs12rcd13ifvqhvg","pricing_plan_id":"cebpf4jnsgd1na2vs0mg"},{"bike_id":"1602e64f-38f4-48c2-aa6e-9ea48cc2c8f5","system_id":"levelo_inurba_marseille","lat":43.21767,"lon":5.34604,"is_reserved":false,"is_disabled":false,"rental_uris":{"android":"levelo://app?vid=1602e64f-38f4-48c2-aa6e-9ea48cc2c8f5","ios":"levelo://app?vid=1602e64f-38f4-48c2-aa6e-9ea48cc2c8f5"},"vehicle_type_id":"4","last_reported":1778910240,"current_range_meters":2800,"station_id":"st_cvj6r9ubvosntc0bgbag","pricing_plan_id":"cebpf4jnsgd1na2vs0mg"},{"bike_id":"05005507-3f2e-4667-8fe8-e5bc5ea35ae5","system_id":"levelo_inurba_marseille","lat":43.24811,"lon":5.37441,"is_reserved":false,"is_disabled":true,"rental_uris":{"android":"levelo://app?vid=05005507-3f2e-4667-8fe8-e5bc5ea35ae5","ios":"levelo://app?vid=05005507-3f2e-4667-8fe8-e5bc5ea35ae5"},"vehicle_type_id":"4","last_reported":1778910240,"current_range_meters":3200,"station_id":"ce4bhgh2rcd13ifvqfb0","pricing_plan_id":"cebpf4jnsgd1na2vs0mg"},{"bike_id":"6fcaa970-fbb9-44f4-a1a2-a03710340699","system_id":"levelo_inurba_marseille","lat":43.22529,"lon":5.34848,"is_reserved":false,"is_disabled":true,"rental_uris":{"android":"levelo://app?vid=6fcaa970-fbb9-44f4-a1a2-a03710340699","ios":"levelo://app?vid=6fcaa970-fbb9-44f4-a1a2-a03710340699"},"vehicle_type_id":"4","last_reported":1778910240,"current_range_meters":3200,"station_id":"st_cvj5dfep6f1abm77gieg","pricing_plan_id":"cebpf4jnsgd1na2vs0mg"},{"bike_id":"b377143e-4597-406b-9854-5cc8360be131","system_id":"levelo_inurba_marseille","lat":43.27919,"lon":5.39223,"is_reserved":false,"is_disabled":false,"rental_uris":{"android":"levelo://app?vid=b377143e-4597-406b-9854-5cc8360be131","ios":"levelo://app?vid=b377143e-4597-406b-9854-5cc8360be131"},"vehicle_type_id":"4","last_reported":1778910240,"current_range_meters":3200,"station_id":"","pricing_plan_id":"cebpf4jnsgd1na2vs0mg"},{"bike_id":"9fb6f2eb-e48a-42d1-b654-005bd7db02f8","system_id":"levelo_inurba_marseille","lat":43.29975,"lon":5.38496,"is_reserved":false,"is_disabled":false,"rental_uris":{"android":"levelo://app?vid=9fb6f2eb-e48a-42d1-b654-005bd7db02f8","ios":"levelo://app?vid=9fb6f2eb-e48a-42d1-b654-005bd7db02f8"},"vehicle_type_id":"4","last_reported":1778910240,"current_range_meters":3200,"station_id":"ce4bgj92rcd13ifvqbd0","pricing_plan_id":"cebpf4jnsgd1na2vs0mg"},{"bike_id":"936fa868-782b-40af-831a-a0159a0c0157","system_id":"levelo_inurba_marseille","lat":43.22549,"lon":5.34817,"is_reserved":false,"is_disabled":false,"rental_uris":{"android":"levelo://app?vid=936fa868-782b-40af-831a-a0159a0c0157","ios":"levelo://app?vid=936fa868-782b-40af-831a-a0159a0c0157"},"vehicle_type_id":"4","last_reported":1778910240,"current_range_meters":3200,"station_id":"st_cvj5dfep6f1abm77gieg","pricing_plan_id":"cebpf4jnsgd1na2vs0mg"},{"bike_id":"2c900b6d-c6bc-4eeb-a695-1fac18b6e8ba","system_id":"levelo_inurba_marseille","lat":43.27069,"lon":5.40276,"is_reserved":false,"is_disabled":false,"rental_uris":{"android":"levelo://app?vid=2c900b6d-c6bc-4eeb-a695-1fac18b6e8ba","ios":"levelo://app?vid=2c900b6d-c6bc-4eeb-a695-1fac18b6e8ba"},"vehicle_type_id":"4","last_reported":1778910240,"current_range_meters":3200,"station_id":"ce4bhk92rcd13ifvqgc0","pricing_plan_id":"cebpf4jnsgd1na2vs0mg"},{"bike_id":"cc311a05-7fc9-47f5-97fc-c740da8111df","system_id":"levelo_inurba_marseille","lat":43.29535,"lon":5.38542,"is_reserved":false,"is_disabled":true,"rental_uris":{"android":"levelo://app?vid=cc311a05-7fc9-47f5-97fc-c740da8111df","ios":"levelo://app?vid=cc311a05-7fc9-47f5-97fc-c740da8111df"},"vehicle_type_id":"4","last_reported":1778910240,"current_range_meters":3200,"station_id":"ce4bgih2rcd13ifvqba0","pricing_plan_id":"cebpf4jnsgd1na2vs0mg"},{"bike_id":"b689131c-c740-461c-a491-d793d63702b1","system_id":"levelo_inurba_marseille","lat":43.22541,"lon":5.3486,"is_reserved":false,"is_disabled":true,"rental_uris":{"android":"levelo://app?vid=b689131c-c740-461c-a491-d793d63702b1","ios":"levelo://app?vid=b689131c-c740-461c-a491-d793d63702b1"},"vehicle_type_id":"4","last_reported":1778910240,"current_range_meters":3600,"station_id":"st_cvj5dfep6f1abm77gieg","pricing_plan_id":"cebpf4jnsgd1na2vs0mg"},{"bike_id":"6333e7f6-67b5-49dd-8ef5-f232d586c2bb","system_id":"levelo_inurba_marseille","lat":43.26221,"lon":5.38783,"is_reserved":false,"is_disabled":false,"rental_uris":{"android":"levelo://app?vid=6333e7f6-67b5-49dd-8ef5-f232d586c2bb","ios":"levelo://app?vid=6333e7f6-67b5-49dd-8ef5-f232d586c2bb"},"vehicle_type_id":"4","last_reported":1778910240,"current_range_meters":3600,"station_id":"","pricing_plan_id":"cebpf4jnsgd1na2vs0mg"},{"bike_id":"c015344b-21f4-4daa-bd8e-6d232c97c068","system_id":"levelo_inurba_marseille","lat":43.29034,"lon":5.39948,"is_reserved":false,"is_disabled":false,"rental_uris":{"android":"levelo://app?vid=c015344b-21f4-4daa-bd8e-6d232c97c068","ios":"levelo://app?vid=c015344b-21f4-4daa-bd8e-6d232c97c068"},"vehicle_type_id":"4","last_reported":1778910240,"current_range_meters":3600,"station_id":"ce4bh392rcd13ifvqdm0","pricing_plan_id":"cebpf4jnsgd1na2vs0mg"},{"bike_id":"49dde2ef-9bde-469e-a709-f081dbfd2afb","system_id":"levelo_inurba_marseille","lat":43.23965,"lon":5.36652,"is_reserved":false,"is_disabled":false,"rental_uris":{"android":"levelo://app?vid=49dde2ef-9bde-469e-a709-f081dbfd2afb","ios":"levelo://app?vid=49dde2ef-9bde-469e-a709-f081dbfd2afb"},"vehicle_type_id":"4","last_reported":1778910240,"current_range_meters":3600,"station_id":"ce4bhi12rcd13ifvqfp0","pricing_plan_id":"cebpf4jnsgd1na2vs0mg"},{"bike_id":"7551c889-7117-4029-a5d8-adbeff42820f","system_id":"levelo_inurba_marseille","lat":43.29601,"lon":5.38065,"is_reserved":false,"is_disabled":false,"rental_uris":{"android":"levelo://app?vid=7551c889-7117-4029-a5d8-adbeff42820f","ios":"levelo://app?vid=7551c889-7117-4029-a5d8-adbeff42820f"},"vehicle_type_id":"4","last_reported":1778910240,"current_range_meters":3600,"station_id":"ce4bgl12rcd13ifvqbo0","pricing_plan_id":"cebpf4jnsgd1na2vs0mg"},{"bike_id":"be0807c6-608c-4e26-88c8-69053a1ec5dd","system_id":"levelo_inurba_marseille","lat":43.2988,"lon":5.3972,"is_reserved":false,"is_disabled":false,"rental_uris":{"android":"levelo://app?vid=be0807c6-608c-4e26-88c8-69053a1ec5dd","ios":"levelo://app?vid=be0807c6-608c-4e26-88c8-69053a1ec5dd"},"vehicle_type_id":"4","last_reported":1778910240,"current_range_meters":3600,"station_id":"ce4bh0h2rcd13ifvqd50","pricing_plan_id":"cebpf4jnsgd1na2vs0mg"},{"bike_id":"504d1142-6ecd-4ba2-8efa-aa69733abe8c","system_id":"levelo_inurba_marseille","lat":43.30308,"lon":5.3691,"is_reserved":false,"is_disabled":false,"rental_uris":{"android":"levelo://app?vid=504d1142-6ecd-4ba2-8efa-aa69733abe8c","ios":"levelo://app?vid=504d1142-6ecd-4ba2-8efa-aa69733abe8c"},"vehicle_type_id":"4","last_reported":1778910240,"current_range_meters":3600,"station_id":"ce4bgqh2rcd13ifvqc5g","pricing_plan_id":"cebpf4jnsgd1na2vs0mg"},{"bike_id":"2143e575-068a-477e-a5ad-1b8c1c42c969","system_id":"levelo_inurba_marseille","lat":43.26553,"lon":5.372851,"is_reserved":false,"is_disabled":false,"rental_uris":{"android":"levelo://app?vid=2143e575-068a-477e-a5ad-1b8c1c42c969","ios":"levelo://app?vid=2143e575-068a-477e-a5ad-1b8c1c42c969"},"vehicle_type_id":"4","last_reported":1778910240,"current_range_meters":3600,"station_id":"ce4bhg12rcd13ifvqf70","pricing_plan_id":"cebpf4jnsgd1na2vs0mg"},{"bike_id":"dadc9d3c-9366-4814-bf9b-a97d77bb6988","system_id":"levelo_inurba_marseille","lat":43.2603,"lon":5.37569,"is_reserved":false,"is_disabled":false,"rental_uris":{"android":"levelo://app?vid=dadc9d3c-9366-4814-bf9b-a97d77bb6988","ios":"levelo://app?vid=dadc9d3c-9366-4814-bf9b-a97d77bb6988"},"vehicle_type_id":"4","last_reported":1778910240,"current_range_meters":3600,"station_id":"ce4bhgh2rcd13ifvqfa0","pricing_plan_id":"cebpf4jnsgd1na2vs0mg"},{"bike_id":"683c2f64-d560-477d-bf79-f81884be1301","system_id":"levelo_inurba_marseille","lat":43.26382,"lon":5.4028,"is_reserved":false,"is_disabled":false,"rental_uris":{"android":"levelo://app?vid=683c2f64-d560-477d-bf79-f81884be1301","ios":"levelo://app?vid=683c2f64-d560-477d-bf79-f81884be1301"},"vehicle_type_id":"4","last_reported":1778910240,"current_range_meters":3600,"station_id":"","pricing_plan_id":"cebpf4jnsgd1na2vs0mg"},{"bike_id":"0d5dd8d5-22ce-4cf4-96c4-a16487c95253","system_id":"levelo_inurba_marseille","lat":43.29975,"lon":5.3869,"is_reserved":false,"is_disabled":false,"rental_uris":{"android":"levelo://app?vid=0d5dd8d5-22ce-4cf4-96c4-a16487c95253","ios":"levelo://app?vid=0d5dd8d5-22ce-4cf4-96c4-a16487c95253"},"vehicle_type_id":"4","last_reported":1778910240,"current_range_meters":3600,"station_id":"","pricing_plan_id":"cebpf4jnsgd1na2vs0mg"},{"bike_id":"9d5f879f-815c-4108-9149-5d6da1dbb023","system_id":"levelo_inurba_marseille","lat":43.24456,"lon":5.4254,"is_reserved":false,"is_disabled":false,"rental_uris":{"android":"levelo://app?vid=9d5f879f-815c-4108-9149-5d6da1dbb023","ios":"levelo://app?vid=9d5f879f-815c-4108-9149-5d6da1dbb023"},"vehicle_type_id":"4","last_reported":1778910240,"current_range_meters":3600,"station_id":"st_d4a3vfp97mjs738cd8kg","pricing_plan_id":"cebpf4jnsgd1na2vs0mg"},{"bike_id":"def5bf59-e3d6-4ad4-a9f1-c57a6c935980","system_id":"levelo_inurba_marseille","lat":43.27371,"lon":5.36262,"is_reserved":false,"is_disabled":false,"rental_uris":{"android":"levelo://app?vid=def5bf59-e3d6-4ad4-a9f1-c57a6c935980","ios":"levelo://app?vid=def5bf59-e3d6-4ad4-a9f1-c57a6c935980"},"vehicle_type_id":"4","last_reported":1778910240,"current_range_meters":3600,"station_id":"ce4bhbh2rcd13ifvqeo0","pricing_plan_id":"cebpf4jnsgd1na2vs0mg"},{"bike_id":"38e5524f-9270-46e3-9347-904a53ccf264","system_id":"levelo_inurba_marseille","lat":43.29505,"lon":5.39041,"is_reserved":false,"is_disabled":false,"rental_uris":{"android":"levelo://app?vid=38e5524f-9270-46e3-9347-904a53ccf264","ios":"levelo://app?vid=38e5524f-9270-46e3-9347-904a53ccf264"},"vehicle_type_id":"4","last_reported":1778910240,"current_range_meters":4000,"station_id":"ce4bh3p2rcd13ifvqdp0","pricing_plan_id":"cebpf4jnsgd1na2vs0mg"},{"bike_id":"f305df5b-59bc-483b-954f-4fa8bf18b527","system_id":"levelo_inurba_marseille","lat":43.24806,"lon":5.37446,"is_reserved":false,"is_disabled":false,"rental_uris":{"android":"levelo://app?vid=f305df5b-59bc-483b-954f-4fa8bf18b527","ios":"levelo://app?vid=f305df5b-59bc-483b-954f-4fa8bf18b527"},"vehicle_type_id":"4","last_reported":1778910240,"current_range_meters":4000,"station_id":"ce4bhgh2rcd13ifvqfb0","pricing_plan_id":"cebpf4jnsgd1na2vs0mg"},{"bike_id":"c4ee361f-040e-4ad9-8fc8-7b730e9f0c39","system_id":"levelo_inurba_marseille","lat":43.337444,"lon":5.374475,"is_reserved":false,"is_disabled":true,"rental_uris":{"android":"levelo://app?vid=c4ee361f-040e-4ad9-8fc8-7b730e9f0c39","ios":"levelo://app?vid=c4ee361f-040e-4ad9-8fc8-7b730e9f0c39"},"vehicle_type_id":"4","last_reported":1778910240,"current_range_meters":4000,"station_id":"","pricing_plan_id":"cebpf4jnsgd1na2vs0mg"},{"bike_id":"08c772e3-0504-446f-b5ab-8f8a5debda77","system_id":"levelo_inurba_marseille","lat":43.28119,"lon":5.42623,"is_reserved":false,"is_disabled":false,"rental_uris":{"android":"levelo://app?vid=08c772e3-0504-446f-b5ab-8f8a5debda77","ios":"levelo://app?vid=08c772e3-0504-446f-b5ab-8f8a5debda77"},"vehicle_type_id":"4","last_reported":1778910240,"current_range_meters":4000,"station_id":"ce4bhnh2rcd13ifvqgug","pricing_plan_id":"cebpf4jnsgd1na2vs0mg"},{"bike_id":"95253244-89cc-4e41-8d16-5de9b0d3b390","system_id":"levelo_inurba_marseille","lat":43.28701,"lon":5.39962,"is_reserved":false,"is_disabled":false,"rental_uris":{"android":"levelo://app?vid=95253244-89cc-4e41-8d16-5de9b0d3b390","ios":"levelo://app?vid=95253244-89cc-4e41-8d16-5de9b0d3b390"},"vehicle_type_id":"4","last_reported":1778910240,"current_range_meters":4000,"station_id":"ce4bho92rcd13ifvqh3g","pricing_plan_id":"cebpf4jnsgd1na2vs0mg"},{"bike_id":"146dab31-404b-4d62-b261-022fa58bf707","system_id":"levelo_inurba_marseille","lat":43.33043,"lon":5.39042,"is_reserved":false,"is_disabled":false,"rental_uris":{"android":"levelo://app?vid=146dab31-404b-4d62-b261-022fa58bf707","ios":"levelo://app?vid=146dab31-404b-4d62-b261-022fa58bf707"},"vehicle_type_id":"4","last_reported":1778910240,"current_range_meters":4000,"station_id":"ce4bhr92rcd13ifvqhrg","pricing_plan_id":"cebpf4jnsgd1na2vs0mg"},{"bike_id":"b1b1c9ad-0e11-41a8-95b1-ee1803460284","system_id":"levelo_inurba_marseille","lat":43.33544,"lon":5.37472,"is_reserved":false,"is_disabled":false,"rental_uris":{"android":"levelo://app?vid=b1b1c9ad-0e11-41a8-95b1-ee1803460284","ios":"levelo://app?vid=b1b1c9ad-0e11-41a8-95b1-ee1803460284"},"vehicle_type_id":"4","last_reported":1778910240,"current_range_meters":4000,"station_id":"st_d46tts09ee8s73dlu43g","pricing_plan_id":"cebpf4jnsgd1na2vs0mg"},{"bike_id":"d777fd55-d11a-4e0a-b2e3-9e6cdd06801a","system_id":"levelo_inurba_marseille","lat":43.26214,"lon":5.40594,"is_reserved":false,"is_disabled":false,"rental_uris":{"android":"levelo://app?vid=d777fd55-d11a-4e0a-b2e3-9e6cdd06801a","ios":"levelo://app?vid=d777fd55-d11a-4e0a-b2e3-9e6cdd06801a"},"vehicle_type_id":"4","last_reported":1778910240,"current_range_meters":4000,"station_id":"","pricing_plan_id":"cebpf4jnsgd1na2vs0mg"},{"bike_id":"e95d3c0c-a37f-41c8-8e42-81fa6e69c3d7","system_id":"levelo_inurba_marseille","lat":43.24439,"lon":5.37107,"is_reserved":false,"is_disabled":false,"rental_uris":{"android":"levelo://app?vid=e95d3c0c-a37f-41c8-8e42-81fa6e69c3d7","ios":"levelo://app?vid=e95d3c0c-a37f-41c8-8e42-81fa6e69c3d7"},"vehicle_type_id":"4","last_reported":1778910240,"current_range_meters":4000,"station_id":"ce4bhhh2rcd13ifvqfk0","pricing_plan_id":"cebpf4jnsgd1na2vs0mg"},{"bike_id":"1f753c4f-62cb-46f6-a4f5-b4211bb07ff1","system_id":"levelo_inurba_marseille","lat":43.26376,"lon":5.41082,"is_reserved":false,"is_disabled":false,"rental_uris":{"android":"levelo://app?vid=1f753c4f-62cb-46f6-a4f5-b4211bb07ff1","ios":"levelo://app?vid=1f753c4f-62cb-46f6-a4f5-b4211bb07ff1"},"vehicle_type_id":"4","last_reported":1778910240,"current_range_meters":4000,"station_id":"st_d4e5ca6na9uc73bfl5fg","pricing_plan_id":"cebpf4jnsgd1na2vs0mg"},{"bike_id":"19d69b75-f53d-4f9d-b459-a8ec1a163024","system_id":"levelo_inurba_marseille","lat":43.30155,"lon":5.38092,"is_reserved":false,"is_disabled":true,"rental_uris":{"android":"levelo://app?vid=19d69b75-f53d-4f9d-b459-a8ec1a163024","ios":"levelo://app?vid=19d69b75-f53d-4f9d-b459-a8ec1a163024"},"vehicle_type_id":"4","last_reported":1778910240,"current_range_meters":4000,"station_id":"ce4bgjp2rcd13ifvqbh0","pricing_plan_id":"cebpf4jnsgd1na2vs0mg"},{"bike_id":"de18d8d3-16ef-4166-8728-366662f46df4","system_id":"levelo_inurba_marseille","lat":43.24074,"lon":5.37747,"is_reserved":false,"is_disabled":false,"rental_uris":{"android":"levelo://app?vid=de18d8d3-16ef-4166-8728-366662f46df4","ios":"levelo://app?vid=de18d8d3-16ef-4166-8728-366662f46df4"},"vehicle_type_id":"4","last_reported":1778910240,"current_range_meters":4000,"station_id":"ce4bhnp2rcd13ifvqgvg","pricing_plan_id":"cebpf4jnsgd1na2vs0mg"},{"bike_id":"91111149-9492-4c81-8bdd-707362da49b6","system_id":"levelo_inurba_marseille","lat":43.30142,"lon":5.37418,"is_reserved":false,"is_disabled":false,"rental_uris":{"android":"levelo://app?vid=91111149-9492-4c81-8bdd-707362da49b6","ios":"levelo://app?vid=91111149-9492-4c81-8bdd-707362da49b6"},"vehicle_type_id":"4","last_reported":1778910240,"current_range_meters":4000,"station_id":"ce4bgs92rcd13ifvqcc0","pricing_plan_id":"cebpf4jnsgd1na2vs0mg"},{"bike_id":"a2faab7b-1a1e-4589-8d0e-13503bb9caf5","system_id":"levelo_inurba_marseille","lat":43.29798,"lon":5.38098,"is_reserved":false,"is_disabled":false,"rental_uris":{"android":"levelo://app?vid=a2faab7b-1a1e-4589-8d0e-13503bb9caf5","ios":"levelo://app?vid=a2faab7b-1a1e-4589-8d0e-13503bb9caf5"},"vehicle_type_id":"4","last_reported":1778910240,"current_range_meters":4400,"station_id":"ce4bgip2rcd13ifvqbb0","pricing_plan_id":"cebpf4jnsgd1na2vs0mg"},{"bike_id":"d8f85cb9-935d-44f7-8b4c-b6b61be4ba0b","system_id":"levelo_inurba_marseille","lat":43.29961,"lon":5.38502,"is_reserved":false,"is_disabled":false,"rental_uris":{"android":"levelo://app?vid=d8f85cb9-935d-44f7-8b4c-b6b61be4ba0b","ios":"levelo://app?vid=d8f85cb9-935d-44f7-8b4c-b6b61be4ba0b"},"vehicle_type_id":"4","last_reported":1778910240,"current_range_meters":4400,"station_id":"ce4bgj92rcd13ifvqbd0","pricing_plan_id":"cebpf4jnsgd1na2vs0mg"},{"bike_id":"9b0d300e-df14-4113-9c71-af15c744e30b","system_id":"levelo_inurba_marseille","lat":43.31703,"lon":5.42409,"is_reserved":false,"is_disabled":false,"rental_uris":{"android":"levelo://app?vid=9b0d300e-df14-4113-9c71-af15c744e30b","ios":"levelo://app?vid=9b0d300e-df14-4113-9c71-af15c744e30b"},"vehicle_type_id":"4","last_reported":1778910240,"current_range_meters":4400,"station_id":"ce4bhp92rcd13ifvqhbg","pricing_plan_id":"cebpf4jnsgd1na2vs0mg"},{"bike_id":"1d5fa909-b977-46a9-9408-7410d1722666","system_id":"levelo_inurba_marseille","lat":43.24391,"lon":5.37075,"is_reserved":false,"is_disabled":false,"rental_uris":{"android":"levelo://app?vid=1d5fa909-b977-46a9-9408-7410d1722666","ios":"levelo://app?vid=1d5fa909-b977-46a9-9408-7410d1722666"},"vehicle_type_id":"4","last_reported":1778910240,"current_range_meters":4400,"station_id":"ce4bhhh2rcd13ifvqfk0","pricing_plan_id":"cebpf4jnsgd1na2vs0mg"},{"bike_id":"1acf4b9e-bc2a-4444-8faa-988509eb626f","system_id":"levelo_inurba_marseille","lat":43.31038,"lon":5.37174,"is_reserved":false,"is_disabled":false,"rental_uris":{"android":"levelo://app?vid=1acf4b9e-bc2a-4444-8faa-988509eb626f","ios":"levelo://app?vid=1acf4b9e-bc2a-4444-8faa-988509eb626f"},"vehicle_type_id":"4","last_reported":1778910240,"current_range_meters":4400,"station_id":"st_d4kl2rp97mjs73e7tdfg","pricing_plan_id":"cebpf4jnsgd1na2vs0mg"},{"bike_id":"a5b30788-7f54-4822-ab18-9d03c3d0a4c9","system_id":"levelo_inurba_marseille","lat":43.27352,"lon":5.36248,"is_reserved":false,"is_disabled":false,"rental_uris":{"android":"levelo://app?vid=a5b30788-7f54-4822-ab18-9d03c3d0a4c9","ios":"levelo://app?vid=a5b30788-7f54-4822-ab18-9d03c3d0a4c9"},"vehicle_type_id":"4","last_reported":1778910240,"current_range_meters":4400,"station_id":"ce4bhbh2rcd13ifvqeo0","pricing_plan_id":"cebpf4jnsgd1na2vs0mg"},{"bike_id":"caeefb51-7c3c-45aa-bafa-17ab17688b10","system_id":"levelo_inurba_marseille","lat":43.26029,"lon":5.37545,"is_reserved":false,"is_disabled":false,"rental_uris":{"android":"levelo://app?vid=caeefb51-7c3c-45aa-bafa-17ab17688b10","ios":"levelo://app?vid=caeefb51-7c3c-45aa-bafa-17ab17688b10"},"vehicle_type_id":"4","last_reported":1778910240,"current_range_meters":4400,"station_id":"ce4bhgh2rcd13ifvqfa0","pricing_plan_id":"cebpf4jnsgd1na2vs0mg"},{"bike_id":"d35a5361-ecbd-4756-a272-e790a164bf93","system_id":"levelo_inurba_marseille","lat":43.26233,"lon":5.40451,"is_reserved":false,"is_disabled":false,"rental_uris":{"android":"levelo://app?vid=d35a5361-ecbd-4756-a272-e790a164bf93","ios":"levelo://app?vid=d35a5361-ecbd-4756-a272-e790a164bf93"},"vehicle_type_id":"4","last_reported":1778910240,"current_range_meters":4400,"station_id":"ce4bhmh2rcd13ifvqgmg","pricing_plan_id":"cebpf4jnsgd1na2vs0mg"},{"bike_id":"f3198137-cbc8-4311-8899-b4ab689fee46","system_id":"levelo_inurba_marseille","lat":43.26034,"lon":5.37544,"is_reserved":false,"is_disabled":false,"rental_uris":{"android":"levelo://app?vid=f3198137-cbc8-4311-8899-b4ab689fee46","ios":"levelo://app?vid=f3198137-cbc8-4311-8899-b4ab689fee46"},"vehicle_type_id":"4","last_reported":1778910240,"current_range_meters":4400,"station_id":"ce4bhgh2rcd13ifvqfa0","pricing_plan_id":"cebpf4jnsgd1na2vs0mg"},{"bike_id":"18eb90ac-eec2-4913-9241-dd8d26049a6e","system_id":"levelo_inurba_marseille","lat":43.28706,"lon":5.46684,"is_reserved":false,"is_disabled":false,"rental_uris":{"android":"levelo://app?vid=18eb90ac-eec2-4913-9241-dd8d26049a6e","ios":"levelo://app?vid=18eb90ac-eec2-4913-9241-dd8d26049a6e"},"vehicle_type_id":"4","last_reported":1778910240,"current_range_meters":4400,"station_id":"st_d6tc3vkotcvc738tfjhg","pricing_plan_id":"cebpf4jnsgd1na2vs0mg"},{"bike_id":"a9ae89fc-206c-4d68-b57f-4b9d3c27636e","system_id":"levelo_inurba_marseille","lat":43.22549,"lon":5.4163,"is_reserved":false,"is_disabled":false,"rental_uris":{"android":"levelo://app?vid=a9ae89fc-206c-4d68-b57f-4b9d3c27636e","ios":"levelo://app?vid=a9ae89fc-206c-4d68-b57f-4b9d3c27636e"},"vehicle_type_id":"4","last_reported":1778910240,"current_range_meters":4400,"station_id":"st_d2o4gvlbi1j2169b742g","pricing_plan_id":"cebpf4jnsgd1na2vs0mg"},{"bike_id":"0851ef02-abf8-47b5-8d41-445bb5757760","system_id":"levelo_inurba_marseille","lat":43.26938,"lon":5.40242,"is_reserved":false,"is_disabled":false,"rental_uris":{"android":"levelo://app?vid=0851ef02-abf8-47b5-8d41-445bb5757760","ios":"levelo://app?vid=0851ef02-abf8-47b5-8d41-445bb5757760"},"vehicle_type_id":"4","last_reported":1778910240,"current_range_meters":4400,"station_id":"cjm6bp8fraef2m0cb0m0","pricing_plan_id":"cebpf4jnsgd1na2vs0mg"},{"bike_id":"eb69ded8-3844-4366-a6c0-c2401c6cc839","system_id":"levelo_inurba_marseille","lat":43.28687,"lon":5.46664,"is_reserved":false,"is_disabled":false,"rental_uris":{"android":"levelo://app?vid=eb69ded8-3844-4366-a6c0-c2401c6cc839","ios":"levelo://app?vid=eb69ded8-3844-4366-a6c0-c2401c6cc839"},"vehicle_type_id":"4","last_reported":1778910240,"current_range_meters":4400,"station_id":"st_d6tc3vkotcvc738tfjhg","pricing_plan_id":"cebpf4jnsgd1na2vs0mg"},{"bike_id":"8687f1dd-b811-4243-87aa-e75220a82673","system_id":"levelo_inurba_marseille","lat":43.27837,"lon":5.39209,"is_reserved":false,"is_disabled":false,"rental_uris":{"android":"levelo://app?vid=8687f1dd-b811-4243-87aa-e75220a82673","ios":"levelo://app?vid=8687f1dd-b811-4243-87aa-e75220a82673"},"vehicle_type_id":"4","last_reported":1778910240,"current_range_meters":4400,"station_id":"ce4bhjp2rcd13ifvqga0","pricing_plan_id":"cebpf4jnsgd1na2vs0mg"},{"bike_id":"7f48fba2-ea38-43f6-8ecc-3254e0b95833","system_id":"levelo_inurba_marseille","lat":43.30458,"lon":5.37883,"is_reserved":false,"is_disabled":true,"rental_uris":{"android":"levelo://app?vid=7f48fba2-ea38-43f6-8ecc-3254e0b95833","ios":"levelo://app?vid=7f48fba2-ea38-43f6-8ecc-3254e0b95833"},"vehicle_type_id":"4","last_reported":1778910240,"current_range_meters":4800,"station_id":"ce4bgup2rcd13ifvqcn0","pricing_plan_id":"cebpf4jnsgd1na2vs0mg"},{"bike_id":"05741061-c13d-4356-ad5d-e487adc7691b","system_id":"levelo_inurba_marseille","lat":43.29583,"lon":5.38072,"is_reserved":false,"is_disabled":true,"rental_uris":{"android":"levelo://app?vid=05741061-c13d-4356-ad5d-e487adc7691b","ios":"levelo://app?vid=05741061-c13d-4356-ad5d-e487adc7691b"},"vehicle_type_id":"4","last_reported":1778910240,"current_range_meters":4800,"station_id":"ce4bgl12rcd13ifvqbo0","pricing_plan_id":"cebpf4jnsgd1na2vs0mg"},{"bike_id":"295b23cf-88f3-4532-bfd2-e73c230f5c13","system_id":"levelo_inurba_marseille","lat":43.27933,"lon":5.3876,"is_reserved":false,"is_disabled":false,"rental_uris":{"android":"levelo://app?vid=295b23cf-88f3-4532-bfd2-e73c230f5c13","ios":"levelo://app?vid=295b23cf-88f3-4532-bfd2-e73c230f5c13"},"vehicle_type_id":"4","last_reported":1778910240,"current_range_meters":4800,"station_id":"ce4bhg12rcd13ifvqf80","pricing_plan_id":"cebpf4jnsgd1na2vs0mg"},{"bike_id":"664a66cf-32f5-4d4e-b164-e0c7e3c4db03","system_id":"levelo_inurba_marseille","lat":43.250836,"lon":5.395278,"is_reserved":false,"is_disabled":false,"rental_uris":{"android":"levelo://app?vid=664a66cf-32f5-4d4e-b164-e0c7e3c4db03","ios":"levelo://app?vid=664a66cf-32f5-4d4e-b164-e0c7e3c4db03"},"vehicle_type_id":"4","last_reported":1778910240,"current_range_meters":4800,"station_id":"ce4bhm12rcd13ifvqgkg","pricing_plan_id":"cebpf4jnsgd1na2vs0mg"},{"bike_id":"8ddc9a86-069f-4990-8e9e-592bed9753d4","system_id":"levelo_inurba_marseille","lat":43.2847,"lon":5.35926,"is_reserved":false,"is_disabled":false,"rental_uris":{"android":"levelo://app?vid=8ddc9a86-069f-4990-8e9e-592bed9753d4","ios":"levelo://app?vid=8ddc9a86-069f-4990-8e9e-592bed9753d4"},"vehicle_type_id":"4","last_reported":1778910240,"current_range_meters":4800,"station_id":"ce4bhah2rcd13ifvqei0","pricing_plan_id":"cebpf4jnsgd1na2vs0mg"},{"bike_id":"579c1010-a0a4-4e44-bcba-24d9838b4262","system_id":"levelo_inurba_marseille","lat":43.2495,"lon":5.40502,"is_reserved":false,"is_disabled":false,"rental_uris":{"android":"levelo://app?vid=579c1010-a0a4-4e44-bcba-24d9838b4262","ios":"levelo://app?vid=579c1010-a0a4-4e44-bcba-24d9838b4262"},"vehicle_type_id":"4","last_reported":1778910240,"current_range_meters":4800,"station_id":"st_d2ngiaodas8pm72gd1h0","pricing_plan_id":"cebpf4jnsgd1na2vs0mg"},{"bike_id":"2d670795-ba4f-472c-8cb2-f6597f8549c8","system_id":"levelo_inurba_marseille","lat":43.29785,"lon":5.39375,"is_reserved":false,"is_disabled":true,"rental_uris":{"android":"levelo://app?vid=2d670795-ba4f-472c-8cb2-f6597f8549c8","ios":"levelo://app?vid=2d670795-ba4f-472c-8cb2-f6597f8549c8"},"vehicle_type_id":"4","last_reported":1778910240,"current_range_meters":5600,"station_id":"chh1huq6cuj3fo74tm60","pricing_plan_id":"cebpf4jnsgd1na2vs0mg"},{"bike_id":"df06f853-df8b-44c5-8abd-63dd254e997c","system_id":"levelo_inurba_marseille","lat":43.2983,"lon":5.38624,"is_reserved":false,"is_disabled":false,"rental_uris":{"android":"levelo://app?vid=df06f853-df8b-44c5-8abd-63dd254e997c","ios":"levelo://app?vid=df06f853-df8b-44c5-8abd-63dd254e997c"},"vehicle_type_id":"4","last_reported":1778910240,"current_range_meters":5600,"station_id":"","pricing_plan_id":"cebpf4jnsgd1na2vs0mg"},{"bike_id":"67ecae68-d24a-4dbc-b685-351365b700de","system_id":"levelo_inurba_marseille","lat":43.25502,"lon":5.37641,"is_reserved":false,"is_disabled":false,"rental_uris":{"android":"levelo://app?vid=67ecae68-d24a-4dbc-b685-351365b700de","ios":"levelo://app?vid=67ecae68-d24a-4dbc-b685-351365b700de"},"vehicle_type_id":"4","last_reported":1778910240,"current_range_meters":5600,"station_id":"ce4bhh12rcd13ifvqff0","pricing_plan_id":"cebpf4jnsgd1na2vs0mg"},{"bike_id":"beb0e8ce-d350-49e2-ba51-e667a59b9bc7","system_id":"levelo_inurba_marseille","lat":43.21763,"lon":5.34602,"is_reserved":false,"is_disabled":false,"rental_uris":{"android":"levelo://app?vid=beb0e8ce-d350-49e2-ba51-e667a59b9bc7","ios":"levelo://app?vid=beb0e8ce-d350-49e2-ba51-e667a59b9bc7"},"vehicle_type_id":"4","last_reported":1778910240,"current_range_meters":5600,"station_id":"st_cvj6r9ubvosntc0bgbag","pricing_plan_id":"cebpf4jnsgd1na2vs0mg"},{"bike_id":"197f8590-4140-4e11-8b87-67ad98bb4bca","system_id":"levelo_inurba_marseille","lat":43.28599,"lon":5.37084,"is_reserved":false,"is_disabled":true,"rental_uris":{"android":"levelo://app?vid=197f8590-4140-4e11-8b87-67ad98bb4bca","ios":"levelo://app?vid=197f8590-4140-4e11-8b87-67ad98bb4bca"},"vehicle_type_id":"4","last_reported":1778910240,"current_range_meters":5600,"station_id":"ce4bht12rcd13ifvqi60","pricing_plan_id":"cebpf4jnsgd1na2vs0mg"},{"bike_id":"538f37b0-047f-427d-bdee-4c68e20fce42","system_id":"levelo_inurba_marseille","lat":43.26591,"lon":5.37281,"is_reserved":false,"is_disabled":false,"rental_uris":{"android":"levelo://app?vid=538f37b0-047f-427d-bdee-4c68e20fce42","ios":"levelo://app?vid=538f37b0-047f-427d-bdee-4c68e20fce42"},"vehicle_type_id":"4","last_reported":1778910240,"current_range_meters":5600,"station_id":"ce4bhg12rcd13ifvqf70","pricing_plan_id":"cebpf4jnsgd1na2vs0mg"},{"bike_id":"3007388a-056f-4684-be3d-794e8cb052f8","system_id":"levelo_inurba_marseille","lat":43.29727,"lon":5.37678,"is_reserved":false,"is_disabled":false,"rental_uris":{"android":"levelo://app?vid=3007388a-056f-4684-be3d-794e8cb052f8","ios":"levelo://app?vid=3007388a-056f-4684-be3d-794e8cb052f8"},"vehicle_type_id":"4","last_reported":1778910240,"current_range_meters":5600,"station_id":"ce4bgkh2rcd13ifvqbl0","pricing_plan_id":"cebpf4jnsgd1na2vs0mg"},{"bike_id":"c73b603c-d18f-447d-ac06-429d2b6b15a8","system_id":"levelo_inurba_marseille","lat":43.22918,"lon":5.35366,"is_reserved":false,"is_disabled":false,"rental_uris":{"android":"levelo://app?vid=c73b603c-d18f-447d-ac06-429d2b6b15a8","ios":"levelo://app?vid=c73b603c-d18f-447d-ac06-429d2b6b15a8"},"vehicle_type_id":"4","last_reported":1778910240,"current_range_meters":5600,"station_id":"cpo3532slgdg3j2ikp40","pricing_plan_id":"cebpf4jnsgd1na2vs0mg"},{"bike_id":"4c4af55b-f60f-4b0e-bc18-caba52c3f95e","system_id":"levelo_inurba_marseille","lat":43.29562,"lon":5.42294,"is_reserved":false,"is_disabled":false,"rental_uris":{"android":"levelo://app?vid=4c4af55b-f60f-4b0e-bc18-caba52c3f95e","ios":"levelo://app?vid=4c4af55b-f60f-4b0e-bc18-caba52c3f95e"},"vehicle_type_id":"4","last_reported":1778910240,"current_range_meters":5600,"station_id":"ce4bhph2rcd13ifvqhdg","pricing_plan_id":"cebpf4jnsgd1na2vs0mg"},{"bike_id":"dc0c6757-b834-4a5b-94c9-a7b9f022d20f","system_id":"levelo_inurba_marseille","lat":43.27367,"lon":5.36243,"is_reserved":false,"is_disabled":false,"rental_uris":{"android":"levelo://app?vid=dc0c6757-b834-4a5b-94c9-a7b9f022d20f","ios":"levelo://app?vid=dc0c6757-b834-4a5b-94c9-a7b9f022d20f"},"vehicle_type_id":"4","last_reported":1778910240,"current_range_meters":5600,"station_id":"ce4bhbh2rcd13ifvqeo0","pricing_plan_id":"cebpf4jnsgd1na2vs0mg"},{"bike_id":"69a4de94-ae1f-4385-aa61-58a2336f8cb8","system_id":"levelo_inurba_marseille","lat":43.2999,"lon":5.43054,"is_reserved":false,"is_disabled":false,"rental_uris":{"android":"levelo://app?vid=69a4de94-ae1f-4385-aa61-58a2336f8cb8","ios":"levelo://app?vid=69a4de94-ae1f-4385-aa61-58a2336f8cb8"},"vehicle_type_id":"4","last_reported":1778910240,"current_range_meters":5600,"station_id":"","pricing_plan_id":"cebpf4jnsgd1na2vs0mg"},{"bike_id":"417bd26b-1701-485b-b896-bb7adc98bac9","system_id":"levelo_inurba_marseille","lat":43.2396,"lon":5.36624,"is_reserved":false,"is_disabled":true,"rental_uris":{"android":"levelo://app?vid=417bd26b-1701-485b-b896-bb7adc98bac9","ios":"levelo://app?vid=417bd26b-1701-485b-b896-bb7adc98bac9"},"vehicle_type_id":"4","last_reported":1778910240,"current_range_meters":5600,"station_id":"ce4bhi12rcd13ifvqfp0","pricing_plan_id":"cebpf4jnsgd1na2vs0mg"},{"bike_id":"db0bf439-071c-4cae-a137-7c84db3cf1d8","system_id":"levelo_inurba_marseille","lat":43.257204,"lon":5.411129,"is_reserved":false,"is_disabled":false,"rental_uris":{"android":"levelo://app?vid=db0bf439-071c-4cae-a137-7c84db3cf1d8","ios":"levelo://app?vid=db0bf439-071c-4cae-a137-7c84db3cf1d8"},"vehicle_type_id":"4","last_reported":1778910240,"current_range_meters":5600,"station_id":"ce4bhkp2rcd13ifvqgd0","pricing_plan_id":"cebpf4jnsgd1na2vs0mg"},{"bike_id":"44d71ae5-a5e6-42a3-99db-4175ddd046fa","system_id":"levelo_inurba_marseille","lat":43.3108,"lon":5.37171,"is_reserved":false,"is_disabled":false,"rental_uris":{"android":"levelo://app?vid=44d71ae5-a5e6-42a3-99db-4175ddd046fa","ios":"levelo://app?vid=44d71ae5-a5e6-42a3-99db-4175ddd046fa"},"vehicle_type_id":"4","last_reported":1778910240,"current_range_meters":5600,"station_id":"st_d4kl2rp97mjs73e7tdfg","pricing_plan_id":"cebpf4jnsgd1na2vs0mg"},{"bike_id":"4c1456b4-c5f4-49ed-bd33-6f63525d7c4f","system_id":"levelo_inurba_marseille","lat":43.27941,"lon":5.38741,"is_reserved":false,"is_disabled":true,"rental_uris":{"android":"levelo://app?vid=4c1456b4-c5f4-49ed-bd33-6f63525d7c4f","ios":"levelo://app?vid=4c1456b4-c5f4-49ed-bd33-6f63525d7c4f"},"vehicle_type_id":"4","last_reported":1778910240,"current_range_meters":5600,"station_id":"ce4bhg12rcd13ifvqf80","pricing_plan_id":"cebpf4jnsgd1na2vs0mg"},{"bike_id":"bea8f6dc-3107-47d3-94c4-947f2ef9741a","system_id":"levelo_inurba_marseille","lat":43.24169,"lon":5.36395,"is_reserved":false,"is_disabled":false,"rental_uris":{"android":"levelo://app?vid=bea8f6dc-3107-47d3-94c4-947f2ef9741a","ios":"levelo://app?vid=bea8f6dc-3107-47d3-94c4-947f2ef9741a"},"vehicle_type_id":"4","last_reported":1778910240,"current_range_meters":5600,"station_id":"cpo36qri1sfpv3e86is0","pricing_plan_id":"cebpf4jnsgd1na2vs0mg"},{"bike_id":"4a8828bf-5352-4721-8c19-0a06947545c0","system_id":"levelo_inurba_marseille","lat":43.28001,"lon":5.41661,"is_reserved":false,"is_disabled":false,"rental_uris":{"android":"levelo://app?vid=4a8828bf-5352-4721-8c19-0a06947545c0","ios":"levelo://app?vid=4a8828bf-5352-4721-8c19-0a06947545c0"},"vehicle_type_id":"4","last_reported":1778910240,"current_range_meters":5600,"station_id":"ce4bho12rcd13ifvqh1g","pricing_plan_id":"cebpf4jnsgd1na2vs0mg"},{"bike_id":"55ba4af7-a49e-4f0b-adbf-e969fb355a90","system_id":"levelo_inurba_marseille","lat":43.30114,"lon":5.39854,"is_reserved":false,"is_disabled":false,"rental_uris":{"android":"levelo://app?vid=55ba4af7-a49e-4f0b-adbf-e969fb355a90","ios":"levelo://app?vid=55ba4af7-a49e-4f0b-adbf-e969fb355a90"},"vehicle_type_id":"4","last_reported":1778910240,"current_range_meters":5600,"station_id":"ce4bh0h2rcd13ifvqd40","pricing_plan_id":"cebpf4jnsgd1na2vs0mg"},{"bike_id":"89a26143-74c4-49ae-b5cf-e30eaecdc6d9","system_id":"levelo_inurba_marseille","lat":43.25338,"lon":5.42173,"is_reserved":false,"is_disabled":false,"rental_uris":{"android":"levelo://app?vid=89a26143-74c4-49ae-b5cf-e30eaecdc6d9","ios":"levelo://app?vid=89a26143-74c4-49ae-b5cf-e30eaecdc6d9"},"vehicle_type_id":"4","last_reported":1778910240,"current_range_meters":5600,"station_id":"st_d2m65c5bi1j21697t3ng","pricing_plan_id":"cebpf4jnsgd1na2vs0mg"},{"bike_id":"24cad884-f326-447a-9ef4-dd08493578cd","system_id":"levelo_inurba_marseille","lat":43.30114,"lon":5.39072,"is_reserved":false,"is_disabled":false,"rental_uris":{"android":"levelo://app?vid=24cad884-f326-447a-9ef4-dd08493578cd","ios":"levelo://app?vid=24cad884-f326-447a-9ef4-dd08493578cd"},"vehicle_type_id":"4","last_reported":1778910240,"current_range_meters":6000,"station_id":"ce4bh192rcd13ifvqdb0","pricing_plan_id":"cebpf4jnsgd1na2vs0mg"},{"bike_id":"a4d50b46-8145-44ba-8a7c-9dfc5ac5c408","system_id":"levelo_inurba_marseille","lat":43.30939,"lon":5.40173,"is_reserved":false,"is_disabled":false,"rental_uris":{"android":"levelo://app?vid=a4d50b46-8145-44ba-8a7c-9dfc5ac5c408","ios":"levelo://app?vid=a4d50b46-8145-44ba-8a7c-9dfc5ac5c408"},"vehicle_type_id":"4","last_reported":1778910240,"current_range_meters":6000,"station_id":"ce4bgvp2rcd13ifvqct0","pricing_plan_id":"cebpf4jnsgd1na2vs0mg"},{"bike_id":"305f8012-853c-4e5c-b4a3-badea1215a44","system_id":"levelo_inurba_marseille","lat":43.33754,"lon":5.37506,"is_reserved":false,"is_disabled":false,"rental_uris":{"android":"levelo://app?vid=305f8012-853c-4e5c-b4a3-badea1215a44","ios":"levelo://app?vid=305f8012-853c-4e5c-b4a3-badea1215a44"},"vehicle_type_id":"4","last_reported":1778910240,"current_range_meters":6000,"station_id":"","pricing_plan_id":"cebpf4jnsgd1na2vs0mg"},{"bike_id":"ceeae13a-87c9-4495-9238-e5a5cc9c4c69","system_id":"levelo_inurba_marseille","lat":43.29673,"lon":5.37124,"is_reserved":false,"is_disabled":false,"rental_uris":{"android":"levelo://app?vid=ceeae13a-87c9-4495-9238-e5a5cc9c4c69","ios":"levelo://app?vid=ceeae13a-87c9-4495-9238-e5a5cc9c4c69"},"vehicle_type_id":"4","last_reported":1778910240,"current_range_meters":6000,"station_id":"","pricing_plan_id":"cebpf4jnsgd1na2vs0mg"},{"bike_id":"37d316cd-6e63-4dba-996f-5684dc1ba64d","system_id":"levelo_inurba_marseille","lat":43.24817,"lon":5.37444,"is_reserved":false,"is_disabled":false,"rental_uris":{"android":"levelo://app?vid=37d316cd-6e63-4dba-996f-5684dc1ba64d","ios":"levelo://app?vid=37d316cd-6e63-4dba-996f-5684dc1ba64d"},"vehicle_type_id":"4","last_reported":1778910240,"current_range_meters":6000,"station_id":"ce4bhgh2rcd13ifvqfb0","pricing_plan_id":"cebpf4jnsgd1na2vs0mg"},{"bike_id":"6683d1f5-e055-429a-a4ff-d6cb40a7917f","system_id":"levelo_inurba_marseille","lat":43.26986,"lon":5.3872,"is_reserved":false,"is_disabled":false,"rental_uris":{"android":"levelo://app?vid=6683d1f5-e055-429a-a4ff-d6cb40a7917f","ios":"levelo://app?vid=6683d1f5-e055-429a-a4ff-d6cb40a7917f"},"vehicle_type_id":"4","last_reported":1778910240,"current_range_meters":6000,"station_id":"","pricing_plan_id":"cebpf4jnsgd1na2vs0mg"},{"bike_id":"580fe52f-7e9c-457a-b814-ad9e2d2f32ba","system_id":"levelo_inurba_marseille","lat":43.26575,"lon":5.37289,"is_reserved":false,"is_disabled":false,"rental_uris":{"android":"levelo://app?vid=580fe52f-7e9c-457a-b814-ad9e2d2f32ba","ios":"levelo://app?vid=580fe52f-7e9c-457a-b814-ad9e2d2f32ba"},"vehicle_type_id":"4","last_reported":1778910240,"current_range_meters":6000,"station_id":"ce4bhg12rcd13ifvqf70","pricing_plan_id":"cebpf4jnsgd1na2vs0mg"},{"bike_id":"f35538c5-f923-479b-ac74-73e10ca6c589","system_id":"levelo_inurba_marseille","lat":43.25593,"lon":5.38227,"is_reserved":false,"is_disabled":false,"rental_uris":{"android":"levelo://app?vid=f35538c5-f923-479b-ac74-73e10ca6c589","ios":"levelo://app?vid=f35538c5-f923-479b-ac74-73e10ca6c589"},"vehicle_type_id":"4","last_reported":1778910240,"current_range_meters":6000,"station_id":"ce4bhih2rcd13ifvqfs0","pricing_plan_id":"cebpf4jnsgd1na2vs0mg"},{"bike_id":"36361f45-cd1f-4f26-935d-3fd103febf92","system_id":"levelo_inurba_marseille","lat":43.284798,"lon":5.384089,"is_reserved":false,"is_disabled":false,"rental_uris":{"android":"levelo://app?vid=36361f45-cd1f-4f26-935d-3fd103febf92","ios":"levelo://app?vid=36361f45-cd1f-4f26-935d-3fd103febf92"},"vehicle_type_id":"4","last_reported":1778910240,"current_range_meters":6000,"station_id":"ce4bh512rcd13ifvqe3g","pricing_plan_id":"cebpf4jnsgd1na2vs0mg"},{"bike_id":"20ea9ae0-b917-4c62-a609-21bce3c47570","system_id":"levelo_inurba_marseille","lat":43.297771,"lon":5.371147,"is_reserved":false,"is_disabled":true,"rental_uris":{"android":"levelo://app?vid=20ea9ae0-b917-4c62-a609-21bce3c47570","ios":"levelo://app?vid=20ea9ae0-b917-4c62-a609-21bce3c47570"},"vehicle_type_id":"4","last_reported":1778910240,"current_range_meters":6400,"station_id":"ce4bgop2rcd13ifvqc1g","pricing_plan_id":"cebpf4jnsgd1na2vs0mg"},{"bike_id":"b8cdcb18-0992-41e0-9600-2f0349dd6257","system_id":"levelo_inurba_marseille","lat":43.29218,"lon":5.39328,"is_reserved":false,"is_disabled":false,"rental_uris":{"android":"levelo://app?vid=b8cdcb18-0992-41e0-9600-2f0349dd6257","ios":"levelo://app?vid=b8cdcb18-0992-41e0-9600-2f0349dd6257"},"vehicle_type_id":"4","last_reported":1778910240,"current_range_meters":6400,"station_id":"ce4bh192rcd13ifvqdd0","pricing_plan_id":"cebpf4jnsgd1na2vs0mg"},{"bike_id":"9f099b54-5b53-4454-8009-293b63c1af4a","system_id":"levelo_inurba_marseille","lat":43.27997,"lon":5.41683,"is_reserved":false,"is_disabled":true,"rental_uris":{"android":"levelo://app?vid=9f099b54-5b53-4454-8009-293b63c1af4a","ios":"levelo://app?vid=9f099b54-5b53-4454-8009-293b63c1af4a"},"vehicle_type_id":"4","last_reported":1778910240,"current_range_meters":6400,"station_id":"ce4bho12rcd13ifvqh1g","pricing_plan_id":"cebpf4jnsgd1na2vs0mg"},{"bike_id":"1f27b9c7-f593-4ee3-b394-7ce199ed2756","system_id":"levelo_inurba_marseille","lat":43.309018,"lon":5.37188,"is_reserved":false,"is_disabled":false,"rental_uris":{"android":"levelo://app?vid=1f27b9c7-f593-4ee3-b394-7ce199ed2756","ios":"levelo://app?vid=1f27b9c7-f593-4ee3-b394-7ce199ed2756"},"vehicle_type_id":"4","last_reported":1778910240,"current_range_meters":6400,"station_id":"","pricing_plan_id":"cebpf4jnsgd1na2vs0mg"},{"bike_id":"01adfd2a-8633-4d67-a743-89ebb59a4bc0","system_id":"levelo_inurba_marseille","lat":43.24651,"lon":5.38133,"is_reserved":false,"is_disabled":false,"rental_uris":{"android":"levelo://app?vid=01adfd2a-8633-4d67-a743-89ebb59a4bc0","ios":"levelo://app?vid=01adfd2a-8633-4d67-a743-89ebb59a4bc0"},"vehicle_type_id":"4","last_reported":1778910240,"current_range_meters":6400,"station_id":"ce4bhih2rcd13ifvqfr0","pricing_plan_id":"cebpf4jnsgd1na2vs0mg"},{"bike_id":"76e33348-6a4a-4160-8477-e9650ddfdc10","system_id":"levelo_inurba_marseille","lat":43.29555,"lon":5.42302,"is_reserved":false,"is_disabled":false,"rental_uris":{"android":"levelo://app?vid=76e33348-6a4a-4160-8477-e9650ddfdc10","ios":"levelo://app?vid=76e33348-6a4a-4160-8477-e9650ddfdc10"},"vehicle_type_id":"4","last_reported":1778910240,"current_range_meters":6400,"station_id":"ce4bhph2rcd13ifvqhdg","pricing_plan_id":"cebpf4jnsgd1na2vs0mg"},{"bike_id":"432944d6-33e6-4bed-af1c-ead24600ae1a","system_id":"levelo_inurba_marseille","lat":43.3211,"lon":5.36809,"is_reserved":false,"is_disabled":false,"rental_uris":{"android":"levelo://app?vid=432944d6-33e6-4bed-af1c-ead24600ae1a","ios":"levelo://app?vid=432944d6-33e6-4bed-af1c-ead24600ae1a"},"vehicle_type_id":"4","last_reported":1778910240,"current_range_meters":6400,"station_id":"ce4bhrh2rcd13ifvqhug","pricing_plan_id":"cebpf4jnsgd1na2vs0mg"},{"bike_id":"ca01c33c-99c8-4ff8-a274-d065c7262a1a","system_id":"levelo_inurba_marseille","lat":43.26409,"lon":5.38843,"is_reserved":false,"is_disabled":false,"rental_uris":{"android":"levelo://app?vid=ca01c33c-99c8-4ff8-a274-d065c7262a1a","ios":"levelo://app?vid=ca01c33c-99c8-4ff8-a274-d065c7262a1a"},"vehicle_type_id":"4","last_reported":1778910240,"current_range_meters":6400,"station_id":"","pricing_plan_id":"cebpf4jnsgd1na2vs0mg"},{"bike_id":"3aaea1d2-93de-4683-931c-fdaa0d1fca0c","system_id":"levelo_inurba_marseille","lat":43.30018,"lon":5.3724,"is_reserved":false,"is_disabled":false,"rental_uris":{"android":"levelo://app?vid=3aaea1d2-93de-4683-931c-fdaa0d1fca0c","ios":"levelo://app?vid=3aaea1d2-93de-4683-931c-fdaa0d1fca0c"},"vehicle_type_id":"4","last_reported":1778910240,"current_range_meters":6400,"station_id":"","pricing_plan_id":"cebpf4jnsgd1na2vs0mg"},{"bike_id":"2b985fc8-08fa-4ec6-960d-c0c57f8b93de","system_id":"levelo_inurba_marseille","lat":43.24543,"lon":5.39545,"is_reserved":false,"is_disabled":false,"rental_uris":{"android":"levelo://app?vid=2b985fc8-08fa-4ec6-960d-c0c57f8b93de","ios":"levelo://app?vid=2b985fc8-08fa-4ec6-960d-c0c57f8b93de"},"vehicle_type_id":"4","last_reported":1778910240,"current_range_meters":6400,"station_id":"ce4bhlp2rcd13ifvqgjg","pricing_plan_id":"cebpf4jnsgd1na2vs0mg"},{"bike_id":"b467cf52-e84d-42b9-ad71-bed97235ec79","system_id":"levelo_inurba_marseille","lat":43.29759,"lon":5.37729,"is_reserved":false,"is_disabled":false,"rental_uris":{"android":"levelo://app?vid=b467cf52-e84d-42b9-ad71-bed97235ec79","ios":"levelo://app?vid=b467cf52-e84d-42b9-ad71-bed97235ec79"},"vehicle_type_id":"4","last_reported":1778910240,"current_range_meters":6800,"station_id":"","pricing_plan_id":"cebpf4jnsgd1na2vs0mg"},{"bike_id":"fc3434ec-3f12-4fe2-a883-c7406c4652f9","system_id":"levelo_inurba_marseille","lat":43.29489,"lon":5.4331,"is_reserved":false,"is_disabled":false,"rental_uris":{"android":"levelo://app?vid=fc3434ec-3f12-4fe2-a883-c7406c4652f9","ios":"levelo://app?vid=fc3434ec-3f12-4fe2-a883-c7406c4652f9"},"vehicle_type_id":"4","last_reported":1778910240,"current_range_meters":6800,"station_id":"st_d3j5ugp08ojc73fj9d10","pricing_plan_id":"cebpf4jnsgd1na2vs0mg"},{"bike_id":"6661dcda-2c61-4ee5-8306-6a982459bb60","system_id":"levelo_inurba_marseille","lat":43.25738,"lon":5.41101,"is_reserved":false,"is_disabled":false,"rental_uris":{"android":"levelo://app?vid=6661dcda-2c61-4ee5-8306-6a982459bb60","ios":"levelo://app?vid=6661dcda-2c61-4ee5-8306-6a982459bb60"},"vehicle_type_id":"4","last_reported":1778910240,"current_range_meters":6800,"station_id":"ce4bhkp2rcd13ifvqgd0","pricing_plan_id":"cebpf4jnsgd1na2vs0mg"},{"bike_id":"310313f9-4c8b-458d-834b-81e71f22dc3f","system_id":"levelo_inurba_marseille","lat":43.27949,"lon":5.39558,"is_reserved":false,"is_disabled":true,"rental_uris":{"android":"levelo://app?vid=310313f9-4c8b-458d-834b-81e71f22dc3f","ios":"levelo://app?vid=310313f9-4c8b-458d-834b-81e71f22dc3f"},"vehicle_type_id":"4","last_reported":1778910240,"current_range_meters":6800,"station_id":"ce4bhf92rcd13ifvqf40","pricing_plan_id":"cebpf4jnsgd1na2vs0mg"},{"bike_id":"ba857fbd-dfd7-4912-a275-4ec1b34f9a01","system_id":"levelo_inurba_marseille","lat":43.28044,"lon":5.3694,"is_reserved":false,"is_disabled":false,"rental_uris":{"android":"levelo://app?vid=ba857fbd-dfd7-4912-a275-4ec1b34f9a01","ios":"levelo://app?vid=ba857fbd-dfd7-4912-a275-4ec1b34f9a01"},"vehicle_type_id":"4","last_reported":1778910240,"current_range_meters":6800,"station_id":"ce4bha12rcd13ifvqef0","pricing_plan_id":"cebpf4jnsgd1na2vs0mg"},{"bike_id":"bcffcf0e-336f-4dde-a8a0-11a52c80ba16","system_id":"levelo_inurba_marseille","lat":43.31689,"lon":5.38978,"is_reserved":false,"is_disabled":false,"rental_uris":{"android":"levelo://app?vid=bcffcf0e-336f-4dde-a8a0-11a52c80ba16","ios":"levelo://app?vid=bcffcf0e-336f-4dde-a8a0-11a52c80ba16"},"vehicle_type_id":"4","last_reported":1778910240,"current_range_meters":6800,"station_id":"","pricing_plan_id":"cebpf4jnsgd1na2vs0mg"},{"bike_id":"eb1530c2-05ee-47e4-9578-08c4c36eedd7","system_id":"levelo_inurba_marseille","lat":43.30093,"lon":5.3909,"is_reserved":false,"is_disabled":true,"rental_uris":{"android":"levelo://app?vid=eb1530c2-05ee-47e4-9578-08c4c36eedd7","ios":"levelo://app?vid=eb1530c2-05ee-47e4-9578-08c4c36eedd7"},"vehicle_type_id":"4","last_reported":1778910240,"current_range_meters":6800,"station_id":"ce4bh192rcd13ifvqdb0","pricing_plan_id":"cebpf4jnsgd1na2vs0mg"},{"bike_id":"ab883a8a-7183-49e5-b0ca-478bfd40dbb5","system_id":"levelo_inurba_marseille","lat":43.27583,"lon":5.38452,"is_reserved":false,"is_disabled":false,"rental_uris":{"android":"levelo://app?vid=ab883a8a-7183-49e5-b0ca-478bfd40dbb5","ios":"levelo://app?vid=ab883a8a-7183-49e5-b0ca-478bfd40dbb5"},"vehicle_type_id":"4","last_reported":1778910240,"current_range_meters":6800,"station_id":"ce4bhh92rcd13ifvqfi0","pricing_plan_id":"cebpf4jnsgd1na2vs0mg"},{"bike_id":"c522deca-789e-49b3-982f-1f0402a24572","system_id":"levelo_inurba_marseille","lat":43.24678,"lon":5.38847,"is_reserved":false,"is_disabled":false,"rental_uris":{"android":"levelo://app?vid=c522deca-789e-49b3-982f-1f0402a24572","ios":"levelo://app?vid=c522deca-789e-49b3-982f-1f0402a24572"},"vehicle_type_id":"4","last_reported":1778910240,"current_range_meters":6800,"station_id":"","pricing_plan_id":"cebpf4jnsgd1na2vs0mg"},{"bike_id":"9ff893e8-a35b-4276-8349-bacec107d22b","system_id":"levelo_inurba_marseille","lat":43.31225,"lon":5.37909,"is_reserved":false,"is_disabled":false,"rental_uris":{"android":"levelo://app?vid=9ff893e8-a35b-4276-8349-bacec107d22b","ios":"levelo://app?vid=9ff893e8-a35b-4276-8349-bacec107d22b"},"vehicle_type_id":"4","last_reported":1778910240,"current_range_meters":6800,"station_id":"","pricing_plan_id":"cebpf4jnsgd1na2vs0mg"},{"bike_id":"c9b1ac49-d9f8-4375-bdc3-bd1b41ef209b","system_id":"levelo_inurba_marseille","lat":43.31093,"lon":5.4243,"is_reserved":false,"is_disabled":false,"rental_uris":{"android":"levelo://app?vid=c9b1ac49-d9f8-4375-bdc3-bd1b41ef209b","ios":"levelo://app?vid=c9b1ac49-d9f8-4375-bdc3-bd1b41ef209b"},"vehicle_type_id":"4","last_reported":1778910240,"current_range_meters":6800,"station_id":"ce4bhp92rcd13ifvqhag","pricing_plan_id":"cebpf4jnsgd1na2vs0mg"},{"bike_id":"f2155f52-8bee-4917-9ad6-c70fd2ebaa35","system_id":"levelo_inurba_marseille","lat":43.25335,"lon":5.42172,"is_reserved":false,"is_disabled":false,"rental_uris":{"android":"levelo://app?vid=f2155f52-8bee-4917-9ad6-c70fd2ebaa35","ios":"levelo://app?vid=f2155f52-8bee-4917-9ad6-c70fd2ebaa35"},"vehicle_type_id":"4","last_reported":1778910240,"current_range_meters":6800,"station_id":"st_d2m65c5bi1j21697t3ng","pricing_plan_id":"cebpf4jnsgd1na2vs0mg"},{"bike_id":"a7c68890-a173-43aa-8f53-5e8d56e89b57","system_id":"levelo_inurba_marseille","lat":43.307291,"lon":5.40954,"is_reserved":false,"is_disabled":false,"rental_uris":{"android":"levelo://app?vid=a7c68890-a173-43aa-8f53-5e8d56e89b57","ios":"levelo://app?vid=a7c68890-a173-43aa-8f53-5e8d56e89b57"},"vehicle_type_id":"4","last_reported":1778910240,"current_range_meters":6800,"station_id":"","pricing_plan_id":"cebpf4jnsgd1na2vs0mg"},{"bike_id":"aa88cee7-351f-4512-9dba-4334d4426568","system_id":"levelo_inurba_marseille","lat":43.28706,"lon":5.39983,"is_reserved":false,"is_disabled":false,"rental_uris":{"android":"levelo://app?vid=aa88cee7-351f-4512-9dba-4334d4426568","ios":"levelo://app?vid=aa88cee7-351f-4512-9dba-4334d4426568"},"vehicle_type_id":"4","last_reported":1778910240,"current_range_meters":6800,"station_id":"ce4bho92rcd13ifvqh3g","pricing_plan_id":"cebpf4jnsgd1na2vs0mg"},{"bike_id":"1c155cb8-50aa-4ad8-95d4-a32cca5f7a07","system_id":"levelo_inurba_marseille","lat":43.24481,"lon":5.42532,"is_reserved":false,"is_disabled":false,"rental_uris":{"android":"levelo://app?vid=1c155cb8-50aa-4ad8-95d4-a32cca5f7a07","ios":"levelo://app?vid=1c155cb8-50aa-4ad8-95d4-a32cca5f7a07"},"vehicle_type_id":"4","last_reported":1778910240,"current_range_meters":6800,"station_id":"st_d4a3vfp97mjs738cd8kg","pricing_plan_id":"cebpf4jnsgd1na2vs0mg"},{"bike_id":"2e9752dd-56d6-4ed8-aeb7-442842038533","system_id":"levelo_inurba_marseille","lat":43.28547,"lon":5.4411,"is_reserved":false,"is_disabled":false,"rental_uris":{"android":"levelo://app?vid=2e9752dd-56d6-4ed8-aeb7-442842038533","ios":"levelo://app?vid=2e9752dd-56d6-4ed8-aeb7-442842038533"},"vehicle_type_id":"4","last_reported":1778910240,"current_range_meters":6800,"station_id":"st_d3j3df2ikq2c7380ej80","pricing_plan_id":"cebpf4jnsgd1na2vs0mg"},{"bike_id":"bf4140c2-b60d-49c9-a4a2-8e589e154982","system_id":"levelo_inurba_marseille","lat":43.3354,"lon":5.37448,"is_reserved":false,"is_disabled":false,"rental_uris":{"android":"levelo://app?vid=bf4140c2-b60d-49c9-a4a2-8e589e154982","ios":"levelo://app?vid=bf4140c2-b60d-49c9-a4a2-8e589e154982"},"vehicle_type_id":"4","last_reported":1778910240,"current_range_meters":6800,"station_id":"st_d46tts09ee8s73dlu43g","pricing_plan_id":"cebpf4jnsgd1na2vs0mg"},{"bike_id":"a31b0904-d014-4ccb-8341-50edb15d7f66","system_id":"levelo_inurba_marseille","lat":43.2667,"lon":5.38224,"is_reserved":false,"is_disabled":false,"rental_uris":{"android":"levelo://app?vid=a31b0904-d014-4ccb-8341-50edb15d7f66","ios":"levelo://app?vid=a31b0904-d014-4ccb-8341-50edb15d7f66"},"vehicle_type_id":"4","last_reported":1778910240,"current_range_meters":6800,"station_id":"ce4bhg92rcd13ifvqf90","pricing_plan_id":"cebpf4jnsgd1na2vs0mg"},{"bike_id":"b8945a34-d2c6-4b2f-bcab-fcdf2d372238","system_id":"levelo_inurba_marseille","lat":43.21727,"lon":5.34628,"is_reserved":false,"is_disabled":false,"rental_uris":{"android":"levelo://app?vid=b8945a34-d2c6-4b2f-bcab-fcdf2d372238","ios":"levelo://app?vid=b8945a34-d2c6-4b2f-bcab-fcdf2d372238"},"vehicle_type_id":"4","last_reported":1778910240,"current_range_meters":6800,"station_id":"st_cvj6r9ubvosntc0bgbag","pricing_plan_id":"cebpf4jnsgd1na2vs0mg"},{"bike_id":"9e90ecb9-eb42-4b6f-b217-a489aed4d6ac","system_id":"levelo_inurba_marseille","lat":43.32497,"lon":5.38289,"is_reserved":false,"is_disabled":false,"rental_uris":{"android":"levelo://app?vid=9e90ecb9-eb42-4b6f-b217-a489aed4d6ac","ios":"levelo://app?vid=9e90ecb9-eb42-4b6f-b217-a489aed4d6ac"},"vehicle_type_id":"4","last_reported":1778910240,"current_range_meters":6800,"station_id":"st_d4asgbiv49dc73anf9m0","pricing_plan_id":"cebpf4jnsgd1na2vs0mg"},{"bike_id":"a704520b-7f8f-4940-8659-58281d89e054","system_id":"levelo_inurba_marseille","lat":43.2556,"lon":5.40856,"is_reserved":false,"is_disabled":false,"rental_uris":{"android":"levelo://app?vid=a704520b-7f8f-4940-8659-58281d89e054","ios":"levelo://app?vid=a704520b-7f8f-4940-8659-58281d89e054"},"vehicle_type_id":"4","last_reported":1778910240,"current_range_meters":6800,"station_id":"","pricing_plan_id":"cebpf4jnsgd1na2vs0mg"},{"bike_id":"822db6b5-b554-4a10-a7ed-dfa4737edd03","system_id":"levelo_inurba_marseille","lat":43.23181,"lon":5.39989,"is_reserved":false,"is_disabled":false,"rental_uris":{"android":"levelo://app?vid=822db6b5-b554-4a10-a7ed-dfa4737edd03","ios":"levelo://app?vid=822db6b5-b554-4a10-a7ed-dfa4737edd03"},"vehicle_type_id":"4","last_reported":1778910240,"current_range_meters":6800,"station_id":"ce4bhn12rcd13ifvqgqg","pricing_plan_id":"cebpf4jnsgd1na2vs0mg"},{"bike_id":"c9c70cd7-6f40-4957-9af6-281ee3b7acd5","system_id":"levelo_inurba_marseille","lat":43.28609,"lon":5.39877,"is_reserved":false,"is_disabled":false,"rental_uris":{"android":"levelo://app?vid=c9c70cd7-6f40-4957-9af6-281ee3b7acd5","ios":"levelo://app?vid=c9c70cd7-6f40-4957-9af6-281ee3b7acd5"},"vehicle_type_id":"4","last_reported":1778910240,"current_range_meters":6800,"station_id":"st_d4a7ka997mjs738ck50g","pricing_plan_id":"cebpf4jnsgd1na2vs0mg"},{"bike_id":"d90e1575-ec76-461f-9701-a245bb59404f","system_id":"levelo_inurba_marseille","lat":43.24384,"lon":5.37044,"is_reserved":false,"is_disabled":false,"rental_uris":{"android":"levelo://app?vid=d90e1575-ec76-461f-9701-a245bb59404f","ios":"levelo://app?vid=d90e1575-ec76-461f-9701-a245bb59404f"},"vehicle_type_id":"4","last_reported":1778910240,"current_range_meters":6800,"station_id":"ce4bhhh2rcd13ifvqfk0","pricing_plan_id":"cebpf4jnsgd1na2vs0mg"},{"bike_id":"ecb43cf3-4571-441f-b7de-470cf95dfc38","system_id":"levelo_inurba_marseille","lat":43.21756,"lon":5.34559,"is_reserved":false,"is_disabled":true,"rental_uris":{"android":"levelo://app?vid=ecb43cf3-4571-441f-b7de-470cf95dfc38","ios":"levelo://app?vid=ecb43cf3-4571-441f-b7de-470cf95dfc38"},"vehicle_type_id":"4","last_reported":1778910240,"current_range_meters":6800,"station_id":"st_cvj6r9ubvosntc0bgbag","pricing_plan_id":"cebpf4jnsgd1na2vs0mg"},{"bike_id":"d2b9001b-3bd6-4e11-a455-c06b5cf0ca28","system_id":"levelo_inurba_marseille","lat":43.29594,"lon":5.38082,"is_reserved":false,"is_disabled":true,"rental_uris":{"android":"levelo://app?vid=d2b9001b-3bd6-4e11-a455-c06b5cf0ca28","ios":"levelo://app?vid=d2b9001b-3bd6-4e11-a455-c06b5cf0ca28"},"vehicle_type_id":"4","last_reported":1778910240,"current_range_meters":6800,"station_id":"ce4bgl12rcd13ifvqbo0","pricing_plan_id":"cebpf4jnsgd1na2vs0mg"},{"bike_id":"c92eee69-21ac-4706-88a8-527d3a7dfc5c","system_id":"levelo_inurba_marseille","lat":43.28689,"lon":5.3737,"is_reserved":false,"is_disabled":true,"rental_uris":{"android":"levelo://app?vid=c92eee69-21ac-4706-88a8-527d3a7dfc5c","ios":"levelo://app?vid=c92eee69-21ac-4706-88a8-527d3a7dfc5c"},"vehicle_type_id":"4","last_reported":1778910240,"current_range_meters":6800,"station_id":"ce4bh3p2rcd13ifvqdq0","pricing_plan_id":"cebpf4jnsgd1na2vs0mg"},{"bike_id":"2c4e2c80-7a7f-49e7-8a11-230c3e37ee87","system_id":"levelo_inurba_marseille","lat":43.2257,"lon":5.41621,"is_reserved":false,"is_disabled":false,"rental_uris":{"android":"levelo://app?vid=2c4e2c80-7a7f-49e7-8a11-230c3e37ee87","ios":"levelo://app?vid=2c4e2c80-7a7f-49e7-8a11-230c3e37ee87"},"vehicle_type_id":"4","last_reported":1778910240,"current_range_meters":7200,"station_id":"st_d2o4gvlbi1j2169b742g","pricing_plan_id":"cebpf4jnsgd1na2vs0mg"},{"bike_id":"2afb1c43-c4ae-4dbf-a94b-bbd6e75c31b0","system_id":"levelo_inurba_marseille","lat":43.29726,"lon":5.37685,"is_reserved":false,"is_disabled":false,"rental_uris":{"android":"levelo://app?vid=2afb1c43-c4ae-4dbf-a94b-bbd6e75c31b0","ios":"levelo://app?vid=2afb1c43-c4ae-4dbf-a94b-bbd6e75c31b0"},"vehicle_type_id":"4","last_reported":1778910240,"current_range_meters":7200,"station_id":"ce4bgkh2rcd13ifvqbl0","pricing_plan_id":"cebpf4jnsgd1na2vs0mg"},{"bike_id":"14b4d5ff-5bff-497e-8206-75d2399ff363","system_id":"levelo_inurba_marseille","lat":43.31038,"lon":5.3718,"is_reserved":false,"is_disabled":false,"rental_uris":{"android":"levelo://app?vid=14b4d5ff-5bff-497e-8206-75d2399ff363","ios":"levelo://app?vid=14b4d5ff-5bff-497e-8206-75d2399ff363"},"vehicle_type_id":"4","last_reported":1778910240,"current_range_meters":7200,"station_id":"st_d4kl2rp97mjs73e7tdfg","pricing_plan_id":"cebpf4jnsgd1na2vs0mg"},{"bike_id":"a56a8a0c-3ab9-465a-bdae-f5897ec1f98a","system_id":"levelo_inurba_marseille","lat":43.24167,"lon":5.36396,"is_reserved":false,"is_disabled":false,"rental_uris":{"android":"levelo://app?vid=a56a8a0c-3ab9-465a-bdae-f5897ec1f98a","ios":"levelo://app?vid=a56a8a0c-3ab9-465a-bdae-f5897ec1f98a"},"vehicle_type_id":"4","last_reported":1778910240,"current_range_meters":7200,"station_id":"cpo36qri1sfpv3e86is0","pricing_plan_id":"cebpf4jnsgd1na2vs0mg"},{"bike_id":"da25d015-d7dd-4fbf-997f-9acf97aa246b","system_id":"levelo_inurba_marseille","lat":43.28611,"lon":5.35109,"is_reserved":false,"is_disabled":false,"rental_uris":{"android":"levelo://app?vid=da25d015-d7dd-4fbf-997f-9acf97aa246b","ios":"levelo://app?vid=da25d015-d7dd-4fbf-997f-9acf97aa246b"},"vehicle_type_id":"4","last_reported":1778910240,"current_range_meters":7200,"station_id":"ce4bhch2rcd13ifvqeug","pricing_plan_id":"cebpf4jnsgd1na2vs0mg"},{"bike_id":"5a962d8c-e0b9-404b-86c5-15950ff2c91b","system_id":"levelo_inurba_marseille","lat":43.30934,"lon":5.40143,"is_reserved":false,"is_disabled":false,"rental_uris":{"android":"levelo://app?vid=5a962d8c-e0b9-404b-86c5-15950ff2c91b","ios":"levelo://app?vid=5a962d8c-e0b9-404b-86c5-15950ff2c91b"},"vehicle_type_id":"4","last_reported":1778910240,"current_range_meters":7200,"station_id":"ce4bgvp2rcd13ifvqct0","pricing_plan_id":"cebpf4jnsgd1na2vs0mg"},{"bike_id":"6ed28fa0-f20b-450d-a789-f0b565e64f1b","system_id":"levelo_inurba_marseille","lat":43.29839,"lon":5.38292,"is_reserved":false,"is_disabled":false,"rental_uris":{"android":"levelo://app?vid=6ed28fa0-f20b-450d-a789-f0b565e64f1b","ios":"levelo://app?vid=6ed28fa0-f20b-450d-a789-f0b565e64f1b"},"vehicle_type_id":"4","last_reported":1778910240,"current_range_meters":7200,"station_id":"","pricing_plan_id":"cebpf4jnsgd1na2vs0mg"},{"bike_id":"84496ff4-7ca0-4094-8a0f-b50184415265","system_id":"levelo_inurba_marseille","lat":43.26543,"lon":5.37324,"is_reserved":false,"is_disabled":false,"rental_uris":{"android":"levelo://app?vid=84496ff4-7ca0-4094-8a0f-b50184415265","ios":"levelo://app?vid=84496ff4-7ca0-4094-8a0f-b50184415265"},"vehicle_type_id":"4","last_reported":1778910240,"current_range_meters":7200,"station_id":"ce4bhg12rcd13ifvqf70","pricing_plan_id":"cebpf4jnsgd1na2vs0mg"},{"bike_id":"dc437964-578c-4f7a-be1e-9a5b7abec9f5","system_id":"levelo_inurba_marseille","lat":43.24511,"lon":5.37625,"is_reserved":false,"is_disabled":false,"rental_uris":{"android":"levelo://app?vid=dc437964-578c-4f7a-be1e-9a5b7abec9f5","ios":"levelo://app?vid=dc437964-578c-4f7a-be1e-9a5b7abec9f5"},"vehicle_type_id":"4","last_reported":1778910240,"current_range_meters":7200,"station_id":"","pricing_plan_id":"cebpf4jnsgd1na2vs0mg"},{"bike_id":"bc8c2695-d41e-43a5-a503-073f39b3a18d","system_id":"levelo_inurba_marseille","lat":43.27609,"lon":5.36111,"is_reserved":false,"is_disabled":false,"rental_uris":{"android":"levelo://app?vid=bc8c2695-d41e-43a5-a503-073f39b3a18d","ios":"levelo://app?vid=bc8c2695-d41e-43a5-a503-073f39b3a18d"},"vehicle_type_id":"4","last_reported":1778910240,"current_range_meters":7200,"station_id":"ce4bgj92rcd13ifvqbe0","pricing_plan_id":"cebpf4jnsgd1na2vs0mg"},{"bike_id":"b1e32ccc-9ab6-460a-916e-40bdaa523ae4","system_id":"levelo_inurba_marseille","lat":43.2881,"lon":5.35896,"is_reserved":false,"is_disabled":false,"rental_uris":{"android":"levelo://app?vid=b1e32ccc-9ab6-460a-916e-40bdaa523ae4","ios":"levelo://app?vid=b1e32ccc-9ab6-460a-916e-40bdaa523ae4"},"vehicle_type_id":"4","last_reported":1778910240,"current_range_meters":7200,"station_id":"","pricing_plan_id":"cebpf4jnsgd1na2vs0mg"},{"bike_id":"bc1ceef2-7ab6-4b29-97cf-e699caf1898f","system_id":"levelo_inurba_marseille","lat":43.24639,"lon":5.38904,"is_reserved":false,"is_disabled":false,"rental_uris":{"android":"levelo://app?vid=bc1ceef2-7ab6-4b29-97cf-e699caf1898f","ios":"levelo://app?vid=bc1ceef2-7ab6-4b29-97cf-e699caf1898f"},"vehicle_type_id":"4","last_reported":1778910240,"current_range_meters":7200,"station_id":"ce4bhg12rcd13ifvqf60","pricing_plan_id":"cebpf4jnsgd1na2vs0mg"},{"bike_id":"a4daa27a-ef2c-44dd-9374-6a461d1eeb5c","system_id":"levelo_inurba_marseille","lat":43.30255,"lon":5.40012,"is_reserved":false,"is_disabled":true,"rental_uris":{"android":"levelo://app?vid=a4daa27a-ef2c-44dd-9374-6a461d1eeb5c","ios":"levelo://app?vid=a4daa27a-ef2c-44dd-9374-6a461d1eeb5c"},"vehicle_type_id":"4","last_reported":1778910240,"current_range_meters":7200,"station_id":"ce4bgvh2rcd13ifvqcs0","pricing_plan_id":"cebpf4jnsgd1na2vs0mg"},{"bike_id":"25d874e2-4fb0-465d-875a-02b69a82441a","system_id":"levelo_inurba_marseille","lat":43.24787,"lon":5.37482,"is_reserved":false,"is_disabled":false,"rental_uris":{"android":"levelo://app?vid=25d874e2-4fb0-465d-875a-02b69a82441a","ios":"levelo://app?vid=25d874e2-4fb0-465d-875a-02b69a82441a"},"vehicle_type_id":"4","last_reported":1778910240,"current_range_meters":7200,"station_id":"ce4bhgh2rcd13ifvqfb0","pricing_plan_id":"cebpf4jnsgd1na2vs0mg"},{"bike_id":"c0afe38e-1b1f-4737-9474-5d6681e1c046","system_id":"levelo_inurba_marseille","lat":43.29905,"lon":5.42119,"is_reserved":false,"is_disabled":false,"rental_uris":{"android":"levelo://app?vid=c0afe38e-1b1f-4737-9474-5d6681e1c046","ios":"levelo://app?vid=c0afe38e-1b1f-4737-9474-5d6681e1c046"},"vehicle_type_id":"4","last_reported":1778910240,"current_range_meters":8000,"station_id":"st_d6tc004otcvc738tfe70","pricing_plan_id":"cebpf4jnsgd1na2vs0mg"},{"bike_id":"03891f04-e4d5-4f4c-a686-0dee6d4aa3c1","system_id":"levelo_inurba_marseille","lat":43.30897,"lon":5.3687,"is_reserved":false,"is_disabled":false,"rental_uris":{"android":"levelo://app?vid=03891f04-e4d5-4f4c-a686-0dee6d4aa3c1","ios":"levelo://app?vid=03891f04-e4d5-4f4c-a686-0dee6d4aa3c1"},"vehicle_type_id":"4","last_reported":1778910240,"current_range_meters":8000,"station_id":"ce4bgn92rcd13ifvqbvg","pricing_plan_id":"cebpf4jnsgd1na2vs0mg"},{"bike_id":"171050af-87b6-4745-966b-011c90f35208","system_id":"levelo_inurba_marseille","lat":43.29649,"lon":5.40634,"is_reserved":false,"is_disabled":false,"rental_uris":{"android":"levelo://app?vid=171050af-87b6-4745-966b-011c90f35208","ios":"levelo://app?vid=171050af-87b6-4745-966b-011c90f35208"},"vehicle_type_id":"4","last_reported":1778910240,"current_range_meters":8000,"station_id":"ce4bh0h2rcd13ifvqd60","pricing_plan_id":"cebpf4jnsgd1na2vs0mg"},{"bike_id":"30bdff29-9aa2-4944-9e9e-fbb89a71a011","system_id":"levelo_inurba_marseille","lat":43.29509,"lon":5.39387,"is_reserved":false,"is_disabled":true,"rental_uris":{"android":"levelo://app?vid=30bdff29-9aa2-4944-9e9e-fbb89a71a011","ios":"levelo://app?vid=30bdff29-9aa2-4944-9e9e-fbb89a71a011"},"vehicle_type_id":"4","last_reported":1778910240,"current_range_meters":8000,"station_id":"ce4bh292rcd13ifvqdf0","pricing_plan_id":"cebpf4jnsgd1na2vs0mg"},{"bike_id":"9328df09-7c77-4ef9-a326-cd1cda9dd29d","system_id":"levelo_inurba_marseille","lat":43.30781,"lon":5.3847,"is_reserved":false,"is_disabled":false,"rental_uris":{"android":"levelo://app?vid=9328df09-7c77-4ef9-a326-cd1cda9dd29d","ios":"levelo://app?vid=9328df09-7c77-4ef9-a326-cd1cda9dd29d"},"vehicle_type_id":"4","last_reported":1778910240,"current_range_meters":8000,"station_id":"","pricing_plan_id":"cebpf4jnsgd1na2vs0mg"},{"bike_id":"015aad6e-f7c0-4598-9ad7-38c4d3fee62c","system_id":"levelo_inurba_marseille","lat":43.2863,"lon":5.35094,"is_reserved":false,"is_disabled":false,"rental_uris":{"android":"levelo://app?vid=015aad6e-f7c0-4598-9ad7-38c4d3fee62c","ios":"levelo://app?vid=015aad6e-f7c0-4598-9ad7-38c4d3fee62c"},"vehicle_type_id":"4","last_reported":1778910240,"current_range_meters":8000,"station_id":"ce4bhch2rcd13ifvqeug","pricing_plan_id":"cebpf4jnsgd1na2vs0mg"},{"bike_id":"3b37c839-ad07-497f-82aa-34f721cf3fa2","system_id":"levelo_inurba_marseille","lat":43.30093,"lon":5.39068,"is_reserved":false,"is_disabled":false,"rental_uris":{"android":"levelo://app?vid=3b37c839-ad07-497f-82aa-34f721cf3fa2","ios":"levelo://app?vid=3b37c839-ad07-497f-82aa-34f721cf3fa2"},"vehicle_type_id":"4","last_reported":1778910240,"current_range_meters":8000,"station_id":"ce4bh192rcd13ifvqdb0","pricing_plan_id":"cebpf4jnsgd1na2vs0mg"},{"bike_id":"8d4da0a0-2079-44d4-825d-24f7411e190b","system_id":"levelo_inurba_marseille","lat":43.32012,"lon":5.38128,"is_reserved":false,"is_disabled":false,"rental_uris":{"android":"levelo://app?vid=8d4da0a0-2079-44d4-825d-24f7411e190b","ios":"levelo://app?vid=8d4da0a0-2079-44d4-825d-24f7411e190b"},"vehicle_type_id":"4","last_reported":1778910240,"current_range_meters":8000,"station_id":"ce4bhr12rcd13ifvqhpg","pricing_plan_id":"cebpf4jnsgd1na2vs0mg"},{"bike_id":"d603376b-37cb-4769-b2bf-07fc154e42df","system_id":"levelo_inurba_marseille","lat":43.26198,"lon":5.37936,"is_reserved":false,"is_disabled":false,"rental_uris":{"android":"levelo://app?vid=d603376b-37cb-4769-b2bf-07fc154e42df","ios":"levelo://app?vid=d603376b-37cb-4769-b2bf-07fc154e42df"},"vehicle_type_id":"4","last_reported":1778910240,"current_range_meters":8000,"station_id":"ce4bhjp2rcd13ifvqg90","pricing_plan_id":"cebpf4jnsgd1na2vs0mg"},{"bike_id":"b9fc383d-7675-4ac1-96a8-b14863e064c9","system_id":"levelo_inurba_marseille","lat":43.31314,"lon":5.37264,"is_reserved":false,"is_disabled":false,"rental_uris":{"android":"levelo://app?vid=b9fc383d-7675-4ac1-96a8-b14863e064c9","ios":"levelo://app?vid=b9fc383d-7675-4ac1-96a8-b14863e064c9"},"vehicle_type_id":"4","last_reported":1778910240,"current_range_meters":8000,"station_id":"","pricing_plan_id":"cebpf4jnsgd1na2vs0mg"},{"bike_id":"a62cbf92-2c84-4b8b-8455-b7c2ecf0213a","system_id":"levelo_inurba_marseille","lat":43.29558,"lon":5.39982,"is_reserved":false,"is_disabled":false,"rental_uris":{"android":"levelo://app?vid=a62cbf92-2c84-4b8b-8455-b7c2ecf0213a","ios":"levelo://app?vid=a62cbf92-2c84-4b8b-8455-b7c2ecf0213a"},"vehicle_type_id":"4","last_reported":1778910240,"current_range_meters":8000,"station_id":"ce4bh312rcd13ifvqdj0","pricing_plan_id":"cebpf4jnsgd1na2vs0mg"},{"bike_id":"c840fdcf-1e65-4005-a5a6-debdb0deb9d7","system_id":"levelo_inurba_marseille","lat":43.31087,"lon":5.37766,"is_reserved":false,"is_disabled":false,"rental_uris":{"android":"levelo://app?vid=c840fdcf-1e65-4005-a5a6-debdb0deb9d7","ios":"levelo://app?vid=c840fdcf-1e65-4005-a5a6-debdb0deb9d7"},"vehicle_type_id":"4","last_reported":1778910240,"current_range_meters":8000,"station_id":"ce4bgt92rcd13ifvqcg0","pricing_plan_id":"cebpf4jnsgd1na2vs0mg"},{"bike_id":"b307ebcf-a623-4ce8-bd6b-ce1a3ee616ac","system_id":"levelo_inurba_marseille","lat":43.2511,"lon":5.39561,"is_reserved":false,"is_disabled":false,"rental_uris":{"android":"levelo://app?vid=b307ebcf-a623-4ce8-bd6b-ce1a3ee616ac","ios":"levelo://app?vid=b307ebcf-a623-4ce8-bd6b-ce1a3ee616ac"},"vehicle_type_id":"4","last_reported":1778910240,"current_range_meters":8000,"station_id":"ce4bhm12rcd13ifvqgkg","pricing_plan_id":"cebpf4jnsgd1na2vs0mg"},{"bike_id":"92aa287c-1ffd-4e0d-a777-d680461d889a","system_id":"levelo_inurba_marseille","lat":43.22548,"lon":5.41629,"is_reserved":false,"is_disabled":false,"rental_uris":{"android":"levelo://app?vid=92aa287c-1ffd-4e0d-a777-d680461d889a","ios":"levelo://app?vid=92aa287c-1ffd-4e0d-a777-d680461d889a"},"vehicle_type_id":"4","last_reported":1778910240,"current_range_meters":8000,"station_id":"st_d2o4gvlbi1j2169b742g","pricing_plan_id":"cebpf4jnsgd1na2vs0mg"},{"bike_id":"5c9359d6-2df8-4bd7-99c2-16494a449d4a","system_id":"levelo_inurba_marseille","lat":43.29285,"lon":5.40134,"is_reserved":false,"is_disabled":false,"rental_uris":{"android":"levelo://app?vid=5c9359d6-2df8-4bd7-99c2-16494a449d4a","ios":"levelo://app?vid=5c9359d6-2df8-4bd7-99c2-16494a449d4a"},"vehicle_type_id":"4","last_reported":1778910240,"current_range_meters":8000,"station_id":"ce4bh312rcd13ifvqdk0","pricing_plan_id":"cebpf4jnsgd1na2vs0mg"},{"bike_id":"055a60b0-3aaa-43d9-a34f-b28b189e58ea","system_id":"levelo_inurba_marseille","lat":43.2917,"lon":5.37123,"is_reserved":false,"is_disabled":true,"rental_uris":{"android":"levelo://app?vid=055a60b0-3aaa-43d9-a34f-b28b189e58ea","ios":"levelo://app?vid=055a60b0-3aaa-43d9-a34f-b28b189e58ea"},"vehicle_type_id":"4","last_reported":1778910240,"current_range_meters":8000,"station_id":"ce4bha92rcd13ifvqeh0","pricing_plan_id":"cebpf4jnsgd1na2vs0mg"},{"bike_id":"40fba273-30a0-4610-9faa-17aeee18cf47","system_id":"levelo_inurba_marseille","lat":43.29615,"lon":5.38092,"is_reserved":false,"is_disabled":false,"rental_uris":{"android":"levelo://app?vid=40fba273-30a0-4610-9faa-17aeee18cf47","ios":"levelo://app?vid=40fba273-30a0-4610-9faa-17aeee18cf47"},"vehicle_type_id":"4","last_reported":1778910240,"current_range_meters":8000,"station_id":"ce4bgl12rcd13ifvqbo0","pricing_plan_id":"cebpf4jnsgd1na2vs0mg"},{"bike_id":"2d2c7674-d2ca-402f-b8b0-47c4cc0178f0","system_id":"levelo_inurba_marseille","lat":43.23148,"lon":5.43704,"is_reserved":false,"is_disabled":false,"rental_uris":{"android":"levelo://app?vid=2d2c7674-d2ca-402f-b8b0-47c4cc0178f0","ios":"levelo://app?vid=2d2c7674-d2ca-402f-b8b0-47c4cc0178f0"},"vehicle_type_id":"4","last_reported":1778910240,"current_range_meters":8000,"station_id":"ce4bhmp2rcd13ifvqgog","pricing_plan_id":"cebpf4jnsgd1na2vs0mg"},{"bike_id":"8ae83668-f991-4348-baf0-16da5513f81f","system_id":"levelo_inurba_marseille","lat":43.31534,"lon":5.38034,"is_reserved":false,"is_disabled":false,"rental_uris":{"android":"levelo://app?vid=8ae83668-f991-4348-baf0-16da5513f81f","ios":"levelo://app?vid=8ae83668-f991-4348-baf0-16da5513f81f"},"vehicle_type_id":"4","last_reported":1778910240,"current_range_meters":8000,"station_id":"ce4bhsp2rcd13ifvqi50","pricing_plan_id":"cebpf4jnsgd1na2vs0mg"},{"bike_id":"c6c3ffa5-2514-4dce-9955-6dea3b87213e","system_id":"levelo_inurba_marseille","lat":43.33552,"lon":5.37481,"is_reserved":false,"is_disabled":false,"rental_uris":{"android":"levelo://app?vid=c6c3ffa5-2514-4dce-9955-6dea3b87213e","ios":"levelo://app?vid=c6c3ffa5-2514-4dce-9955-6dea3b87213e"},"vehicle_type_id":"4","last_reported":1778910240,"current_range_meters":8000,"station_id":"st_d46tts09ee8s73dlu43g","pricing_plan_id":"cebpf4jnsgd1na2vs0mg"},{"bike_id":"3b993a7b-f12d-4592-92aa-7803329fbe88","system_id":"levelo_inurba_marseille","lat":43.29531,"lon":5.38549,"is_reserved":false,"is_disabled":false,"rental_uris":{"android":"levelo://app?vid=3b993a7b-f12d-4592-92aa-7803329fbe88","ios":"levelo://app?vid=3b993a7b-f12d-4592-92aa-7803329fbe88"},"vehicle_type_id":"4","last_reported":1778910240,"current_range_meters":8000,"station_id":"ce4bgih2rcd13ifvqba0","pricing_plan_id":"cebpf4jnsgd1na2vs0mg"},{"bike_id":"47ed1e61-4521-4891-9a88-a361ffece6cb","system_id":"levelo_inurba_marseille","lat":43.29582,"lon":5.37483,"is_reserved":false,"is_disabled":false,"rental_uris":{"android":"levelo://app?vid=47ed1e61-4521-4891-9a88-a361ffece6cb","ios":"levelo://app?vid=47ed1e61-4521-4891-9a88-a361ffece6cb"},"vehicle_type_id":"4","last_reported":1778910240,"current_range_meters":8000,"station_id":"ce4bgh92rcd13ifvqb50","pricing_plan_id":"cebpf4jnsgd1na2vs0mg"},{"bike_id":"5b61ad3d-c4b3-4bf0-9170-da55ed29dbbb","system_id":"levelo_inurba_marseille","lat":43.30777,"lon":5.39339,"is_reserved":false,"is_disabled":false,"rental_uris":{"android":"levelo://app?vid=5b61ad3d-c4b3-4bf0-9170-da55ed29dbbb","ios":"levelo://app?vid=5b61ad3d-c4b3-4bf0-9170-da55ed29dbbb"},"vehicle_type_id":"4","last_reported":1778910240,"current_range_meters":8000,"station_id":"","pricing_plan_id":"cebpf4jnsgd1na2vs0mg"},{"bike_id":"e36e9ae6-760f-4d6b-b27b-2683e1da6b8e","system_id":"levelo_inurba_marseille","lat":43.31756,"lon":5.39001,"is_reserved":false,"is_disabled":false,"rental_uris":{"android":"levelo://app?vid=e36e9ae6-760f-4d6b-b27b-2683e1da6b8e","ios":"levelo://app?vid=e36e9ae6-760f-4d6b-b27b-2683e1da6b8e"},"vehicle_type_id":"4","last_reported":1778910240,"current_range_meters":8000,"station_id":"ce4bhqp2rcd13ifvqhng","pricing_plan_id":"cebpf4jnsgd1na2vs0mg"},{"bike_id":"62d156b1-3ed6-496f-9d27-264502b676a3","system_id":"levelo_inurba_marseille","lat":43.33556,"lon":5.37492,"is_reserved":false,"is_disabled":false,"rental_uris":{"android":"levelo://app?vid=62d156b1-3ed6-496f-9d27-264502b676a3","ios":"levelo://app?vid=62d156b1-3ed6-496f-9d27-264502b676a3"},"vehicle_type_id":"4","last_reported":1778910240,"current_range_meters":8000,"station_id":"st_d46tts09ee8s73dlu43g","pricing_plan_id":"cebpf4jnsgd1na2vs0mg"},{"bike_id":"559d1e2a-3378-464a-bb49-bac80a61d607","system_id":"levelo_inurba_marseille","lat":43.24466,"lon":5.42537,"is_reserved":false,"is_disabled":false,"rental_uris":{"android":"levelo://app?vid=559d1e2a-3378-464a-bb49-bac80a61d607","ios":"levelo://app?vid=559d1e2a-3378-464a-bb49-bac80a61d607"},"vehicle_type_id":"4","last_reported":1778910240,"current_range_meters":8000,"station_id":"st_d4a3vfp97mjs738cd8kg","pricing_plan_id":"cebpf4jnsgd1na2vs0mg"},{"bike_id":"489a1706-c3ea-4b0e-8e98-c2ee70717ba8","system_id":"levelo_inurba_marseille","lat":43.22546,"lon":5.41617,"is_reserved":false,"is_disabled":false,"rental_uris":{"android":"levelo://app?vid=489a1706-c3ea-4b0e-8e98-c2ee70717ba8","ios":"levelo://app?vid=489a1706-c3ea-4b0e-8e98-c2ee70717ba8"},"vehicle_type_id":"4","last_reported":1778910240,"current_range_meters":8000,"station_id":"st_d2o4gvlbi1j2169b742g","pricing_plan_id":"cebpf4jnsgd1na2vs0mg"},{"bike_id":"4ec959dd-1de1-448f-b442-aa2685dcb0b4","system_id":"levelo_inurba_marseille","lat":43.31257,"lon":5.36837,"is_reserved":false,"is_disabled":false,"rental_uris":{"android":"levelo://app?vid=4ec959dd-1de1-448f-b442-aa2685dcb0b4","ios":"levelo://app?vid=4ec959dd-1de1-448f-b442-aa2685dcb0b4"},"vehicle_type_id":"4","last_reported":1778910240,"current_range_meters":8000,"station_id":"ce4bgl92rcd13ifvqbq0","pricing_plan_id":"cebpf4jnsgd1na2vs0mg"},{"bike_id":"255a8db9-6ac5-445d-8da2-584280160595","system_id":"levelo_inurba_marseille","lat":43.29965,"lon":5.36751,"is_reserved":false,"is_disabled":false,"rental_uris":{"android":"levelo://app?vid=255a8db9-6ac5-445d-8da2-584280160595","ios":"levelo://app?vid=255a8db9-6ac5-445d-8da2-584280160595"},"vehicle_type_id":"4","last_reported":1778910240,"current_range_meters":8000,"station_id":"","pricing_plan_id":"cebpf4jnsgd1na2vs0mg"},{"bike_id":"67078fe7-6b80-40cb-b4ba-0d6347d50803","system_id":"levelo_inurba_marseille","lat":43.26224,"lon":5.4043,"is_reserved":false,"is_disabled":false,"rental_uris":{"android":"levelo://app?vid=67078fe7-6b80-40cb-b4ba-0d6347d50803","ios":"levelo://app?vid=67078fe7-6b80-40cb-b4ba-0d6347d50803"},"vehicle_type_id":"4","last_reported":1778910240,"current_range_meters":8000,"station_id":"ce4bhmh2rcd13ifvqgmg","pricing_plan_id":"cebpf4jnsgd1na2vs0mg"},{"bike_id":"14c55078-8297-4fb4-9c71-8d8160583bf5","system_id":"levelo_inurba_marseille","lat":43.25522,"lon":5.37641,"is_reserved":false,"is_disabled":false,"rental_uris":{"android":"levelo://app?vid=14c55078-8297-4fb4-9c71-8d8160583bf5","ios":"levelo://app?vid=14c55078-8297-4fb4-9c71-8d8160583bf5"},"vehicle_type_id":"4","last_reported":1778910240,"current_range_meters":8000,"station_id":"ce4bhh12rcd13ifvqff0","pricing_plan_id":"cebpf4jnsgd1na2vs0mg"},{"bike_id":"9ab203a0-aded-4bb2-b7a8-94fae23f197e","system_id":"levelo_inurba_marseille","lat":43.23969,"lon":5.36617,"is_reserved":false,"is_disabled":false,"rental_uris":{"android":"levelo://app?vid=9ab203a0-aded-4bb2-b7a8-94fae23f197e","ios":"levelo://app?vid=9ab203a0-aded-4bb2-b7a8-94fae23f197e"},"vehicle_type_id":"4","last_reported":1778910240,"current_range_meters":8000,"station_id":"ce4bhi12rcd13ifvqfp0","pricing_plan_id":"cebpf4jnsgd1na2vs0mg"},{"bike_id":"b48aa10c-bd41-47b2-81ea-431d3ed55830","system_id":"levelo_inurba_marseille","lat":43.296,"lon":5.38087,"is_reserved":false,"is_disabled":false,"rental_uris":{"android":"levelo://app?vid=b48aa10c-bd41-47b2-81ea-431d3ed55830","ios":"levelo://app?vid=b48aa10c-bd41-47b2-81ea-431d3ed55830"},"vehicle_type_id":"4","last_reported":1778910240,"current_range_meters":8400,"station_id":"ce4bgl12rcd13ifvqbo0","pricing_plan_id":"cebpf4jnsgd1na2vs0mg"},{"bike_id":"e88ee4d6-d50e-4326-b0e5-bebea2cbe4f5","system_id":"levelo_inurba_marseille","lat":43.31496,"lon":5.3729,"is_reserved":false,"is_disabled":false,"rental_uris":{"android":"levelo://app?vid=e88ee4d6-d50e-4326-b0e5-bebea2cbe4f5","ios":"levelo://app?vid=e88ee4d6-d50e-4326-b0e5-bebea2cbe4f5"},"vehicle_type_id":"4","last_reported":1778910240,"current_range_meters":8400,"station_id":"ce4bgt12rcd13ifvqcd0","pricing_plan_id":"cebpf4jnsgd1na2vs0mg"},{"bike_id":"69109416-ea14-4bf1-b2ba-9fec77c58a09","system_id":"levelo_inurba_marseille","lat":43.29016,"lon":5.3813,"is_reserved":false,"is_disabled":false,"rental_uris":{"android":"levelo://app?vid=69109416-ea14-4bf1-b2ba-9fec77c58a09","ios":"levelo://app?vid=69109416-ea14-4bf1-b2ba-9fec77c58a09"},"vehicle_type_id":"4","last_reported":1778910240,"current_range_meters":8400,"station_id":"ce4bh4p2rcd13ifvqe1g","pricing_plan_id":"cebpf4jnsgd1na2vs0mg"},{"bike_id":"4ef7aba0-b09a-4e31-9a6a-36b933089c45","system_id":"levelo_inurba_marseille","lat":43.29582,"lon":5.3997,"is_reserved":false,"is_disabled":false,"rental_uris":{"android":"levelo://app?vid=4ef7aba0-b09a-4e31-9a6a-36b933089c45","ios":"levelo://app?vid=4ef7aba0-b09a-4e31-9a6a-36b933089c45"},"vehicle_type_id":"4","last_reported":1778910240,"current_range_meters":8400,"station_id":"ce4bh312rcd13ifvqdj0","pricing_plan_id":"cebpf4jnsgd1na2vs0mg"},{"bike_id":"dbf94776-63a1-426f-85ae-41abd5903310","system_id":"levelo_inurba_marseille","lat":43.30961,"lon":5.37662,"is_reserved":false,"is_disabled":false,"rental_uris":{"android":"levelo://app?vid=dbf94776-63a1-426f-85ae-41abd5903310","ios":"levelo://app?vid=dbf94776-63a1-426f-85ae-41abd5903310"},"vehicle_type_id":"4","last_reported":1778910240,"current_range_meters":8400,"station_id":"","pricing_plan_id":"cebpf4jnsgd1na2vs0mg"},{"bike_id":"74f12a6d-7a94-4ce3-8725-e3fbbe23ae70","system_id":"levelo_inurba_marseille","lat":43.33583,"lon":5.37545,"is_reserved":false,"is_disabled":false,"rental_uris":{"android":"levelo://app?vid=74f12a6d-7a94-4ce3-8725-e3fbbe23ae70","ios":"levelo://app?vid=74f12a6d-7a94-4ce3-8725-e3fbbe23ae70"},"vehicle_type_id":"4","last_reported":1778910240,"current_range_meters":8400,"station_id":"st_d46tts09ee8s73dlu43g","pricing_plan_id":"cebpf4jnsgd1na2vs0mg"},{"bike_id":"b3d3f46d-8b61-4048-a49d-46db42a99359","system_id":"levelo_inurba_marseille","lat":43.24742,"lon":5.37497,"is_reserved":false,"is_disabled":false,"rental_uris":{"android":"levelo://app?vid=b3d3f46d-8b61-4048-a49d-46db42a99359","ios":"levelo://app?vid=b3d3f46d-8b61-4048-a49d-46db42a99359"},"vehicle_type_id":"4","last_reported":1778910240,"current_range_meters":8400,"station_id":"","pricing_plan_id":"cebpf4jnsgd1na2vs0mg"},{"bike_id":"a4ee5f00-0ee9-4609-8584-054a76ccd956","system_id":"levelo_inurba_marseille","lat":43.30083,"lon":5.39081,"is_reserved":false,"is_disabled":false,"rental_uris":{"android":"levelo://app?vid=a4ee5f00-0ee9-4609-8584-054a76ccd956","ios":"levelo://app?vid=a4ee5f00-0ee9-4609-8584-054a76ccd956"},"vehicle_type_id":"4","last_reported":1778910240,"current_range_meters":8400,"station_id":"ce4bh192rcd13ifvqdb0","pricing_plan_id":"cebpf4jnsgd1na2vs0mg"},{"bike_id":"616353f1-4754-4f57-9465-e46d49d24354","system_id":"levelo_inurba_marseille","lat":43.33631,"lon":5.36314,"is_reserved":false,"is_disabled":false,"rental_uris":{"android":"levelo://app?vid=616353f1-4754-4f57-9465-e46d49d24354","ios":"levelo://app?vid=616353f1-4754-4f57-9465-e46d49d24354"},"vehicle_type_id":"4","last_reported":1778910240,"current_range_meters":8400,"station_id":"","pricing_plan_id":"cebpf4jnsgd1na2vs0mg"},{"bike_id":"fd40b65e-4533-406f-9f7a-1eb7ebc9e5a5","system_id":"levelo_inurba_marseille","lat":43.3016,"lon":5.366,"is_reserved":false,"is_disabled":false,"rental_uris":{"android":"levelo://app?vid=fd40b65e-4533-406f-9f7a-1eb7ebc9e5a5","ios":"levelo://app?vid=fd40b65e-4533-406f-9f7a-1eb7ebc9e5a5"},"vehicle_type_id":"4","last_reported":1778910240,"current_range_meters":8400,"station_id":"ce4bgrh2rcd13ifvqc8g","pricing_plan_id":"cebpf4jnsgd1na2vs0mg"},{"bike_id":"95d4bd31-b89c-4cb2-afa3-9e6e4ba15e30","system_id":"levelo_inurba_marseille","lat":43.25494,"lon":5.3765,"is_reserved":false,"is_disabled":false,"rental_uris":{"android":"levelo://app?vid=95d4bd31-b89c-4cb2-afa3-9e6e4ba15e30","ios":"levelo://app?vid=95d4bd31-b89c-4cb2-afa3-9e6e4ba15e30"},"vehicle_type_id":"4","last_reported":1778910240,"current_range_meters":8400,"station_id":"ce4bhh12rcd13ifvqff0","pricing_plan_id":"cebpf4jnsgd1na2vs0mg"},{"bike_id":"1124e8ed-181a-445d-9220-36e963831e6c","system_id":"levelo_inurba_marseille","lat":43.23895,"lon":5.37483,"is_reserved":false,"is_disabled":true,"rental_uris":{"android":"levelo://app?vid=1124e8ed-181a-445d-9220-36e963831e6c","ios":"levelo://app?vid=1124e8ed-181a-445d-9220-36e963831e6c"},"vehicle_type_id":"4","last_reported":1778910240,"current_range_meters":8400,"station_id":"st_d6sm7csbq4hs73f8fpjg","pricing_plan_id":"cebpf4jnsgd1na2vs0mg"},{"bike_id":"393e8ae9-af1c-4c52-869b-ccb42496f952","system_id":"levelo_inurba_marseille","lat":43.23184,"lon":5.3997,"is_reserved":false,"is_disabled":false,"rental_uris":{"android":"levelo://app?vid=393e8ae9-af1c-4c52-869b-ccb42496f952","ios":"levelo://app?vid=393e8ae9-af1c-4c52-869b-ccb42496f952"},"vehicle_type_id":"4","last_reported":1778910240,"current_range_meters":8400,"station_id":"ce4bhn12rcd13ifvqgqg","pricing_plan_id":"cebpf4jnsgd1na2vs0mg"},{"bike_id":"57716f1b-e850-455e-8535-b5db4b2543ce","system_id":"levelo_inurba_marseille","lat":43.27966,"lon":5.38734,"is_reserved":false,"is_disabled":false,"rental_uris":{"android":"levelo://app?vid=57716f1b-e850-455e-8535-b5db4b2543ce","ios":"levelo://app?vid=57716f1b-e850-455e-8535-b5db4b2543ce"},"vehicle_type_id":"4","last_reported":1778910240,"current_range_meters":8400,"station_id":"ce4bhg12rcd13ifvqf80","pricing_plan_id":"cebpf4jnsgd1na2vs0mg"},{"bike_id":"34678a1c-60f3-45d1-98d5-4a975c55a3b5","system_id":"levelo_inurba_marseille","lat":43.29221,"lon":5.36081,"is_reserved":false,"is_disabled":true,"rental_uris":{"android":"levelo://app?vid=34678a1c-60f3-45d1-98d5-4a975c55a3b5","ios":"levelo://app?vid=34678a1c-60f3-45d1-98d5-4a975c55a3b5"},"vehicle_type_id":"4","last_reported":1778910240,"current_range_meters":8400,"station_id":"ce4bhbh2rcd13ifvqeqg","pricing_plan_id":"cebpf4jnsgd1na2vs0mg"},{"bike_id":"06d88995-f1a7-44a9-813a-43111681d777","system_id":"levelo_inurba_marseille","lat":43.2998,"lon":5.37155,"is_reserved":false,"is_disabled":false,"rental_uris":{"android":"levelo://app?vid=06d88995-f1a7-44a9-813a-43111681d777","ios":"levelo://app?vid=06d88995-f1a7-44a9-813a-43111681d777"},"vehicle_type_id":"4","last_reported":1778910240,"current_range_meters":8400,"station_id":"ce4bgr92rcd13ifvqc7g","pricing_plan_id":"cebpf4jnsgd1na2vs0mg"},{"bike_id":"dbcb99d7-b21a-4ba8-9326-06fe4ababdac","system_id":"levelo_inurba_marseille","lat":43.23193,"lon":5.35547,"is_reserved":false,"is_disabled":false,"rental_uris":{"android":"levelo://app?vid=dbcb99d7-b21a-4ba8-9326-06fe4ababdac","ios":"levelo://app?vid=dbcb99d7-b21a-4ba8-9326-06fe4ababdac"},"vehicle_type_id":"4","last_reported":1778910240,"current_range_meters":8400,"station_id":"ce4bhu92rcd13ifvqi70","pricing_plan_id":"cebpf4jnsgd1na2vs0mg"},{"bike_id":"edd5c786-8d24-46bc-bdcd-f0f00a11c1c1","system_id":"levelo_inurba_marseille","lat":43.25515,"lon":5.3765,"is_reserved":false,"is_disabled":true,"rental_uris":{"android":"levelo://app?vid=edd5c786-8d24-46bc-bdcd-f0f00a11c1c1","ios":"levelo://app?vid=edd5c786-8d24-46bc-bdcd-f0f00a11c1c1"},"vehicle_type_id":"4","last_reported":1778910240,"current_range_meters":8400,"station_id":"ce4bhh12rcd13ifvqff0","pricing_plan_id":"cebpf4jnsgd1na2vs0mg"},{"bike_id":"5ce80697-225a-4775-9620-63268fa34f78","system_id":"levelo_inurba_marseille","lat":43.30143,"lon":5.38056,"is_reserved":false,"is_disabled":false,"rental_uris":{"android":"levelo://app?vid=5ce80697-225a-4775-9620-63268fa34f78","ios":"levelo://app?vid=5ce80697-225a-4775-9620-63268fa34f78"},"vehicle_type_id":"4","last_reported":1778910240,"current_range_meters":8400,"station_id":"ce4bgjp2rcd13ifvqbh0","pricing_plan_id":"cebpf4jnsgd1na2vs0mg"},{"bike_id":"810ef53a-5aff-49f3-99db-34213da1b1cf","system_id":"levelo_inurba_marseille","lat":43.28709,"lon":5.46686,"is_reserved":false,"is_disabled":false,"rental_uris":{"android":"levelo://app?vid=810ef53a-5aff-49f3-99db-34213da1b1cf","ios":"levelo://app?vid=810ef53a-5aff-49f3-99db-34213da1b1cf"},"vehicle_type_id":"4","last_reported":1778910240,"current_range_meters":8400,"station_id":"st_d6tc3vkotcvc738tfjhg","pricing_plan_id":"cebpf4jnsgd1na2vs0mg"},{"bike_id":"4cf8e064-21a7-4e57-ac70-a7acee42c98c","system_id":"levelo_inurba_marseille","lat":43.27617,"lon":5.36098,"is_reserved":false,"is_disabled":false,"rental_uris":{"android":"levelo://app?vid=4cf8e064-21a7-4e57-ac70-a7acee42c98c","ios":"levelo://app?vid=4cf8e064-21a7-4e57-ac70-a7acee42c98c"},"vehicle_type_id":"4","last_reported":1778910240,"current_range_meters":8400,"station_id":"ce4bgj92rcd13ifvqbe0","pricing_plan_id":"cebpf4jnsgd1na2vs0mg"},{"bike_id":"616c4552-df5e-4086-868d-328766d4b208","system_id":"levelo_inurba_marseille","lat":43.32269,"lon":5.38293,"is_reserved":false,"is_disabled":false,"rental_uris":{"android":"levelo://app?vid=616c4552-df5e-4086-868d-328766d4b208","ios":"levelo://app?vid=616c4552-df5e-4086-868d-328766d4b208"},"vehicle_type_id":"4","last_reported":1778910240,"current_range_meters":8400,"station_id":"ce4bhr12rcd13ifvqhqg","pricing_plan_id":"cebpf4jnsgd1na2vs0mg"},{"bike_id":"b645593d-f67c-4f1b-b9f9-f8e1b08f24ee","system_id":"levelo_inurba_marseille","lat":43.25103,"lon":5.41363,"is_reserved":false,"is_disabled":false,"rental_uris":{"android":"levelo://app?vid=b645593d-f67c-4f1b-b9f9-f8e1b08f24ee","ios":"levelo://app?vid=b645593d-f67c-4f1b-b9f9-f8e1b08f24ee"},"vehicle_type_id":"4","last_reported":1778910240,"current_range_meters":8400,"station_id":"","pricing_plan_id":"cebpf4jnsgd1na2vs0mg"},{"bike_id":"a36168d9-0b2a-4981-8b8e-6a59ec3108e0","system_id":"levelo_inurba_marseille","lat":43.29593,"lon":5.37724,"is_reserved":false,"is_disabled":true,"rental_uris":{"android":"levelo://app?vid=a36168d9-0b2a-4981-8b8e-6a59ec3108e0","ios":"levelo://app?vid=a36168d9-0b2a-4981-8b8e-6a59ec3108e0"},"vehicle_type_id":"4","last_reported":1778910240,"current_range_meters":8400,"station_id":"ce4bgi92rcd13ifvqb90","pricing_plan_id":"cebpf4jnsgd1na2vs0mg"},{"bike_id":"2ff2fc4a-b6df-4d70-b5e2-a4e1a1d96298","system_id":"levelo_inurba_marseille","lat":43.27385,"lon":5.36282,"is_reserved":false,"is_disabled":false,"rental_uris":{"android":"levelo://app?vid=2ff2fc4a-b6df-4d70-b5e2-a4e1a1d96298","ios":"levelo://app?vid=2ff2fc4a-b6df-4d70-b5e2-a4e1a1d96298"},"vehicle_type_id":"4","last_reported":1778910240,"current_range_meters":8400,"station_id":"ce4bhbh2rcd13ifvqeo0","pricing_plan_id":"cebpf4jnsgd1na2vs0mg"},{"bike_id":"275452fa-49c7-4ee3-b3e6-44621052e7fd","system_id":"levelo_inurba_marseille","lat":43.28425,"lon":5.34997,"is_reserved":false,"is_disabled":false,"rental_uris":{"android":"levelo://app?vid=275452fa-49c7-4ee3-b3e6-44621052e7fd","ios":"levelo://app?vid=275452fa-49c7-4ee3-b3e6-44621052e7fd"},"vehicle_type_id":"4","last_reported":1778910240,"current_range_meters":8400,"station_id":"ce4bhbh2rcd13ifvqepg","pricing_plan_id":"cebpf4jnsgd1na2vs0mg"},{"bike_id":"78a05d99-04e8-4d44-b30f-76f897048f1b","system_id":"levelo_inurba_marseille","lat":43.27915,"lon":5.39577,"is_reserved":false,"is_disabled":false,"rental_uris":{"android":"levelo://app?vid=78a05d99-04e8-4d44-b30f-76f897048f1b","ios":"levelo://app?vid=78a05d99-04e8-4d44-b30f-76f897048f1b"},"vehicle_type_id":"4","last_reported":1778910240,"current_range_meters":8400,"station_id":"ce4bhf92rcd13ifvqf40","pricing_plan_id":"cebpf4jnsgd1na2vs0mg"},{"bike_id":"a90bb131-ab97-4866-93b6-a21239fc5036","system_id":"levelo_inurba_marseille","lat":43.29256,"lon":5.38429,"is_reserved":false,"is_disabled":true,"rental_uris":{"android":"levelo://app?vid=a90bb131-ab97-4866-93b6-a21239fc5036","ios":"levelo://app?vid=a90bb131-ab97-4866-93b6-a21239fc5036"},"vehicle_type_id":"4","last_reported":1778910240,"current_range_meters":8400,"station_id":"ce4bh692rcd13ifvqea0","pricing_plan_id":"cebpf4jnsgd1na2vs0mg"},{"bike_id":"b5700011-a486-4e56-b8fb-207aaf85d4db","system_id":"levelo_inurba_marseille","lat":43.31898,"lon":5.36809,"is_reserved":false,"is_disabled":false,"rental_uris":{"android":"levelo://app?vid=b5700011-a486-4e56-b8fb-207aaf85d4db","ios":"levelo://app?vid=b5700011-a486-4e56-b8fb-207aaf85d4db"},"vehicle_type_id":"4","last_reported":1778910240,"current_range_meters":8400,"station_id":"st_d6o2h0d0559c73evc1b0","pricing_plan_id":"cebpf4jnsgd1na2vs0mg"},{"bike_id":"d1f3b13b-a61c-41fc-b986-79acc9b16fe8","system_id":"levelo_inurba_marseille","lat":43.2855,"lon":5.44121,"is_reserved":false,"is_disabled":false,"rental_uris":{"android":"levelo://app?vid=d1f3b13b-a61c-41fc-b986-79acc9b16fe8","ios":"levelo://app?vid=d1f3b13b-a61c-41fc-b986-79acc9b16fe8"},"vehicle_type_id":"4","last_reported":1778910240,"current_range_meters":8400,"station_id":"st_d3j3df2ikq2c7380ej80","pricing_plan_id":"cebpf4jnsgd1na2vs0mg"},{"bike_id":"2f701455-9a88-4bab-99f0-da0dade42e53","system_id":"levelo_inurba_marseille","lat":43.29497,"lon":5.43306,"is_reserved":false,"is_disabled":false,"rental_uris":{"android":"levelo://app?vid=2f701455-9a88-4bab-99f0-da0dade42e53","ios":"levelo://app?vid=2f701455-9a88-4bab-99f0-da0dade42e53"},"vehicle_type_id":"4","last_reported":1778910240,"current_range_meters":8400,"station_id":"st_d3j5ugp08ojc73fj9d10","pricing_plan_id":"cebpf4jnsgd1na2vs0mg"},{"bike_id":"d13aac5f-a992-4102-9ca3-382d9509d63a","system_id":"levelo_inurba_marseille","lat":43.30416,"lon":5.39744,"is_reserved":false,"is_disabled":false,"rental_uris":{"android":"levelo://app?vid=d13aac5f-a992-4102-9ca3-382d9509d63a","ios":"levelo://app?vid=d13aac5f-a992-4102-9ca3-382d9509d63a"},"vehicle_type_id":"4","last_reported":1778910240,"current_range_meters":8400,"station_id":"ce4bh092rcd13ifvqd20","pricing_plan_id":"cebpf4jnsgd1na2vs0mg"},{"bike_id":"ee15264c-c5fd-4c69-a06f-329fd6fb9d0d","system_id":"levelo_inurba_marseille","lat":43.30126,"lon":5.43119,"is_reserved":false,"is_disabled":false,"rental_uris":{"android":"levelo://app?vid=ee15264c-c5fd-4c69-a06f-329fd6fb9d0d","ios":"levelo://app?vid=ee15264c-c5fd-4c69-a06f-329fd6fb9d0d"},"vehicle_type_id":"4","last_reported":1778910240,"current_range_meters":8400,"station_id":"st_d3js3co5814s73ftftug","pricing_plan_id":"cebpf4jnsgd1na2vs0mg"},{"bike_id":"493397ed-d9be-4600-9fe1-57b99e6de4f4","system_id":"levelo_inurba_marseille","lat":43.29782,"lon":5.42767,"is_reserved":false,"is_disabled":false,"rental_uris":{"android":"levelo://app?vid=493397ed-d9be-4600-9fe1-57b99e6de4f4","ios":"levelo://app?vid=493397ed-d9be-4600-9fe1-57b99e6de4f4"},"vehicle_type_id":"4","last_reported":1778910240,"current_range_meters":8400,"station_id":"st_d3md5207bmas73dh9klg","pricing_plan_id":"cebpf4jnsgd1na2vs0mg"},{"bike_id":"fea54104-bb98-4d6d-b765-f71a537f5666","system_id":"levelo_inurba_marseille","lat":43.23418,"lon":5.4055,"is_reserved":false,"is_disabled":false,"rental_uris":{"android":"levelo://app?vid=fea54104-bb98-4d6d-b765-f71a537f5666","ios":"levelo://app?vid=fea54104-bb98-4d6d-b765-f71a537f5666"},"vehicle_type_id":"4","last_reported":1778910240,"current_range_meters":8400,"station_id":"","pricing_plan_id":"cebpf4jnsgd1na2vs0mg"},{"bike_id":"965dbdf1-b8e3-4c38-83d5-0be6eb46d8fe","system_id":"levelo_inurba_marseille","lat":43.26219,"lon":5.4045,"is_reserved":false,"is_disabled":false,"rental_uris":{"android":"levelo://app?vid=965dbdf1-b8e3-4c38-83d5-0be6eb46d8fe","ios":"levelo://app?vid=965dbdf1-b8e3-4c38-83d5-0be6eb46d8fe"},"vehicle_type_id":"4","last_reported":1778910240,"current_range_meters":8400,"station_id":"ce4bhmh2rcd13ifvqgmg","pricing_plan_id":"cebpf4jnsgd1na2vs0mg"},{"bike_id":"11cfcfb7-7cef-4ca3-94fd-d649299b0219","system_id":"levelo_inurba_marseille","lat":43.31714,"lon":5.42416,"is_reserved":false,"is_disabled":false,"rental_uris":{"android":"levelo://app?vid=11cfcfb7-7cef-4ca3-94fd-d649299b0219","ios":"levelo://app?vid=11cfcfb7-7cef-4ca3-94fd-d649299b0219"},"vehicle_type_id":"4","last_reported":1778910240,"current_range_meters":8400,"station_id":"ce4bhp92rcd13ifvqhbg","pricing_plan_id":"cebpf4jnsgd1na2vs0mg"},{"bike_id":"aed59901-c94a-4d43-9c03-97688f404923","system_id":"levelo_inurba_marseille","lat":43.28703,"lon":5.37396,"is_reserved":false,"is_disabled":false,"rental_uris":{"android":"levelo://app?vid=aed59901-c94a-4d43-9c03-97688f404923","ios":"levelo://app?vid=aed59901-c94a-4d43-9c03-97688f404923"},"vehicle_type_id":"4","last_reported":1778910240,"current_range_meters":8400,"station_id":"ce4bh3p2rcd13ifvqdq0","pricing_plan_id":"cebpf4jnsgd1na2vs0mg"},{"bike_id":"f641f050-a3dd-4978-9e2d-374df26e365f","system_id":"levelo_inurba_marseille","lat":43.30925,"lon":5.40121,"is_reserved":false,"is_disabled":false,"rental_uris":{"android":"levelo://app?vid=f641f050-a3dd-4978-9e2d-374df26e365f","ios":"levelo://app?vid=f641f050-a3dd-4978-9e2d-374df26e365f"},"vehicle_type_id":"4","last_reported":1778910240,"current_range_meters":8400,"station_id":"ce4bgvp2rcd13ifvqct0","pricing_plan_id":"cebpf4jnsgd1na2vs0mg"},{"bike_id":"4f287bb7-15a3-482a-b520-e0d62e7381db","system_id":"levelo_inurba_marseille","lat":43.2976,"lon":5.39346,"is_reserved":false,"is_disabled":false,"rental_uris":{"android":"levelo://app?vid=4f287bb7-15a3-482a-b520-e0d62e7381db","ios":"levelo://app?vid=4f287bb7-15a3-482a-b520-e0d62e7381db"},"vehicle_type_id":"4","last_reported":1778910240,"current_range_meters":8400,"station_id":"chh1huq6cuj3fo74tm60","pricing_plan_id":"cebpf4jnsgd1na2vs0mg"},{"bike_id":"cd6a7b11-3f65-4e0b-bd1f-c4c2ca92902c","system_id":"levelo_inurba_marseille","lat":43.30603,"lon":5.39378,"is_reserved":false,"is_disabled":true,"rental_uris":{"android":"levelo://app?vid=cd6a7b11-3f65-4e0b-bd1f-c4c2ca92902c","ios":"levelo://app?vid=cd6a7b11-3f65-4e0b-bd1f-c4c2ca92902c"},"vehicle_type_id":"4","last_reported":1778910240,"current_range_meters":8800,"station_id":"ce4bh0p2rcd13ifvqd80","pricing_plan_id":"cebpf4jnsgd1na2vs0mg"},{"bike_id":"e7eff05d-9c47-4345-89af-7e5c9fdb779c","system_id":"levelo_inurba_marseille","lat":43.28283,"lon":5.35073,"is_reserved":false,"is_disabled":true,"rental_uris":{"android":"levelo://app?vid=e7eff05d-9c47-4345-89af-7e5c9fdb779c","ios":"levelo://app?vid=e7eff05d-9c47-4345-89af-7e5c9fdb779c"},"vehicle_type_id":"4","last_reported":1778910240,"current_range_meters":8800,"station_id":"ce4bhbp2rcd13ifvqerg","pricing_plan_id":"cebpf4jnsgd1na2vs0mg"},{"bike_id":"df3b4c65-b594-43d2-9619-bf34b1560986","system_id":"levelo_inurba_marseille","lat":43.33552,"lon":5.37469,"is_reserved":false,"is_disabled":false,"rental_uris":{"android":"levelo://app?vid=df3b4c65-b594-43d2-9619-bf34b1560986","ios":"levelo://app?vid=df3b4c65-b594-43d2-9619-bf34b1560986"},"vehicle_type_id":"4","last_reported":1778910240,"current_range_meters":8800,"station_id":"st_d46tts09ee8s73dlu43g","pricing_plan_id":"cebpf4jnsgd1na2vs0mg"},{"bike_id":"9d9da9b1-62c5-4232-8888-7d36c96bb153","system_id":"levelo_inurba_marseille","lat":43.27456,"lon":5.41621,"is_reserved":false,"is_disabled":false,"rental_uris":{"android":"levelo://app?vid=9d9da9b1-62c5-4232-8888-7d36c96bb153","ios":"levelo://app?vid=9d9da9b1-62c5-4232-8888-7d36c96bb153"},"vehicle_type_id":"4","last_reported":1778910240,"current_range_meters":8800,"station_id":"","pricing_plan_id":"cebpf4jnsgd1na2vs0mg"},{"bike_id":"5b744d3a-164e-40a7-b9c8-92dc8a498fc5","system_id":"levelo_inurba_marseille","lat":43.2621,"lon":5.3755,"is_reserved":false,"is_disabled":false,"rental_uris":{"android":"levelo://app?vid=5b744d3a-164e-40a7-b9c8-92dc8a498fc5","ios":"levelo://app?vid=5b744d3a-164e-40a7-b9c8-92dc8a498fc5"},"vehicle_type_id":"4","last_reported":1778910240,"current_range_meters":8800,"station_id":"","pricing_plan_id":"cebpf4jnsgd1na2vs0mg"},{"bike_id":"4d31ed6e-13e0-4959-aa6c-cce6ffc3f7ff","system_id":"levelo_inurba_marseille","lat":43.27518,"lon":5.41576,"is_reserved":false,"is_disabled":false,"rental_uris":{"android":"levelo://app?vid=4d31ed6e-13e0-4959-aa6c-cce6ffc3f7ff","ios":"levelo://app?vid=4d31ed6e-13e0-4959-aa6c-cce6ffc3f7ff"},"vehicle_type_id":"4","last_reported":1778910240,"current_range_meters":8800,"station_id":"st_d6im8g6chgec73a5pndg","pricing_plan_id":"cebpf4jnsgd1na2vs0mg"},{"bike_id":"ef20a65f-19f4-4491-8360-61efaea0f2fe","system_id":"levelo_inurba_marseille","lat":43.27672,"lon":5.41377,"is_reserved":false,"is_disabled":false,"rental_uris":{"android":"levelo://app?vid=ef20a65f-19f4-4491-8360-61efaea0f2fe","ios":"levelo://app?vid=ef20a65f-19f4-4491-8360-61efaea0f2fe"},"vehicle_type_id":"4","last_reported":1778910240,"current_range_meters":8800,"station_id":"","pricing_plan_id":"cebpf4jnsgd1na2vs0mg"},{"bike_id":"4858f5b6-806c-4c08-93b3-4cfbca3dd7fa","system_id":"levelo_inurba_marseille","lat":43.30588,"lon":5.39368,"is_reserved":false,"is_disabled":false,"rental_uris":{"android":"levelo://app?vid=4858f5b6-806c-4c08-93b3-4cfbca3dd7fa","ios":"levelo://app?vid=4858f5b6-806c-4c08-93b3-4cfbca3dd7fa"},"vehicle_type_id":"4","last_reported":1778910240,"current_range_meters":8800,"station_id":"ce4bh0p2rcd13ifvqd80","pricing_plan_id":"cebpf4jnsgd1na2vs0mg"},{"bike_id":"ae7403ca-0977-4483-ae79-22789f9ae640","system_id":"levelo_inurba_marseille","lat":43.25857,"lon":5.39922,"is_reserved":false,"is_disabled":false,"rental_uris":{"android":"levelo://app?vid=ae7403ca-0977-4483-ae79-22789f9ae640","ios":"levelo://app?vid=ae7403ca-0977-4483-ae79-22789f9ae640"},"vehicle_type_id":"4","last_reported":1778910240,"current_range_meters":8800,"station_id":"ce4bhl92rcd13ifvqghg","pricing_plan_id":"cebpf4jnsgd1na2vs0mg"},