{"last_updated":1771158449,"ttl":60,"version":"2.2","data":{"bikes":[{"bike_id":"d96f1086-8d9b-4b38-8774-136993319875","system_id":"levelo_inurba_marseille","lat":43.2464,"lon":5.38892,"is_reserved":false,"is_disabled":false,"rental_uris":{"android":"levelo://app?vid=d96f1086-8d9b-4b38-8774-136993319875","ios":"levelo://app?vid=d96f1086-8d9b-4b38-8774-136993319875"},"vehicle_type_id":"4","last_reported":1771158449,"current_range_meters":14400,"station_id":"ce4bhg12rcd13ifvqf60","pricing_plan_id":"cebpf4jnsgd1na2vs0mg"},{"bike_id":"597ba019-6a14-4724-bfeb-cc559411f270","system_id":"levelo_inurba_marseille","lat":43.27617,"lon":5.36111,"is_reserved":false,"is_disabled":false,"rental_uris":{"android":"levelo://app?vid=597ba019-6a14-4724-bfeb-cc559411f270","ios":"levelo://app?vid=597ba019-6a14-4724-bfeb-cc559411f270"},"vehicle_type_id":"4","last_reported":1771158449,"current_range_meters":40000,"station_id":"ce4bgj92rcd13ifvqbe0","pricing_plan_id":"cebpf4jnsgd1na2vs0mg"},{"bike_id":"34d70057-47d6-4c17-b6c1-e79de54e1e52","system_id":"levelo_inurba_marseille","lat":43.33035,"lon":5.39038,"is_reserved":false,"is_disabled":false,"rental_uris":{"android":"levelo://app?vid=34d70057-47d6-4c17-b6c1-e79de54e1e52","ios":"levelo://app?vid=34d70057-47d6-4c17-b6c1-e79de54e1e52"},"vehicle_type_id":"4","last_reported":1771158449,"current_range_meters":27200,"station_id":"ce4bhr92rcd13ifvqhrg","pricing_plan_id":"cebpf4jnsgd1na2vs0mg"},{"bike_id":"68ef5776-ce7e-4d76-bed7-b3b2136e9f86","system_id":"levelo_inurba_marseille","lat":43.33022,"lon":5.39039,"is_reserved":false,"is_disabled":false,"rental_uris":{"android":"levelo://app?vid=68ef5776-ce7e-4d76-bed7-b3b2136e9f86","ios":"levelo://app?vid=68ef5776-ce7e-4d76-bed7-b3b2136e9f86"},"vehicle_type_id":"4","last_reported":1771158449,"current_range_meters":38400,"station_id":"ce4bhr92rcd13ifvqhrg","pricing_plan_id":"cebpf4jnsgd1na2vs0mg"},{"bike_id":"dcf21c8a-af55-489b-ae7c-c01a8eafbc40","system_id":"levelo_inurba_marseille","lat":43.337444,"lon":5.374475,"is_reserved":false,"is_disabled":false,"rental_uris":{"android":"levelo://app?vid=dcf21c8a-af55-489b-ae7c-c01a8eafbc40","ios":"levelo://app?vid=dcf21c8a-af55-489b-ae7c-c01a8eafbc40"},"vehicle_type_id":"4","last_reported":1771158449,"current_range_meters":19600,"station_id":"","pricing_plan_id":"cebpf4jnsgd1na2vs0mg"},{"bike_id":"7017b9ea-236b-408a-9884-05979c964e9b","system_id":"levelo_inurba_marseille","lat":43.33012,"lon":5.39014,"is_reserved":false,"is_disabled":false,"rental_uris":{"android":"levelo://app?vid=7017b9ea-236b-408a-9884-05979c964e9b","ios":"levelo://app?vid=7017b9ea-236b-408a-9884-05979c964e9b"},"vehicle_type_id":"4","last_reported":1771158449,"current_range_meters":39200,"station_id":"ce4bhr92rcd13ifvqhrg","pricing_plan_id":"cebpf4jnsgd1na2vs0mg"},{"bike_id":"05431520-0744-4aff-8d56-5eda07b7d4bf","system_id":"levelo_inurba_marseille","lat":43.3302,"lon":5.39035,"is_reserved":false,"is_disabled":false,"rental_uris":{"android":"levelo://app?vid=05431520-0744-4aff-8d56-5eda07b7d4bf","ios":"levelo://app?vid=05431520-0744-4aff-8d56-5eda07b7d4bf"},"vehicle_type_id":"4","last_reported":1771158449,"current_range_meters":38000,"station_id":"ce4bhr92rcd13ifvqhrg","pricing_plan_id":"cebpf4jnsgd1na2vs0mg"},{"bike_id":"b07f3ef1-c8ed-4cbb-96c2-2cf40b5d7a28","system_id":"levelo_inurba_marseille","lat":43.33025,"lon":5.39037,"is_reserved":false,"is_disabled":false,"rental_uris":{"android":"levelo://app?vid=b07f3ef1-c8ed-4cbb-96c2-2cf40b5d7a28","ios":"levelo://app?vid=b07f3ef1-c8ed-4cbb-96c2-2cf40b5d7a28"},"vehicle_type_id":"4","last_reported":1771158449,"current_range_meters":39200,"station_id":"ce4bhr92rcd13ifvqhrg","pricing_plan_id":"cebpf4jnsgd1na2vs0mg"},{"bike_id":"8ff7e5fe-aeff-4c28-befd-849a0d3b0506","system_id":"levelo_inurba_marseille","lat":43.33007,"lon":5.39012,"is_reserved":false,"is_disabled":false,"rental_uris":{"android":"levelo://app?vid=8ff7e5fe-aeff-4c28-befd-849a0d3b0506","ios":"levelo://app?vid=8ff7e5fe-aeff-4c28-befd-849a0d3b0506"},"vehicle_type_id":"4","last_reported":1771158449,"current_range_meters":37600,"station_id":"ce4bhr92rcd13ifvqhrg","pricing_plan_id":"cebpf4jnsgd1na2vs0mg"},{"bike_id":"64f460a1-288f-42d2-88de-a92a667fff57","system_id":"levelo_inurba_marseille","lat":43.32912,"lon":5.39022,"is_reserved":false,"is_disabled":false,"rental_uris":{"android":"levelo://app?vid=64f460a1-288f-42d2-88de-a92a667fff57","ios":"levelo://app?vid=64f460a1-288f-42d2-88de-a92a667fff57"},"vehicle_type_id":"4","last_reported":1771158449,"current_range_meters":38000,"station_id":"ce4bhr92rcd13ifvqhrg","pricing_plan_id":"cebpf4jnsgd1na2vs0mg"},{"bike_id":"4b69d9ac-5988-4e0b-b555-d4763bf81efe","system_id":"levelo_inurba_marseille","lat":43.33034,"lon":5.39042,"is_reserved":false,"is_disabled":false,"rental_uris":{"android":"levelo://app?vid=4b69d9ac-5988-4e0b-b555-d4763bf81efe","ios":"levelo://app?vid=4b69d9ac-5988-4e0b-b555-d4763bf81efe"},"vehicle_type_id":"4","last_reported":1771158449,"current_range_meters":38000,"station_id":"ce4bhr92rcd13ifvqhrg","pricing_plan_id":"cebpf4jnsgd1na2vs0mg"},{"bike_id":"9942bbc5-c241-4e8a-b7a0-e7948f4f2e45","system_id":"levelo_inurba_marseille","lat":43.32347,"lon":5.389,"is_reserved":false,"is_disabled":false,"rental_uris":{"android":"levelo://app?vid=9942bbc5-c241-4e8a-b7a0-e7948f4f2e45","ios":"levelo://app?vid=9942bbc5-c241-4e8a-b7a0-e7948f4f2e45"},"vehicle_type_id":"4","last_reported":1771158449,"current_range_meters":40000,"station_id":"ce4bhqp2rcd13ifvqhog","pricing_plan_id":"cebpf4jnsgd1na2vs0mg"},{"bike_id":"78eafc9c-aeb1-4a3e-b6ec-c3c1210ea0e6","system_id":"levelo_inurba_marseille","lat":43.32363,"lon":5.38873,"is_reserved":false,"is_disabled":false,"rental_uris":{"android":"levelo://app?vid=78eafc9c-aeb1-4a3e-b6ec-c3c1210ea0e6","ios":"levelo://app?vid=78eafc9c-aeb1-4a3e-b6ec-c3c1210ea0e6"},"vehicle_type_id":"4","last_reported":1771158449,"current_range_meters":40000,"station_id":"ce4bhqp2rcd13ifvqhog","pricing_plan_id":"cebpf4jnsgd1na2vs0mg"},{"bike_id":"8e8e8859-a5a6-43b8-9a3a-3d7ba83a2210","system_id":"levelo_inurba_marseille","lat":43.33013,"lon":5.3904,"is_reserved":false,"is_disabled":false,"rental_uris":{"android":"levelo://app?vid=8e8e8859-a5a6-43b8-9a3a-3d7ba83a2210","ios":"levelo://app?vid=8e8e8859-a5a6-43b8-9a3a-3d7ba83a2210"},"vehicle_type_id":"4","last_reported":1771158449,"current_range_meters":38400,"station_id":"ce4bhr92rcd13ifvqhrg","pricing_plan_id":"cebpf4jnsgd1na2vs0mg"},{"bike_id":"e09b1854-500a-4103-9ded-791ea62f0cef","system_id":"levelo_inurba_marseille","lat":43.32343,"lon":5.38883,"is_reserved":false,"is_disabled":false,"rental_uris":{"android":"levelo://app?vid=e09b1854-500a-4103-9ded-791ea62f0cef","ios":"levelo://app?vid=e09b1854-500a-4103-9ded-791ea62f0cef"},"vehicle_type_id":"4","last_reported":1771158449,"current_range_meters":39200,"station_id":"ce4bhqp2rcd13ifvqhog","pricing_plan_id":"cebpf4jnsgd1na2vs0mg"},{"bike_id":"be8ecc47-b3b1-4e9a-89ec-d105b0b19936","system_id":"levelo_inurba_marseille","lat":43.32373,"lon":5.38882,"is_reserved":false,"is_disabled":false,"rental_uris":{"android":"levelo://app?vid=be8ecc47-b3b1-4e9a-89ec-d105b0b19936","ios":"levelo://app?vid=be8ecc47-b3b1-4e9a-89ec-d105b0b19936"},"vehicle_type_id":"4","last_reported":1771158449,"current_range_meters":40000,"station_id":"ce4bhqp2rcd13ifvqhog","pricing_plan_id":"cebpf4jnsgd1na2vs0mg"},{"bike_id":"40f653fd-fc41-44ea-94c9-56ee3a92aebe","system_id":"levelo_inurba_marseille","lat":43.330245,"lon":5.390366,"is_reserved":false,"is_disabled":false,"rental_uris":{"android":"levelo://app?vid=40f653fd-fc41-44ea-94c9-56ee3a92aebe","ios":"levelo://app?vid=40f653fd-fc41-44ea-94c9-56ee3a92aebe"},"vehicle_type_id":"4","last_reported":1771158449,"current_range_meters":38000,"station_id":"ce4bhr92rcd13ifvqhrg","pricing_plan_id":"cebpf4jnsgd1na2vs0mg"},{"bike_id":"3cccd3b9-43e3-4300-876c-33c46754f515","system_id":"levelo_inurba_marseille","lat":43.33033,"lon":5.39046,"is_reserved":false,"is_disabled":false,"rental_uris":{"android":"levelo://app?vid=3cccd3b9-43e3-4300-876c-33c46754f515","ios":"levelo://app?vid=3cccd3b9-43e3-4300-876c-33c46754f515"},"vehicle_type_id":"4","last_reported":1771158449,"current_range_meters":39200,"station_id":"ce4bhr92rcd13ifvqhrg","pricing_plan_id":"cebpf4jnsgd1na2vs0mg"},{"bike_id":"e6e08f6b-466b-497d-99fe-10096f8ca89b","system_id":"levelo_inurba_marseille","lat":43.330342,"lon":5.390316,"is_reserved":false,"is_disabled":false,"rental_uris":{"android":"levelo://app?vid=e6e08f6b-466b-497d-99fe-10096f8ca89b","ios":"levelo://app?vid=e6e08f6b-466b-497d-99fe-10096f8ca89b"},"vehicle_type_id":"4","last_reported":1771158449,"current_range_meters":38000,"station_id":"ce4bhr92rcd13ifvqhrg","pricing_plan_id":"cebpf4jnsgd1na2vs0mg"},{"bike_id":"3e24cd7a-915d-4160-b06d-4f0bd89eacc3","system_id":"levelo_inurba_marseille","lat":43.29535,"lon":5.38543,"is_reserved":false,"is_disabled":false,"rental_uris":{"android":"levelo://app?vid=3e24cd7a-915d-4160-b06d-4f0bd89eacc3","ios":"levelo://app?vid=3e24cd7a-915d-4160-b06d-4f0bd89eacc3"},"vehicle_type_id":"4","last_reported":1771158449,"current_range_meters":20400,"station_id":"ce4bgih2rcd13ifvqba0","pricing_plan_id":"cebpf4jnsgd1na2vs0mg"},{"bike_id":"ca518d3a-8008-4f65-9e28-68e9ee25d790","system_id":"levelo_inurba_marseille","lat":43.30294,"lon":5.39234,"is_reserved":false,"is_disabled":false,"rental_uris":{"android":"levelo://app?vid=ca518d3a-8008-4f65-9e28-68e9ee25d790","ios":"levelo://app?vid=ca518d3a-8008-4f65-9e28-68e9ee25d790"},"vehicle_type_id":"4","last_reported":1771158449,"current_range_meters":26000,"station_id":"ce4bgkh2rcd13ifvqbk0","pricing_plan_id":"cebpf4jnsgd1na2vs0mg"},{"bike_id":"bdf72b80-d7a9-4303-9f7f-d62bd85c9012","system_id":"levelo_inurba_marseille","lat":43.30546,"lon":5.36705,"is_reserved":false,"is_disabled":false,"rental_uris":{"android":"levelo://app?vid=bdf72b80-d7a9-4303-9f7f-d62bd85c9012","ios":"levelo://app?vid=bdf72b80-d7a9-4303-9f7f-d62bd85c9012"},"vehicle_type_id":"4","last_reported":1771158449,"current_range_meters":38400,"station_id":"ce4bgrp2rcd13ifvqc9g","pricing_plan_id":"cebpf4jnsgd1na2vs0mg"},{"bike_id":"2ee2501b-b2dd-4e3f-bff3-a91ee1254efa","system_id":"levelo_inurba_marseille","lat":43.28958,"lon":5.396,"is_reserved":false,"is_disabled":true,"rental_uris":{"android":"levelo://app?vid=2ee2501b-b2dd-4e3f-bff3-a91ee1254efa","ios":"levelo://app?vid=2ee2501b-b2dd-4e3f-bff3-a91ee1254efa"},"vehicle_type_id":"4","last_reported":1771158449,"current_range_meters":20400,"station_id":"ce4bh3h2rcd13ifvqdn0","pricing_plan_id":"cebpf4jnsgd1na2vs0mg"},{"bike_id":"e28b54de-af57-425f-96ed-b1caac28166f","system_id":"levelo_inurba_marseille","lat":43.33167,"lon":5.377,"is_reserved":false,"is_disabled":false,"rental_uris":{"android":"levelo://app?vid=e28b54de-af57-425f-96ed-b1caac28166f","ios":"levelo://app?vid=e28b54de-af57-425f-96ed-b1caac28166f"},"vehicle_type_id":"4","last_reported":1771158449,"current_range_meters":35200,"station_id":"st_d46cu089ee8s73dldbu0","pricing_plan_id":"cebpf4jnsgd1na2vs0mg"},{"bike_id":"c8597474-67a5-40d0-a959-e688b0e74629","system_id":"levelo_inurba_marseille","lat":43.30154,"lon":5.38028,"is_reserved":false,"is_disabled":false,"rental_uris":{"android":"levelo://app?vid=c8597474-67a5-40d0-a959-e688b0e74629","ios":"levelo://app?vid=c8597474-67a5-40d0-a959-e688b0e74629"},"vehicle_type_id":"4","last_reported":1771158449,"current_range_meters":20800,"station_id":"ce4bgjp2rcd13ifvqbh0","pricing_plan_id":"cebpf4jnsgd1na2vs0mg"},{"bike_id":"5e01bc85-f491-41e8-b438-501c142d5046","system_id":"levelo_inurba_marseille","lat":43.27217,"lon":5.39179,"is_reserved":false,"is_disabled":false,"rental_uris":{"android":"levelo://app?vid=5e01bc85-f491-41e8-b438-501c142d5046","ios":"levelo://app?vid=5e01bc85-f491-41e8-b438-501c142d5046"},"vehicle_type_id":"4","last_reported":1771158449,"current_range_meters":24800,"station_id":"ce4bhhp2rcd13ifvqfm0","pricing_plan_id":"cebpf4jnsgd1na2vs0mg"},{"bike_id":"99384fa8-8131-47f2-9fd1-057dab2586bd","system_id":"levelo_inurba_marseille","lat":43.26191,"lon":5.3745,"is_reserved":false,"is_disabled":false,"rental_uris":{"android":"levelo://app?vid=99384fa8-8131-47f2-9fd1-057dab2586bd","ios":"levelo://app?vid=99384fa8-8131-47f2-9fd1-057dab2586bd"},"vehicle_type_id":"4","last_reported":1771158449,"current_range_meters":6400,"station_id":"ce4bhgp2rcd13ifvqfc0","pricing_plan_id":"cebpf4jnsgd1na2vs0mg"},{"bike_id":"b829afcc-9b72-4b0e-9514-8b2754aea185","system_id":"levelo_inurba_marseille","lat":43.29918,"lon":5.37462,"is_reserved":false,"is_disabled":true,"rental_uris":{"android":"levelo://app?vid=b829afcc-9b72-4b0e-9514-8b2754aea185","ios":"levelo://app?vid=b829afcc-9b72-4b0e-9514-8b2754aea185"},"vehicle_type_id":"4","last_reported":1771158449,"current_range_meters":11600,"station_id":"ce4bgjh2rcd13ifvqbg0","pricing_plan_id":"cebpf4jnsgd1na2vs0mg"},{"bike_id":"ffe93d07-32ca-4803-90b9-9eb3c38fa2b4","system_id":"levelo_inurba_marseille","lat":43.29733,"lon":5.3661,"is_reserved":false,"is_disabled":false,"rental_uris":{"android":"levelo://app?vid=ffe93d07-32ca-4803-90b9-9eb3c38fa2b4","ios":"levelo://app?vid=ffe93d07-32ca-4803-90b9-9eb3c38fa2b4"},"vehicle_type_id":"4","last_reported":1771158449,"current_range_meters":18000,"station_id":"ce4bgn12rcd13ifvqbt0","pricing_plan_id":"cebpf4jnsgd1na2vs0mg"},{"bike_id":"2a5ef9b8-1859-4a82-8031-3c1de4378080","system_id":"levelo_inurba_marseille","lat":43.304207,"lon":5.412811,"is_reserved":false,"is_disabled":false,"rental_uris":{"android":"levelo://app?vid=2a5ef9b8-1859-4a82-8031-3c1de4378080","ios":"levelo://app?vid=2a5ef9b8-1859-4a82-8031-3c1de4378080"},"vehicle_type_id":"4","last_reported":1771158449,"current_range_meters":17200,"station_id":"ce4bhop2rcd13ifvqh8g","pricing_plan_id":"cebpf4jnsgd1na2vs0mg"},{"bike_id":"03ad5722-48a7-484e-8d3b-728b976dba37","system_id":"levelo_inurba_marseille","lat":43.28238,"lon":5.35067,"is_reserved":false,"is_disabled":false,"rental_uris":{"android":"levelo://app?vid=03ad5722-48a7-484e-8d3b-728b976dba37","ios":"levelo://app?vid=03ad5722-48a7-484e-8d3b-728b976dba37"},"vehicle_type_id":"4","last_reported":1771158449,"current_range_meters":33600,"station_id":"ce4bhbp2rcd13ifvqerg","pricing_plan_id":"cebpf4jnsgd1na2vs0mg"},{"bike_id":"d6d5d12a-80c0-4acd-bbde-41f77c6e52d4","system_id":"levelo_inurba_marseille","lat":43.27213,"lon":5.39221,"is_reserved":false,"is_disabled":true,"rental_uris":{"android":"levelo://app?vid=d6d5d12a-80c0-4acd-bbde-41f77c6e52d4","ios":"levelo://app?vid=d6d5d12a-80c0-4acd-bbde-41f77c6e52d4"},"vehicle_type_id":"4","last_reported":1771158449,"current_range_meters":17200,"station_id":"ce4bhhp2rcd13ifvqfm0","pricing_plan_id":"cebpf4jnsgd1na2vs0mg"},{"bike_id":"fcdc8164-8974-4034-a4c9-bef73e1a1a6f","system_id":"levelo_inurba_marseille","lat":43.28665,"lon":5.38641,"is_reserved":false,"is_disabled":true,"rental_uris":{"android":"levelo://app?vid=fcdc8164-8974-4034-a4c9-bef73e1a1a6f","ios":"levelo://app?vid=fcdc8164-8974-4034-a4c9-bef73e1a1a6f"},"vehicle_type_id":"4","last_reported":1771158449,"current_range_meters":36800,"station_id":"ce4bh492rcd13ifvqdug","pricing_plan_id":"cebpf4jnsgd1na2vs0mg"},{"bike_id":"634c7114-cbca-4a83-b765-32d21bed9261","system_id":"levelo_inurba_marseille","lat":43.29534,"lon":5.38547,"is_reserved":false,"is_disabled":false,"rental_uris":{"android":"levelo://app?vid=634c7114-cbca-4a83-b765-32d21bed9261","ios":"levelo://app?vid=634c7114-cbca-4a83-b765-32d21bed9261"},"vehicle_type_id":"4","last_reported":1771158449,"current_range_meters":40000,"station_id":"ce4bgih2rcd13ifvqba0","pricing_plan_id":"cebpf4jnsgd1na2vs0mg"},{"bike_id":"86ac9578-ca86-4142-8691-a6e25b8b3e0e","system_id":"levelo_inurba_marseille","lat":43.28931,"lon":5.36638,"is_reserved":false,"is_disabled":false,"rental_uris":{"android":"levelo://app?vid=86ac9578-ca86-4142-8691-a6e25b8b3e0e","ios":"levelo://app?vid=86ac9578-ca86-4142-8691-a6e25b8b3e0e"},"vehicle_type_id":"4","last_reported":1771158449,"current_range_meters":36000,"station_id":"ce4bhap2rcd13ifvqek0","pricing_plan_id":"cebpf4jnsgd1na2vs0mg"},{"bike_id":"460264f3-8bc6-4c77-beaf-ea8534482f84","system_id":"levelo_inurba_marseille","lat":43.24951,"lon":5.40494,"is_reserved":false,"is_disabled":false,"rental_uris":{"android":"levelo://app?vid=460264f3-8bc6-4c77-beaf-ea8534482f84","ios":"levelo://app?vid=460264f3-8bc6-4c77-beaf-ea8534482f84"},"vehicle_type_id":"4","last_reported":1771158449,"current_range_meters":32000,"station_id":"st_d2ngiaodas8pm72gd1h0","pricing_plan_id":"cebpf4jnsgd1na2vs0mg"},{"bike_id":"bfd89baa-fbc2-45c5-8b74-3d61cb004f40","system_id":"levelo_inurba_marseille","lat":43.23787,"lon":5.36629,"is_reserved":false,"is_disabled":false,"rental_uris":{"android":"levelo://app?vid=bfd89baa-fbc2-45c5-8b74-3d61cb004f40","ios":"levelo://app?vid=bfd89baa-fbc2-45c5-8b74-3d61cb004f40"},"vehicle_type_id":"4","last_reported":1771158449,"current_range_meters":36800,"station_id":"ce4bhi12rcd13ifvqfp0","pricing_plan_id":"cebpf4jnsgd1na2vs0mg"},{"bike_id":"1e61c11e-bb48-462f-95ea-c1bf1ce34a30","system_id":"levelo_inurba_marseille","lat":43.29588,"lon":5.37507,"is_reserved":false,"is_disabled":true,"rental_uris":{"android":"levelo://app?vid=1e61c11e-bb48-462f-95ea-c1bf1ce34a30","ios":"levelo://app?vid=1e61c11e-bb48-462f-95ea-c1bf1ce34a30"},"vehicle_type_id":"4","last_reported":1771158449,"current_range_meters":38000,"station_id":"ce4bgh92rcd13ifvqb50","pricing_plan_id":"cebpf4jnsgd1na2vs0mg"},{"bike_id":"f352d86b-4fcd-45a4-a079-b2e379b6aab6","system_id":"levelo_inurba_marseille","lat":43.25478,"lon":5.37642,"is_reserved":false,"is_disabled":false,"rental_uris":{"android":"levelo://app?vid=f352d86b-4fcd-45a4-a079-b2e379b6aab6","ios":"levelo://app?vid=f352d86b-4fcd-45a4-a079-b2e379b6aab6"},"vehicle_type_id":"4","last_reported":1771158449,"current_range_meters":12000,"station_id":"ce4bhh12rcd13ifvqff0","pricing_plan_id":"cebpf4jnsgd1na2vs0mg"},{"bike_id":"73746e6b-3a17-44f4-8dd7-7ef243b28100","system_id":"levelo_inurba_marseille","lat":43.30146,"lon":5.38101,"is_reserved":false,"is_disabled":false,"rental_uris":{"android":"levelo://app?vid=73746e6b-3a17-44f4-8dd7-7ef243b28100","ios":"levelo://app?vid=73746e6b-3a17-44f4-8dd7-7ef243b28100"},"vehicle_type_id":"4","last_reported":1771158449,"current_range_meters":34800,"station_id":"ce4bgjp2rcd13ifvqbh0","pricing_plan_id":"cebpf4jnsgd1na2vs0mg"},{"bike_id":"79fe0ffc-50eb-4d4d-9b5d-ccf40f43cda2","system_id":"levelo_inurba_marseille","lat":43.29972,"lon":5.38496,"is_reserved":false,"is_disabled":true,"rental_uris":{"android":"levelo://app?vid=79fe0ffc-50eb-4d4d-9b5d-ccf40f43cda2","ios":"levelo://app?vid=79fe0ffc-50eb-4d4d-9b5d-ccf40f43cda2"},"vehicle_type_id":"4","last_reported":1771158449,"current_range_meters":16000,"station_id":"ce4bgj92rcd13ifvqbd0","pricing_plan_id":"cebpf4jnsgd1na2vs0mg"},{"bike_id":"898a8ca9-6705-4da8-8ec2-d4fe3b517c7c","system_id":"levelo_inurba_marseille","lat":43.281,"lon":5.37847,"is_reserved":false,"is_disabled":false,"rental_uris":{"android":"levelo://app?vid=898a8ca9-6705-4da8-8ec2-d4fe3b517c7c","ios":"levelo://app?vid=898a8ca9-6705-4da8-8ec2-d4fe3b517c7c"},"vehicle_type_id":"4","last_reported":1771158449,"current_range_meters":9600,"station_id":"ce4bha12rcd13ifvqee0","pricing_plan_id":"cebpf4jnsgd1na2vs0mg"},{"bike_id":"ecd273f0-a6f0-460f-9618-3f807a1dc212","system_id":"levelo_inurba_marseille","lat":43.30545,"lon":5.36526,"is_reserved":false,"is_disabled":false,"rental_uris":{"android":"levelo://app?vid=ecd273f0-a6f0-460f-9618-3f807a1dc212","ios":"levelo://app?vid=ecd273f0-a6f0-460f-9618-3f807a1dc212"},"vehicle_type_id":"4","last_reported":1771158449,"current_range_meters":30800,"station_id":"ce4bgs12rcd13ifvqcag","pricing_plan_id":"cebpf4jnsgd1na2vs0mg"},{"bike_id":"a4bc2102-f4bb-46b4-bcb1-22c0936b606b","system_id":"levelo_inurba_marseille","lat":43.2533,"lon":5.4217,"is_reserved":false,"is_disabled":false,"rental_uris":{"android":"levelo://app?vid=a4bc2102-f4bb-46b4-bcb1-22c0936b606b","ios":"levelo://app?vid=a4bc2102-f4bb-46b4-bcb1-22c0936b606b"},"vehicle_type_id":"4","last_reported":1771158449,"current_range_meters":8400,"station_id":"st_d2m65c5bi1j21697t3ng","pricing_plan_id":"cebpf4jnsgd1na2vs0mg"},{"bike_id":"5ebe73de-2cf7-4bc4-9047-e5658e66ceb9","system_id":"levelo_inurba_marseille","lat":43.2417,"lon":5.364,"is_reserved":false,"is_disabled":true,"rental_uris":{"android":"levelo://app?vid=5ebe73de-2cf7-4bc4-9047-e5658e66ceb9","ios":"levelo://app?vid=5ebe73de-2cf7-4bc4-9047-e5658e66ceb9"},"vehicle_type_id":"4","last_reported":1771158449,"current_range_meters":16400,"station_id":"cpo36qri1sfpv3e86is0","pricing_plan_id":"cebpf4jnsgd1na2vs0mg"},{"bike_id":"08af2bd8-1429-414a-bda0-7a5cd48bf07c","system_id":"levelo_inurba_marseille","lat":43.29753,"lon":5.37655,"is_reserved":false,"is_disabled":false,"rental_uris":{"android":"levelo://app?vid=08af2bd8-1429-414a-bda0-7a5cd48bf07c","ios":"levelo://app?vid=08af2bd8-1429-414a-bda0-7a5cd48bf07c"},"vehicle_type_id":"4","last_reported":1771158449,"current_range_meters":36000,"station_id":"","pricing_plan_id":"cebpf4jnsgd1na2vs0mg"},{"bike_id":"41b272a2-7a74-45e0-9ddf-de5f79235fb7","system_id":"levelo_inurba_marseille","lat":43.29627,"lon":5.37738,"is_reserved":false,"is_disabled":false,"rental_uris":{"android":"levelo://app?vid=41b272a2-7a74-45e0-9ddf-de5f79235fb7","ios":"levelo://app?vid=41b272a2-7a74-45e0-9ddf-de5f79235fb7"},"vehicle_type_id":"4","last_reported":1771158449,"current_range_meters":25600,"station_id":"ce4bgi92rcd13ifvqb90","pricing_plan_id":"cebpf4jnsgd1na2vs0mg"},{"bike_id":"ed8b5fe8-1920-4dfd-97af-072031019259","system_id":"levelo_inurba_marseille","lat":43.263828,"lon":5.410669,"is_reserved":false,"is_disabled":false,"rental_uris":{"android":"levelo://app?vid=ed8b5fe8-1920-4dfd-97af-072031019259","ios":"levelo://app?vid=ed8b5fe8-1920-4dfd-97af-072031019259"},"vehicle_type_id":"4","last_reported":1771158449,"current_range_meters":33600,"station_id":"st_d4e5ca6na9uc73bfl5fg","pricing_plan_id":"cebpf4jnsgd1na2vs0mg"},{"bike_id":"fe11d118-31e3-445d-ac4b-096d143c02a7","system_id":"levelo_inurba_marseille","lat":43.28671,"lon":5.38656,"is_reserved":false,"is_disabled":false,"rental_uris":{"android":"levelo://app?vid=fe11d118-31e3-445d-ac4b-096d143c02a7","ios":"levelo://app?vid=fe11d118-31e3-445d-ac4b-096d143c02a7"},"vehicle_type_id":"4","last_reported":1771158449,"current_range_meters":30400,"station_id":"ce4bh492rcd13ifvqdug","pricing_plan_id":"cebpf4jnsgd1na2vs0mg"},{"bike_id":"876f89e1-cc27-4548-afe3-b9605542091f","system_id":"levelo_inurba_marseille","lat":43.29267,"lon":5.38442,"is_reserved":false,"is_disabled":false,"rental_uris":{"android":"levelo://app?vid=876f89e1-cc27-4548-afe3-b9605542091f","ios":"levelo://app?vid=876f89e1-cc27-4548-afe3-b9605542091f"},"vehicle_type_id":"4","last_reported":1771158449,"current_range_meters":27200,"station_id":"ce4bh692rcd13ifvqea0","pricing_plan_id":"cebpf4jnsgd1na2vs0mg"},{"bike_id":"d97604ce-364c-459d-8875-8f54c335d253","system_id":"levelo_inurba_marseille","lat":43.247011,"lon":5.417227,"is_reserved":false,"is_disabled":false,"rental_uris":{"android":"levelo://app?vid=d97604ce-364c-459d-8875-8f54c335d253","ios":"levelo://app?vid=d97604ce-364c-459d-8875-8f54c335d253"},"vehicle_type_id":"4","last_reported":1771158449,"current_range_meters":8400,"station_id":"","pricing_plan_id":"cebpf4jnsgd1na2vs0mg"},{"bike_id":"6ac1b762-189d-46d0-8eb2-e14288ce45e9","system_id":"levelo_inurba_marseille","lat":43.30327,"lon":5.4043,"is_reserved":false,"is_disabled":false,"rental_uris":{"android":"levelo://app?vid=6ac1b762-189d-46d0-8eb2-e14288ce45e9","ios":"levelo://app?vid=6ac1b762-189d-46d0-8eb2-e14288ce45e9"},"vehicle_type_id":"4","last_reported":1771158449,"current_range_meters":32000,"station_id":"ce4bh012rcd13ifvqd10","pricing_plan_id":"cebpf4jnsgd1na2vs0mg"},{"bike_id":"79a7e591-1b27-4aab-b9f7-840e2732a2bc","system_id":"levelo_inurba_marseille","lat":43.31699,"lon":5.40469,"is_reserved":false,"is_disabled":false,"rental_uris":{"android":"levelo://app?vid=79a7e591-1b27-4aab-b9f7-840e2732a2bc","ios":"levelo://app?vid=79a7e591-1b27-4aab-b9f7-840e2732a2bc"},"vehicle_type_id":"4","last_reported":1771158449,"current_range_meters":4400,"station_id":"ce4bh012rcd13ifvqd00","pricing_plan_id":"cebpf4jnsgd1na2vs0mg"},{"bike_id":"9517652f-b544-4359-92da-c0119bc1576d","system_id":"levelo_inurba_marseille","lat":43.24391,"lon":5.37057,"is_reserved":false,"is_disabled":false,"rental_uris":{"android":"levelo://app?vid=9517652f-b544-4359-92da-c0119bc1576d","ios":"levelo://app?vid=9517652f-b544-4359-92da-c0119bc1576d"},"vehicle_type_id":"4","last_reported":1771158449,"current_range_meters":30800,"station_id":"ce4bhhh2rcd13ifvqfk0","pricing_plan_id":"cebpf4jnsgd1na2vs0mg"},{"bike_id":"d9ac65ca-3fcc-4a4a-9622-b63c7de6b93c","system_id":"levelo_inurba_marseille","lat":43.29224,"lon":5.36057,"is_reserved":false,"is_disabled":false,"rental_uris":{"android":"levelo://app?vid=d9ac65ca-3fcc-4a4a-9622-b63c7de6b93c","ios":"levelo://app?vid=d9ac65ca-3fcc-4a4a-9622-b63c7de6b93c"},"vehicle_type_id":"4","last_reported":1771158449,"current_range_meters":20000,"station_id":"ce4bhbh2rcd13ifvqeqg","pricing_plan_id":"cebpf4jnsgd1na2vs0mg"},{"bike_id":"1ad77ced-14d0-46cf-b66c-4187336859fd","system_id":"levelo_inurba_marseille","lat":43.32279,"lon":5.38282,"is_reserved":false,"is_disabled":false,"rental_uris":{"android":"levelo://app?vid=1ad77ced-14d0-46cf-b66c-4187336859fd","ios":"levelo://app?vid=1ad77ced-14d0-46cf-b66c-4187336859fd"},"vehicle_type_id":"4","last_reported":1771158449,"current_range_meters":36800,"station_id":"ce4bhr12rcd13ifvqhqg","pricing_plan_id":"cebpf4jnsgd1na2vs0mg"},{"bike_id":"d844d8e3-60f8-4f05-86f0-08a14a53ca64","system_id":"levelo_inurba_marseille","lat":43.30123,"lon":5.39857,"is_reserved":false,"is_disabled":false,"rental_uris":{"android":"levelo://app?vid=d844d8e3-60f8-4f05-86f0-08a14a53ca64","ios":"levelo://app?vid=d844d8e3-60f8-4f05-86f0-08a14a53ca64"},"vehicle_type_id":"4","last_reported":1771158449,"current_range_meters":38400,"station_id":"ce4bh0h2rcd13ifvqd40","pricing_plan_id":"cebpf4jnsgd1na2vs0mg"},{"bike_id":"1a4d09d3-2e07-4421-b53b-defdf8256512","system_id":"levelo_inurba_marseille","lat":43.31183,"lon":5.36904,"is_reserved":false,"is_disabled":false,"rental_uris":{"android":"levelo://app?vid=1a4d09d3-2e07-4421-b53b-defdf8256512","ios":"levelo://app?vid=1a4d09d3-2e07-4421-b53b-defdf8256512"},"vehicle_type_id":"4","last_reported":1771158449,"current_range_meters":38400,"station_id":"ce4bgl92rcd13ifvqbq0","pricing_plan_id":"cebpf4jnsgd1na2vs0mg"},{"bike_id":"0108cb5f-db41-4a3c-afbe-cc105c668228","system_id":"levelo_inurba_marseille","lat":43.28736,"lon":5.36117,"is_reserved":false,"is_disabled":false,"rental_uris":{"android":"levelo://app?vid=0108cb5f-db41-4a3c-afbe-cc105c668228","ios":"levelo://app?vid=0108cb5f-db41-4a3c-afbe-cc105c668228"},"vehicle_type_id":"4","last_reported":1771158449,"current_range_meters":30400,"station_id":"cki0cbj6b192h4jlfktg","pricing_plan_id":"cebpf4jnsgd1na2vs0mg"},{"bike_id":"b7fcb2da-5243-440b-926b-4edc89af4b76","system_id":"levelo_inurba_marseille","lat":43.27988,"lon":5.40004,"is_reserved":false,"is_disabled":false,"rental_uris":{"android":"levelo://app?vid=b7fcb2da-5243-440b-926b-4edc89af4b76","ios":"levelo://app?vid=b7fcb2da-5243-440b-926b-4edc89af4b76"},"vehicle_type_id":"4","last_reported":1771158449,"current_range_meters":22000,"station_id":"ce4bho92rcd13ifvqh4g","pricing_plan_id":"cebpf4jnsgd1na2vs0mg"},{"bike_id":"de23c09b-999d-4731-91c0-faf2e4461159","system_id":"levelo_inurba_marseille","lat":43.29232,"lon":5.36058,"is_reserved":false,"is_disabled":false,"rental_uris":{"android":"levelo://app?vid=de23c09b-999d-4731-91c0-faf2e4461159","ios":"levelo://app?vid=de23c09b-999d-4731-91c0-faf2e4461159"},"vehicle_type_id":"4","last_reported":1771158449,"current_range_meters":8800,"station_id":"ce4bhbh2rcd13ifvqeqg","pricing_plan_id":"cebpf4jnsgd1na2vs0mg"},{"bike_id":"48d4a83c-c716-41c6-8fd3-cb0153dd2afb","system_id":"levelo_inurba_marseille","lat":43.31173,"lon":5.36917,"is_reserved":false,"is_disabled":false,"rental_uris":{"android":"levelo://app?vid=48d4a83c-c716-41c6-8fd3-cb0153dd2afb","ios":"levelo://app?vid=48d4a83c-c716-41c6-8fd3-cb0153dd2afb"},"vehicle_type_id":"4","last_reported":1771158449,"current_range_meters":18800,"station_id":"ce4bgl92rcd13ifvqbq0","pricing_plan_id":"cebpf4jnsgd1na2vs0mg"},{"bike_id":"0cc2918b-b433-4ce0-97e8-2fc8fa58f178","system_id":"levelo_inurba_marseille","lat":43.29534,"lon":5.37497,"is_reserved":false,"is_disabled":false,"rental_uris":{"android":"levelo://app?vid=0cc2918b-b433-4ce0-97e8-2fc8fa58f178","ios":"levelo://app?vid=0cc2918b-b433-4ce0-97e8-2fc8fa58f178"},"vehicle_type_id":"4","last_reported":1771158449,"current_range_meters":38800,"station_id":"ce4bgkp2rcd13ifvqbmg","pricing_plan_id":"cebpf4jnsgd1na2vs0mg"},{"bike_id":"10473d86-7afe-48e3-86ea-422db7b0167f","system_id":"levelo_inurba_marseille","lat":43.23965,"lon":5.3663,"is_reserved":false,"is_disabled":false,"rental_uris":{"android":"levelo://app?vid=10473d86-7afe-48e3-86ea-422db7b0167f","ios":"levelo://app?vid=10473d86-7afe-48e3-86ea-422db7b0167f"},"vehicle_type_id":"4","last_reported":1771158449,"current_range_meters":35600,"station_id":"ce4bhi12rcd13ifvqfp0","pricing_plan_id":"cebpf4jnsgd1na2vs0mg"},{"bike_id":"e7a553d3-7a7a-43c0-95d9-f4913f807d05","system_id":"levelo_inurba_marseille","lat":43.25115,"lon":5.40335,"is_reserved":false,"is_disabled":false,"rental_uris":{"android":"levelo://app?vid=e7a553d3-7a7a-43c0-95d9-f4913f807d05","ios":"levelo://app?vid=e7a553d3-7a7a-43c0-95d9-f4913f807d05"},"vehicle_type_id":"4","last_reported":1771158449,"current_range_meters":37600,"station_id":"ce4bhlh2rcd13ifvqgig","pricing_plan_id":"cebpf4jnsgd1na2vs0mg"},{"bike_id":"7cdae2e1-5306-459b-96ab-2c3aaae39e37","system_id":"levelo_inurba_marseille","lat":43.24997,"lon":5.38934,"is_reserved":false,"is_disabled":false,"rental_uris":{"android":"levelo://app?vid=7cdae2e1-5306-459b-96ab-2c3aaae39e37","ios":"levelo://app?vid=7cdae2e1-5306-459b-96ab-2c3aaae39e37"},"vehicle_type_id":"4","last_reported":1771158449,"current_range_meters":34800,"station_id":"ce4bhgp2rcd13ifvqfd0","pricing_plan_id":"cebpf4jnsgd1na2vs0mg"},{"bike_id":"9664a5c4-41bd-49a0-bca7-ccecab569b6a","system_id":"levelo_inurba_marseille","lat":43.320614,"lon":5.415324,"is_reserved":false,"is_disabled":false,"rental_uris":{"android":"levelo://app?vid=9664a5c4-41bd-49a0-bca7-ccecab569b6a","ios":"levelo://app?vid=9664a5c4-41bd-49a0-bca7-ccecab569b6a"},"vehicle_type_id":"4","last_reported":1771158449,"current_range_meters":38400,"station_id":"ce4bhq92rcd13ifvqhkg","pricing_plan_id":"cebpf4jnsgd1na2vs0mg"},{"bike_id":"30de403d-aee7-4467-9e50-3761f2a5df5e","system_id":"levelo_inurba_marseille","lat":43.28454,"lon":5.39212,"is_reserved":false,"is_disabled":true,"rental_uris":{"android":"levelo://app?vid=30de403d-aee7-4467-9e50-3761f2a5df5e","ios":"levelo://app?vid=30de403d-aee7-4467-9e50-3761f2a5df5e"},"vehicle_type_id":"4","last_reported":1771158449,"current_range_meters":39200,"station_id":"ce4bhoh2rcd13ifvqh5g","pricing_plan_id":"cebpf4jnsgd1na2vs0mg"},{"bike_id":"0664bc9f-767f-467e-a2c8-c71096fcbc2b","system_id":"levelo_inurba_marseille","lat":43.30541,"lon":5.36531,"is_reserved":false,"is_disabled":false,"rental_uris":{"android":"levelo://app?vid=0664bc9f-767f-467e-a2c8-c71096fcbc2b","ios":"levelo://app?vid=0664bc9f-767f-467e-a2c8-c71096fcbc2b"},"vehicle_type_id":"4","last_reported":1771158449,"current_range_meters":28400,"station_id":"ce4bgs12rcd13ifvqcag","pricing_plan_id":"cebpf4jnsgd1na2vs0mg"},{"bike_id":"06ca1e50-0c57-4308-ab33-37f48737feed","system_id":"levelo_inurba_marseille","lat":43.33156,"lon":5.37701,"is_reserved":false,"is_disabled":false,"rental_uris":{"android":"levelo://app?vid=06ca1e50-0c57-4308-ab33-37f48737feed","ios":"levelo://app?vid=06ca1e50-0c57-4308-ab33-37f48737feed"},"vehicle_type_id":"4","last_reported":1771158449,"current_range_meters":19200,"station_id":"st_d46cu089ee8s73dldbu0","pricing_plan_id":"cebpf4jnsgd1na2vs0mg"},{"bike_id":"a40147a5-bbf0-4381-a348-9cea87200b78","system_id":"levelo_inurba_marseille","lat":43.260696,"lon":5.394039,"is_reserved":false,"is_disabled":false,"rental_uris":{"android":"levelo://app?vid=a40147a5-bbf0-4381-a348-9cea87200b78","ios":"levelo://app?vid=a40147a5-bbf0-4381-a348-9cea87200b78"},"vehicle_type_id":"4","last_reported":1771158449,"current_range_meters":15200,"station_id":"ce4bhh92rcd13ifvqfj0","pricing_plan_id":"cebpf4jnsgd1na2vs0mg"},{"bike_id":"691558ff-b47e-45d1-ab33-f48fc5575d6c","system_id":"levelo_inurba_marseille","lat":43.24157,"lon":5.36433,"is_reserved":false,"is_disabled":false,"rental_uris":{"android":"levelo://app?vid=691558ff-b47e-45d1-ab33-f48fc5575d6c","ios":"levelo://app?vid=691558ff-b47e-45d1-ab33-f48fc5575d6c"},"vehicle_type_id":"4","last_reported":1771158449,"current_range_meters":38800,"station_id":"cpo36qri1sfpv3e86is0","pricing_plan_id":"cebpf4jnsgd1na2vs0mg"},{"bike_id":"abb5386c-aa85-45f1-b3a9-55f4ea4e4b5b","system_id":"levelo_inurba_marseille","lat":43.24901,"lon":5.40391,"is_reserved":false,"is_disabled":true,"rental_uris":{"android":"levelo://app?vid=abb5386c-aa85-45f1-b3a9-55f4ea4e4b5b","ios":"levelo://app?vid=abb5386c-aa85-45f1-b3a9-55f4ea4e4b5b"},"vehicle_type_id":"4","last_reported":1771158449,"current_range_meters":35600,"station_id":"st_d2ngiaodas8pm72gd1h0","pricing_plan_id":"cebpf4jnsgd1na2vs0mg"},{"bike_id":"cb024ad2-c6a3-4e1a-9404-1026a8902168","system_id":"levelo_inurba_marseille","lat":43.29818,"lon":5.38098,"is_reserved":false,"is_disabled":false,"rental_uris":{"android":"levelo://app?vid=cb024ad2-c6a3-4e1a-9404-1026a8902168","ios":"levelo://app?vid=cb024ad2-c6a3-4e1a-9404-1026a8902168"},"vehicle_type_id":"4","last_reported":1771158449,"current_range_meters":40000,"station_id":"ce4bgip2rcd13ifvqbb0","pricing_plan_id":"cebpf4jnsgd1na2vs0mg"},{"bike_id":"579af26e-548a-4f86-9c31-c74739ec3a56","system_id":"levelo_inurba_marseille","lat":43.29793,"lon":5.37099,"is_reserved":false,"is_disabled":false,"rental_uris":{"android":"levelo://app?vid=579af26e-548a-4f86-9c31-c74739ec3a56","ios":"levelo://app?vid=579af26e-548a-4f86-9c31-c74739ec3a56"},"vehicle_type_id":"4","last_reported":1771158449,"current_range_meters":27600,"station_id":"ce4bgop2rcd13ifvqc1g","pricing_plan_id":"cebpf4jnsgd1na2vs0mg"},{"bike_id":"0a01703a-9056-4d66-b2b2-0e8420b10e7a","system_id":"levelo_inurba_marseille","lat":43.26957,"lon":5.3889,"is_reserved":false,"is_disabled":false,"rental_uris":{"android":"levelo://app?vid=0a01703a-9056-4d66-b2b2-0e8420b10e7a","ios":"levelo://app?vid=0a01703a-9056-4d66-b2b2-0e8420b10e7a"},"vehicle_type_id":"4","last_reported":1771158449,"current_range_meters":28800,"station_id":"ce4bhhh2rcd13ifvqfl0","pricing_plan_id":"cebpf4jnsgd1na2vs0mg"},{"bike_id":"242f7311-d2cc-4df7-a0f0-7c6d245cdc25","system_id":"levelo_inurba_marseille","lat":43.32358,"lon":5.36752,"is_reserved":false,"is_disabled":false,"rental_uris":{"android":"levelo://app?vid=242f7311-d2cc-4df7-a0f0-7c6d245cdc25","ios":"levelo://app?vid=242f7311-d2cc-4df7-a0f0-7c6d245cdc25"},"vehicle_type_id":"4","last_reported":1771158449,"current_range_meters":20400,"station_id":"ce4bhsh2rcd13ifvqi2g","pricing_plan_id":"cebpf4jnsgd1na2vs0mg"},{"bike_id":"1c552d2a-5637-49d5-bd03-c19868d9f5f0","system_id":"levelo_inurba_marseille","lat":43.27491,"lon":5.42446,"is_reserved":false,"is_disabled":false,"rental_uris":{"android":"levelo://app?vid=1c552d2a-5637-49d5-bd03-c19868d9f5f0","ios":"levelo://app?vid=1c552d2a-5637-49d5-bd03-c19868d9f5f0"},"vehicle_type_id":"4","last_reported":1771158449,"current_range_meters":14800,"station_id":"ce4bhn92rcd13ifvqgrg","pricing_plan_id":"cebpf4jnsgd1na2vs0mg"},{"bike_id":"1c376293-36a4-4bd9-a121-a0f5ce367cc0","system_id":"levelo_inurba_marseille","lat":43.2961,"lon":5.38069,"is_reserved":false,"is_disabled":true,"rental_uris":{"android":"levelo://app?vid=1c376293-36a4-4bd9-a121-a0f5ce367cc0","ios":"levelo://app?vid=1c376293-36a4-4bd9-a121-a0f5ce367cc0"},"vehicle_type_id":"4","last_reported":1771158449,"current_range_meters":400,"station_id":"ce4bgl12rcd13ifvqbo0","pricing_plan_id":"cebpf4jnsgd1na2vs0mg"},{"bike_id":"f2b35d2f-f9c2-4b91-9306-e6c35500ac88","system_id":"levelo_inurba_marseille","lat":43.30371,"lon":5.42474,"is_reserved":false,"is_disabled":false,"rental_uris":{"android":"levelo://app?vid=f2b35d2f-f9c2-4b91-9306-e6c35500ac88","ios":"levelo://app?vid=f2b35d2f-f9c2-4b91-9306-e6c35500ac88"},"vehicle_type_id":"4","last_reported":1771158449,"current_range_meters":4800,"station_id":"ce4bhoh2rcd13ifvqh6g","pricing_plan_id":"cebpf4jnsgd1na2vs0mg"},{"bike_id":"cc97d270-0885-45df-aca3-ac0c78e3629f","system_id":"levelo_inurba_marseille","lat":43.28367,"lon":5.38627,"is_reserved":false,"is_disabled":false,"rental_uris":{"android":"levelo://app?vid=cc97d270-0885-45df-aca3-ac0c78e3629f","ios":"levelo://app?vid=cc97d270-0885-45df-aca3-ac0c78e3629f"},"vehicle_type_id":"4","last_reported":1771158449,"current_range_meters":11600,"station_id":"ce4bh492rcd13ifvqdvg","pricing_plan_id":"cebpf4jnsgd1na2vs0mg"},{"bike_id":"b081036f-6238-4871-9e7e-20dab85b0c01","system_id":"levelo_inurba_marseille","lat":43.29694,"lon":5.37283,"is_reserved":false,"is_disabled":false,"rental_uris":{"android":"levelo://app?vid=b081036f-6238-4871-9e7e-20dab85b0c01","ios":"levelo://app?vid=b081036f-6238-4871-9e7e-20dab85b0c01"},"vehicle_type_id":"4","last_reported":1771158449,"current_range_meters":39200,"station_id":"ce4bgk12rcd13ifvqbj0","pricing_plan_id":"cebpf4jnsgd1na2vs0mg"},{"bike_id":"145e6984-28ea-4666-b90f-7d63cfee56d4","system_id":"levelo_inurba_marseille","lat":43.27501,"lon":5.42469,"is_reserved":false,"is_disabled":false,"rental_uris":{"android":"levelo://app?vid=145e6984-28ea-4666-b90f-7d63cfee56d4","ios":"levelo://app?vid=145e6984-28ea-4666-b90f-7d63cfee56d4"},"vehicle_type_id":"4","last_reported":1771158449,"current_range_meters":33200,"station_id":"ce4bhn92rcd13ifvqgrg","pricing_plan_id":"cebpf4jnsgd1na2vs0mg"},{"bike_id":"361472a9-140d-4e92-9e16-c96fbc664522","system_id":"levelo_inurba_marseille","lat":43.24173,"lon":5.364168,"is_reserved":false,"is_disabled":false,"rental_uris":{"android":"levelo://app?vid=361472a9-140d-4e92-9e16-c96fbc664522","ios":"levelo://app?vid=361472a9-140d-4e92-9e16-c96fbc664522"},"vehicle_type_id":"4","last_reported":1771158449,"current_range_meters":10000,"station_id":"cpo36qri1sfpv3e86is0","pricing_plan_id":"cebpf4jnsgd1na2vs0mg"},{"bike_id":"d6d55be9-c4c1-4e9a-9b20-44aea5f5ce8a","system_id":"levelo_inurba_marseille","lat":43.30376,"lon":5.42492,"is_reserved":false,"is_disabled":false,"rental_uris":{"android":"levelo://app?vid=d6d55be9-c4c1-4e9a-9b20-44aea5f5ce8a","ios":"levelo://app?vid=d6d55be9-c4c1-4e9a-9b20-44aea5f5ce8a"},"vehicle_type_id":"4","last_reported":1771158449,"current_range_meters":8400,"station_id":"ce4bhoh2rcd13ifvqh6g","pricing_plan_id":"cebpf4jnsgd1na2vs0mg"},{"bike_id":"8b6c627b-3e19-4de7-9c3b-d98b8ff0ff20","system_id":"levelo_inurba_marseille","lat":43.29563,"lon":5.37513,"is_reserved":false,"is_disabled":false,"rental_uris":{"android":"levelo://app?vid=8b6c627b-3e19-4de7-9c3b-d98b8ff0ff20","ios":"levelo://app?vid=8b6c627b-3e19-4de7-9c3b-d98b8ff0ff20"},"vehicle_type_id":"4","last_reported":1771158449,"current_range_meters":20800,"station_id":"ce4bgh92rcd13ifvqb50","pricing_plan_id":"cebpf4jnsgd1na2vs0mg"},{"bike_id":"377c466e-e4e3-44f9-bfe1-0b19350e0961","system_id":"levelo_inurba_marseille","lat":43.29913,"lon":5.38152,"is_reserved":false,"is_disabled":false,"rental_uris":{"android":"levelo://app?vid=377c466e-e4e3-44f9-bfe1-0b19350e0961","ios":"levelo://app?vid=377c466e-e4e3-44f9-bfe1-0b19350e0961"},"vehicle_type_id":"4","last_reported":1771158449,"current_range_meters":36400,"station_id":"ce4bgj12rcd13ifvqbc0","pricing_plan_id":"cebpf4jnsgd1na2vs0mg"},{"bike_id":"14e2d3fb-6c68-42f9-a053-741cc12027ec","system_id":"levelo_inurba_marseille","lat":43.245424,"lon":5.395211,"is_reserved":false,"is_disabled":true,"rental_uris":{"android":"levelo://app?vid=14e2d3fb-6c68-42f9-a053-741cc12027ec","ios":"levelo://app?vid=14e2d3fb-6c68-42f9-a053-741cc12027ec"},"vehicle_type_id":"4","last_reported":1771158449,"current_range_meters":8400,"station_id":"ce4bhlp2rcd13ifvqgjg","pricing_plan_id":"cebpf4jnsgd1na2vs0mg"},{"bike_id":"73543d5f-6f9c-459a-aefb-7a4e0887aaf6","system_id":"levelo_inurba_marseille","lat":43.26039,"lon":5.37557,"is_reserved":false,"is_disabled":false,"rental_uris":{"android":"levelo://app?vid=73543d5f-6f9c-459a-aefb-7a4e0887aaf6","ios":"levelo://app?vid=73543d5f-6f9c-459a-aefb-7a4e0887aaf6"},"vehicle_type_id":"4","last_reported":1771158449,"current_range_meters":28000,"station_id":"ce4bhgh2rcd13ifvqfa0","pricing_plan_id":"cebpf4jnsgd1na2vs0mg"},{"bike_id":"fef2ac6e-7218-4409-ada0-4bd0bcbfe427","system_id":"levelo_inurba_marseille","lat":43.24638,"lon":5.43141,"is_reserved":false,"is_disabled":false,"rental_uris":{"android":"levelo://app?vid=fef2ac6e-7218-4409-ada0-4bd0bcbfe427","ios":"levelo://app?vid=fef2ac6e-7218-4409-ada0-4bd0bcbfe427"},"vehicle_type_id":"4","last_reported":1771158449,"current_range_meters":20000,"station_id":"st_d2m6c4gdas8pm72e190g","pricing_plan_id":"cebpf4jnsgd1na2vs0mg"},{"bike_id":"ea242731-bb24-458a-9022-43fb4748f728","system_id":"levelo_inurba_marseille","lat":43.24174,"lon":5.36395,"is_reserved":false,"is_disabled":false,"rental_uris":{"android":"levelo://app?vid=ea242731-bb24-458a-9022-43fb4748f728","ios":"levelo://app?vid=ea242731-bb24-458a-9022-43fb4748f728"},"vehicle_type_id":"4","last_reported":1771158449,"current_range_meters":11600,"station_id":"cpo36qri1sfpv3e86is0","pricing_plan_id":"cebpf4jnsgd1na2vs0mg"},{"bike_id":"91551ca7-df3c-46ae-b740-97d8aad399d4","system_id":"levelo_inurba_marseille","lat":43.2602,"lon":5.3931,"is_reserved":false,"is_disabled":false,"rental_uris":{"android":"levelo://app?vid=91551ca7-df3c-46ae-b740-97d8aad399d4","ios":"levelo://app?vid=91551ca7-df3c-46ae-b740-97d8aad399d4"},"vehicle_type_id":"4","last_reported":1771158449,"current_range_meters":36400,"station_id":"","pricing_plan_id":"cebpf4jnsgd1na2vs0mg"},{"bike_id":"666632b7-66c6-4f67-bd0b-f4a4fca2f3d1","system_id":"levelo_inurba_marseille","lat":43.31738,"lon":5.40412,"is_reserved":false,"is_disabled":false,"rental_uris":{"android":"levelo://app?vid=666632b7-66c6-4f67-bd0b-f4a4fca2f3d1","ios":"levelo://app?vid=666632b7-66c6-4f67-bd0b-f4a4fca2f3d1"},"vehicle_type_id":"4","last_reported":1771158449,"current_range_meters":19200,"station_id":"","pricing_plan_id":"cebpf4jnsgd1na2vs0mg"},{"bike_id":"8bd0a92f-17cd-4bc9-99eb-6b0f4346de24","system_id":"levelo_inurba_marseille","lat":43.2397,"lon":5.36626,"is_reserved":false,"is_disabled":false,"rental_uris":{"android":"levelo://app?vid=8bd0a92f-17cd-4bc9-99eb-6b0f4346de24","ios":"levelo://app?vid=8bd0a92f-17cd-4bc9-99eb-6b0f4346de24"},"vehicle_type_id":"4","last_reported":1771158449,"current_range_meters":25200,"station_id":"ce4bhi12rcd13ifvqfp0","pricing_plan_id":"cebpf4jnsgd1na2vs0mg"},{"bike_id":"505577de-17df-41d2-bd85-8d965eaff799","system_id":"levelo_inurba_marseille","lat":43.29052,"lon":5.3814,"is_reserved":false,"is_disabled":false,"rental_uris":{"android":"levelo://app?vid=505577de-17df-41d2-bd85-8d965eaff799","ios":"levelo://app?vid=505577de-17df-41d2-bd85-8d965eaff799"},"vehicle_type_id":"4","last_reported":1771158449,"current_range_meters":31200,"station_id":"ce4bh4p2rcd13ifvqe1g","pricing_plan_id":"cebpf4jnsgd1na2vs0mg"},{"bike_id":"aeb125a3-a5c5-45d7-b346-c24ffdc8aa80","system_id":"levelo_inurba_marseille","lat":43.30157,"lon":5.38095,"is_reserved":false,"is_disabled":false,"rental_uris":{"android":"levelo://app?vid=aeb125a3-a5c5-45d7-b346-c24ffdc8aa80","ios":"levelo://app?vid=aeb125a3-a5c5-45d7-b346-c24ffdc8aa80"},"vehicle_type_id":"4","last_reported":1771158449,"current_range_meters":6400,"station_id":"ce4bgjp2rcd13ifvqbh0","pricing_plan_id":"cebpf4jnsgd1na2vs0mg"},{"bike_id":"cc9be124-54a5-4927-a146-e3a08ef99a81","system_id":"levelo_inurba_marseille","lat":43.30459,"lon":5.37904,"is_reserved":false,"is_disabled":false,"rental_uris":{"android":"levelo://app?vid=cc9be124-54a5-4927-a146-e3a08ef99a81","ios":"levelo://app?vid=cc9be124-54a5-4927-a146-e3a08ef99a81"},"vehicle_type_id":"4","last_reported":1771158449,"current_range_meters":38400,"station_id":"ce4bgup2rcd13ifvqcn0","pricing_plan_id":"cebpf4jnsgd1na2vs0mg"},{"bike_id":"c08330ab-4358-44de-a4d1-10c88e75d850","system_id":"levelo_inurba_marseille","lat":43.29043,"lon":5.37142,"is_reserved":false,"is_disabled":false,"rental_uris":{"android":"levelo://app?vid=c08330ab-4358-44de-a4d1-10c88e75d850","ios":"levelo://app?vid=c08330ab-4358-44de-a4d1-10c88e75d850"},"vehicle_type_id":"4","last_reported":1771158449,"current_range_meters":28000,"station_id":"ce4bh5p2rcd13ifvqe4g","pricing_plan_id":"cebpf4jnsgd1na2vs0mg"},{"bike_id":"e5866f9c-7f01-4f68-826c-5019be0d6644","system_id":"levelo_inurba_marseille","lat":43.2871,"lon":5.35485,"is_reserved":false,"is_disabled":true,"rental_uris":{"android":"levelo://app?vid=e5866f9c-7f01-4f68-826c-5019be0d6644","ios":"levelo://app?vid=e5866f9c-7f01-4f68-826c-5019be0d6644"},"vehicle_type_id":"4","last_reported":1771158449,"current_range_meters":8000,"station_id":"","pricing_plan_id":"cebpf4jnsgd1na2vs0mg"},{"bike_id":"506b9e53-f601-4216-b26a-602a96693595","system_id":"levelo_inurba_marseille","lat":43.29537,"lon":5.39397,"is_reserved":false,"is_disabled":false,"rental_uris":{"android":"levelo://app?vid=506b9e53-f601-4216-b26a-602a96693595","ios":"levelo://app?vid=506b9e53-f601-4216-b26a-602a96693595"},"vehicle_type_id":"4","last_reported":1771158449,"current_range_meters":10800,"station_id":"ce4bh292rcd13ifvqdf0","pricing_plan_id":"cebpf4jnsgd1na2vs0mg"},{"bike_id":"934caa29-0161-4971-84cb-62c254c7612b","system_id":"levelo_inurba_marseille","lat":43.280967,"lon":5.378405,"is_reserved":false,"is_disabled":false,"rental_uris":{"android":"levelo://app?vid=934caa29-0161-4971-84cb-62c254c7612b","ios":"levelo://app?vid=934caa29-0161-4971-84cb-62c254c7612b"},"vehicle_type_id":"4","last_reported":1771158449,"current_range_meters":28400,"station_id":"ce4bha12rcd13ifvqee0","pricing_plan_id":"cebpf4jnsgd1na2vs0mg"},{"bike_id":"17791cb0-05f3-4a1c-bd25-e6f918d1d35d","system_id":"levelo_inurba_marseille","lat":43.29788,"lon":5.40402,"is_reserved":false,"is_disabled":false,"rental_uris":{"android":"levelo://app?vid=17791cb0-05f3-4a1c-bd25-e6f918d1d35d","ios":"levelo://app?vid=17791cb0-05f3-4a1c-bd25-e6f918d1d35d"},"vehicle_type_id":"4","last_reported":1771158449,"current_range_meters":38000,"station_id":"ce4bh112rcd13ifvqd90","pricing_plan_id":"cebpf4jnsgd1na2vs0mg"},{"bike_id":"10c2514e-3e10-48b8-b25f-5593fed86aaf","system_id":"levelo_inurba_marseille","lat":43.286178,"lon":5.350988,"is_reserved":false,"is_disabled":false,"rental_uris":{"android":"levelo://app?vid=10c2514e-3e10-48b8-b25f-5593fed86aaf","ios":"levelo://app?vid=10c2514e-3e10-48b8-b25f-5593fed86aaf"},"vehicle_type_id":"4","last_reported":1771158449,"current_range_meters":27200,"station_id":"ce4bhch2rcd13ifvqeug","pricing_plan_id":"cebpf4jnsgd1na2vs0mg"},{"bike_id":"77d97ba8-97db-4bc9-8294-a1d06adce358","system_id":"levelo_inurba_marseille","lat":43.275,"lon":5.42448,"is_reserved":false,"is_disabled":false,"rental_uris":{"android":"levelo://app?vid=77d97ba8-97db-4bc9-8294-a1d06adce358","ios":"levelo://app?vid=77d97ba8-97db-4bc9-8294-a1d06adce358"},"vehicle_type_id":"4","last_reported":1771158449,"current_range_meters":20400,"station_id":"ce4bhn92rcd13ifvqgrg","pricing_plan_id":"cebpf4jnsgd1na2vs0mg"},{"bike_id":"2e890998-6b11-4d43-89b1-bf06a6d503ec","system_id":"levelo_inurba_marseille","lat":43.25116,"lon":5.40321,"is_reserved":false,"is_disabled":false,"rental_uris":{"android":"levelo://app?vid=2e890998-6b11-4d43-89b1-bf06a6d503ec","ios":"levelo://app?vid=2e890998-6b11-4d43-89b1-bf06a6d503ec"},"vehicle_type_id":"4","last_reported":1771158449,"current_range_meters":39200,"station_id":"ce4bhlh2rcd13ifvqgig","pricing_plan_id":"cebpf4jnsgd1na2vs0mg"},{"bike_id":"a75398a4-d0b6-4900-9674-fe78395921f4","system_id":"levelo_inurba_marseille","lat":43.30546,"lon":5.36698,"is_reserved":false,"is_disabled":false,"rental_uris":{"android":"levelo://app?vid=a75398a4-d0b6-4900-9674-fe78395921f4","ios":"levelo://app?vid=a75398a4-d0b6-4900-9674-fe78395921f4"},"vehicle_type_id":"4","last_reported":1771158449,"current_range_meters":33200,"station_id":"ce4bgrp2rcd13ifvqc9g","pricing_plan_id":"cebpf4jnsgd1na2vs0mg"},{"bike_id":"a77345a9-e5b0-4403-ada7-987def1f512a","system_id":"levelo_inurba_marseille","lat":43.31242,"lon":5.36835,"is_reserved":false,"is_disabled":false,"rental_uris":{"android":"levelo://app?vid=a77345a9-e5b0-4403-ada7-987def1f512a","ios":"levelo://app?vid=a77345a9-e5b0-4403-ada7-987def1f512a"},"vehicle_type_id":"4","last_reported":1771158449,"current_range_meters":30400,"station_id":"ce4bgl92rcd13ifvqbq0","pricing_plan_id":"cebpf4jnsgd1na2vs0mg"},{"bike_id":"a2749dad-a07d-45a5-b48d-09e644d3c272","system_id":"levelo_inurba_marseille","lat":43.29533,"lon":5.37505,"is_reserved":false,"is_disabled":false,"rental_uris":{"android":"levelo://app?vid=a2749dad-a07d-45a5-b48d-09e644d3c272","ios":"levelo://app?vid=a2749dad-a07d-45a5-b48d-09e644d3c272"},"vehicle_type_id":"4","last_reported":1771158449,"current_range_meters":22400,"station_id":"ce4bgkp2rcd13ifvqbmg","pricing_plan_id":"cebpf4jnsgd1na2vs0mg"},{"bike_id":"899ca28e-3727-433f-b491-eafb0d972b92","system_id":"levelo_inurba_marseille","lat":43.3013,"lon":5.38104,"is_reserved":false,"is_disabled":false,"rental_uris":{"android":"levelo://app?vid=899ca28e-3727-433f-b491-eafb0d972b92","ios":"levelo://app?vid=899ca28e-3727-433f-b491-eafb0d972b92"},"vehicle_type_id":"4","last_reported":1771158449,"current_range_meters":24800,"station_id":"ce4bgjp2rcd13ifvqbh0","pricing_plan_id":"cebpf4jnsgd1na2vs0mg"},{"bike_id":"cf6ef408-8a1a-4303-bd6d-466ea0d58ae4","system_id":"levelo_inurba_marseille","lat":43.21198,"lon":5.35032,"is_reserved":false,"is_disabled":false,"rental_uris":{"android":"levelo://app?vid=cf6ef408-8a1a-4303-bd6d-466ea0d58ae4","ios":"levelo://app?vid=cf6ef408-8a1a-4303-bd6d-466ea0d58ae4"},"vehicle_type_id":"4","last_reported":1771158449,"current_range_meters":3600,"station_id":"st_cvj6sg6p6f1abm77japg","pricing_plan_id":"cebpf4jnsgd1na2vs0mg"},{"bike_id":"9ba6e4fb-7b77-4ba1-b8e6-fbaa2c53bc39","system_id":"levelo_inurba_marseille","lat":43.30576,"lon":5.393544,"is_reserved":false,"is_disabled":false,"rental_uris":{"android":"levelo://app?vid=9ba6e4fb-7b77-4ba1-b8e6-fbaa2c53bc39","ios":"levelo://app?vid=9ba6e4fb-7b77-4ba1-b8e6-fbaa2c53bc39"},"vehicle_type_id":"4","last_reported":1771158449,"current_range_meters":33600,"station_id":"ce4bh0p2rcd13ifvqd80","pricing_plan_id":"cebpf4jnsgd1na2vs0mg"},{"bike_id":"89e3bebe-0519-4e8f-97a2-5f9f90f00438","system_id":"levelo_inurba_marseille","lat":43.23984,"lon":5.36641,"is_reserved":false,"is_disabled":false,"rental_uris":{"android":"levelo://app?vid=89e3bebe-0519-4e8f-97a2-5f9f90f00438","ios":"levelo://app?vid=89e3bebe-0519-4e8f-97a2-5f9f90f00438"},"vehicle_type_id":"4","last_reported":1771158449,"current_range_meters":39200,"station_id":"ce4bhi12rcd13ifvqfp0","pricing_plan_id":"cebpf4jnsgd1na2vs0mg"},{"bike_id":"3df11992-fb88-406e-92ed-bb0a45fafa89","system_id":"levelo_inurba_marseille","lat":43.29581,"lon":5.39986,"is_reserved":false,"is_disabled":false,"rental_uris":{"android":"levelo://app?vid=3df11992-fb88-406e-92ed-bb0a45fafa89","ios":"levelo://app?vid=3df11992-fb88-406e-92ed-bb0a45fafa89"},"vehicle_type_id":"4","last_reported":1771158449,"current_range_meters":40000,"station_id":"ce4bh312rcd13ifvqdj0","pricing_plan_id":"cebpf4jnsgd1na2vs0mg"},{"bike_id":"d956cd17-cda0-4cdc-98b4-e75b5bb45076","system_id":"levelo_inurba_marseille","lat":43.29834,"lon":5.3632,"is_reserved":false,"is_disabled":false,"rental_uris":{"android":"levelo://app?vid=d956cd17-cda0-4cdc-98b4-e75b5bb45076","ios":"levelo://app?vid=d956cd17-cda0-4cdc-98b4-e75b5bb45076"},"vehicle_type_id":"4","last_reported":1771158449,"current_range_meters":40000,"station_id":"ce4bgpp2rcd13ifvqc3g","pricing_plan_id":"cebpf4jnsgd1na2vs0mg"},{"bike_id":"766ba40c-080a-46d0-a08f-660e07520b61","system_id":"levelo_inurba_marseille","lat":43.29272,"lon":5.36841,"is_reserved":false,"is_disabled":false,"rental_uris":{"android":"levelo://app?vid=766ba40c-080a-46d0-a08f-660e07520b61","ios":"levelo://app?vid=766ba40c-080a-46d0-a08f-660e07520b61"},"vehicle_type_id":"4","last_reported":1771158449,"current_range_meters":38000,"station_id":"ce4bhbp2rcd13ifvqesg","pricing_plan_id":"cebpf4jnsgd1na2vs0mg"},{"bike_id":"057c0106-9231-4a98-a8ee-326750bf26a3","system_id":"levelo_inurba_marseille","lat":43.25354,"lon":5.42149,"is_reserved":false,"is_disabled":false,"rental_uris":{"android":"levelo://app?vid=057c0106-9231-4a98-a8ee-326750bf26a3","ios":"levelo://app?vid=057c0106-9231-4a98-a8ee-326750bf26a3"},"vehicle_type_id":"4","last_reported":1771158449,"current_range_meters":12400,"station_id":"st_d2m65c5bi1j21697t3ng","pricing_plan_id":"cebpf4jnsgd1na2vs0mg"},{"bike_id":"924d7c55-9e75-41cb-9a3e-b7f57a435ae8","system_id":"levelo_inurba_marseille","lat":43.26349,"lon":5.39607,"is_reserved":false,"is_disabled":false,"rental_uris":{"android":"levelo://app?vid=924d7c55-9e75-41cb-9a3e-b7f57a435ae8","ios":"levelo://app?vid=924d7c55-9e75-41cb-9a3e-b7f57a435ae8"},"vehicle_type_id":"4","last_reported":1771158449,"current_range_meters":6800,"station_id":"","pricing_plan_id":"cebpf4jnsgd1na2vs0mg"},{"bike_id":"f8766628-5dc0-4bb5-8f15-474cd77b94a0","system_id":"levelo_inurba_marseille","lat":43.26035,"lon":5.37553,"is_reserved":false,"is_disabled":false,"rental_uris":{"android":"levelo://app?vid=f8766628-5dc0-4bb5-8f15-474cd77b94a0","ios":"levelo://app?vid=f8766628-5dc0-4bb5-8f15-474cd77b94a0"},"vehicle_type_id":"4","last_reported":1771158449,"current_range_meters":14000,"station_id":"ce4bhgh2rcd13ifvqfa0","pricing_plan_id":"cebpf4jnsgd1na2vs0mg"},{"bike_id":"3d77c063-135b-4daf-93de-810c10c76bf7","system_id":"levelo_inurba_marseille","lat":43.29599,"lon":5.3747,"is_reserved":false,"is_disabled":false,"rental_uris":{"android":"levelo://app?vid=3d77c063-135b-4daf-93de-810c10c76bf7","ios":"levelo://app?vid=3d77c063-135b-4daf-93de-810c10c76bf7"},"vehicle_type_id":"4","last_reported":1771158449,"current_range_meters":39200,"station_id":"ce4bgh92rcd13ifvqb50","pricing_plan_id":"cebpf4jnsgd1na2vs0mg"},{"bike_id":"91dd6860-d8b6-48df-9afd-382ab92b6bc0","system_id":"levelo_inurba_marseille","lat":43.28932,"lon":5.38387,"is_reserved":false,"is_disabled":true,"rental_uris":{"android":"levelo://app?vid=91dd6860-d8b6-48df-9afd-382ab92b6bc0","ios":"levelo://app?vid=91dd6860-d8b6-48df-9afd-382ab92b6bc0"},"vehicle_type_id":"4","last_reported":1771158449,"current_range_meters":29600,"station_id":"ce4bh612rcd13ifvqe6g","pricing_plan_id":"cebpf4jnsgd1na2vs0mg"},{"bike_id":"bf683bf7-8be5-457c-8e24-9f1e8db39edf","system_id":"levelo_inurba_marseille","lat":43.29581,"lon":5.37514,"is_reserved":false,"is_disabled":false,"rental_uris":{"android":"levelo://app?vid=bf683bf7-8be5-457c-8e24-9f1e8db39edf","ios":"levelo://app?vid=bf683bf7-8be5-457c-8e24-9f1e8db39edf"},"vehicle_type_id":"4","last_reported":1771158449,"current_range_meters":22800,"station_id":"ce4bgh92rcd13ifvqb50","pricing_plan_id":"cebpf4jnsgd1na2vs0mg"},{"bike_id":"4ef3fea8-855b-4ccb-be6e-2c8185c4a670","system_id":"levelo_inurba_marseille","lat":43.33609,"lon":5.41013,"is_reserved":false,"is_disabled":false,"rental_uris":{"android":"levelo://app?vid=4ef3fea8-855b-4ccb-be6e-2c8185c4a670","ios":"levelo://app?vid=4ef3fea8-855b-4ccb-be6e-2c8185c4a670"},"vehicle_type_id":"4","last_reported":1771158449,"current_range_meters":36400,"station_id":"ce4bhqh2rcd13ifvqhmg","pricing_plan_id":"cebpf4jnsgd1na2vs0mg"},{"bike_id":"524b8461-d679-46b1-a83d-b4bfe7dba6c3","system_id":"levelo_inurba_marseille","lat":43.21748,"lon":5.34596,"is_reserved":false,"is_disabled":false,"rental_uris":{"android":"levelo://app?vid=524b8461-d679-46b1-a83d-b4bfe7dba6c3","ios":"levelo://app?vid=524b8461-d679-46b1-a83d-b4bfe7dba6c3"},"vehicle_type_id":"4","last_reported":1771158449,"current_range_meters":38400,"station_id":"st_cvj6r9ubvosntc0bgbag","pricing_plan_id":"cebpf4jnsgd1na2vs0mg"},{"bike_id":"53bb3863-680c-45ee-b078-75f6bac40aa9","system_id":"levelo_inurba_marseille","lat":43.32652,"lon":5.40982,"is_reserved":false,"is_disabled":false,"rental_uris":{"android":"levelo://app?vid=53bb3863-680c-45ee-b078-75f6bac40aa9","ios":"levelo://app?vid=53bb3863-680c-45ee-b078-75f6bac40aa9"},"vehicle_type_id":"4","last_reported":1771158449,"current_range_meters":38400,"station_id":"ce4bhpp2rcd13ifvqhgg","pricing_plan_id":"cebpf4jnsgd1na2vs0mg"},{"bike_id":"80098677-e509-453f-9fc6-0838a503fcfa","system_id":"levelo_inurba_marseille","lat":43.30534,"lon":5.36522,"is_reserved":false,"is_disabled":false,"rental_uris":{"android":"levelo://app?vid=80098677-e509-453f-9fc6-0838a503fcfa","ios":"levelo://app?vid=80098677-e509-453f-9fc6-0838a503fcfa"},"vehicle_type_id":"4","last_reported":1771158449,"current_range_meters":19200,"station_id":"ce4bgs12rcd13ifvqcag","pricing_plan_id":"cebpf4jnsgd1na2vs0mg"},{"bike_id":"b2793bda-e545-4722-bf36-91387796c790","system_id":"levelo_inurba_marseille","lat":43.25507,"lon":5.37652,"is_reserved":false,"is_disabled":false,"rental_uris":{"android":"levelo://app?vid=b2793bda-e545-4722-bf36-91387796c790","ios":"levelo://app?vid=b2793bda-e545-4722-bf36-91387796c790"},"vehicle_type_id":"4","last_reported":1771158449,"current_range_meters":38000,"station_id":"ce4bhh12rcd13ifvqff0","pricing_plan_id":"cebpf4jnsgd1na2vs0mg"},{"bike_id":"014613de-69aa-4aca-9291-67750cce2e69","system_id":"levelo_inurba_marseille","lat":43.28485,"lon":5.48405,"is_reserved":false,"is_disabled":false,"rental_uris":{"android":"levelo://app?vid=014613de-69aa-4aca-9291-67750cce2e69","ios":"levelo://app?vid=014613de-69aa-4aca-9291-67750cce2e69"},"vehicle_type_id":"4","last_reported":1771158449,"current_range_meters":38000,"station_id":"st_d3svhcjqgbts73a3dn0g","pricing_plan_id":"cebpf4jnsgd1na2vs0mg"},{"bike_id":"ceafdd97-9709-4666-acdc-c6b8a34aace5","system_id":"levelo_inurba_marseille","lat":43.2718,"lon":5.40973,"is_reserved":false,"is_disabled":true,"rental_uris":{"android":"levelo://app?vid=ceafdd97-9709-4666-acdc-c6b8a34aace5","ios":"levelo://app?vid=ceafdd97-9709-4666-acdc-c6b8a34aace5"},"vehicle_type_id":"4","last_reported":1771158449,"current_range_meters":39200,"station_id":"ce4bhl12rcd13ifvqgf0","pricing_plan_id":"cebpf4jnsgd1na2vs0mg"},{"bike_id":"9ed7300e-a4d4-493c-95a2-a0b857cf6348","system_id":"levelo_inurba_marseille","lat":43.2255,"lon":5.41603,"is_reserved":false,"is_disabled":false,"rental_uris":{"android":"levelo://app?vid=9ed7300e-a4d4-493c-95a2-a0b857cf6348","ios":"levelo://app?vid=9ed7300e-a4d4-493c-95a2-a0b857cf6348"},"vehicle_type_id":"4","last_reported":1771158449,"current_range_meters":14400,"station_id":"st_d2o4gvlbi1j2169b742g","pricing_plan_id":"cebpf4jnsgd1na2vs0mg"},{"bike_id":"b8d0dbff-fb51-43c9-8f40-12fc94ab2020","system_id":"levelo_inurba_marseille","lat":43.28418,"lon":5.34957,"is_reserved":false,"is_disabled":false,"rental_uris":{"android":"levelo://app?vid=b8d0dbff-fb51-43c9-8f40-12fc94ab2020","ios":"levelo://app?vid=b8d0dbff-fb51-43c9-8f40-12fc94ab2020"},"vehicle_type_id":"4","last_reported":1771158449,"current_range_meters":16800,"station_id":"ce4bhbh2rcd13ifvqepg","pricing_plan_id":"cebpf4jnsgd1na2vs0mg"},{"bike_id":"484c11c0-30ee-4bb6-83c7-f3256dfcfb63","system_id":"levelo_inurba_marseille","lat":43.31241,"lon":5.36873,"is_reserved":false,"is_disabled":false,"rental_uris":{"android":"levelo://app?vid=484c11c0-30ee-4bb6-83c7-f3256dfcfb63","ios":"levelo://app?vid=484c11c0-30ee-4bb6-83c7-f3256dfcfb63"},"vehicle_type_id":"4","last_reported":1771158449,"current_range_meters":38800,"station_id":"ce4bgl92rcd13ifvqbq0","pricing_plan_id":"cebpf4jnsgd1na2vs0mg"},{"bike_id":"188a925b-967f-485e-b032-a21ca739ec13","system_id":"levelo_inurba_marseille","lat":43.25865,"lon":5.39889,"is_reserved":false,"is_disabled":false,"rental_uris":{"android":"levelo://app?vid=188a925b-967f-485e-b032-a21ca739ec13","ios":"levelo://app?vid=188a925b-967f-485e-b032-a21ca739ec13"},"vehicle_type_id":"4","last_reported":1771158449,"current_range_meters":39200,"station_id":"ce4bhl92rcd13ifvqghg","pricing_plan_id":"cebpf4jnsgd1na2vs0mg"},{"bike_id":"dc98baeb-281c-4b10-a0d8-1143d2ae501f","system_id":"levelo_inurba_marseille","lat":43.30306,"lon":5.36886,"is_reserved":false,"is_disabled":false,"rental_uris":{"android":"levelo://app?vid=dc98baeb-281c-4b10-a0d8-1143d2ae501f","ios":"levelo://app?vid=dc98baeb-281c-4b10-a0d8-1143d2ae501f"},"vehicle_type_id":"4","last_reported":1771158449,"current_range_meters":33200,"station_id":"ce4bgqh2rcd13ifvqc5g","pricing_plan_id":"cebpf4jnsgd1na2vs0mg"},{"bike_id":"e5237f38-139e-4506-895b-7aac0b6be3b7","system_id":"levelo_inurba_marseille","lat":43.31031,"lon":5.37181,"is_reserved":false,"is_disabled":false,"rental_uris":{"android":"levelo://app?vid=e5237f38-139e-4506-895b-7aac0b6be3b7","ios":"levelo://app?vid=e5237f38-139e-4506-895b-7aac0b6be3b7"},"vehicle_type_id":"4","last_reported":1771158449,"current_range_meters":14000,"station_id":"st_d4kl2rp97mjs73e7tdfg","pricing_plan_id":"cebpf4jnsgd1na2vs0mg"},{"bike_id":"61eb7f07-1c63-4179-84d2-2a4e738d2c5a","system_id":"levelo_inurba_marseille","lat":43.25265,"lon":5.42404,"is_reserved":false,"is_disabled":false,"rental_uris":{"android":"levelo://app?vid=61eb7f07-1c63-4179-84d2-2a4e738d2c5a","ios":"levelo://app?vid=61eb7f07-1c63-4179-84d2-2a4e738d2c5a"},"vehicle_type_id":"4","last_reported":1771158449,"current_range_meters":12800,"station_id":"","pricing_plan_id":"cebpf4jnsgd1na2vs0mg"},{"bike_id":"034224b6-2279-4cbc-9caa-f9a79eebd08e","system_id":"levelo_inurba_marseille","lat":43.31179,"lon":5.36853,"is_reserved":false,"is_disabled":false,"rental_uris":{"android":"levelo://app?vid=034224b6-2279-4cbc-9caa-f9a79eebd08e","ios":"levelo://app?vid=034224b6-2279-4cbc-9caa-f9a79eebd08e"},"vehicle_type_id":"4","last_reported":1771158449,"current_range_meters":39200,"station_id":"ce4bgl92rcd13ifvqbq0","pricing_plan_id":"cebpf4jnsgd1na2vs0mg"},{"bike_id":"136dbaca-c69a-4575-b2ac-4a027c33a56f","system_id":"levelo_inurba_marseille","lat":43.23183,"lon":5.39994,"is_reserved":false,"is_disabled":false,"rental_uris":{"android":"levelo://app?vid=136dbaca-c69a-4575-b2ac-4a027c33a56f","ios":"levelo://app?vid=136dbaca-c69a-4575-b2ac-4a027c33a56f"},"vehicle_type_id":"4","last_reported":1771158449,"current_range_meters":39200,"station_id":"ce4bhn12rcd13ifvqgqg","pricing_plan_id":"cebpf4jnsgd1na2vs0mg"},{"bike_id":"d223124a-2bee-44ea-b123-eecb828af774","system_id":"levelo_inurba_marseille","lat":43.24812,"lon":5.37447,"is_reserved":false,"is_disabled":false,"rental_uris":{"android":"levelo://app?vid=d223124a-2bee-44ea-b123-eecb828af774","ios":"levelo://app?vid=d223124a-2bee-44ea-b123-eecb828af774"},"vehicle_type_id":"4","last_reported":1771158449,"current_range_meters":22000,"station_id":"ce4bhgh2rcd13ifvqfb0","pricing_plan_id":"cebpf4jnsgd1na2vs0mg"},{"bike_id":"3b7ab46d-a5b2-42ad-aec6-a2dcef907956","system_id":"levelo_inurba_marseille","lat":43.27165,"lon":5.40995,"is_reserved":false,"is_disabled":false,"rental_uris":{"android":"levelo://app?vid=3b7ab46d-a5b2-42ad-aec6-a2dcef907956","ios":"levelo://app?vid=3b7ab46d-a5b2-42ad-aec6-a2dcef907956"},"vehicle_type_id":"4","last_reported":1771158449,"current_range_meters":39200,"station_id":"ce4bhl12rcd13ifvqgf0","pricing_plan_id":"cebpf4jnsgd1na2vs0mg"},{"bike_id":"053f63a9-b456-4e00-a86e-29f26979507e","system_id":"levelo_inurba_marseille","lat":43.24662,"lon":5.38167,"is_reserved":false,"is_disabled":true,"rental_uris":{"android":"levelo://app?vid=053f63a9-b456-4e00-a86e-29f26979507e","ios":"levelo://app?vid=053f63a9-b456-4e00-a86e-29f26979507e"},"vehicle_type_id":"4","last_reported":1771158449,"current_range_meters":20400,"station_id":"ce4bhih2rcd13ifvqfr0","pricing_plan_id":"cebpf4jnsgd1na2vs0mg"},{"bike_id":"7cb9d4bb-817c-477e-b821-2482d90489fa","system_id":"levelo_inurba_marseille","lat":43.33031,"lon":5.39042,"is_reserved":false,"is_disabled":false,"rental_uris":{"android":"levelo://app?vid=7cb9d4bb-817c-477e-b821-2482d90489fa","ios":"levelo://app?vid=7cb9d4bb-817c-477e-b821-2482d90489fa"},"vehicle_type_id":"4","last_reported":1771158449,"current_range_meters":10800,"station_id":"ce4bhr92rcd13ifvqhrg","pricing_plan_id":"cebpf4jnsgd1na2vs0mg"},{"bike_id":"ffe3fbd4-6746-48bb-b0b5-fa7f3d6ff56c","system_id":"levelo_inurba_marseille","lat":43.31081,"lon":5.37174,"is_reserved":false,"is_disabled":false,"rental_uris":{"android":"levelo://app?vid=ffe3fbd4-6746-48bb-b0b5-fa7f3d6ff56c","ios":"levelo://app?vid=ffe3fbd4-6746-48bb-b0b5-fa7f3d6ff56c"},"vehicle_type_id":"4","last_reported":1771158449,"current_range_meters":11200,"station_id":"st_d4kl2rp97mjs73e7tdfg","pricing_plan_id":"cebpf4jnsgd1na2vs0mg"},{"bike_id":"f4f4c39c-d293-4a83-92fd-f36bbc65fe4a","system_id":"levelo_inurba_marseille","lat":43.28283,"lon":5.35105,"is_reserved":false,"is_disabled":true,"rental_uris":{"android":"levelo://app?vid=f4f4c39c-d293-4a83-92fd-f36bbc65fe4a","ios":"levelo://app?vid=f4f4c39c-d293-4a83-92fd-f36bbc65fe4a"},"vehicle_type_id":"4","last_reported":1771158449,"current_range_meters":37600,"station_id":"ce4bhbp2rcd13ifvqerg","pricing_plan_id":"cebpf4jnsgd1na2vs0mg"},{"bike_id":"bceefbcb-6e12-4584-ae1a-2e6369cea0a2","system_id":"levelo_inurba_marseille","lat":43.3184,"lon":5.3842,"is_reserved":false,"is_disabled":false,"rental_uris":{"android":"levelo://app?vid=bceefbcb-6e12-4584-ae1a-2e6369cea0a2","ios":"levelo://app?vid=bceefbcb-6e12-4584-ae1a-2e6369cea0a2"},"vehicle_type_id":"4","last_reported":1771158449,"current_range_meters":24800,"station_id":"","pricing_plan_id":"cebpf4jnsgd1na2vs0mg"},{"bike_id":"2fadaefb-d7be-40bc-b8c2-dfba0bb4802c","system_id":"levelo_inurba_marseille","lat":43.30244,"lon":5.40055,"is_reserved":false,"is_disabled":true,"rental_uris":{"android":"levelo://app?vid=2fadaefb-d7be-40bc-b8c2-dfba0bb4802c","ios":"levelo://app?vid=2fadaefb-d7be-40bc-b8c2-dfba0bb4802c"},"vehicle_type_id":"4","last_reported":1771158449,"current_range_meters":31200,"station_id":"ce4bgvh2rcd13ifvqcs0","pricing_plan_id":"cebpf4jnsgd1na2vs0mg"},{"bike_id":"c2622548-2352-4ceb-b8b7-2d2a2030a64c","system_id":"levelo_inurba_marseille","lat":43.29604,"lon":5.37486,"is_reserved":false,"is_disabled":false,"rental_uris":{"android":"levelo://app?vid=c2622548-2352-4ceb-b8b7-2d2a2030a64c","ios":"levelo://app?vid=c2622548-2352-4ceb-b8b7-2d2a2030a64c"},"vehicle_type_id":"4","last_reported":1771158449,"current_range_meters":34800,"station_id":"ce4bgh92rcd13ifvqb50","pricing_plan_id":"cebpf4jnsgd1na2vs0mg"},{"bike_id":"2aa05e06-5366-4cfd-80c1-a6e66487250b","system_id":"levelo_inurba_marseille","lat":43.284775,"lon":5.484041,"is_reserved":false,"is_disabled":false,"rental_uris":{"android":"levelo://app?vid=2aa05e06-5366-4cfd-80c1-a6e66487250b","ios":"levelo://app?vid=2aa05e06-5366-4cfd-80c1-a6e66487250b"},"vehicle_type_id":"4","last_reported":1771158449,"current_range_meters":24800,"station_id":"st_d3svhcjqgbts73a3dn0g","pricing_plan_id":"cebpf4jnsgd1na2vs0mg"},{"bike_id":"9fa3b8f9-222a-47d4-94ab-1bf20b84c2d5","system_id":"levelo_inurba_marseille","lat":43.29593,"lon":5.37486,"is_reserved":false,"is_disabled":false,"rental_uris":{"android":"levelo://app?vid=9fa3b8f9-222a-47d4-94ab-1bf20b84c2d5","ios":"levelo://app?vid=9fa3b8f9-222a-47d4-94ab-1bf20b84c2d5"},"vehicle_type_id":"4","last_reported":1771158449,"current_range_meters":28800,"station_id":"ce4bgh92rcd13ifvqb50","pricing_plan_id":"cebpf4jnsgd1na2vs0mg"},{"bike_id":"963b299c-f0ed-46b7-9014-29e17db68b1b","system_id":"levelo_inurba_marseille","lat":43.26681,"lon":5.38286,"is_reserved":false,"is_disabled":false,"rental_uris":{"android":"levelo://app?vid=963b299c-f0ed-46b7-9014-29e17db68b1b","ios":"levelo://app?vid=963b299c-f0ed-46b7-9014-29e17db68b1b"},"vehicle_type_id":"4","last_reported":1771158449,"current_range_meters":8400,"station_id":"ce4bhg92rcd13ifvqf90","pricing_plan_id":"cebpf4jnsgd1na2vs0mg"},{"bike_id":"9d0335d2-3051-4637-a59f-b5a4ffc47957","system_id":"levelo_inurba_marseille","lat":43.32667,"lon":5.41001,"is_reserved":false,"is_disabled":false,"rental_uris":{"android":"levelo://app?vid=9d0335d2-3051-4637-a59f-b5a4ffc47957","ios":"levelo://app?vid=9d0335d2-3051-4637-a59f-b5a4ffc47957"},"vehicle_type_id":"4","last_reported":1771158449,"current_range_meters":9600,"station_id":"ce4bhpp2rcd13ifvqhgg","pricing_plan_id":"cebpf4jnsgd1na2vs0mg"},{"bike_id":"bf40be18-51a4-4e54-9c30-1a02e017c42f","system_id":"levelo_inurba_marseille","lat":43.29625,"lon":5.37718,"is_reserved":false,"is_disabled":false,"rental_uris":{"android":"levelo://app?vid=bf40be18-51a4-4e54-9c30-1a02e017c42f","ios":"levelo://app?vid=bf40be18-51a4-4e54-9c30-1a02e017c42f"},"vehicle_type_id":"4","last_reported":1771158449,"current_range_meters":33200,"station_id":"ce4bgi92rcd13ifvqb90","pricing_plan_id":"cebpf4jnsgd1na2vs0mg"},{"bike_id":"6fb6e675-460f-4429-987e-5c8d5ca05444","system_id":"levelo_inurba_marseille","lat":43.32366,"lon":5.36738,"is_reserved":false,"is_disabled":false,"rental_uris":{"android":"levelo://app?vid=6fb6e675-460f-4429-987e-5c8d5ca05444","ios":"levelo://app?vid=6fb6e675-460f-4429-987e-5c8d5ca05444"},"vehicle_type_id":"4","last_reported":1771158449,"current_range_meters":12000,"station_id":"ce4bhsh2rcd13ifvqi2g","pricing_plan_id":"cebpf4jnsgd1na2vs0mg"},{"bike_id":"202f6d0c-bc1e-4dda-9985-efc73b77a4bc","system_id":"levelo_inurba_marseille","lat":43.28456,"lon":5.38417,"is_reserved":false,"is_disabled":false,"rental_uris":{"android":"levelo://app?vid=202f6d0c-bc1e-4dda-9985-efc73b77a4bc","ios":"levelo://app?vid=202f6d0c-bc1e-4dda-9985-efc73b77a4bc"},"vehicle_type_id":"4","last_reported":1771158449,"current_range_meters":28800,"station_id":"ce4bh512rcd13ifvqe3g","pricing_plan_id":"cebpf4jnsgd1na2vs0mg"},{"bike_id":"c7dc1044-a4da-496a-a386-521f9de5f9ec","system_id":"levelo_inurba_marseille","lat":43.28162,"lon":5.42615,"is_reserved":false,"is_disabled":false,"rental_uris":{"android":"levelo://app?vid=c7dc1044-a4da-496a-a386-521f9de5f9ec","ios":"levelo://app?vid=c7dc1044-a4da-496a-a386-521f9de5f9ec"},"vehicle_type_id":"4","last_reported":1771158449,"current_range_meters":3600,"station_id":"ce4bhnh2rcd13ifvqgug","pricing_plan_id":"cebpf4jnsgd1na2vs0mg"},{"bike_id":"32970ac4-1746-4d64-913c-72a1346864f7","system_id":"levelo_inurba_marseille","lat":43.29004,"lon":5.35603,"is_reserved":false,"is_disabled":false,"rental_uris":{"android":"levelo://app?vid=32970ac4-1746-4d64-913c-72a1346864f7","ios":"levelo://app?vid=32970ac4-1746-4d64-913c-72a1346864f7"},"vehicle_type_id":"4","last_reported":1771158449,"current_range_meters":38400,"station_id":"ce4bhb92rcd13ifvqen0","pricing_plan_id":"cebpf4jnsgd1na2vs0mg"},{"bike_id":"7a6fa51c-f3a6-4ec7-898a-e0c27ec99600","system_id":"levelo_inurba_marseille","lat":43.30888,"lon":5.37184,"is_reserved":false,"is_disabled":false,"rental_uris":{"android":"levelo://app?vid=7a6fa51c-f3a6-4ec7-898a-e0c27ec99600","ios":"levelo://app?vid=7a6fa51c-f3a6-4ec7-898a-e0c27ec99600"},"vehicle_type_id":"4","last_reported":1771158449,"current_range_meters":39200,"station_id":"ce4bguh2rcd13ifvqckg","pricing_plan_id":"cebpf4jnsgd1na2vs0mg"},{"bike_id":"a1296941-8c06-4efe-91d0-208212d29e66","system_id":"levelo_inurba_marseille","lat":43.2464,"lon":5.43145,"is_reserved":false,"is_disabled":false,"rental_uris":{"android":"levelo://app?vid=a1296941-8c06-4efe-91d0-208212d29e66","ios":"levelo://app?vid=a1296941-8c06-4efe-91d0-208212d29e66"},"vehicle_type_id":"4","last_reported":1771158449,"current_range_meters":13600,"station_id":"st_d2m6c4gdas8pm72e190g","pricing_plan_id":"cebpf4jnsgd1na2vs0mg"},{"bike_id":"7cdfe218-e562-4c8e-b568-a43a73340fb4","system_id":"levelo_inurba_marseille","lat":43.284053,"lon":5.349864,"is_reserved":false,"is_disabled":false,"rental_uris":{"android":"levelo://app?vid=7cdfe218-e562-4c8e-b568-a43a73340fb4","ios":"levelo://app?vid=7cdfe218-e562-4c8e-b568-a43a73340fb4"},"vehicle_type_id":"4","last_reported":1771158449,"current_range_meters":39200,"station_id":"ce4bhbh2rcd13ifvqepg","pricing_plan_id":"cebpf4jnsgd1na2vs0mg"},{"bike_id":"b7aa5334-2a6e-48bb-8198-8189d9135661","system_id":"levelo_inurba_marseille","lat":43.23186,"lon":5.39995,"is_reserved":false,"is_disabled":false,"rental_uris":{"android":"levelo://app?vid=b7aa5334-2a6e-48bb-8198-8189d9135661","ios":"levelo://app?vid=b7aa5334-2a6e-48bb-8198-8189d9135661"},"vehicle_type_id":"4","last_reported":1771158449,"current_range_meters":12000,"station_id":"ce4bhn12rcd13ifvqgqg","pricing_plan_id":"cebpf4jnsgd1na2vs0mg"},{"bike_id":"5ba309a4-12b9-4eee-8397-472968e7c7d4","system_id":"levelo_inurba_marseille","lat":43.31717,"lon":5.40438,"is_reserved":false,"is_disabled":false,"rental_uris":{"android":"levelo://app?vid=5ba309a4-12b9-4eee-8397-472968e7c7d4","ios":"levelo://app?vid=5ba309a4-12b9-4eee-8397-472968e7c7d4"},"vehicle_type_id":"4","last_reported":1771158449,"current_range_meters":20400,"station_id":"ce4bh012rcd13ifvqd00","pricing_plan_id":"cebpf4jnsgd1na2vs0mg"},{"bike_id":"3bd048ee-102f-43d2-9e7e-e3c42044f3b2","system_id":"levelo_inurba_marseille","lat":43.29614,"lon":5.37723,"is_reserved":false,"is_disabled":false,"rental_uris":{"android":"levelo://app?vid=3bd048ee-102f-43d2-9e7e-e3c42044f3b2","ios":"levelo://app?vid=3bd048ee-102f-43d2-9e7e-e3c42044f3b2"},"vehicle_type_id":"4","last_reported":1771158449,"current_range_meters":28800,"station_id":"ce4bgi92rcd13ifvqb90","pricing_plan_id":"cebpf4jnsgd1na2vs0mg"},{"bike_id":"b7600f14-bce5-4dda-a976-6cbf8683f3d2","system_id":"levelo_inurba_marseille","lat":43.274155,"lon":5.394105,"is_reserved":false,"is_disabled":false,"rental_uris":{"android":"levelo://app?vid=b7600f14-bce5-4dda-a976-6cbf8683f3d2","ios":"levelo://app?vid=b7600f14-bce5-4dda-a976-6cbf8683f3d2"},"vehicle_type_id":"4","last_reported":1771158449,"current_range_meters":40000,"station_id":"ce4bhdp2rcd13ifvqf20","pricing_plan_id":"cebpf4jnsgd1na2vs0mg"},{"bike_id":"67dfb204-00be-4177-8b9d-f63a27579f92","system_id":"levelo_inurba_marseille","lat":43.29905,"lon":5.38132,"is_reserved":false,"is_disabled":false,"rental_uris":{"android":"levelo://app?vid=67dfb204-00be-4177-8b9d-f63a27579f92","ios":"levelo://app?vid=67dfb204-00be-4177-8b9d-f63a27579f92"},"vehicle_type_id":"4","last_reported":1771158449,"current_range_meters":28400,"station_id":"ce4bgj12rcd13ifvqbc0","pricing_plan_id":"cebpf4jnsgd1na2vs0mg"},{"bike_id":"3cb53061-83c4-46d8-95ca-08fad7de196f","system_id":"levelo_inurba_marseille","lat":43.28255,"lon":5.3509,"is_reserved":false,"is_disabled":false,"rental_uris":{"android":"levelo://app?vid=3cb53061-83c4-46d8-95ca-08fad7de196f","ios":"levelo://app?vid=3cb53061-83c4-46d8-95ca-08fad7de196f"},"vehicle_type_id":"4","last_reported":1771158449,"current_range_meters":25200,"station_id":"ce4bhbp2rcd13ifvqerg","pricing_plan_id":"cebpf4jnsgd1na2vs0mg"},{"bike_id":"8c08af33-27e1-433c-972d-fdfc4c77a575","system_id":"levelo_inurba_marseille","lat":43.28409,"lon":5.3752,"is_reserved":false,"is_disabled":false,"rental_uris":{"android":"levelo://app?vid=8c08af33-27e1-433c-972d-fdfc4c77a575","ios":"levelo://app?vid=8c08af33-27e1-433c-972d-fdfc4c77a575"},"vehicle_type_id":"4","last_reported":1771158449,"current_range_meters":27200,"station_id":"ce4bh412rcd13ifvqds0","pricing_plan_id":"cebpf4jnsgd1na2vs0mg"},{"bike_id":"2769c500-28bc-49c7-8532-eb0219c9447d","system_id":"levelo_inurba_marseille","lat":43.2999,"lon":5.37179,"is_reserved":false,"is_disabled":false,"rental_uris":{"android":"levelo://app?vid=2769c500-28bc-49c7-8532-eb0219c9447d","ios":"levelo://app?vid=2769c500-28bc-49c7-8532-eb0219c9447d"},"vehicle_type_id":"4","last_reported":1771158449,"current_range_meters":32400,"station_id":"ce4bgr92rcd13ifvqc7g","pricing_plan_id":"cebpf4jnsgd1na2vs0mg"},{"bike_id":"e29024b3-288c-4d8b-ba32-8553041a7294","system_id":"levelo_inurba_marseille","lat":43.25936,"lon":5.40907,"is_reserved":false,"is_disabled":false,"rental_uris":{"android":"levelo://app?vid=e29024b3-288c-4d8b-ba32-8553041a7294","ios":"levelo://app?vid=e29024b3-288c-4d8b-ba32-8553041a7294"},"vehicle_type_id":"4","last_reported":1771158449,"current_range_meters":2800,"station_id":"ce4bhm92rcd13ifvqglg","pricing_plan_id":"cebpf4jnsgd1na2vs0mg"},{"bike_id":"bac7409d-61f7-46cc-b62d-02ad9cfce5a9","system_id":"levelo_inurba_marseille","lat":43.28463,"lon":5.35869,"is_reserved":false,"is_disabled":false,"rental_uris":{"android":"levelo://app?vid=bac7409d-61f7-46cc-b62d-02ad9cfce5a9","ios":"levelo://app?vid=bac7409d-61f7-46cc-b62d-02ad9cfce5a9"},"vehicle_type_id":"4","last_reported":1771158449,"current_range_meters":38000,"station_id":"ce4bhah2rcd13ifvqei0","pricing_plan_id":"cebpf4jnsgd1na2vs0mg"},{"bike_id":"563037d3-7108-43f4-9824-3cbb130d2a47","system_id":"levelo_inurba_marseille","lat":43.30163,"lon":5.38101,"is_reserved":false,"is_disabled":false,"rental_uris":{"android":"levelo://app?vid=563037d3-7108-43f4-9824-3cbb130d2a47","ios":"levelo://app?vid=563037d3-7108-43f4-9824-3cbb130d2a47"},"vehicle_type_id":"4","last_reported":1771158449,"current_range_meters":7200,"station_id":"ce4bgjp2rcd13ifvqbh0","pricing_plan_id":"cebpf4jnsgd1na2vs0mg"},{"bike_id":"d33adf25-865e-4d8a-b514-8032961e7cb8","system_id":"levelo_inurba_marseille","lat":43.287281,"lon":5.360865,"is_reserved":false,"is_disabled":false,"rental_uris":{"android":"levelo://app?vid=d33adf25-865e-4d8a-b514-8032961e7cb8","ios":"levelo://app?vid=d33adf25-865e-4d8a-b514-8032961e7cb8"},"vehicle_type_id":"4","last_reported":1771158449,"current_range_meters":37600,"station_id":"cki0cbj6b192h4jlfktg","pricing_plan_id":"cebpf4jnsgd1na2vs0mg"},{"bike_id":"72e216d9-302d-4a45-9168-4dcdbfe9c2ed","system_id":"levelo_inurba_marseille","lat":43.30007,"lon":5.41325,"is_reserved":false,"is_disabled":false,"rental_uris":{"android":"levelo://app?vid=72e216d9-302d-4a45-9168-4dcdbfe9c2ed","ios":"levelo://app?vid=72e216d9-302d-4a45-9168-4dcdbfe9c2ed"},"vehicle_type_id":"4","last_reported":1771158449,"current_range_meters":33600,"station_id":"ce4bhp12rcd13ifvqh9g","pricing_plan_id":"cebpf4jnsgd1na2vs0mg"},{"bike_id":"3029fd03-fcab-4cd9-9277-025369248c19","system_id":"levelo_inurba_marseille","lat":43.26188,"lon":5.37446,"is_reserved":false,"is_disabled":false,"rental_uris":{"android":"levelo://app?vid=3029fd03-fcab-4cd9-9277-025369248c19","ios":"levelo://app?vid=3029fd03-fcab-4cd9-9277-025369248c19"},"vehicle_type_id":"4","last_reported":1771158449,"current_range_meters":14800,"station_id":"ce4bhgp2rcd13ifvqfc0","pricing_plan_id":"cebpf4jnsgd1na2vs0mg"},{"bike_id":"02888585-3dc8-472f-8fce-2afd6ae2f3cd","system_id":"levelo_inurba_marseille","lat":43.30164,"lon":5.38067,"is_reserved":false,"is_disabled":false,"rental_uris":{"android":"levelo://app?vid=02888585-3dc8-472f-8fce-2afd6ae2f3cd","ios":"levelo://app?vid=02888585-3dc8-472f-8fce-2afd6ae2f3cd"},"vehicle_type_id":"4","last_reported":1771158449,"current_range_meters":33600,"station_id":"ce4bgjp2rcd13ifvqbh0","pricing_plan_id":"cebpf4jnsgd1na2vs0mg"},{"bike_id":"4cb2a9d8-8a61-4838-80c1-000f896cc9a0","system_id":"levelo_inurba_marseille","lat":43.28429,"lon":5.34989,"is_reserved":false,"is_disabled":false,"rental_uris":{"android":"levelo://app?vid=4cb2a9d8-8a61-4838-80c1-000f896cc9a0","ios":"levelo://app?vid=4cb2a9d8-8a61-4838-80c1-000f896cc9a0"},"vehicle_type_id":"4","last_reported":1771158449,"current_range_meters":10000,"station_id":"ce4bhbh2rcd13ifvqepg","pricing_plan_id":"cebpf4jnsgd1na2vs0mg"},{"bike_id":"61eff903-483f-41ec-a514-0f580cd1a431","system_id":"levelo_inurba_marseille","lat":43.249424,"lon":5.405096,"is_reserved":false,"is_disabled":false,"rental_uris":{"android":"levelo://app?vid=61eff903-483f-41ec-a514-0f580cd1a431","ios":"levelo://app?vid=61eff903-483f-41ec-a514-0f580cd1a431"},"vehicle_type_id":"4","last_reported":1771158449,"current_range_meters":26800,"station_id":"st_d2ngiaodas8pm72gd1h0","pricing_plan_id":"cebpf4jnsgd1na2vs0mg"},{"bike_id":"8cf2d6d7-e51d-4831-bd1b-4195dd83b79f","system_id":"levelo_inurba_marseille","lat":43.29272,"lon":5.40891,"is_reserved":false,"is_disabled":false,"rental_uris":{"android":"levelo://app?vid=8cf2d6d7-e51d-4831-bd1b-4195dd83b79f","ios":"levelo://app?vid=8cf2d6d7-e51d-4831-bd1b-4195dd83b79f"},"vehicle_type_id":"4","last_reported":1771158449,"current_range_meters":8400,"station_id":"ce4bh192rcd13ifvqdc0","pricing_plan_id":"cebpf4jnsgd1na2vs0mg"},{"bike_id":"aaaacc78-adce-439a-a555-9223cd6acada","system_id":"levelo_inurba_marseille","lat":43.28677,"lon":5.36338,"is_reserved":false,"is_disabled":false,"rental_uris":{"android":"levelo://app?vid=aaaacc78-adce-439a-a555-9223cd6acada","ios":"levelo://app?vid=aaaacc78-adce-439a-a555-9223cd6acada"},"vehicle_type_id":"4","last_reported":1771158449,"current_range_meters":39200,"station_id":"ce4bhah2rcd13ifvqej0","pricing_plan_id":"cebpf4jnsgd1na2vs0mg"},{"bike_id":"a7301c03-1d19-48a2-933a-123b05a538a5","system_id":"levelo_inurba_marseille","lat":43.31691,"lon":5.40478,"is_reserved":false,"is_disabled":false,"rental_uris":{"android":"levelo://app?vid=a7301c03-1d19-48a2-933a-123b05a538a5","ios":"levelo://app?vid=a7301c03-1d19-48a2-933a-123b05a538a5"},"vehicle_type_id":"4","last_reported":1771158449,"current_range_meters":13600,"station_id":"ce4bh012rcd13ifvqd00","pricing_plan_id":"cebpf4jnsgd1na2vs0mg"},{"bike_id":"11bbe498-cd8f-4b2e-8e45-54529a7a0a47","system_id":"levelo_inurba_marseille","lat":43.29747,"lon":5.42771,"is_reserved":false,"is_disabled":false,"rental_uris":{"android":"levelo://app?vid=11bbe498-cd8f-4b2e-8e45-54529a7a0a47","ios":"levelo://app?vid=11bbe498-cd8f-4b2e-8e45-54529a7a0a47"},"vehicle_type_id":"4","last_reported":1771158449,"current_range_meters":5600,"station_id":"st_d3md5207bmas73dh9klg","pricing_plan_id":"cebpf4jnsgd1na2vs0mg"},{"bike_id":"f921ecaf-65c6-4c31-a956-ae002ea6af96","system_id":"levelo_inurba_marseille","lat":43.285795,"lon":5.394898,"is_reserved":false,"is_disabled":false,"rental_uris":{"android":"levelo://app?vid=f921ecaf-65c6-4c31-a956-ae002ea6af96","ios":"levelo://app?vid=f921ecaf-65c6-4c31-a956-ae002ea6af96"},"vehicle_type_id":"4","last_reported":1771158449,"current_range_meters":40000,"station_id":"ce4bh292rcd13ifvqdg0","pricing_plan_id":"cebpf4jnsgd1na2vs0mg"},{"bike_id":"db85d612-2486-4180-a7a9-4b56d8d31f7d","system_id":"levelo_inurba_marseille","lat":43.29274,"lon":5.36843,"is_reserved":false,"is_disabled":false,"rental_uris":{"android":"levelo://app?vid=db85d612-2486-4180-a7a9-4b56d8d31f7d","ios":"levelo://app?vid=db85d612-2486-4180-a7a9-4b56d8d31f7d"},"vehicle_type_id":"4","last_reported":1771158449,"current_range_meters":32400,"station_id":"ce4bhbp2rcd13ifvqesg","pricing_plan_id":"cebpf4jnsgd1na2vs0mg"},{"bike_id":"5d36d759-13d9-4aaa-b7a7-d6f606d680d7","system_id":"levelo_inurba_marseille","lat":43.28483,"lon":5.38415,"is_reserved":false,"is_disabled":false,"rental_uris":{"android":"levelo://app?vid=5d36d759-13d9-4aaa-b7a7-d6f606d680d7","ios":"levelo://app?vid=5d36d759-13d9-4aaa-b7a7-d6f606d680d7"},"vehicle_type_id":"4","last_reported":1771158449,"current_range_meters":10800,"station_id":"ce4bh512rcd13ifvqe3g","pricing_plan_id":"cebpf4jnsgd1na2vs0mg"},{"bike_id":"6f6a04ad-dd00-4f4a-bdfd-a835cfa0cc11","system_id":"levelo_inurba_marseille","lat":43.27068,"lon":5.3831,"is_reserved":false,"is_disabled":false,"rental_uris":{"android":"levelo://app?vid=6f6a04ad-dd00-4f4a-bdfd-a835cfa0cc11","ios":"levelo://app?vid=6f6a04ad-dd00-4f4a-bdfd-a835cfa0cc11"},"vehicle_type_id":"4","last_reported":1771158449,"current_range_meters":33200,"station_id":"st_d3n2fo6cfp8s73cte1j0","pricing_plan_id":"cebpf4jnsgd1na2vs0mg"},{"bike_id":"801aea90-6d04-4d6c-bccd-030211377390","system_id":"levelo_inurba_marseille","lat":43.27483,"lon":5.42456,"is_reserved":false,"is_disabled":false,"rental_uris":{"android":"levelo://app?vid=801aea90-6d04-4d6c-bccd-030211377390","ios":"levelo://app?vid=801aea90-6d04-4d6c-bccd-030211377390"},"vehicle_type_id":"4","last_reported":1771158449,"current_range_meters":24000,"station_id":"ce4bhn92rcd13ifvqgrg","pricing_plan_id":"cebpf4jnsgd1na2vs0mg"},{"bike_id":"4e4c79b4-286f-458a-a494-98664f2e8591","system_id":"levelo_inurba_marseille","lat":43.33125,"lon":5.39271,"is_reserved":false,"is_disabled":false,"rental_uris":{"android":"levelo://app?vid=4e4c79b4-286f-458a-a494-98664f2e8591","ios":"levelo://app?vid=4e4c79b4-286f-458a-a494-98664f2e8591"},"vehicle_type_id":"4","last_reported":1771158449,"current_range_meters":30000,"station_id":"","pricing_plan_id":"cebpf4jnsgd1na2vs0mg"},{"bike_id":"fcdee124-54c2-45c2-866c-075925635f0c","system_id":"levelo_inurba_marseille","lat":43.28636,"lon":5.3508,"is_reserved":false,"is_disabled":false,"rental_uris":{"android":"levelo://app?vid=fcdee124-54c2-45c2-866c-075925635f0c","ios":"levelo://app?vid=fcdee124-54c2-45c2-866c-075925635f0c"},"vehicle_type_id":"4","last_reported":1771158449,"current_range_meters":20000,"station_id":"ce4bhch2rcd13ifvqeug","pricing_plan_id":"cebpf4jnsgd1na2vs0mg"},{"bike_id":"3466503b-af29-415c-826a-265b92625e7e","system_id":"levelo_inurba_marseille","lat":43.32101,"lon":5.36781,"is_reserved":false,"is_disabled":false,"rental_uris":{"android":"levelo://app?vid=3466503b-af29-415c-826a-265b92625e7e","ios":"levelo://app?vid=3466503b-af29-415c-826a-265b92625e7e"},"vehicle_type_id":"4","last_reported":1771158449,"current_range_meters":28800,"station_id":"ce4bhrh2rcd13ifvqhug","pricing_plan_id":"cebpf4jnsgd1na2vs0mg"},{"bike_id":"a59ffe26-4971-4e57-988c-4f4bb70be0c5","system_id":"levelo_inurba_marseille","lat":43.29252,"lon":5.40951,"is_reserved":false,"is_disabled":false,"rental_uris":{"android":"levelo://app?vid=a59ffe26-4971-4e57-988c-4f4bb70be0c5","ios":"levelo://app?vid=a59ffe26-4971-4e57-988c-4f4bb70be0c5"},"vehicle_type_id":"4","last_reported":1771158449,"current_range_meters":31200,"station_id":"ce4bh192rcd13ifvqdc0","pricing_plan_id":"cebpf4jnsgd1na2vs0mg"},{"bike_id":"6d819218-6dc0-4758-82ab-51c5e4561485","system_id":"levelo_inurba_marseille","lat":43.28671,"lon":5.35105,"is_reserved":false,"is_disabled":false,"rental_uris":{"android":"levelo://app?vid=6d819218-6dc0-4758-82ab-51c5e4561485","ios":"levelo://app?vid=6d819218-6dc0-4758-82ab-51c5e4561485"},"vehicle_type_id":"4","last_reported":1771158449,"current_range_meters":7200,"station_id":"","pricing_plan_id":"cebpf4jnsgd1na2vs0mg"},{"bike_id":"ac89198c-c702-4d3c-9029-266a18e0ed53","system_id":"levelo_inurba_marseille","lat":43.3089,"lon":5.36838,"is_reserved":false,"is_disabled":false,"rental_uris":{"android":"levelo://app?vid=ac89198c-c702-4d3c-9029-266a18e0ed53","ios":"levelo://app?vid=ac89198c-c702-4d3c-9029-266a18e0ed53"},"vehicle_type_id":"4","last_reported":1771158449,"current_range_meters":25200,"station_id":"ce4bgn92rcd13ifvqbvg","pricing_plan_id":"cebpf4jnsgd1na2vs0mg"},{"bike_id":"6576df0e-baee-401b-b672-90c8f94c1c2a","system_id":"levelo_inurba_marseille","lat":43.28431,"lon":5.39206,"is_reserved":false,"is_disabled":false,"rental_uris":{"android":"levelo://app?vid=6576df0e-baee-401b-b672-90c8f94c1c2a","ios":"levelo://app?vid=6576df0e-baee-401b-b672-90c8f94c1c2a"},"vehicle_type_id":"4","last_reported":1771158449,"current_range_meters":34800,"station_id":"ce4bhoh2rcd13ifvqh5g","pricing_plan_id":"cebpf4jnsgd1na2vs0mg"},{"bike_id":"eaa5a20b-1cfb-4952-b36f-41363341fdee","system_id":"levelo_inurba_marseille","lat":43.23966,"lon":5.36634,"is_reserved":false,"is_disabled":false,"rental_uris":{"android":"levelo://app?vid=eaa5a20b-1cfb-4952-b36f-41363341fdee","ios":"levelo://app?vid=eaa5a20b-1cfb-4952-b36f-41363341fdee"},"vehicle_type_id":"4","last_reported":1771158449,"current_range_meters":12800,"station_id":"ce4bhi12rcd13ifvqfp0","pricing_plan_id":"cebpf4jnsgd1na2vs0mg"},{"bike_id":"728a8600-c06b-4447-9a71-a43a2371fd54","system_id":"levelo_inurba_marseille","lat":43.25099,"lon":5.39509,"is_reserved":false,"is_disabled":true,"rental_uris":{"android":"levelo://app?vid=728a8600-c06b-4447-9a71-a43a2371fd54","ios":"levelo://app?vid=728a8600-c06b-4447-9a71-a43a2371fd54"},"vehicle_type_id":"4","last_reported":1771158449,"current_range_meters":11200,"station_id":"ce4bhm12rcd13ifvqgkg","pricing_plan_id":"cebpf4jnsgd1na2vs0mg"},{"bike_id":"299893d6-a1c3-493f-953f-44a675242be0","system_id":"levelo_inurba_marseille","lat":43.27055,"lon":5.40286,"is_reserved":false,"is_disabled":false,"rental_uris":{"android":"levelo://app?vid=299893d6-a1c3-493f-953f-44a675242be0","ios":"levelo://app?vid=299893d6-a1c3-493f-953f-44a675242be0"},"vehicle_type_id":"4","last_reported":1771158449,"current_range_meters":22800,"station_id":"ce4bhk92rcd13ifvqgc0","pricing_plan_id":"cebpf4jnsgd1na2vs0mg"},{"bike_id":"9b3673d6-fbdf-4487-8ba0-3434ced4ded2","system_id":"levelo_inurba_marseille","lat":43.2957,"lon":5.39967,"is_reserved":false,"is_disabled":false,"rental_uris":{"android":"levelo://app?vid=9b3673d6-fbdf-4487-8ba0-3434ced4ded2","ios":"levelo://app?vid=9b3673d6-fbdf-4487-8ba0-3434ced4ded2"},"vehicle_type_id":"4","last_reported":1771158449,"current_range_meters":8000,"station_id":"ce4bh312rcd13ifvqdj0","pricing_plan_id":"cebpf4jnsgd1na2vs0mg"},{"bike_id":"2f0b85aa-c457-4958-914e-08f5ab13887b","system_id":"levelo_inurba_marseille","lat":43.24088,"lon":5.37754,"is_reserved":false,"is_disabled":false,"rental_uris":{"android":"levelo://app?vid=2f0b85aa-c457-4958-914e-08f5ab13887b","ios":"levelo://app?vid=2f0b85aa-c457-4958-914e-08f5ab13887b"},"vehicle_type_id":"4","last_reported":1771158449,"current_range_meters":27200,"station_id":"ce4bhnp2rcd13ifvqgvg","pricing_plan_id":"cebpf4jnsgd1na2vs0mg"},{"bike_id":"978d2f99-2f31-4c4e-be2a-4e68224c9eda","system_id":"levelo_inurba_marseille","lat":43.268054,"lon":5.402542,"is_reserved":false,"is_disabled":false,"rental_uris":{"android":"levelo://app?vid=978d2f99-2f31-4c4e-be2a-4e68224c9eda","ios":"levelo://app?vid=978d2f99-2f31-4c4e-be2a-4e68224c9eda"},"vehicle_type_id":"4","last_reported":1771158449,"current_range_meters":24800,"station_id":"ce501612rcd8frsf0b60","pricing_plan_id":"cebpf4jnsgd1na2vs0mg"},{"bike_id":"61fd5862-50ca-4e52-b3bd-80889f2096bf","system_id":"levelo_inurba_marseille","lat":43.307796,"lon":5.376505,"is_reserved":false,"is_disabled":false,"rental_uris":{"android":"levelo://app?vid=61fd5862-50ca-4e52-b3bd-80889f2096bf","ios":"levelo://app?vid=61fd5862-50ca-4e52-b3bd-80889f2096bf"},"vehicle_type_id":"4","last_reported":1771158449,"current_range_meters":12400,"station_id":"","pricing_plan_id":"cebpf4jnsgd1na2vs0mg"},{"bike_id":"fa390c97-a1ba-4dd3-ac05-96a0cadd68c2","system_id":"levelo_inurba_marseille","lat":43.26949,"lon":5.38633,"is_reserved":false,"is_disabled":true,"rental_uris":{"android":"levelo://app?vid=fa390c97-a1ba-4dd3-ac05-96a0cadd68c2","ios":"levelo://app?vid=fa390c97-a1ba-4dd3-ac05-96a0cadd68c2"},"vehicle_type_id":"4","last_reported":1771158449,"current_range_meters":33600,"station_id":"ce4bhh92rcd13ifvqfh0","pricing_plan_id":"cebpf4jnsgd1na2vs0mg"},{"bike_id":"e7b1d1a6-c1f5-4344-ace8-c1eddd0cba51","system_id":"levelo_inurba_marseille","lat":43.25711,"lon":5.411185,"is_reserved":false,"is_disabled":false,"rental_uris":{"android":"levelo://app?vid=e7b1d1a6-c1f5-4344-ace8-c1eddd0cba51","ios":"levelo://app?vid=e7b1d1a6-c1f5-4344-ace8-c1eddd0cba51"},"vehicle_type_id":"4","last_reported":1771158449,"current_range_meters":36800,"station_id":"ce4bhkp2rcd13ifvqgd0","pricing_plan_id":"cebpf4jnsgd1na2vs0mg"},{"bike_id":"cf8b7d0a-9a5a-4f97-92c3-931492bbfb02","system_id":"levelo_inurba_marseille","lat":43.27212,"lon":5.40967,"is_reserved":false,"is_disabled":false,"rental_uris":{"android":"levelo://app?vid=cf8b7d0a-9a5a-4f97-92c3-931492bbfb02","ios":"levelo://app?vid=cf8b7d0a-9a5a-4f97-92c3-931492bbfb02"},"vehicle_type_id":"4","last_reported":1771158449,"current_range_meters":30000,"station_id":"","pricing_plan_id":"cebpf4jnsgd1na2vs0mg"},{"bike_id":"bfd9d056-3cd0-4156-bc1c-ed231a73ccbf","system_id":"levelo_inurba_marseille","lat":43.2958,"lon":5.37504,"is_reserved":false,"is_disabled":false,"rental_uris":{"android":"levelo://app?vid=bfd9d056-3cd0-4156-bc1c-ed231a73ccbf","ios":"levelo://app?vid=bfd9d056-3cd0-4156-bc1c-ed231a73ccbf"},"vehicle_type_id":"4","last_reported":1771158449,"current_range_meters":15200,"station_id":"ce4bgh92rcd13ifvqb50","pricing_plan_id":"cebpf4jnsgd1na2vs0mg"},{"bike_id":"07ce1f5d-6f17-46fa-a2c3-775082efdead","system_id":"levelo_inurba_marseille","lat":43.27335,"lon":5.3906,"is_reserved":false,"is_disabled":false,"rental_uris":{"android":"levelo://app?vid=07ce1f5d-6f17-46fa-a2c3-775082efdead","ios":"levelo://app?vid=07ce1f5d-6f17-46fa-a2c3-775082efdead"},"vehicle_type_id":"4","last_reported":1771158449,"current_range_meters":4000,"station_id":"ce4bhgp2rcd13ifvqfe0","pricing_plan_id":"cebpf4jnsgd1na2vs0mg"},{"bike_id":"88ff9439-db02-4be2-a9f2-dbfd8e7a5968","system_id":"levelo_inurba_marseille","lat":43.25853,"lon":5.399,"is_reserved":false,"is_disabled":false,"rental_uris":{"android":"levelo://app?vid=88ff9439-db02-4be2-a9f2-dbfd8e7a5968","ios":"levelo://app?vid=88ff9439-db02-4be2-a9f2-dbfd8e7a5968"},"vehicle_type_id":"4","last_reported":1771158449,"current_range_meters":32000,"station_id":"ce4bhl92rcd13ifvqghg","pricing_plan_id":"cebpf4jnsgd1na2vs0mg"},{"bike_id":"cfae685f-c63c-4f49-9c1b-ab3959e7fdd6","system_id":"levelo_inurba_marseille","lat":43.24942,"lon":5.405,"is_reserved":false,"is_disabled":false,"rental_uris":{"android":"levelo://app?vid=cfae685f-c63c-4f49-9c1b-ab3959e7fdd6","ios":"levelo://app?vid=cfae685f-c63c-4f49-9c1b-ab3959e7fdd6"},"vehicle_type_id":"4","last_reported":1771158449,"current_range_meters":36400,"station_id":"st_d2ngiaodas8pm72gd1h0","pricing_plan_id":"cebpf4jnsgd1na2vs0mg"},{"bike_id":"106a74bb-4181-4477-8571-9f054fddfeae","system_id":"levelo_inurba_marseille","lat":43.27913,"lon":5.3957,"is_reserved":false,"is_disabled":false,"rental_uris":{"android":"levelo://app?vid=106a74bb-4181-4477-8571-9f054fddfeae","ios":"levelo://app?vid=106a74bb-4181-4477-8571-9f054fddfeae"},"vehicle_type_id":"4","last_reported":1771158449,"current_range_meters":24400,"station_id":"ce4bhf92rcd13ifvqf40","pricing_plan_id":"cebpf4jnsgd1na2vs0mg"},{"bike_id":"a92aea04-d9ee-40a7-9385-9fbb090f0026","system_id":"levelo_inurba_marseille","lat":43.260631,"lon":5.39401,"is_reserved":false,"is_disabled":false,"rental_uris":{"android":"levelo://app?vid=a92aea04-d9ee-40a7-9385-9fbb090f0026","ios":"levelo://app?vid=a92aea04-d9ee-40a7-9385-9fbb090f0026"},"vehicle_type_id":"4","last_reported":1771158449,"current_range_meters":39200,"station_id":"ce4bhh92rcd13ifvqfj0","pricing_plan_id":"cebpf4jnsgd1na2vs0mg"},{"bike_id":"02be7b3c-95f1-4b03-a614-8d372e7e0d1d","system_id":"levelo_inurba_marseille","lat":43.27374,"lon":5.36269,"is_reserved":false,"is_disabled":false,"rental_uris":{"android":"levelo://app?vid=02be7b3c-95f1-4b03-a614-8d372e7e0d1d","ios":"levelo://app?vid=02be7b3c-95f1-4b03-a614-8d372e7e0d1d"},"vehicle_type_id":"4","last_reported":1771158449,"current_range_meters":39200,"station_id":"ce4bhbh2rcd13ifvqeo0","pricing_plan_id":"cebpf4jnsgd1na2vs0mg"},{"bike_id":"ddc08c7d-272e-4f9e-9760-0703e441790a","system_id":"levelo_inurba_marseille","lat":43.29555,"lon":5.37499,"is_reserved":false,"is_disabled":false,"rental_uris":{"android":"levelo://app?vid=ddc08c7d-272e-4f9e-9760-0703e441790a","ios":"levelo://app?vid=ddc08c7d-272e-4f9e-9760-0703e441790a"},"vehicle_type_id":"4","last_reported":1771158449,"current_range_meters":28400,"station_id":"ce4bgh92rcd13ifvqb50","pricing_plan_id":"cebpf4jnsgd1na2vs0mg"},{"bike_id":"8fd4569f-4513-4bcf-9440-02144f737ba7","system_id":"levelo_inurba_marseille","lat":43.31031,"lon":5.37164,"is_reserved":false,"is_disabled":false,"rental_uris":{"android":"levelo://app?vid=8fd4569f-4513-4bcf-9440-02144f737ba7","ios":"levelo://app?vid=8fd4569f-4513-4bcf-9440-02144f737ba7"},"vehicle_type_id":"4","last_reported":1771158449,"current_range_meters":24000,"station_id":"st_d4kl2rp97mjs73e7tdfg","pricing_plan_id":"cebpf4jnsgd1na2vs0mg"},{"bike_id":"7cd4f0f3-9aa1-4a7f-a18f-835dabc5b233","system_id":"levelo_inurba_marseille","lat":43.29261,"lon":5.40882,"is_reserved":false,"is_disabled":false,"rental_uris":{"android":"levelo://app?vid=7cd4f0f3-9aa1-4a7f-a18f-835dabc5b233","ios":"levelo://app?vid=7cd4f0f3-9aa1-4a7f-a18f-835dabc5b233"},"vehicle_type_id":"4","last_reported":1771158449,"current_range_meters":37600,"station_id":"ce4bh192rcd13ifvqdc0","pricing_plan_id":"cebpf4jnsgd1na2vs0mg"},{"bike_id":"8491b334-0ba7-4277-9797-3edac002b21f","system_id":"levelo_inurba_marseille","lat":43.26218,"lon":5.40451,"is_reserved":false,"is_disabled":false,"rental_uris":{"android":"levelo://app?vid=8491b334-0ba7-4277-9797-3edac002b21f","ios":"levelo://app?vid=8491b334-0ba7-4277-9797-3edac002b21f"},"vehicle_type_id":"4","last_reported":1771158449,"current_range_meters":8800,"station_id":"ce4bhmh2rcd13ifvqgmg","pricing_plan_id":"cebpf4jnsgd1na2vs0mg"},{"bike_id":"6c78efb4-21ea-48b6-a077-5447702c0f63","system_id":"levelo_inurba_marseille","lat":43.298938,"lon":5.436641,"is_reserved":false,"is_disabled":false,"rental_uris":{"android":"levelo://app?vid=6c78efb4-21ea-48b6-a077-5447702c0f63","ios":"levelo://app?vid=6c78efb4-21ea-48b6-a077-5447702c0f63"},"vehicle_type_id":"4","last_reported":1771158449,"current_range_meters":33200,"station_id":"ce4bhpp2rcd13ifvqhfg","pricing_plan_id":"cebpf4jnsgd1na2vs0mg"},{"bike_id":"77d1d293-10fd-49de-a4ca-b7d708651906","system_id":"levelo_inurba_marseille","lat":43.26801,"lon":5.39461,"is_reserved":false,"is_disabled":false,"rental_uris":{"android":"levelo://app?vid=77d1d293-10fd-49de-a4ca-b7d708651906","ios":"levelo://app?vid=77d1d293-10fd-49de-a4ca-b7d708651906"},"vehicle_type_id":"4","last_reported":1771158449,"current_range_meters":27200,"station_id":"","pricing_plan_id":"cebpf4jnsgd1na2vs0mg"},{"bike_id":"59460023-563c-4ab5-ae12-3b2037c47cfe","system_id":"levelo_inurba_marseille","lat":43.29586,"lon":5.37192,"is_reserved":false,"is_disabled":false,"rental_uris":{"android":"levelo://app?vid=59460023-563c-4ab5-ae12-3b2037c47cfe","ios":"levelo://app?vid=59460023-563c-4ab5-ae12-3b2037c47cfe"},"vehicle_type_id":"4","last_reported":1771158449,"current_range_meters":38800,"station_id":"ce4bgnh2rcd13ifvqc0g","pricing_plan_id":"cebpf4jnsgd1na2vs0mg"},{"bike_id":"2a5d7c35-697d-4c23-9b19-99b21f5605d9","system_id":"levelo_inurba_marseille","lat":43.28444,"lon":5.35886,"is_reserved":false,"is_disabled":false,"rental_uris":{"android":"levelo://app?vid=2a5d7c35-697d-4c23-9b19-99b21f5605d9","ios":"levelo://app?vid=2a5d7c35-697d-4c23-9b19-99b21f5605d9"},"vehicle_type_id":"4","last_reported":1771158449,"current_range_meters":32800,"station_id":"ce4bhah2rcd13ifvqei0","pricing_plan_id":"cebpf4jnsgd1na2vs0mg"},{"bike_id":"3bb5bc67-1d0a-4908-8016-273223517602","system_id":"levelo_inurba_marseille","lat":43.26067,"lon":5.39397,"is_reserved":false,"is_disabled":false,"rental_uris":{"android":"levelo://app?vid=3bb5bc67-1d0a-4908-8016-273223517602","ios":"levelo://app?vid=3bb5bc67-1d0a-4908-8016-273223517602"},"vehicle_type_id":"4","last_reported":1771158449,"current_range_meters":6400,"station_id":"ce4bhh92rcd13ifvqfj0","pricing_plan_id":"cebpf4jnsgd1na2vs0mg"},{"bike_id":"bb8da79f-40bd-46c5-8d9f-995adda9ec00","system_id":"levelo_inurba_marseille","lat":43.27971,"lon":5.38741,"is_reserved":false,"is_disabled":true,"rental_uris":{"android":"levelo://app?vid=bb8da79f-40bd-46c5-8d9f-995adda9ec00","ios":"levelo://app?vid=bb8da79f-40bd-46c5-8d9f-995adda9ec00"},"vehicle_type_id":"4","last_reported":1771158449,"current_range_meters":28800,"station_id":"ce4bhg12rcd13ifvqf80","pricing_plan_id":"cebpf4jnsgd1na2vs0mg"},{"bike_id":"4ecccdf8-eeb1-4e16-8486-1a035343c059","system_id":"levelo_inurba_marseille","lat":43.286194,"lon":5.351034,"is_reserved":false,"is_disabled":false,"rental_uris":{"android":"levelo://app?vid=4ecccdf8-eeb1-4e16-8486-1a035343c059","ios":"levelo://app?vid=4ecccdf8-eeb1-4e16-8486-1a035343c059"},"vehicle_type_id":"4","last_reported":1771158449,"current_range_meters":14400,"station_id":"ce4bhch2rcd13ifvqeug","pricing_plan_id":"cebpf4jnsgd1na2vs0mg"},