{"last_updated":1737536996,"ttl":60,"version":"2.2","data":{"bikes":[{"bike_id":"7426e5d7-ef23-48f2-8bc1-17f3f5acaa9b","system_id":"levelo_inurba_marseille","lat":43.28318,"lon":5.39289,"is_reserved":false,"is_disabled":false,"rental_uris":{"android":"levelo://app?vid=7426e5d7-ef23-48f2-8bc1-17f3f5acaa9b","ios":"levelo://app?vid=7426e5d7-ef23-48f2-8bc1-17f3f5acaa9b"},"vehicle_type_id":"4","last_reported":1737536996,"current_range_meters":12800,"station_id":"","pricing_plan_id":"cebpf4jnsgd1na2vs0mg"},{"bike_id":"a319178b-5f98-41a6-9d48-283823ef5830","system_id":"levelo_inurba_marseille","lat":43.31679,"lon":5.40457,"is_reserved":false,"is_disabled":false,"rental_uris":{"android":"levelo://app?vid=a319178b-5f98-41a6-9d48-283823ef5830","ios":"levelo://app?vid=a319178b-5f98-41a6-9d48-283823ef5830"},"vehicle_type_id":"4","last_reported":1737536996,"current_range_meters":27600,"station_id":"ce4bh012rcd13ifvqd00","pricing_plan_id":"cebpf4jnsgd1na2vs0mg"},{"bike_id":"e606dee1-353a-4112-8809-29d08e091d8e","system_id":"levelo_inurba_marseille","lat":43.30472,"lon":5.37907,"is_reserved":false,"is_disabled":false,"rental_uris":{"android":"levelo://app?vid=e606dee1-353a-4112-8809-29d08e091d8e","ios":"levelo://app?vid=e606dee1-353a-4112-8809-29d08e091d8e"},"vehicle_type_id":"4","last_reported":1737536996,"current_range_meters":27600,"station_id":"ce4bgup2rcd13ifvqcn0","pricing_plan_id":"cebpf4jnsgd1na2vs0mg"},{"bike_id":"e95ead81-6002-43ee-acd4-2ad45ddbcb0b","system_id":"levelo_inurba_marseille","lat":43.29033,"lon":5.3994,"is_reserved":false,"is_disabled":false,"rental_uris":{"android":"levelo://app?vid=e95ead81-6002-43ee-acd4-2ad45ddbcb0b","ios":"levelo://app?vid=e95ead81-6002-43ee-acd4-2ad45ddbcb0b"},"vehicle_type_id":"4","last_reported":1737536996,"current_range_meters":30800,"station_id":"ce4bh392rcd13ifvqdm0","pricing_plan_id":"cebpf4jnsgd1na2vs0mg"},{"bike_id":"3948ea88-cf3f-4efe-ace3-cb99aab83717","system_id":"levelo_inurba_marseille","lat":43.28614,"lon":5.35107,"is_reserved":false,"is_disabled":true,"rental_uris":{"android":"levelo://app?vid=3948ea88-cf3f-4efe-ace3-cb99aab83717","ios":"levelo://app?vid=3948ea88-cf3f-4efe-ace3-cb99aab83717"},"vehicle_type_id":"4","last_reported":1737536996,"current_range_meters":22800,"station_id":"ce4bhch2rcd13ifvqeug","pricing_plan_id":"cebpf4jnsgd1na2vs0mg"},{"bike_id":"22d9778a-3096-4868-b2ab-bb4576097f42","system_id":"levelo_inurba_marseille","lat":43.29033,"lon":5.39951,"is_reserved":false,"is_disabled":false,"rental_uris":{"android":"levelo://app?vid=22d9778a-3096-4868-b2ab-bb4576097f42","ios":"levelo://app?vid=22d9778a-3096-4868-b2ab-bb4576097f42"},"vehicle_type_id":"4","last_reported":1737536996,"current_range_meters":39200,"station_id":"ce4bh392rcd13ifvqdm0","pricing_plan_id":"cebpf4jnsgd1na2vs0mg"},{"bike_id":"7deb4919-c2aa-480e-a131-81b2e0ebe4ce","system_id":"levelo_inurba_marseille","lat":43.29042,"lon":5.39992,"is_reserved":false,"is_disabled":false,"rental_uris":{"android":"levelo://app?vid=7deb4919-c2aa-480e-a131-81b2e0ebe4ce","ios":"levelo://app?vid=7deb4919-c2aa-480e-a131-81b2e0ebe4ce"},"vehicle_type_id":"4","last_reported":1737536996,"current_range_meters":38800,"station_id":"ce4bh392rcd13ifvqdm0","pricing_plan_id":"cebpf4jnsgd1na2vs0mg"},{"bike_id":"6643472f-8de8-4d39-aed6-ac12171cfef8","system_id":"levelo_inurba_marseille","lat":43.30909,"lon":5.3685,"is_reserved":false,"is_disabled":false,"rental_uris":{"android":"levelo://app?vid=6643472f-8de8-4d39-aed6-ac12171cfef8","ios":"levelo://app?vid=6643472f-8de8-4d39-aed6-ac12171cfef8"},"vehicle_type_id":"4","last_reported":1737536996,"current_range_meters":36400,"station_id":"ce4bgn92rcd13ifvqbvg","pricing_plan_id":"cebpf4jnsgd1na2vs0mg"},{"bike_id":"335f4b57-881e-4281-a53d-d85ec78e9d01","system_id":"levelo_inurba_marseille","lat":43.28935,"lon":5.36637,"is_reserved":false,"is_disabled":false,"rental_uris":{"android":"levelo://app?vid=335f4b57-881e-4281-a53d-d85ec78e9d01","ios":"levelo://app?vid=335f4b57-881e-4281-a53d-d85ec78e9d01"},"vehicle_type_id":"4","last_reported":1737536996,"current_range_meters":30000,"station_id":"ce4bhap2rcd13ifvqek0","pricing_plan_id":"cebpf4jnsgd1na2vs0mg"},{"bike_id":"6aa486e2-6bff-44bc-8783-105e3573e43d","system_id":"levelo_inurba_marseille","lat":43.29166,"lon":5.37159,"is_reserved":false,"is_disabled":false,"rental_uris":{"android":"levelo://app?vid=6aa486e2-6bff-44bc-8783-105e3573e43d","ios":"levelo://app?vid=6aa486e2-6bff-44bc-8783-105e3573e43d"},"vehicle_type_id":"4","last_reported":1737536996,"current_range_meters":33600,"station_id":"ce4bha92rcd13ifvqeh0","pricing_plan_id":"cebpf4jnsgd1na2vs0mg"},{"bike_id":"4290bcaa-2c5d-43d4-9777-d79974cac771","system_id":"levelo_inurba_marseille","lat":43.29278,"lon":5.38456,"is_reserved":false,"is_disabled":false,"rental_uris":{"android":"levelo://app?vid=4290bcaa-2c5d-43d4-9777-d79974cac771","ios":"levelo://app?vid=4290bcaa-2c5d-43d4-9777-d79974cac771"},"vehicle_type_id":"4","last_reported":1737536996,"current_range_meters":34800,"station_id":"ce4bh692rcd13ifvqea0","pricing_plan_id":"cebpf4jnsgd1na2vs0mg"},{"bike_id":"7dc251a9-9c7a-4f8b-9459-3f4b38c3247f","system_id":"levelo_inurba_marseille","lat":43.33014,"lon":5.39052,"is_reserved":false,"is_disabled":false,"rental_uris":{"android":"levelo://app?vid=7dc251a9-9c7a-4f8b-9459-3f4b38c3247f","ios":"levelo://app?vid=7dc251a9-9c7a-4f8b-9459-3f4b38c3247f"},"vehicle_type_id":"4","last_reported":1737536996,"current_range_meters":38000,"station_id":"ce4bhr92rcd13ifvqhrg","pricing_plan_id":"cebpf4jnsgd1na2vs0mg"},{"bike_id":"6a9d337d-512a-4c40-a63b-3014fda6e05e","system_id":"levelo_inurba_marseille","lat":43.2558,"lon":5.38225,"is_reserved":false,"is_disabled":false,"rental_uris":{"android":"levelo://app?vid=6a9d337d-512a-4c40-a63b-3014fda6e05e","ios":"levelo://app?vid=6a9d337d-512a-4c40-a63b-3014fda6e05e"},"vehicle_type_id":"4","last_reported":1737536996,"current_range_meters":28800,"station_id":"ce4bhih2rcd13ifvqfs0","pricing_plan_id":"cebpf4jnsgd1na2vs0mg"},{"bike_id":"e031958a-e328-4f35-b6d2-974f6ed44238","system_id":"levelo_inurba_marseille","lat":43.32472,"lon":5.36562,"is_reserved":false,"is_disabled":true,"rental_uris":{"android":"levelo://app?vid=e031958a-e328-4f35-b6d2-974f6ed44238","ios":"levelo://app?vid=e031958a-e328-4f35-b6d2-974f6ed44238"},"vehicle_type_id":"4","last_reported":1737536996,"current_range_meters":400,"station_id":"ce4bhs12rcd13ifvqhvg","pricing_plan_id":"cebpf4jnsgd1na2vs0mg"},{"bike_id":"81adb0b4-2404-4c5e-a804-8535af28b08e","system_id":"levelo_inurba_marseille","lat":43.30534,"lon":5.3671,"is_reserved":false,"is_disabled":false,"rental_uris":{"android":"levelo://app?vid=81adb0b4-2404-4c5e-a804-8535af28b08e","ios":"levelo://app?vid=81adb0b4-2404-4c5e-a804-8535af28b08e"},"vehicle_type_id":"4","last_reported":1737536996,"current_range_meters":28800,"station_id":"ce4bgrp2rcd13ifvqc9g","pricing_plan_id":"cebpf4jnsgd1na2vs0mg"},{"bike_id":"73b5b8fa-af4d-461f-91e2-112593d8066e","system_id":"levelo_inurba_marseille","lat":43.24073,"lon":5.37763,"is_reserved":false,"is_disabled":false,"rental_uris":{"android":"levelo://app?vid=73b5b8fa-af4d-461f-91e2-112593d8066e","ios":"levelo://app?vid=73b5b8fa-af4d-461f-91e2-112593d8066e"},"vehicle_type_id":"4","last_reported":1737536996,"current_range_meters":38800,"station_id":"ce4bhnp2rcd13ifvqgvg","pricing_plan_id":"cebpf4jnsgd1na2vs0mg"},{"bike_id":"c5f18ae2-02c0-4e97-9799-78928c895bf4","system_id":"levelo_inurba_marseille","lat":43.29197,"lon":5.39316,"is_reserved":false,"is_disabled":false,"rental_uris":{"android":"levelo://app?vid=c5f18ae2-02c0-4e97-9799-78928c895bf4","ios":"levelo://app?vid=c5f18ae2-02c0-4e97-9799-78928c895bf4"},"vehicle_type_id":"4","last_reported":1737536996,"current_range_meters":38800,"station_id":"ce4bh192rcd13ifvqdd0","pricing_plan_id":"cebpf4jnsgd1na2vs0mg"},{"bike_id":"a2771881-b956-4a9a-9bc9-a89642d437c9","system_id":"levelo_inurba_marseille","lat":43.23198,"lon":5.35573,"is_reserved":false,"is_disabled":false,"rental_uris":{"android":"levelo://app?vid=a2771881-b956-4a9a-9bc9-a89642d437c9","ios":"levelo://app?vid=a2771881-b956-4a9a-9bc9-a89642d437c9"},"vehicle_type_id":"4","last_reported":1737536996,"current_range_meters":37600,"station_id":"ce4bhu92rcd13ifvqi70","pricing_plan_id":"cebpf4jnsgd1na2vs0mg"},{"bike_id":"044c29b9-b5e2-466e-976e-c85aa6e52719","system_id":"levelo_inurba_marseille","lat":43.29276,"lon":5.40134,"is_reserved":false,"is_disabled":false,"rental_uris":{"android":"levelo://app?vid=044c29b9-b5e2-466e-976e-c85aa6e52719","ios":"levelo://app?vid=044c29b9-b5e2-466e-976e-c85aa6e52719"},"vehicle_type_id":"4","last_reported":1737536996,"current_range_meters":36800,"station_id":"ce4bh312rcd13ifvqdk0","pricing_plan_id":"cebpf4jnsgd1na2vs0mg"},{"bike_id":"86026dde-12b1-4041-beb7-70a4d634500e","system_id":"levelo_inurba_marseille","lat":43.255766,"lon":5.382386,"is_reserved":false,"is_disabled":false,"rental_uris":{"android":"levelo://app?vid=86026dde-12b1-4041-beb7-70a4d634500e","ios":"levelo://app?vid=86026dde-12b1-4041-beb7-70a4d634500e"},"vehicle_type_id":"4","last_reported":1737536996,"current_range_meters":23200,"station_id":"ce4bhih2rcd13ifvqfs0","pricing_plan_id":"cebpf4jnsgd1na2vs0mg"},{"bike_id":"ff6db96a-c795-4f0a-a8f1-a4998b7e3d71","system_id":"levelo_inurba_marseille","lat":43.30796,"lon":5.38166,"is_reserved":false,"is_disabled":false,"rental_uris":{"android":"levelo://app?vid=ff6db96a-c795-4f0a-a8f1-a4998b7e3d71","ios":"levelo://app?vid=ff6db96a-c795-4f0a-a8f1-a4998b7e3d71"},"vehicle_type_id":"4","last_reported":1737536996,"current_range_meters":25200,"station_id":"ce4bgt12rcd13ifvqce0","pricing_plan_id":"cebpf4jnsgd1na2vs0mg"},{"bike_id":"46c271a9-84a6-4074-bc6b-ea8b2041c27a","system_id":"levelo_inurba_marseille","lat":43.2557,"lon":5.38259,"is_reserved":false,"is_disabled":false,"rental_uris":{"android":"levelo://app?vid=46c271a9-84a6-4074-bc6b-ea8b2041c27a","ios":"levelo://app?vid=46c271a9-84a6-4074-bc6b-ea8b2041c27a"},"vehicle_type_id":"4","last_reported":1737536996,"current_range_meters":38800,"station_id":"ce4bhih2rcd13ifvqfs0","pricing_plan_id":"cebpf4jnsgd1na2vs0mg"},{"bike_id":"457e4e05-a492-4c64-a853-4e2c6380e197","system_id":"levelo_inurba_marseille","lat":43.29967,"lon":5.37171,"is_reserved":false,"is_disabled":false,"rental_uris":{"android":"levelo://app?vid=457e4e05-a492-4c64-a853-4e2c6380e197","ios":"levelo://app?vid=457e4e05-a492-4c64-a853-4e2c6380e197"},"vehicle_type_id":"4","last_reported":1737536996,"current_range_meters":24800,"station_id":"ce4bgr92rcd13ifvqc7g","pricing_plan_id":"cebpf4jnsgd1na2vs0mg"},{"bike_id":"9b8e59cc-176c-4543-87f0-686d1d230657","system_id":"levelo_inurba_marseille","lat":43.29196,"lon":5.35806,"is_reserved":false,"is_disabled":true,"rental_uris":{"android":"levelo://app?vid=9b8e59cc-176c-4543-87f0-686d1d230657","ios":"levelo://app?vid=9b8e59cc-176c-4543-87f0-686d1d230657"},"vehicle_type_id":"4","last_reported":1737536996,"current_range_meters":0,"station_id":"ce4bhb12rcd13ifvqel0","pricing_plan_id":"cebpf4jnsgd1na2vs0mg"},{"bike_id":"0f35782f-f969-40a2-9f3e-14f4f594f78f","system_id":"levelo_inurba_marseille","lat":43.24085,"lon":5.37756,"is_reserved":false,"is_disabled":false,"rental_uris":{"android":"levelo://app?vid=0f35782f-f969-40a2-9f3e-14f4f594f78f","ios":"levelo://app?vid=0f35782f-f969-40a2-9f3e-14f4f594f78f"},"vehicle_type_id":"4","last_reported":1737536996,"current_range_meters":19200,"station_id":"ce4bhnp2rcd13ifvqgvg","pricing_plan_id":"cebpf4jnsgd1na2vs0mg"},{"bike_id":"ce4eb52e-753a-49de-a3cc-2ba7754268ab","system_id":"levelo_inurba_marseille","lat":43.3009,"lon":5.39076,"is_reserved":false,"is_disabled":false,"rental_uris":{"android":"levelo://app?vid=ce4eb52e-753a-49de-a3cc-2ba7754268ab","ios":"levelo://app?vid=ce4eb52e-753a-49de-a3cc-2ba7754268ab"},"vehicle_type_id":"4","last_reported":1737536996,"current_range_meters":20800,"station_id":"ce4bh192rcd13ifvqdb0","pricing_plan_id":"cebpf4jnsgd1na2vs0mg"},{"bike_id":"7fe833b2-35fa-4f39-bb20-6735d5eac24a","system_id":"levelo_inurba_marseille","lat":43.29725,"lon":5.36628,"is_reserved":false,"is_disabled":false,"rental_uris":{"android":"levelo://app?vid=7fe833b2-35fa-4f39-bb20-6735d5eac24a","ios":"levelo://app?vid=7fe833b2-35fa-4f39-bb20-6735d5eac24a"},"vehicle_type_id":"4","last_reported":1737536996,"current_range_meters":33200,"station_id":"ce4bgn12rcd13ifvqbt0","pricing_plan_id":"cebpf4jnsgd1na2vs0mg"},{"bike_id":"f704117d-f7e5-4f9a-85fd-f0d266620f17","system_id":"levelo_inurba_marseille","lat":43.27318,"lon":5.39088,"is_reserved":false,"is_disabled":false,"rental_uris":{"android":"levelo://app?vid=f704117d-f7e5-4f9a-85fd-f0d266620f17","ios":"levelo://app?vid=f704117d-f7e5-4f9a-85fd-f0d266620f17"},"vehicle_type_id":"4","last_reported":1737536996,"current_range_meters":38800,"station_id":"ce4bhgp2rcd13ifvqfe0","pricing_plan_id":"cebpf4jnsgd1na2vs0mg"},{"bike_id":"e8e2ff4b-263b-4f3d-86f2-89df3874fcb1","system_id":"levelo_inurba_marseille","lat":43.30461,"lon":5.37908,"is_reserved":false,"is_disabled":false,"rental_uris":{"android":"levelo://app?vid=e8e2ff4b-263b-4f3d-86f2-89df3874fcb1","ios":"levelo://app?vid=e8e2ff4b-263b-4f3d-86f2-89df3874fcb1"},"vehicle_type_id":"4","last_reported":1737536996,"current_range_meters":16400,"station_id":"ce4bgup2rcd13ifvqcn0","pricing_plan_id":"cebpf4jnsgd1na2vs0mg"},{"bike_id":"5c01ebfb-992b-4e94-baa6-4615b3d195e3","system_id":"levelo_inurba_marseille","lat":43.26913,"lon":5.40274,"is_reserved":false,"is_disabled":false,"rental_uris":{"android":"levelo://app?vid=5c01ebfb-992b-4e94-baa6-4615b3d195e3","ios":"levelo://app?vid=5c01ebfb-992b-4e94-baa6-4615b3d195e3"},"vehicle_type_id":"4","last_reported":1737536996,"current_range_meters":3600,"station_id":"cjm6bp8fraef2m0cb0m0","pricing_plan_id":"cebpf4jnsgd1na2vs0mg"},{"bike_id":"6eb47bba-2b2a-4496-b25b-c094174d4731","system_id":"levelo_inurba_marseille","lat":43.25931,"lon":5.40896,"is_reserved":false,"is_disabled":false,"rental_uris":{"android":"levelo://app?vid=6eb47bba-2b2a-4496-b25b-c094174d4731","ios":"levelo://app?vid=6eb47bba-2b2a-4496-b25b-c094174d4731"},"vehicle_type_id":"4","last_reported":1737536996,"current_range_meters":17600,"station_id":"ce4bhm92rcd13ifvqglg","pricing_plan_id":"cebpf4jnsgd1na2vs0mg"},{"bike_id":"0ec0257b-90a0-4795-823a-d8d50d2f0d73","system_id":"levelo_inurba_marseille","lat":43.31678,"lon":5.40459,"is_reserved":false,"is_disabled":false,"rental_uris":{"android":"levelo://app?vid=0ec0257b-90a0-4795-823a-d8d50d2f0d73","ios":"levelo://app?vid=0ec0257b-90a0-4795-823a-d8d50d2f0d73"},"vehicle_type_id":"4","last_reported":1737536996,"current_range_meters":16800,"station_id":"ce4bh012rcd13ifvqd00","pricing_plan_id":"cebpf4jnsgd1na2vs0mg"},{"bike_id":"ef459963-0ed0-47f9-a10e-2e49c0408e8a","system_id":"levelo_inurba_marseille","lat":43.29844,"lon":5.36275,"is_reserved":false,"is_disabled":false,"rental_uris":{"android":"levelo://app?vid=ef459963-0ed0-47f9-a10e-2e49c0408e8a","ios":"levelo://app?vid=ef459963-0ed0-47f9-a10e-2e49c0408e8a"},"vehicle_type_id":"4","last_reported":1737536996,"current_range_meters":38800,"station_id":"ce4bgpp2rcd13ifvqc3g","pricing_plan_id":"cebpf4jnsgd1na2vs0mg"},{"bike_id":"56c16567-a209-442e-b152-823591129e8b","system_id":"levelo_inurba_marseille","lat":43.28279,"lon":5.35096,"is_reserved":false,"is_disabled":false,"rental_uris":{"android":"levelo://app?vid=56c16567-a209-442e-b152-823591129e8b","ios":"levelo://app?vid=56c16567-a209-442e-b152-823591129e8b"},"vehicle_type_id":"4","last_reported":1737536996,"current_range_meters":37600,"station_id":"ce4bhbp2rcd13ifvqerg","pricing_plan_id":"cebpf4jnsgd1na2vs0mg"},{"bike_id":"cc8190cc-c655-4b6b-b8a9-4a668ec97d5d","system_id":"levelo_inurba_marseille","lat":43.33609,"lon":5.40998,"is_reserved":false,"is_disabled":false,"rental_uris":{"android":"levelo://app?vid=cc8190cc-c655-4b6b-b8a9-4a668ec97d5d","ios":"levelo://app?vid=cc8190cc-c655-4b6b-b8a9-4a668ec97d5d"},"vehicle_type_id":"4","last_reported":1737536996,"current_range_meters":33600,"station_id":"ce4bhqh2rcd13ifvqhmg","pricing_plan_id":"cebpf4jnsgd1na2vs0mg"},{"bike_id":"1eb2452e-9527-4cc7-99f1-3114fdf5918d","system_id":"levelo_inurba_marseille","lat":43.25644,"lon":5.41033,"is_reserved":false,"is_disabled":false,"rental_uris":{"android":"levelo://app?vid=1eb2452e-9527-4cc7-99f1-3114fdf5918d","ios":"levelo://app?vid=1eb2452e-9527-4cc7-99f1-3114fdf5918d"},"vehicle_type_id":"4","last_reported":1737536996,"current_range_meters":16800,"station_id":"","pricing_plan_id":"cebpf4jnsgd1na2vs0mg"},{"bike_id":"9bc726c4-f0ae-46a7-9894-3042b33f1aaf","system_id":"levelo_inurba_marseille","lat":43.23156,"lon":5.43735,"is_reserved":false,"is_disabled":false,"rental_uris":{"android":"levelo://app?vid=9bc726c4-f0ae-46a7-9894-3042b33f1aaf","ios":"levelo://app?vid=9bc726c4-f0ae-46a7-9894-3042b33f1aaf"},"vehicle_type_id":"4","last_reported":1737536996,"current_range_meters":37600,"station_id":"ce4bhmp2rcd13ifvqgog","pricing_plan_id":"cebpf4jnsgd1na2vs0mg"},{"bike_id":"04656797-d164-454b-8244-55edc7fec428","system_id":"levelo_inurba_marseille","lat":43.31718,"lon":5.42421,"is_reserved":false,"is_disabled":false,"rental_uris":{"android":"levelo://app?vid=04656797-d164-454b-8244-55edc7fec428","ios":"levelo://app?vid=04656797-d164-454b-8244-55edc7fec428"},"vehicle_type_id":"4","last_reported":1737536996,"current_range_meters":38800,"station_id":"ce4bhp92rcd13ifvqhbg","pricing_plan_id":"cebpf4jnsgd1na2vs0mg"},{"bike_id":"1f16ad06-6773-4946-8305-97dc88287b9f","system_id":"levelo_inurba_marseille","lat":43.29258,"lon":5.40919,"is_reserved":false,"is_disabled":false,"rental_uris":{"android":"levelo://app?vid=1f16ad06-6773-4946-8305-97dc88287b9f","ios":"levelo://app?vid=1f16ad06-6773-4946-8305-97dc88287b9f"},"vehicle_type_id":"4","last_reported":1737536996,"current_range_meters":33200,"station_id":"ce4bh192rcd13ifvqdc0","pricing_plan_id":"cebpf4jnsgd1na2vs0mg"},{"bike_id":"08498b64-c464-4119-afb2-6f220d6847bc","system_id":"levelo_inurba_marseille","lat":43.28256,"lon":5.35093,"is_reserved":false,"is_disabled":true,"rental_uris":{"android":"levelo://app?vid=08498b64-c464-4119-afb2-6f220d6847bc","ios":"levelo://app?vid=08498b64-c464-4119-afb2-6f220d6847bc"},"vehicle_type_id":"4","last_reported":1737536996,"current_range_meters":35600,"station_id":"ce4bhbp2rcd13ifvqerg","pricing_plan_id":"cebpf4jnsgd1na2vs0mg"},{"bike_id":"72c6a75a-dcec-4bc7-8f9e-96be42e21f17","system_id":"levelo_inurba_marseille","lat":43.25102,"lon":5.40332,"is_reserved":false,"is_disabled":false,"rental_uris":{"android":"levelo://app?vid=72c6a75a-dcec-4bc7-8f9e-96be42e21f17","ios":"levelo://app?vid=72c6a75a-dcec-4bc7-8f9e-96be42e21f17"},"vehicle_type_id":"4","last_reported":1737536996,"current_range_meters":39200,"station_id":"ce4bhlh2rcd13ifvqgig","pricing_plan_id":"cebpf4jnsgd1na2vs0mg"},{"bike_id":"25b82b37-b383-4df0-bef5-ff1c7e54aa8a","system_id":"levelo_inurba_marseille","lat":43.30607,"lon":5.39343,"is_reserved":false,"is_disabled":false,"rental_uris":{"android":"levelo://app?vid=25b82b37-b383-4df0-bef5-ff1c7e54aa8a","ios":"levelo://app?vid=25b82b37-b383-4df0-bef5-ff1c7e54aa8a"},"vehicle_type_id":"4","last_reported":1737536996,"current_range_meters":22400,"station_id":"ce4bh0p2rcd13ifvqd80","pricing_plan_id":"cebpf4jnsgd1na2vs0mg"},{"bike_id":"debafc9f-0156-470f-b1d1-580c5ee03d1b","system_id":"levelo_inurba_marseille","lat":43.30957,"lon":5.39039,"is_reserved":false,"is_disabled":false,"rental_uris":{"android":"levelo://app?vid=debafc9f-0156-470f-b1d1-580c5ee03d1b","ios":"levelo://app?vid=debafc9f-0156-470f-b1d1-580c5ee03d1b"},"vehicle_type_id":"4","last_reported":1737536996,"current_range_meters":30800,"station_id":"ce4bgup2rcd13ifvqco0","pricing_plan_id":"cebpf4jnsgd1na2vs0mg"},{"bike_id":"5eb6d494-f70b-4f7a-a01a-8e5b1bb1cda5","system_id":"levelo_inurba_marseille","lat":43.29882,"lon":5.38916,"is_reserved":false,"is_disabled":false,"rental_uris":{"android":"levelo://app?vid=5eb6d494-f70b-4f7a-a01a-8e5b1bb1cda5","ios":"levelo://app?vid=5eb6d494-f70b-4f7a-a01a-8e5b1bb1cda5"},"vehicle_type_id":"4","last_reported":1737536996,"current_range_meters":30800,"station_id":"ce4bh392rcd13ifvqdl0","pricing_plan_id":"cebpf4jnsgd1na2vs0mg"},{"bike_id":"e8e584c6-c043-40e1-b43c-3ef61a0da988","system_id":"levelo_inurba_marseille","lat":43.30478,"lon":5.37893,"is_reserved":false,"is_disabled":false,"rental_uris":{"android":"levelo://app?vid=e8e584c6-c043-40e1-b43c-3ef61a0da988","ios":"levelo://app?vid=e8e584c6-c043-40e1-b43c-3ef61a0da988"},"vehicle_type_id":"4","last_reported":1737536996,"current_range_meters":25600,"station_id":"ce4bgup2rcd13ifvqcn0","pricing_plan_id":"cebpf4jnsgd1na2vs0mg"},{"bike_id":"a8679d02-f529-41de-a362-d2fb4d4cfcb9","system_id":"levelo_inurba_marseille","lat":43.26667,"lon":5.38265,"is_reserved":false,"is_disabled":false,"rental_uris":{"android":"levelo://app?vid=a8679d02-f529-41de-a362-d2fb4d4cfcb9","ios":"levelo://app?vid=a8679d02-f529-41de-a362-d2fb4d4cfcb9"},"vehicle_type_id":"4","last_reported":1737536996,"current_range_meters":30400,"station_id":"ce4bhg92rcd13ifvqf90","pricing_plan_id":"cebpf4jnsgd1na2vs0mg"},{"bike_id":"5ae99370-9d6c-4455-9edb-57a0f1c3e10a","system_id":"levelo_inurba_marseille","lat":43.28028,"lon":5.36953,"is_reserved":false,"is_disabled":false,"rental_uris":{"android":"levelo://app?vid=5ae99370-9d6c-4455-9edb-57a0f1c3e10a","ios":"levelo://app?vid=5ae99370-9d6c-4455-9edb-57a0f1c3e10a"},"vehicle_type_id":"4","last_reported":1737536996,"current_range_meters":10000,"station_id":"ce4bha12rcd13ifvqef0","pricing_plan_id":"cebpf4jnsgd1na2vs0mg"},{"bike_id":"fb051a1b-f405-4fb7-8edb-82e638aff8f9","system_id":"levelo_inurba_marseille","lat":43.29802,"lon":5.36143,"is_reserved":false,"is_disabled":false,"rental_uris":{"android":"levelo://app?vid=fb051a1b-f405-4fb7-8edb-82e638aff8f9","ios":"levelo://app?vid=fb051a1b-f405-4fb7-8edb-82e638aff8f9"},"vehicle_type_id":"4","last_reported":1737536996,"current_range_meters":36400,"station_id":"","pricing_plan_id":"cebpf4jnsgd1na2vs0mg"},{"bike_id":"63468950-507d-45fc-b23b-b241b7129b89","system_id":"levelo_inurba_marseille","lat":43.2318,"lon":5.39989,"is_reserved":false,"is_disabled":false,"rental_uris":{"android":"levelo://app?vid=63468950-507d-45fc-b23b-b241b7129b89","ios":"levelo://app?vid=63468950-507d-45fc-b23b-b241b7129b89"},"vehicle_type_id":"4","last_reported":1737536996,"current_range_meters":32800,"station_id":"ce4bhn12rcd13ifvqgqg","pricing_plan_id":"cebpf4jnsgd1na2vs0mg"},{"bike_id":"245a70c7-2a5d-4a73-a3a8-17e7e21e9a8b","system_id":"levelo_inurba_marseille","lat":43.32355,"lon":5.3675,"is_reserved":false,"is_disabled":false,"rental_uris":{"android":"levelo://app?vid=245a70c7-2a5d-4a73-a3a8-17e7e21e9a8b","ios":"levelo://app?vid=245a70c7-2a5d-4a73-a3a8-17e7e21e9a8b"},"vehicle_type_id":"4","last_reported":1737536996,"current_range_meters":28800,"station_id":"ce4bhsh2rcd13ifvqi2g","pricing_plan_id":"cebpf4jnsgd1na2vs0mg"},{"bike_id":"1b02c112-b381-4166-a3e2-64cf4bda4f82","system_id":"levelo_inurba_marseille","lat":43.26944,"lon":5.38647,"is_reserved":false,"is_disabled":false,"rental_uris":{"android":"levelo://app?vid=1b02c112-b381-4166-a3e2-64cf4bda4f82","ios":"levelo://app?vid=1b02c112-b381-4166-a3e2-64cf4bda4f82"},"vehicle_type_id":"4","last_reported":1737536996,"current_range_meters":8400,"station_id":"ce4bhh92rcd13ifvqfh0","pricing_plan_id":"cebpf4jnsgd1na2vs0mg"},{"bike_id":"85376b56-692e-4f5f-939c-f76decd912d8","system_id":"levelo_inurba_marseille","lat":43.29056,"lon":5.35909,"is_reserved":false,"is_disabled":false,"rental_uris":{"android":"levelo://app?vid=85376b56-692e-4f5f-939c-f76decd912d8","ios":"levelo://app?vid=85376b56-692e-4f5f-939c-f76decd912d8"},"vehicle_type_id":"4","last_reported":1737536996,"current_range_meters":13600,"station_id":"ce4bha92rcd13ifvqeg0","pricing_plan_id":"cebpf4jnsgd1na2vs0mg"},{"bike_id":"ce3b9738-597e-4fbc-aa38-4008ce3f0432","system_id":"levelo_inurba_marseille","lat":43.25112,"lon":5.40319,"is_reserved":false,"is_disabled":false,"rental_uris":{"android":"levelo://app?vid=ce3b9738-597e-4fbc-aa38-4008ce3f0432","ios":"levelo://app?vid=ce3b9738-597e-4fbc-aa38-4008ce3f0432"},"vehicle_type_id":"4","last_reported":1737536996,"current_range_meters":19600,"station_id":"ce4bhlh2rcd13ifvqgig","pricing_plan_id":"cebpf4jnsgd1na2vs0mg"},{"bike_id":"b7fe99b3-2520-409c-820c-45dc30488ce6","system_id":"levelo_inurba_marseille","lat":43.30457,"lon":5.37904,"is_reserved":false,"is_disabled":false,"rental_uris":{"android":"levelo://app?vid=b7fe99b3-2520-409c-820c-45dc30488ce6","ios":"levelo://app?vid=b7fe99b3-2520-409c-820c-45dc30488ce6"},"vehicle_type_id":"4","last_reported":1737536996,"current_range_meters":19200,"station_id":"ce4bgup2rcd13ifvqcn0","pricing_plan_id":"cebpf4jnsgd1na2vs0mg"},{"bike_id":"cf6cc3c3-ec68-4af1-9f0b-e76bd62acc1d","system_id":"levelo_inurba_marseille","lat":43.25921,"lon":5.40921,"is_reserved":false,"is_disabled":false,"rental_uris":{"android":"levelo://app?vid=cf6cc3c3-ec68-4af1-9f0b-e76bd62acc1d","ios":"levelo://app?vid=cf6cc3c3-ec68-4af1-9f0b-e76bd62acc1d"},"vehicle_type_id":"4","last_reported":1737536996,"current_range_meters":28400,"station_id":"ce4bhm92rcd13ifvqglg","pricing_plan_id":"cebpf4jnsgd1na2vs0mg"},{"bike_id":"6b4c0df2-1b79-4f2d-88f2-cdef4904ca8e","system_id":"levelo_inurba_marseille","lat":43.27614,"lon":5.36101,"is_reserved":false,"is_disabled":false,"rental_uris":{"android":"levelo://app?vid=6b4c0df2-1b79-4f2d-88f2-cdef4904ca8e","ios":"levelo://app?vid=6b4c0df2-1b79-4f2d-88f2-cdef4904ca8e"},"vehicle_type_id":"4","last_reported":1737536996,"current_range_meters":30400,"station_id":"ce4bgj92rcd13ifvqbe0","pricing_plan_id":"cebpf4jnsgd1na2vs0mg"},{"bike_id":"46819045-a76c-4f28-b0a2-c29d305da33c","system_id":"levelo_inurba_marseille","lat":43.30463,"lon":5.37905,"is_reserved":false,"is_disabled":false,"rental_uris":{"android":"levelo://app?vid=46819045-a76c-4f28-b0a2-c29d305da33c","ios":"levelo://app?vid=46819045-a76c-4f28-b0a2-c29d305da33c"},"vehicle_type_id":"4","last_reported":1737536996,"current_range_meters":28400,"station_id":"ce4bgup2rcd13ifvqcn0","pricing_plan_id":"cebpf4jnsgd1na2vs0mg"},{"bike_id":"6a243d90-aa22-417f-ad42-e4d8ab85b602","system_id":"levelo_inurba_marseille","lat":43.30559,"lon":5.36745,"is_reserved":false,"is_disabled":false,"rental_uris":{"android":"levelo://app?vid=6a243d90-aa22-417f-ad42-e4d8ab85b602","ios":"levelo://app?vid=6a243d90-aa22-417f-ad42-e4d8ab85b602"},"vehicle_type_id":"4","last_reported":1737536996,"current_range_meters":39200,"station_id":"ce4bgrp2rcd13ifvqc9g","pricing_plan_id":"cebpf4jnsgd1na2vs0mg"},{"bike_id":"d6e7e882-1ba0-452e-bda2-861fb950b72a","system_id":"levelo_inurba_marseille","lat":43.31352,"lon":5.36725,"is_reserved":false,"is_disabled":false,"rental_uris":{"android":"levelo://app?vid=d6e7e882-1ba0-452e-bda2-861fb950b72a","ios":"levelo://app?vid=d6e7e882-1ba0-452e-bda2-861fb950b72a"},"vehicle_type_id":"4","last_reported":1737536996,"current_range_meters":27600,"station_id":"ce4bgr92rcd13ifvqc6g","pricing_plan_id":"cebpf4jnsgd1na2vs0mg"},{"bike_id":"229dd1d5-aa46-48d3-b747-f187a4236bff","system_id":"levelo_inurba_marseille","lat":43.3235,"lon":5.38886,"is_reserved":false,"is_disabled":false,"rental_uris":{"android":"levelo://app?vid=229dd1d5-aa46-48d3-b747-f187a4236bff","ios":"levelo://app?vid=229dd1d5-aa46-48d3-b747-f187a4236bff"},"vehicle_type_id":"4","last_reported":1737536996,"current_range_meters":24400,"station_id":"ce4bhqp2rcd13ifvqhog","pricing_plan_id":"cebpf4jnsgd1na2vs0mg"},{"bike_id":"92074eeb-7c24-47b3-a1d7-6aecb177d103","system_id":"levelo_inurba_marseille","lat":43.33583,"lon":5.41045,"is_reserved":false,"is_disabled":false,"rental_uris":{"android":"levelo://app?vid=92074eeb-7c24-47b3-a1d7-6aecb177d103","ios":"levelo://app?vid=92074eeb-7c24-47b3-a1d7-6aecb177d103"},"vehicle_type_id":"4","last_reported":1737536996,"current_range_meters":36400,"station_id":"ce4bhqh2rcd13ifvqhmg","pricing_plan_id":"cebpf4jnsgd1na2vs0mg"},{"bike_id":"388bf2cf-af51-463d-a5ac-6234f3f91974","system_id":"levelo_inurba_marseille","lat":43.30484,"lon":5.37915,"is_reserved":false,"is_disabled":true,"rental_uris":{"android":"levelo://app?vid=388bf2cf-af51-463d-a5ac-6234f3f91974","ios":"levelo://app?vid=388bf2cf-af51-463d-a5ac-6234f3f91974"},"vehicle_type_id":"4","last_reported":1737536996,"current_range_meters":38800,"station_id":"ce4bgup2rcd13ifvqcn0","pricing_plan_id":"cebpf4jnsgd1na2vs0mg"},{"bike_id":"a8d1e8a2-7f0c-48b3-8ec6-103bd14c2b76","system_id":"levelo_inurba_marseille","lat":43.32473,"lon":5.3659,"is_reserved":false,"is_disabled":false,"rental_uris":{"android":"levelo://app?vid=a8d1e8a2-7f0c-48b3-8ec6-103bd14c2b76","ios":"levelo://app?vid=a8d1e8a2-7f0c-48b3-8ec6-103bd14c2b76"},"vehicle_type_id":"4","last_reported":1737536996,"current_range_meters":24400,"station_id":"","pricing_plan_id":"cebpf4jnsgd1na2vs0mg"},{"bike_id":"2b9b2bd3-d403-463f-bab7-3e9bdaa7f40f","system_id":"levelo_inurba_marseille","lat":43.25924,"lon":5.40893,"is_reserved":false,"is_disabled":false,"rental_uris":{"android":"levelo://app?vid=2b9b2bd3-d403-463f-bab7-3e9bdaa7f40f","ios":"levelo://app?vid=2b9b2bd3-d403-463f-bab7-3e9bdaa7f40f"},"vehicle_type_id":"4","last_reported":1737536996,"current_range_meters":38800,"station_id":"ce4bhm92rcd13ifvqglg","pricing_plan_id":"cebpf4jnsgd1na2vs0mg"},{"bike_id":"dc7762c6-d7a7-4c25-9f15-433649cad754","system_id":"levelo_inurba_marseille","lat":43.2705,"lon":5.40261,"is_reserved":false,"is_disabled":false,"rental_uris":{"android":"levelo://app?vid=dc7762c6-d7a7-4c25-9f15-433649cad754","ios":"levelo://app?vid=dc7762c6-d7a7-4c25-9f15-433649cad754"},"vehicle_type_id":"4","last_reported":1737536996,"current_range_meters":22000,"station_id":"ce4bhk92rcd13ifvqgc0","pricing_plan_id":"cebpf4jnsgd1na2vs0mg"},{"bike_id":"33b8b2cb-5642-4f02-b5ac-2d1dbeb1b8ac","system_id":"levelo_inurba_marseille","lat":43.31979,"lon":5.38138,"is_reserved":false,"is_disabled":false,"rental_uris":{"android":"levelo://app?vid=33b8b2cb-5642-4f02-b5ac-2d1dbeb1b8ac","ios":"levelo://app?vid=33b8b2cb-5642-4f02-b5ac-2d1dbeb1b8ac"},"vehicle_type_id":"4","last_reported":1737536996,"current_range_meters":38800,"station_id":"ce4bhr12rcd13ifvqhpg","pricing_plan_id":"cebpf4jnsgd1na2vs0mg"},{"bike_id":"64e8ea9d-1612-4bfd-ad0a-c1850329249f","system_id":"levelo_inurba_marseille","lat":43.30545,"lon":5.3843,"is_reserved":false,"is_disabled":false,"rental_uris":{"android":"levelo://app?vid=64e8ea9d-1612-4bfd-ad0a-c1850329249f","ios":"levelo://app?vid=64e8ea9d-1612-4bfd-ad0a-c1850329249f"},"vehicle_type_id":"4","last_reported":1737536996,"current_range_meters":36000,"station_id":"ce4bgg92rcd13ifvqb30","pricing_plan_id":"cebpf4jnsgd1na2vs0mg"},{"bike_id":"bef6c1af-f80b-4a93-9039-cf48e3f45fa6","system_id":"levelo_inurba_marseille","lat":43.23964,"lon":5.36649,"is_reserved":false,"is_disabled":false,"rental_uris":{"android":"levelo://app?vid=bef6c1af-f80b-4a93-9039-cf48e3f45fa6","ios":"levelo://app?vid=bef6c1af-f80b-4a93-9039-cf48e3f45fa6"},"vehicle_type_id":"4","last_reported":1737536996,"current_range_meters":27600,"station_id":"ce4bhi12rcd13ifvqfp0","pricing_plan_id":"cebpf4jnsgd1na2vs0mg"},{"bike_id":"80efdbfa-1f2e-43a7-af57-c4f0efb138f8","system_id":"levelo_inurba_marseille","lat":43.29566,"lon":5.37519,"is_reserved":false,"is_disabled":false,"rental_uris":{"android":"levelo://app?vid=80efdbfa-1f2e-43a7-af57-c4f0efb138f8","ios":"levelo://app?vid=80efdbfa-1f2e-43a7-af57-c4f0efb138f8"},"vehicle_type_id":"4","last_reported":1737536996,"current_range_meters":20800,"station_id":"ce4bgh92rcd13ifvqb50","pricing_plan_id":"cebpf4jnsgd1na2vs0mg"},{"bike_id":"7913d9ce-121f-49fa-9a7c-09d5d8f80136","system_id":"levelo_inurba_marseille","lat":43.27901,"lon":5.38037,"is_reserved":false,"is_disabled":false,"rental_uris":{"android":"levelo://app?vid=7913d9ce-121f-49fa-9a7c-09d5d8f80136","ios":"levelo://app?vid=7913d9ce-121f-49fa-9a7c-09d5d8f80136"},"vehicle_type_id":"4","last_reported":1737536996,"current_range_meters":38800,"station_id":"ce4bhf92rcd13ifvqf50","pricing_plan_id":"cebpf4jnsgd1na2vs0mg"},{"bike_id":"fe71ffd1-57ef-45b1-8082-78407a87e5dd","system_id":"levelo_inurba_marseille","lat":43.32457,"lon":5.36545,"is_reserved":false,"is_disabled":false,"rental_uris":{"android":"levelo://app?vid=fe71ffd1-57ef-45b1-8082-78407a87e5dd","ios":"levelo://app?vid=fe71ffd1-57ef-45b1-8082-78407a87e5dd"},"vehicle_type_id":"4","last_reported":1737536996,"current_range_meters":26000,"station_id":"ce4bhs12rcd13ifvqhvg","pricing_plan_id":"cebpf4jnsgd1na2vs0mg"},{"bike_id":"67be59f1-7d33-4864-b74d-4497534abf2e","system_id":"levelo_inurba_marseille","lat":43.25831,"lon":5.39429,"is_reserved":false,"is_disabled":false,"rental_uris":{"android":"levelo://app?vid=67be59f1-7d33-4864-b74d-4497534abf2e","ios":"levelo://app?vid=67be59f1-7d33-4864-b74d-4497534abf2e"},"vehicle_type_id":"4","last_reported":1737536996,"current_range_meters":36800,"station_id":"ce4bhip2rcd13ifvqft0","pricing_plan_id":"cebpf4jnsgd1na2vs0mg"},{"bike_id":"aac71eed-fec9-4f89-95a8-f2df692ed8b3","system_id":"levelo_inurba_marseille","lat":43.309307,"lon":5.401507,"is_reserved":false,"is_disabled":false,"rental_uris":{"android":"levelo://app?vid=aac71eed-fec9-4f89-95a8-f2df692ed8b3","ios":"levelo://app?vid=aac71eed-fec9-4f89-95a8-f2df692ed8b3"},"vehicle_type_id":"4","last_reported":1737536996,"current_range_meters":38800,"station_id":"ce4bgvp2rcd13ifvqct0","pricing_plan_id":"cebpf4jnsgd1na2vs0mg"},{"bike_id":"5b0c2773-d5b2-4dbe-bd78-1515ffe55928","system_id":"levelo_inurba_marseille","lat":43.25914,"lon":5.40882,"is_reserved":false,"is_disabled":false,"rental_uris":{"android":"levelo://app?vid=5b0c2773-d5b2-4dbe-bd78-1515ffe55928","ios":"levelo://app?vid=5b0c2773-d5b2-4dbe-bd78-1515ffe55928"},"vehicle_type_id":"4","last_reported":1737536996,"current_range_meters":24400,"station_id":"ce4bhm92rcd13ifvqglg","pricing_plan_id":"cebpf4jnsgd1na2vs0mg"},{"bike_id":"37296be2-71c5-4057-9ec0-05b66a98ee16","system_id":"levelo_inurba_marseille","lat":43.29182,"lon":5.37171,"is_reserved":false,"is_disabled":false,"rental_uris":{"android":"levelo://app?vid=37296be2-71c5-4057-9ec0-05b66a98ee16","ios":"levelo://app?vid=37296be2-71c5-4057-9ec0-05b66a98ee16"},"vehicle_type_id":"4","last_reported":1737536996,"current_range_meters":38800,"station_id":"ce4bha92rcd13ifvqeh0","pricing_plan_id":"cebpf4jnsgd1na2vs0mg"},{"bike_id":"2512448d-137b-4c58-a2dc-a8485ce50ee5","system_id":"levelo_inurba_marseille","lat":43.27807,"lon":5.40718,"is_reserved":false,"is_disabled":false,"rental_uris":{"android":"levelo://app?vid=2512448d-137b-4c58-a2dc-a8485ce50ee5","ios":"levelo://app?vid=2512448d-137b-4c58-a2dc-a8485ce50ee5"},"vehicle_type_id":"4","last_reported":1737536996,"current_range_meters":38800,"station_id":"ce4bhnh2rcd13ifvqgtg","pricing_plan_id":"cebpf4jnsgd1na2vs0mg"},{"bike_id":"e6b4a07a-7142-4c60-ad42-8a9947eb9acf","system_id":"levelo_inurba_marseille","lat":43.31674,"lon":5.40512,"is_reserved":false,"is_disabled":false,"rental_uris":{"android":"levelo://app?vid=e6b4a07a-7142-4c60-ad42-8a9947eb9acf","ios":"levelo://app?vid=e6b4a07a-7142-4c60-ad42-8a9947eb9acf"},"vehicle_type_id":"4","last_reported":1737536996,"current_range_meters":32400,"station_id":"ce4bh012rcd13ifvqd00","pricing_plan_id":"cebpf4jnsgd1na2vs0mg"},{"bike_id":"96e2fa78-a9ec-4b79-b618-7a6b5e10da55","system_id":"levelo_inurba_marseille","lat":43.28346,"lon":5.3811,"is_reserved":false,"is_disabled":true,"rental_uris":{"android":"levelo://app?vid=96e2fa78-a9ec-4b79-b618-7a6b5e10da55","ios":"levelo://app?vid=96e2fa78-a9ec-4b79-b618-7a6b5e10da55"},"vehicle_type_id":"4","last_reported":1737536996,"current_range_meters":32400,"station_id":"ce4bh412rcd13ifvqdr0","pricing_plan_id":"cebpf4jnsgd1na2vs0mg"},{"bike_id":"65af0458-5b43-4e16-8bf6-cc36bd0a7ddf","system_id":"levelo_inurba_marseille","lat":43.30461,"lon":5.37885,"is_reserved":false,"is_disabled":false,"rental_uris":{"android":"levelo://app?vid=65af0458-5b43-4e16-8bf6-cc36bd0a7ddf","ios":"levelo://app?vid=65af0458-5b43-4e16-8bf6-cc36bd0a7ddf"},"vehicle_type_id":"4","last_reported":1737536996,"current_range_meters":32400,"station_id":"ce4bgup2rcd13ifvqcn0","pricing_plan_id":"cebpf4jnsgd1na2vs0mg"},{"bike_id":"3ab3e001-4f5e-4747-b5ef-9f0283fb336c","system_id":"levelo_inurba_marseille","lat":43.2891,"lon":5.36374,"is_reserved":false,"is_disabled":false,"rental_uris":{"android":"levelo://app?vid=3ab3e001-4f5e-4747-b5ef-9f0283fb336c","ios":"levelo://app?vid=3ab3e001-4f5e-4747-b5ef-9f0283fb336c"},"vehicle_type_id":"4","last_reported":1737536996,"current_range_meters":31200,"station_id":"ce4bhc92rcd13ifvqetg","pricing_plan_id":"cebpf4jnsgd1na2vs0mg"},{"bike_id":"1f5cb474-798b-4357-9d76-fbb42e648fb5","system_id":"levelo_inurba_marseille","lat":43.28615,"lon":5.35127,"is_reserved":false,"is_disabled":false,"rental_uris":{"android":"levelo://app?vid=1f5cb474-798b-4357-9d76-fbb42e648fb5","ios":"levelo://app?vid=1f5cb474-798b-4357-9d76-fbb42e648fb5"},"vehicle_type_id":"4","last_reported":1737536996,"current_range_meters":10000,"station_id":"ce4bhch2rcd13ifvqeug","pricing_plan_id":"cebpf4jnsgd1na2vs0mg"},{"bike_id":"7602ec5e-b6be-4286-8ae1-0dcc95a85012","system_id":"levelo_inurba_marseille","lat":43.27365,"lon":5.36252,"is_reserved":false,"is_disabled":false,"rental_uris":{"android":"levelo://app?vid=7602ec5e-b6be-4286-8ae1-0dcc95a85012","ios":"levelo://app?vid=7602ec5e-b6be-4286-8ae1-0dcc95a85012"},"vehicle_type_id":"4","last_reported":1737536996,"current_range_meters":26800,"station_id":"ce4bhbh2rcd13ifvqeo0","pricing_plan_id":"cebpf4jnsgd1na2vs0mg"},{"bike_id":"0097aaa5-ea1c-4726-a554-1ef9b35f0ea2","system_id":"levelo_inurba_marseille","lat":43.30475,"lon":5.37905,"is_reserved":false,"is_disabled":false,"rental_uris":{"android":"levelo://app?vid=0097aaa5-ea1c-4726-a554-1ef9b35f0ea2","ios":"levelo://app?vid=0097aaa5-ea1c-4726-a554-1ef9b35f0ea2"},"vehicle_type_id":"4","last_reported":1737536996,"current_range_meters":38800,"station_id":"ce4bgup2rcd13ifvqcn0","pricing_plan_id":"cebpf4jnsgd1na2vs0mg"},{"bike_id":"219fa9f3-6867-4e38-827d-5c2299c3f70d","system_id":"levelo_inurba_marseille","lat":43.33744,"lon":5.3747,"is_reserved":false,"is_disabled":false,"rental_uris":{"android":"levelo://app?vid=219fa9f3-6867-4e38-827d-5c2299c3f70d","ios":"levelo://app?vid=219fa9f3-6867-4e38-827d-5c2299c3f70d"},"vehicle_type_id":"4","last_reported":1737536996,"current_range_meters":38400,"station_id":"","pricing_plan_id":"cebpf4jnsgd1na2vs0mg"},{"bike_id":"e00a39e4-e2dd-4371-87c4-864b38488b82","system_id":"levelo_inurba_marseille","lat":43.3095,"lon":5.39038,"is_reserved":false,"is_disabled":true,"rental_uris":{"android":"levelo://app?vid=e00a39e4-e2dd-4371-87c4-864b38488b82","ios":"levelo://app?vid=e00a39e4-e2dd-4371-87c4-864b38488b82"},"vehicle_type_id":"4","last_reported":1737536996,"current_range_meters":28000,"station_id":"ce4bgup2rcd13ifvqco0","pricing_plan_id":"cebpf4jnsgd1na2vs0mg"},{"bike_id":"ed11be0d-e3ee-457b-8522-1b8beb42e90f","system_id":"levelo_inurba_marseille","lat":43.27893,"lon":5.37997,"is_reserved":false,"is_disabled":true,"rental_uris":{"android":"levelo://app?vid=ed11be0d-e3ee-457b-8522-1b8beb42e90f","ios":"levelo://app?vid=ed11be0d-e3ee-457b-8522-1b8beb42e90f"},"vehicle_type_id":"4","last_reported":1737536996,"current_range_meters":38800,"station_id":"ce4bhf92rcd13ifvqf50","pricing_plan_id":"cebpf4jnsgd1na2vs0mg"},{"bike_id":"a5fb094f-c563-46a7-8a76-54204734f670","system_id":"levelo_inurba_marseille","lat":43.30583,"lon":5.39356,"is_reserved":false,"is_disabled":false,"rental_uris":{"android":"levelo://app?vid=a5fb094f-c563-46a7-8a76-54204734f670","ios":"levelo://app?vid=a5fb094f-c563-46a7-8a76-54204734f670"},"vehicle_type_id":"4","last_reported":1737536996,"current_range_meters":18800,"station_id":"ce4bh0p2rcd13ifvqd80","pricing_plan_id":"cebpf4jnsgd1na2vs0mg"},{"bike_id":"9b3165e9-8183-4de4-ab21-7b1a21a4e2a1","system_id":"levelo_inurba_marseille","lat":43.30546,"lon":5.3843,"is_reserved":false,"is_disabled":false,"rental_uris":{"android":"levelo://app?vid=9b3165e9-8183-4de4-ab21-7b1a21a4e2a1","ios":"levelo://app?vid=9b3165e9-8183-4de4-ab21-7b1a21a4e2a1"},"vehicle_type_id":"4","last_reported":1737536996,"current_range_meters":38800,"station_id":"ce4bgg92rcd13ifvqb30","pricing_plan_id":"cebpf4jnsgd1na2vs0mg"},{"bike_id":"cb81130e-1c32-4378-a0eb-627350e954d9","system_id":"levelo_inurba_marseille","lat":43.24071,"lon":5.3775,"is_reserved":false,"is_disabled":false,"rental_uris":{"android":"levelo://app?vid=cb81130e-1c32-4378-a0eb-627350e954d9","ios":"levelo://app?vid=cb81130e-1c32-4378-a0eb-627350e954d9"},"vehicle_type_id":"4","last_reported":1737536996,"current_range_meters":38400,"station_id":"ce4bhnp2rcd13ifvqgvg","pricing_plan_id":"cebpf4jnsgd1na2vs0mg"},{"bike_id":"095380b9-38d4-4372-8c90-6fc3dcb7c710","system_id":"levelo_inurba_marseille","lat":43.28857,"lon":5.35856,"is_reserved":false,"is_disabled":false,"rental_uris":{"android":"levelo://app?vid=095380b9-38d4-4372-8c90-6fc3dcb7c710","ios":"levelo://app?vid=095380b9-38d4-4372-8c90-6fc3dcb7c710"},"vehicle_type_id":"4","last_reported":1737536996,"current_range_meters":20000,"station_id":"ce4bhb12rcd13ifvqem0","pricing_plan_id":"cebpf4jnsgd1na2vs0mg"},{"bike_id":"2cf918f6-2152-49aa-b918-01ff8a1d8cb0","system_id":"levelo_inurba_marseille","lat":43.30132,"lon":5.37425,"is_reserved":false,"is_disabled":false,"rental_uris":{"android":"levelo://app?vid=2cf918f6-2152-49aa-b918-01ff8a1d8cb0","ios":"levelo://app?vid=2cf918f6-2152-49aa-b918-01ff8a1d8cb0"},"vehicle_type_id":"4","last_reported":1737536996,"current_range_meters":39200,"station_id":"ce4bgs92rcd13ifvqcc0","pricing_plan_id":"cebpf4jnsgd1na2vs0mg"},{"bike_id":"7db55a91-b073-4c5e-bbde-3eaf0a58e70a","system_id":"levelo_inurba_marseille","lat":43.26681,"lon":5.38267,"is_reserved":false,"is_disabled":false,"rental_uris":{"android":"levelo://app?vid=7db55a91-b073-4c5e-bbde-3eaf0a58e70a","ios":"levelo://app?vid=7db55a91-b073-4c5e-bbde-3eaf0a58e70a"},"vehicle_type_id":"4","last_reported":1737536996,"current_range_meters":30800,"station_id":"ce4bhg92rcd13ifvqf90","pricing_plan_id":"cebpf4jnsgd1na2vs0mg"},{"bike_id":"8be60f39-a086-4763-94b5-18b873ffb015","system_id":"levelo_inurba_marseille","lat":43.30905,"lon":5.36855,"is_reserved":false,"is_disabled":false,"rental_uris":{"android":"levelo://app?vid=8be60f39-a086-4763-94b5-18b873ffb015","ios":"levelo://app?vid=8be60f39-a086-4763-94b5-18b873ffb015"},"vehicle_type_id":"4","last_reported":1737536996,"current_range_meters":32400,"station_id":"ce4bgn92rcd13ifvqbvg","pricing_plan_id":"cebpf4jnsgd1na2vs0mg"},{"bike_id":"dfae3e73-0188-4683-9589-24d6f6a1d5af","system_id":"levelo_inurba_marseille","lat":43.24982,"lon":5.38931,"is_reserved":false,"is_disabled":false,"rental_uris":{"android":"levelo://app?vid=dfae3e73-0188-4683-9589-24d6f6a1d5af","ios":"levelo://app?vid=dfae3e73-0188-4683-9589-24d6f6a1d5af"},"vehicle_type_id":"4","last_reported":1737536996,"current_range_meters":22800,"station_id":"ce4bhgp2rcd13ifvqfd0","pricing_plan_id":"cebpf4jnsgd1na2vs0mg"},{"bike_id":"6b30d96f-f237-432c-a2c8-c1523d3df7c1","system_id":"levelo_inurba_marseille","lat":43.29527,"lon":5.38563,"is_reserved":false,"is_disabled":true,"rental_uris":{"android":"levelo://app?vid=6b30d96f-f237-432c-a2c8-c1523d3df7c1","ios":"levelo://app?vid=6b30d96f-f237-432c-a2c8-c1523d3df7c1"},"vehicle_type_id":"4","last_reported":1737536996,"current_range_meters":0,"station_id":"ce4bgih2rcd13ifvqba0","pricing_plan_id":"cebpf4jnsgd1na2vs0mg"},{"bike_id":"f5643cb3-d244-4763-ada9-ff8324d131b4","system_id":"levelo_inurba_marseille","lat":43.31371,"lon":5.367,"is_reserved":false,"is_disabled":false,"rental_uris":{"android":"levelo://app?vid=f5643cb3-d244-4763-ada9-ff8324d131b4","ios":"levelo://app?vid=f5643cb3-d244-4763-ada9-ff8324d131b4"},"vehicle_type_id":"4","last_reported":1737536996,"current_range_meters":38800,"station_id":"ce4bgr92rcd13ifvqc6g","pricing_plan_id":"cebpf4jnsgd1na2vs0mg"},{"bike_id":"966632b3-ddbb-42a2-879d-3bf9ebee52b0","system_id":"levelo_inurba_marseille","lat":43.30595,"lon":5.39353,"is_reserved":false,"is_disabled":false,"rental_uris":{"android":"levelo://app?vid=966632b3-ddbb-42a2-879d-3bf9ebee52b0","ios":"levelo://app?vid=966632b3-ddbb-42a2-879d-3bf9ebee52b0"},"vehicle_type_id":"4","last_reported":1737536996,"current_range_meters":24800,"station_id":"ce4bh0p2rcd13ifvqd80","pricing_plan_id":"cebpf4jnsgd1na2vs0mg"},{"bike_id":"48178648-a5cc-49a7-a582-fb3aa5589302","system_id":"levelo_inurba_marseille","lat":43.25081,"lon":5.39483,"is_reserved":false,"is_disabled":true,"rental_uris":{"android":"levelo://app?vid=48178648-a5cc-49a7-a582-fb3aa5589302","ios":"levelo://app?vid=48178648-a5cc-49a7-a582-fb3aa5589302"},"vehicle_type_id":"4","last_reported":1737536996,"current_range_meters":0,"station_id":"ce4bhm12rcd13ifvqgkg","pricing_plan_id":"cebpf4jnsgd1na2vs0mg"},{"bike_id":"c4a63f1f-ad05-4fdb-b9b6-22e660bf137e","system_id":"levelo_inurba_marseille","lat":43.29975,"lon":5.38485,"is_reserved":false,"is_disabled":false,"rental_uris":{"android":"levelo://app?vid=c4a63f1f-ad05-4fdb-b9b6-22e660bf137e","ios":"levelo://app?vid=c4a63f1f-ad05-4fdb-b9b6-22e660bf137e"},"vehicle_type_id":"4","last_reported":1737536996,"current_range_meters":36800,"station_id":"ce4bgj92rcd13ifvqbd0","pricing_plan_id":"cebpf4jnsgd1na2vs0mg"},{"bike_id":"2501ae24-5703-45d3-ac01-dec581041e28","system_id":"levelo_inurba_marseille","lat":43.28669,"lon":5.36361,"is_reserved":false,"is_disabled":true,"rental_uris":{"android":"levelo://app?vid=2501ae24-5703-45d3-ac01-dec581041e28","ios":"levelo://app?vid=2501ae24-5703-45d3-ac01-dec581041e28"},"vehicle_type_id":"4","last_reported":1737536996,"current_range_meters":8400,"station_id":"ce4bhah2rcd13ifvqej0","pricing_plan_id":"cebpf4jnsgd1na2vs0mg"},{"bike_id":"741aa226-41f7-40d7-9698-9eb35a5fef23","system_id":"levelo_inurba_marseille","lat":43.25064,"lon":5.40317,"is_reserved":false,"is_disabled":false,"rental_uris":{"android":"levelo://app?vid=741aa226-41f7-40d7-9698-9eb35a5fef23","ios":"levelo://app?vid=741aa226-41f7-40d7-9698-9eb35a5fef23"},"vehicle_type_id":"4","last_reported":1737536996,"current_range_meters":22000,"station_id":"ce4bhlh2rcd13ifvqgig","pricing_plan_id":"cebpf4jnsgd1na2vs0mg"},{"bike_id":"5e463859-53ec-41e1-b22b-0a27a559dba6","system_id":"levelo_inurba_marseille","lat":43.23162,"lon":5.437,"is_reserved":false,"is_disabled":true,"rental_uris":{"android":"levelo://app?vid=5e463859-53ec-41e1-b22b-0a27a559dba6","ios":"levelo://app?vid=5e463859-53ec-41e1-b22b-0a27a559dba6"},"vehicle_type_id":"4","last_reported":1737536996,"current_range_meters":24800,"station_id":"ce4bhmp2rcd13ifvqgog","pricing_plan_id":"cebpf4jnsgd1na2vs0mg"},{"bike_id":"e4d0e43a-623c-43c6-9138-f6bcd7e407ba","system_id":"levelo_inurba_marseille","lat":43.30438,"lon":5.39758,"is_reserved":false,"is_disabled":false,"rental_uris":{"android":"levelo://app?vid=e4d0e43a-623c-43c6-9138-f6bcd7e407ba","ios":"levelo://app?vid=e4d0e43a-623c-43c6-9138-f6bcd7e407ba"},"vehicle_type_id":"4","last_reported":1737536996,"current_range_meters":37600,"station_id":"ce4bh092rcd13ifvqd20","pricing_plan_id":"cebpf4jnsgd1na2vs0mg"},{"bike_id":"128e62b3-b4dd-4f12-b01c-22bb2793790f","system_id":"levelo_inurba_marseille","lat":43.23964,"lon":5.36631,"is_reserved":false,"is_disabled":false,"rental_uris":{"android":"levelo://app?vid=128e62b3-b4dd-4f12-b01c-22bb2793790f","ios":"levelo://app?vid=128e62b3-b4dd-4f12-b01c-22bb2793790f"},"vehicle_type_id":"4","last_reported":1737536996,"current_range_meters":8000,"station_id":"ce4bhi12rcd13ifvqfp0","pricing_plan_id":"cebpf4jnsgd1na2vs0mg"},{"bike_id":"24afdfab-37c4-4735-92c6-d449a19a0169","system_id":"levelo_inurba_marseille","lat":43.28157,"lon":5.42659,"is_reserved":false,"is_disabled":false,"rental_uris":{"android":"levelo://app?vid=24afdfab-37c4-4735-92c6-d449a19a0169","ios":"levelo://app?vid=24afdfab-37c4-4735-92c6-d449a19a0169"},"vehicle_type_id":"4","last_reported":1737536996,"current_range_meters":36800,"station_id":"ce4bhnh2rcd13ifvqgug","pricing_plan_id":"cebpf4jnsgd1na2vs0mg"},{"bike_id":"3e2413f1-be2a-4539-9db1-7ce3307c11de","system_id":"levelo_inurba_marseille","lat":43.30652,"lon":5.401,"is_reserved":false,"is_disabled":false,"rental_uris":{"android":"levelo://app?vid=3e2413f1-be2a-4539-9db1-7ce3307c11de","ios":"levelo://app?vid=3e2413f1-be2a-4539-9db1-7ce3307c11de"},"vehicle_type_id":"4","last_reported":1737536996,"current_range_meters":33600,"station_id":"ce4bh112rcd13ifvqda0","pricing_plan_id":"cebpf4jnsgd1na2vs0mg"},{"bike_id":"57187212-c5d1-4371-a8d8-60b7f99af388","system_id":"levelo_inurba_marseille","lat":43.30384,"lon":5.41915,"is_reserved":false,"is_disabled":false,"rental_uris":{"android":"levelo://app?vid=57187212-c5d1-4371-a8d8-60b7f99af388","ios":"levelo://app?vid=57187212-c5d1-4371-a8d8-60b7f99af388"},"vehicle_type_id":"4","last_reported":1737536996,"current_range_meters":38400,"station_id":"ce4bhop2rcd13ifvqh7g","pricing_plan_id":"cebpf4jnsgd1na2vs0mg"},{"bike_id":"41db3dd6-8867-4dd9-8a4d-d33e2316bd9b","system_id":"levelo_inurba_marseille","lat":43.32482,"lon":5.366,"is_reserved":false,"is_disabled":false,"rental_uris":{"android":"levelo://app?vid=41db3dd6-8867-4dd9-8a4d-d33e2316bd9b","ios":"levelo://app?vid=41db3dd6-8867-4dd9-8a4d-d33e2316bd9b"},"vehicle_type_id":"4","last_reported":1737536996,"current_range_meters":18800,"station_id":"ce4bhs12rcd13ifvqhvg","pricing_plan_id":"cebpf4jnsgd1na2vs0mg"},{"bike_id":"69da86ec-9be5-4ff5-883c-da38a45c654a","system_id":"levelo_inurba_marseille","lat":43.31704,"lon":5.37751,"is_reserved":false,"is_disabled":false,"rental_uris":{"android":"levelo://app?vid=69da86ec-9be5-4ff5-883c-da38a45c654a","ios":"levelo://app?vid=69da86ec-9be5-4ff5-883c-da38a45c654a"},"vehicle_type_id":"4","last_reported":1737536996,"current_range_meters":17600,"station_id":"ce4bgth2rcd13ifvqch0","pricing_plan_id":"cebpf4jnsgd1na2vs0mg"},{"bike_id":"acca4c6d-813c-4738-8ed5-128138a4a2c2","system_id":"levelo_inurba_marseille","lat":43.28714,"lon":5.37941,"is_reserved":false,"is_disabled":false,"rental_uris":{"android":"levelo://app?vid=acca4c6d-813c-4738-8ed5-128138a4a2c2","ios":"levelo://app?vid=acca4c6d-813c-4738-8ed5-128138a4a2c2"},"vehicle_type_id":"4","last_reported":1737536996,"current_range_meters":20800,"station_id":"ce4bh9p2rcd13ifvqec0","pricing_plan_id":"cebpf4jnsgd1na2vs0mg"},{"bike_id":"b75be948-5a35-4727-9a66-f965d347ca07","system_id":"levelo_inurba_marseille","lat":43.29064,"lon":5.37161,"is_reserved":false,"is_disabled":false,"rental_uris":{"android":"levelo://app?vid=b75be948-5a35-4727-9a66-f965d347ca07","ios":"levelo://app?vid=b75be948-5a35-4727-9a66-f965d347ca07"},"vehicle_type_id":"4","last_reported":1737536996,"current_range_meters":28000,"station_id":"ce4bh5p2rcd13ifvqe4g","pricing_plan_id":"cebpf4jnsgd1na2vs0mg"},{"bike_id":"5f8e19c0-9d34-400f-8357-29490985c9f2","system_id":"levelo_inurba_marseille","lat":43.273736,"lon":5.362525,"is_reserved":false,"is_disabled":false,"rental_uris":{"android":"levelo://app?vid=5f8e19c0-9d34-400f-8357-29490985c9f2","ios":"levelo://app?vid=5f8e19c0-9d34-400f-8357-29490985c9f2"},"vehicle_type_id":"4","last_reported":1737536996,"current_range_meters":38000,"station_id":"ce4bhbh2rcd13ifvqeo0","pricing_plan_id":"cebpf4jnsgd1na2vs0mg"},{"bike_id":"782a366d-5b51-4864-8e8d-a63bbed1e20d","system_id":"levelo_inurba_marseille","lat":43.25928,"lon":5.40908,"is_reserved":false,"is_disabled":false,"rental_uris":{"android":"levelo://app?vid=782a366d-5b51-4864-8e8d-a63bbed1e20d","ios":"levelo://app?vid=782a366d-5b51-4864-8e8d-a63bbed1e20d"},"vehicle_type_id":"4","last_reported":1737536996,"current_range_meters":38800,"station_id":"ce4bhm92rcd13ifvqglg","pricing_plan_id":"cebpf4jnsgd1na2vs0mg"},{"bike_id":"1fd36133-78d8-4b3f-bd1d-a89eb8693c06","system_id":"levelo_inurba_marseille","lat":43.33719,"lon":5.39172,"is_reserved":false,"is_disabled":false,"rental_uris":{"android":"levelo://app?vid=1fd36133-78d8-4b3f-bd1d-a89eb8693c06","ios":"levelo://app?vid=1fd36133-78d8-4b3f-bd1d-a89eb8693c06"},"vehicle_type_id":"4","last_reported":1737536996,"current_range_meters":19600,"station_id":"ce4bhr92rcd13ifvqhsg","pricing_plan_id":"cebpf4jnsgd1na2vs0mg"},{"bike_id":"847abf41-fb95-4772-afb9-a2d68d6ebb80","system_id":"levelo_inurba_marseille","lat":43.31337,"lon":5.36765,"is_reserved":false,"is_disabled":false,"rental_uris":{"android":"levelo://app?vid=847abf41-fb95-4772-afb9-a2d68d6ebb80","ios":"levelo://app?vid=847abf41-fb95-4772-afb9-a2d68d6ebb80"},"vehicle_type_id":"4","last_reported":1737536996,"current_range_meters":16400,"station_id":"ce4bgr92rcd13ifvqc6g","pricing_plan_id":"cebpf4jnsgd1na2vs0mg"},{"bike_id":"8e1d8b51-c006-49e9-90af-c6bd66e9af45","system_id":"levelo_inurba_marseille","lat":43.31705,"lon":5.40484,"is_reserved":false,"is_disabled":false,"rental_uris":{"android":"levelo://app?vid=8e1d8b51-c006-49e9-90af-c6bd66e9af45","ios":"levelo://app?vid=8e1d8b51-c006-49e9-90af-c6bd66e9af45"},"vehicle_type_id":"4","last_reported":1737536996,"current_range_meters":38400,"station_id":"ce4bh012rcd13ifvqd00","pricing_plan_id":"cebpf4jnsgd1na2vs0mg"},{"bike_id":"d9c40ab6-bac5-4917-9ef3-09d6eec588a5","system_id":"levelo_inurba_marseille","lat":43.30287,"lon":5.37697,"is_reserved":false,"is_disabled":false,"rental_uris":{"android":"levelo://app?vid=d9c40ab6-bac5-4917-9ef3-09d6eec588a5","ios":"levelo://app?vid=d9c40ab6-bac5-4917-9ef3-09d6eec588a5"},"vehicle_type_id":"4","last_reported":1737536996,"current_range_meters":38400,"station_id":"ce4bguh2rcd13ifvqcj0","pricing_plan_id":"cebpf4jnsgd1na2vs0mg"},{"bike_id":"d8295cf5-2073-4467-967e-5891f4e48e1e","system_id":"levelo_inurba_marseille","lat":43.33729,"lon":5.39188,"is_reserved":false,"is_disabled":false,"rental_uris":{"android":"levelo://app?vid=d8295cf5-2073-4467-967e-5891f4e48e1e","ios":"levelo://app?vid=d8295cf5-2073-4467-967e-5891f4e48e1e"},"vehicle_type_id":"4","last_reported":1737536996,"current_range_meters":37600,"station_id":"ce4bhr92rcd13ifvqhsg","pricing_plan_id":"cebpf4jnsgd1na2vs0mg"},{"bike_id":"11fa77bb-0c0a-442b-b723-8002972f3c48","system_id":"levelo_inurba_marseille","lat":43.32469,"lon":5.36564,"is_reserved":false,"is_disabled":true,"rental_uris":{"android":"levelo://app?vid=11fa77bb-0c0a-442b-b723-8002972f3c48","ios":"levelo://app?vid=11fa77bb-0c0a-442b-b723-8002972f3c48"},"vehicle_type_id":"4","last_reported":1737536996,"current_range_meters":30000,"station_id":"ce4bhs12rcd13ifvqhvg","pricing_plan_id":"cebpf4jnsgd1na2vs0mg"},{"bike_id":"dd7100dd-be0e-42a3-b01c-070bb9c830e8","system_id":"levelo_inurba_marseille","lat":43.24068,"lon":5.37761,"is_reserved":false,"is_disabled":false,"rental_uris":{"android":"levelo://app?vid=dd7100dd-be0e-42a3-b01c-070bb9c830e8","ios":"levelo://app?vid=dd7100dd-be0e-42a3-b01c-070bb9c830e8"},"vehicle_type_id":"4","last_reported":1737536996,"current_range_meters":30800,"station_id":"ce4bhnp2rcd13ifvqgvg","pricing_plan_id":"cebpf4jnsgd1na2vs0mg"},{"bike_id":"0b9b413f-7704-4860-841a-7f725dbde95d","system_id":"levelo_inurba_marseille","lat":43.25073,"lon":5.39517,"is_reserved":false,"is_disabled":false,"rental_uris":{"android":"levelo://app?vid=0b9b413f-7704-4860-841a-7f725dbde95d","ios":"levelo://app?vid=0b9b413f-7704-4860-841a-7f725dbde95d"},"vehicle_type_id":"4","last_reported":1737536996,"current_range_meters":18800,"station_id":"ce4bhm12rcd13ifvqgkg","pricing_plan_id":"cebpf4jnsgd1na2vs0mg"},{"bike_id":"618b0e68-1c2e-441c-9c46-00c4f7057a3b","system_id":"levelo_inurba_marseille","lat":43.30948,"lon":5.39054,"is_reserved":false,"is_disabled":false,"rental_uris":{"android":"levelo://app?vid=618b0e68-1c2e-441c-9c46-00c4f7057a3b","ios":"levelo://app?vid=618b0e68-1c2e-441c-9c46-00c4f7057a3b"},"vehicle_type_id":"4","last_reported":1737536996,"current_range_meters":10000,"station_id":"ce4bgup2rcd13ifvqco0","pricing_plan_id":"cebpf4jnsgd1na2vs0mg"},{"bike_id":"29e4913b-9c16-4a50-a874-dbc1ddb78ad9","system_id":"levelo_inurba_marseille","lat":43.32539,"lon":5.41455,"is_reserved":false,"is_disabled":false,"rental_uris":{"android":"levelo://app?vid=29e4913b-9c16-4a50-a874-dbc1ddb78ad9","ios":"levelo://app?vid=29e4913b-9c16-4a50-a874-dbc1ddb78ad9"},"vehicle_type_id":"4","last_reported":1737536996,"current_range_meters":39200,"station_id":"ce4bhq12rcd13ifvqhhg","pricing_plan_id":"cebpf4jnsgd1na2vs0mg"},{"bike_id":"f6d34ec5-9a82-496d-91e1-3e7f8d04fbfb","system_id":"levelo_inurba_marseille","lat":43.29768,"lon":5.37098,"is_reserved":false,"is_disabled":false,"rental_uris":{"android":"levelo://app?vid=f6d34ec5-9a82-496d-91e1-3e7f8d04fbfb","ios":"levelo://app?vid=f6d34ec5-9a82-496d-91e1-3e7f8d04fbfb"},"vehicle_type_id":"4","last_reported":1737536996,"current_range_meters":38800,"station_id":"ce4bgop2rcd13ifvqc1g","pricing_plan_id":"cebpf4jnsgd1na2vs0mg"},{"bike_id":"3caedf0b-726a-406f-9748-581a04e5d075","system_id":"levelo_inurba_marseille","lat":43.2418,"lon":5.39725,"is_reserved":false,"is_disabled":false,"rental_uris":{"android":"levelo://app?vid=3caedf0b-726a-406f-9748-581a04e5d075","ios":"levelo://app?vid=3caedf0b-726a-406f-9748-581a04e5d075"},"vehicle_type_id":"4","last_reported":1737536996,"current_range_meters":27600,"station_id":"ce4bhn12rcd13ifvqgpg","pricing_plan_id":"cebpf4jnsgd1na2vs0mg"},{"bike_id":"1cd05b4a-f688-43b0-b3a4-eaca2bcc4d3d","system_id":"levelo_inurba_marseille","lat":43.31369,"lon":5.3671,"is_reserved":false,"is_disabled":false,"rental_uris":{"android":"levelo://app?vid=1cd05b4a-f688-43b0-b3a4-eaca2bcc4d3d","ios":"levelo://app?vid=1cd05b4a-f688-43b0-b3a4-eaca2bcc4d3d"},"vehicle_type_id":"4","last_reported":1737536996,"current_range_meters":16000,"station_id":"ce4bgr92rcd13ifvqc6g","pricing_plan_id":"cebpf4jnsgd1na2vs0mg"},{"bike_id":"094aabae-ae7a-48cc-9ecf-c007a6b8f7bb","system_id":"levelo_inurba_marseille","lat":43.28408,"lon":5.375,"is_reserved":false,"is_disabled":false,"rental_uris":{"android":"levelo://app?vid=094aabae-ae7a-48cc-9ecf-c007a6b8f7bb","ios":"levelo://app?vid=094aabae-ae7a-48cc-9ecf-c007a6b8f7bb"},"vehicle_type_id":"4","last_reported":1737536996,"current_range_meters":12000,"station_id":"ce4bh412rcd13ifvqds0","pricing_plan_id":"cebpf4jnsgd1na2vs0mg"},{"bike_id":"dbeab511-8cce-44d3-b9ea-8052c0726590","system_id":"levelo_inurba_marseille","lat":43.30278,"lon":5.37704,"is_reserved":false,"is_disabled":false,"rental_uris":{"android":"levelo://app?vid=dbeab511-8cce-44d3-b9ea-8052c0726590","ios":"levelo://app?vid=dbeab511-8cce-44d3-b9ea-8052c0726590"},"vehicle_type_id":"4","last_reported":1737536996,"current_range_meters":17200,"station_id":"ce4bguh2rcd13ifvqcj0","pricing_plan_id":"cebpf4jnsgd1na2vs0mg"},{"bike_id":"2fc90e2b-7bc3-4c1c-b9a1-54e988a74917","system_id":"levelo_inurba_marseille","lat":43.279439,"lon":5.389008,"is_reserved":false,"is_disabled":true,"rental_uris":{"android":"levelo://app?vid=2fc90e2b-7bc3-4c1c-b9a1-54e988a74917","ios":"levelo://app?vid=2fc90e2b-7bc3-4c1c-b9a1-54e988a74917"},"vehicle_type_id":"4","last_reported":1737536996,"current_range_meters":30000,"station_id":"","pricing_plan_id":"cebpf4jnsgd1na2vs0mg"},{"bike_id":"6afeeefa-11c0-4f74-82c2-cb592a43a0b2","system_id":"levelo_inurba_marseille","lat":43.28164,"lon":5.42667,"is_reserved":false,"is_disabled":false,"rental_uris":{"android":"levelo://app?vid=6afeeefa-11c0-4f74-82c2-cb592a43a0b2","ios":"levelo://app?vid=6afeeefa-11c0-4f74-82c2-cb592a43a0b2"},"vehicle_type_id":"4","last_reported":1737536996,"current_range_meters":38800,"station_id":"ce4bhnh2rcd13ifvqgug","pricing_plan_id":"cebpf4jnsgd1na2vs0mg"},{"bike_id":"c7ddd3a4-15e8-495a-88c8-c9e8be4fd358","system_id":"levelo_inurba_marseille","lat":43.286248,"lon":5.351111,"is_reserved":false,"is_disabled":false,"rental_uris":{"android":"levelo://app?vid=c7ddd3a4-15e8-495a-88c8-c9e8be4fd358","ios":"levelo://app?vid=c7ddd3a4-15e8-495a-88c8-c9e8be4fd358"},"vehicle_type_id":"4","last_reported":1737536996,"current_range_meters":7200,"station_id":"ce4bhch2rcd13ifvqeug","pricing_plan_id":"cebpf4jnsgd1na2vs0mg"},{"bike_id":"23eb4461-43a1-4020-9a5d-31b940fcfcf0","system_id":"levelo_inurba_marseille","lat":43.25493,"lon":5.37666,"is_reserved":false,"is_disabled":false,"rental_uris":{"android":"levelo://app?vid=23eb4461-43a1-4020-9a5d-31b940fcfcf0","ios":"levelo://app?vid=23eb4461-43a1-4020-9a5d-31b940fcfcf0"},"vehicle_type_id":"4","last_reported":1737536996,"current_range_meters":39200,"station_id":"ce4bhh12rcd13ifvqff0","pricing_plan_id":"cebpf4jnsgd1na2vs0mg"},{"bike_id":"77e2cd98-88cd-45d9-9ef5-4dd1ff88b502","system_id":"levelo_inurba_marseille","lat":43.30163,"lon":5.36626,"is_reserved":false,"is_disabled":false,"rental_uris":{"android":"levelo://app?vid=77e2cd98-88cd-45d9-9ef5-4dd1ff88b502","ios":"levelo://app?vid=77e2cd98-88cd-45d9-9ef5-4dd1ff88b502"},"vehicle_type_id":"4","last_reported":1737536996,"current_range_meters":27600,"station_id":"ce4bgrh2rcd13ifvqc8g","pricing_plan_id":"cebpf4jnsgd1na2vs0mg"},{"bike_id":"227e78bf-cdca-4dfa-9c62-95921093e4a7","system_id":"levelo_inurba_marseille","lat":43.28437,"lon":5.34992,"is_reserved":false,"is_disabled":false,"rental_uris":{"android":"levelo://app?vid=227e78bf-cdca-4dfa-9c62-95921093e4a7","ios":"levelo://app?vid=227e78bf-cdca-4dfa-9c62-95921093e4a7"},"vehicle_type_id":"4","last_reported":1737536996,"current_range_meters":11200,"station_id":"ce4bhbh2rcd13ifvqepg","pricing_plan_id":"cebpf4jnsgd1na2vs0mg"},{"bike_id":"3fc74b94-ed11-4e63-a3db-79791383adef","system_id":"levelo_inurba_marseille","lat":43.30591,"lon":5.39363,"is_reserved":false,"is_disabled":false,"rental_uris":{"android":"levelo://app?vid=3fc74b94-ed11-4e63-a3db-79791383adef","ios":"levelo://app?vid=3fc74b94-ed11-4e63-a3db-79791383adef"},"vehicle_type_id":"4","last_reported":1737536996,"current_range_meters":26000,"station_id":"ce4bh0p2rcd13ifvqd80","pricing_plan_id":"cebpf4jnsgd1na2vs0mg"},{"bike_id":"14bf62af-c950-435b-82dd-0bca67231add","system_id":"levelo_inurba_marseille","lat":43.25719,"lon":5.41124,"is_reserved":false,"is_disabled":false,"rental_uris":{"android":"levelo://app?vid=14bf62af-c950-435b-82dd-0bca67231add","ios":"levelo://app?vid=14bf62af-c950-435b-82dd-0bca67231add"},"vehicle_type_id":"4","last_reported":1737536996,"current_range_meters":37600,"station_id":"ce4bhkp2rcd13ifvqgd0","pricing_plan_id":"cebpf4jnsgd1na2vs0mg"},{"bike_id":"f1509c1e-301c-4b7b-97b4-0841ead5fa37","system_id":"levelo_inurba_marseille","lat":43.30946,"lon":5.39053,"is_reserved":false,"is_disabled":false,"rental_uris":{"android":"levelo://app?vid=f1509c1e-301c-4b7b-97b4-0841ead5fa37","ios":"levelo://app?vid=f1509c1e-301c-4b7b-97b4-0841ead5fa37"},"vehicle_type_id":"4","last_reported":1737536996,"current_range_meters":16800,"station_id":"ce4bgup2rcd13ifvqco0","pricing_plan_id":"cebpf4jnsgd1na2vs0mg"},{"bike_id":"3d62598d-c9c7-4241-9467-91af6b1ef8c2","system_id":"levelo_inurba_marseille","lat":43.29023,"lon":5.38124,"is_reserved":false,"is_disabled":false,"rental_uris":{"android":"levelo://app?vid=3d62598d-c9c7-4241-9467-91af6b1ef8c2","ios":"levelo://app?vid=3d62598d-c9c7-4241-9467-91af6b1ef8c2"},"vehicle_type_id":"4","last_reported":1737536996,"current_range_meters":24000,"station_id":"ce4bh4p2rcd13ifvqe1g","pricing_plan_id":"cebpf4jnsgd1na2vs0mg"},{"bike_id":"38700acb-6eec-4c46-89fe-1be42acbf095","system_id":"levelo_inurba_marseille","lat":43.31083,"lon":5.42438,"is_reserved":false,"is_disabled":false,"rental_uris":{"android":"levelo://app?vid=38700acb-6eec-4c46-89fe-1be42acbf095","ios":"levelo://app?vid=38700acb-6eec-4c46-89fe-1be42acbf095"},"vehicle_type_id":"4","last_reported":1737536996,"current_range_meters":30000,"station_id":"ce4bhp92rcd13ifvqhag","pricing_plan_id":"cebpf4jnsgd1na2vs0mg"},{"bike_id":"34d4460c-2a86-4690-9dea-0c5faca166cb","system_id":"levelo_inurba_marseille","lat":43.29899,"lon":5.3892,"is_reserved":false,"is_disabled":true,"rental_uris":{"android":"levelo://app?vid=34d4460c-2a86-4690-9dea-0c5faca166cb","ios":"levelo://app?vid=34d4460c-2a86-4690-9dea-0c5faca166cb"},"vehicle_type_id":"4","last_reported":1737536996,"current_range_meters":800,"station_id":"ce4bh392rcd13ifvqdl0","pricing_plan_id":"cebpf4jnsgd1na2vs0mg"},{"bike_id":"36d6976f-5e20-4fce-a58f-51e64fb9f354","system_id":"levelo_inurba_marseille","lat":43.30942,"lon":5.40156,"is_reserved":false,"is_disabled":false,"rental_uris":{"android":"levelo://app?vid=36d6976f-5e20-4fce-a58f-51e64fb9f354","ios":"levelo://app?vid=36d6976f-5e20-4fce-a58f-51e64fb9f354"},"vehicle_type_id":"4","last_reported":1737536996,"current_range_meters":6000,"station_id":"ce4bgvp2rcd13ifvqct0","pricing_plan_id":"cebpf4jnsgd1na2vs0mg"},{"bike_id":"6f540227-5b29-44fc-a745-c108fa3063aa","system_id":"levelo_inurba_marseille","lat":43.29095,"lon":5.38138,"is_reserved":false,"is_disabled":false,"rental_uris":{"android":"levelo://app?vid=6f540227-5b29-44fc-a745-c108fa3063aa","ios":"levelo://app?vid=6f540227-5b29-44fc-a745-c108fa3063aa"},"vehicle_type_id":"4","last_reported":1737536996,"current_range_meters":30400,"station_id":"ce4bh512rcd13ifvqe2g","pricing_plan_id":"cebpf4jnsgd1na2vs0mg"},{"bike_id":"809446bb-dbb1-4c44-bfa7-24506272c65f","system_id":"levelo_inurba_marseille","lat":43.29366,"lon":5.37839,"is_reserved":false,"is_disabled":false,"rental_uris":{"android":"levelo://app?vid=809446bb-dbb1-4c44-bfa7-24506272c65f","ios":"levelo://app?vid=809446bb-dbb1-4c44-bfa7-24506272c65f"},"vehicle_type_id":"4","last_reported":1737536996,"current_range_meters":38400,"station_id":"ce4bgjh2rcd13ifvqbf0","pricing_plan_id":"cebpf4jnsgd1na2vs0mg"},{"bike_id":"96c51aad-ee75-4f00-896d-bac249442a79","system_id":"levelo_inurba_marseille","lat":43.3092,"lon":5.36889,"is_reserved":false,"is_disabled":false,"rental_uris":{"android":"levelo://app?vid=96c51aad-ee75-4f00-896d-bac249442a79","ios":"levelo://app?vid=96c51aad-ee75-4f00-896d-bac249442a79"},"vehicle_type_id":"4","last_reported":1737536996,"current_range_meters":37600,"station_id":"ce4bgn92rcd13ifvqbvg","pricing_plan_id":"cebpf4jnsgd1na2vs0mg"},{"bike_id":"9701c816-4f97-43e0-a7fb-05b9d8b3990a","system_id":"levelo_inurba_marseille","lat":43.29369,"lon":5.37843,"is_reserved":false,"is_disabled":false,"rental_uris":{"android":"levelo://app?vid=9701c816-4f97-43e0-a7fb-05b9d8b3990a","ios":"levelo://app?vid=9701c816-4f97-43e0-a7fb-05b9d8b3990a"},"vehicle_type_id":"4","last_reported":1737536996,"current_range_meters":37600,"station_id":"ce4bgjh2rcd13ifvqbf0","pricing_plan_id":"cebpf4jnsgd1na2vs0mg"},{"bike_id":"9c50f19d-512d-40f6-a0dc-110bcd3b3fb8","system_id":"levelo_inurba_marseille","lat":43.29894,"lon":5.43658,"is_reserved":false,"is_disabled":false,"rental_uris":{"android":"levelo://app?vid=9c50f19d-512d-40f6-a0dc-110bcd3b3fb8","ios":"levelo://app?vid=9c50f19d-512d-40f6-a0dc-110bcd3b3fb8"},"vehicle_type_id":"4","last_reported":1737536996,"current_range_meters":30800,"station_id":"ce4bhpp2rcd13ifvqhfg","pricing_plan_id":"cebpf4jnsgd1na2vs0mg"},{"bike_id":"4be10568-0913-42a8-b207-c944d44ca55b","system_id":"levelo_inurba_marseille","lat":43.29551,"lon":5.42291,"is_reserved":false,"is_disabled":false,"rental_uris":{"android":"levelo://app?vid=4be10568-0913-42a8-b207-c944d44ca55b","ios":"levelo://app?vid=4be10568-0913-42a8-b207-c944d44ca55b"},"vehicle_type_id":"4","last_reported":1737536996,"current_range_meters":30000,"station_id":"ce4bhph2rcd13ifvqhdg","pricing_plan_id":"cebpf4jnsgd1na2vs0mg"},{"bike_id":"b43e8111-3df3-4a97-a358-3562f670a124","system_id":"levelo_inurba_marseille","lat":43.30542,"lon":5.3668,"is_reserved":false,"is_disabled":false,"rental_uris":{"android":"levelo://app?vid=b43e8111-3df3-4a97-a358-3562f670a124","ios":"levelo://app?vid=b43e8111-3df3-4a97-a358-3562f670a124"},"vehicle_type_id":"4","last_reported":1737536996,"current_range_meters":25200,"station_id":"ce4bgrp2rcd13ifvqc9g","pricing_plan_id":"cebpf4jnsgd1na2vs0mg"},{"bike_id":"dfec2e79-8ba2-4382-a2a5-5ea9be223e64","system_id":"levelo_inurba_marseille","lat":43.32349,"lon":5.36752,"is_reserved":false,"is_disabled":false,"rental_uris":{"android":"levelo://app?vid=dfec2e79-8ba2-4382-a2a5-5ea9be223e64","ios":"levelo://app?vid=dfec2e79-8ba2-4382-a2a5-5ea9be223e64"},"vehicle_type_id":"4","last_reported":1737536996,"current_range_meters":17200,"station_id":"ce4bhsh2rcd13ifvqi2g","pricing_plan_id":"cebpf4jnsgd1na2vs0mg"},{"bike_id":"94380587-7578-43dc-aef7-139131c62c22","system_id":"levelo_inurba_marseille","lat":43.30277,"lon":5.37698,"is_reserved":false,"is_disabled":false,"rental_uris":{"android":"levelo://app?vid=94380587-7578-43dc-aef7-139131c62c22","ios":"levelo://app?vid=94380587-7578-43dc-aef7-139131c62c22"},"vehicle_type_id":"4","last_reported":1737536996,"current_range_meters":36400,"station_id":"ce4bguh2rcd13ifvqcj0","pricing_plan_id":"cebpf4jnsgd1na2vs0mg"},{"bike_id":"98d1a980-3533-4bf6-ba69-8bc84ff34d18","system_id":"levelo_inurba_marseille","lat":43.30145,"lon":5.3742,"is_reserved":false,"is_disabled":false,"rental_uris":{"android":"levelo://app?vid=98d1a980-3533-4bf6-ba69-8bc84ff34d18","ios":"levelo://app?vid=98d1a980-3533-4bf6-ba69-8bc84ff34d18"},"vehicle_type_id":"4","last_reported":1737536996,"current_range_meters":24400,"station_id":"ce4bgs92rcd13ifvqcc0","pricing_plan_id":"cebpf4jnsgd1na2vs0mg"},{"bike_id":"1523ad92-f97a-4e32-985b-07285132063a","system_id":"levelo_inurba_marseille","lat":43.30958,"lon":5.39039,"is_reserved":false,"is_disabled":false,"rental_uris":{"android":"levelo://app?vid=1523ad92-f97a-4e32-985b-07285132063a","ios":"levelo://app?vid=1523ad92-f97a-4e32-985b-07285132063a"},"vehicle_type_id":"4","last_reported":1737536996,"current_range_meters":39200,"station_id":"ce4bgup2rcd13ifvqco0","pricing_plan_id":"cebpf4jnsgd1na2vs0mg"},{"bike_id":"c2585015-904a-4609-a64e-a02117955d78","system_id":"levelo_inurba_marseille","lat":43.313586,"lon":5.385081,"is_reserved":false,"is_disabled":false,"rental_uris":{"android":"levelo://app?vid=c2585015-904a-4609-a64e-a02117955d78","ios":"levelo://app?vid=c2585015-904a-4609-a64e-a02117955d78"},"vehicle_type_id":"4","last_reported":1737536996,"current_range_meters":19200,"station_id":"ce4bgt92rcd13ifvqcf0","pricing_plan_id":"cebpf4jnsgd1na2vs0mg"},{"bike_id":"a4b6a57f-2d26-4162-bc31-7119d05d720d","system_id":"levelo_inurba_marseille","lat":43.30083,"lon":5.39086,"is_reserved":false,"is_disabled":false,"rental_uris":{"android":"levelo://app?vid=a4b6a57f-2d26-4162-bc31-7119d05d720d","ios":"levelo://app?vid=a4b6a57f-2d26-4162-bc31-7119d05d720d"},"vehicle_type_id":"4","last_reported":1737536996,"current_range_meters":29600,"station_id":"ce4bh192rcd13ifvqdb0","pricing_plan_id":"cebpf4jnsgd1na2vs0mg"},{"bike_id":"48ea403c-49f4-4f4d-8ef5-83bd0805946d","system_id":"levelo_inurba_marseille","lat":43.30084,"lon":5.3907,"is_reserved":false,"is_disabled":false,"rental_uris":{"android":"levelo://app?vid=48ea403c-49f4-4f4d-8ef5-83bd0805946d","ios":"levelo://app?vid=48ea403c-49f4-4f4d-8ef5-83bd0805946d"},"vehicle_type_id":"4","last_reported":1737536996,"current_range_meters":39200,"station_id":"ce4bh192rcd13ifvqdb0","pricing_plan_id":"cebpf4jnsgd1na2vs0mg"},{"bike_id":"791753af-f52a-4381-a458-8b27405d5e3d","system_id":"levelo_inurba_marseille","lat":43.32503,"lon":5.36597,"is_reserved":false,"is_disabled":false,"rental_uris":{"android":"levelo://app?vid=791753af-f52a-4381-a458-8b27405d5e3d","ios":"levelo://app?vid=791753af-f52a-4381-a458-8b27405d5e3d"},"vehicle_type_id":"4","last_reported":1737536996,"current_range_meters":38800,"station_id":"ce4bhs12rcd13ifvqhvg","pricing_plan_id":"cebpf4jnsgd1na2vs0mg"},{"bike_id":"21278822-b45f-47c8-b5ba-5a45212c8aba","system_id":"levelo_inurba_marseille","lat":43.30927,"lon":5.40143,"is_reserved":false,"is_disabled":false,"rental_uris":{"android":"levelo://app?vid=21278822-b45f-47c8-b5ba-5a45212c8aba","ios":"levelo://app?vid=21278822-b45f-47c8-b5ba-5a45212c8aba"},"vehicle_type_id":"4","last_reported":1737536996,"current_range_meters":7200,"station_id":"ce4bgvp2rcd13ifvqct0","pricing_plan_id":"cebpf4jnsgd1na2vs0mg"},{"bike_id":"a478c8e4-70f7-4330-80af-a80f08fe66b3","system_id":"levelo_inurba_marseille","lat":43.2571,"lon":5.41109,"is_reserved":false,"is_disabled":false,"rental_uris":{"android":"levelo://app?vid=a478c8e4-70f7-4330-80af-a80f08fe66b3","ios":"levelo://app?vid=a478c8e4-70f7-4330-80af-a80f08fe66b3"},"vehicle_type_id":"4","last_reported":1737536996,"current_range_meters":20800,"station_id":"ce4bhkp2rcd13ifvqgd0","pricing_plan_id":"cebpf4jnsgd1na2vs0mg"},{"bike_id":"cae2d61f-f314-477c-bd30-db7b7de4ba43","system_id":"levelo_inurba_marseille","lat":43.33709,"lon":5.39187,"is_reserved":false,"is_disabled":false,"rental_uris":{"android":"levelo://app?vid=cae2d61f-f314-477c-bd30-db7b7de4ba43","ios":"levelo://app?vid=cae2d61f-f314-477c-bd30-db7b7de4ba43"},"vehicle_type_id":"4","last_reported":1737536996,"current_range_meters":31200,"station_id":"ce4bhr92rcd13ifvqhsg","pricing_plan_id":"cebpf4jnsgd1na2vs0mg"},{"bike_id":"6e918997-88c7-4f08-8e47-531bd457d91e","system_id":"levelo_inurba_marseille","lat":43.30467,"lon":5.37906,"is_reserved":false,"is_disabled":false,"rental_uris":{"android":"levelo://app?vid=6e918997-88c7-4f08-8e47-531bd457d91e","ios":"levelo://app?vid=6e918997-88c7-4f08-8e47-531bd457d91e"},"vehicle_type_id":"4","last_reported":1737536996,"current_range_meters":38800,"station_id":"ce4bgup2rcd13ifvqcn0","pricing_plan_id":"cebpf4jnsgd1na2vs0mg"},{"bike_id":"5ca0c40f-c01a-44fb-a897-efaa615e7850","system_id":"levelo_inurba_marseille","lat":43.2407,"lon":5.37767,"is_reserved":false,"is_disabled":false,"rental_uris":{"android":"levelo://app?vid=5ca0c40f-c01a-44fb-a897-efaa615e7850","ios":"levelo://app?vid=5ca0c40f-c01a-44fb-a897-efaa615e7850"},"vehicle_type_id":"4","last_reported":1737536996,"current_range_meters":18800,"station_id":"ce4bhnp2rcd13ifvqgvg","pricing_plan_id":"cebpf4jnsgd1na2vs0mg"},{"bike_id":"b834a014-a9be-4559-bbaa-15aa5f1cbaa1","system_id":"levelo_inurba_marseille","lat":43.23198,"lon":5.35566,"is_reserved":false,"is_disabled":false,"rental_uris":{"android":"levelo://app?vid=b834a014-a9be-4559-bbaa-15aa5f1cbaa1","ios":"levelo://app?vid=b834a014-a9be-4559-bbaa-15aa5f1cbaa1"},"vehicle_type_id":"4","last_reported":1737536996,"current_range_meters":34800,"station_id":"ce4bhu92rcd13ifvqi70","pricing_plan_id":"cebpf4jnsgd1na2vs0mg"},{"bike_id":"78913557-6238-45f5-983b-a7f59414645a","system_id":"levelo_inurba_marseille","lat":43.29416,"lon":5.38618,"is_reserved":false,"is_disabled":false,"rental_uris":{"android":"levelo://app?vid=78913557-6238-45f5-983b-a7f59414645a","ios":"levelo://app?vid=78913557-6238-45f5-983b-a7f59414645a"},"vehicle_type_id":"4","last_reported":1737536996,"current_range_meters":28800,"station_id":"ce4bh2h2rcd13ifvqdh0","pricing_plan_id":"cebpf4jnsgd1na2vs0mg"},{"bike_id":"d35b00f9-ff6b-4f56-bf5b-00f17ff83f4b","system_id":"levelo_inurba_marseille","lat":43.31759,"lon":5.39005,"is_reserved":false,"is_disabled":true,"rental_uris":{"android":"levelo://app?vid=d35b00f9-ff6b-4f56-bf5b-00f17ff83f4b","ios":"levelo://app?vid=d35b00f9-ff6b-4f56-bf5b-00f17ff83f4b"},"vehicle_type_id":"4","last_reported":1737536996,"current_range_meters":0,"station_id":"ce4bhqp2rcd13ifvqhng","pricing_plan_id":"cebpf4jnsgd1na2vs0mg"},{"bike_id":"5f776b34-b727-4c57-9619-656fb56904de","system_id":"levelo_inurba_marseille","lat":43.31734,"lon":5.42409,"is_reserved":false,"is_disabled":false,"rental_uris":{"android":"levelo://app?vid=5f776b34-b727-4c57-9619-656fb56904de","ios":"levelo://app?vid=5f776b34-b727-4c57-9619-656fb56904de"},"vehicle_type_id":"4","last_reported":1737536996,"current_range_meters":36000,"station_id":"ce4bhp92rcd13ifvqhbg","pricing_plan_id":"cebpf4jnsgd1na2vs0mg"},{"bike_id":"ca0dc8e0-206b-40b7-8d43-9b4ec69057c7","system_id":"levelo_inurba_marseille","lat":43.24153,"lon":5.36416,"is_reserved":false,"is_disabled":false,"rental_uris":{"android":"levelo://app?vid=ca0dc8e0-206b-40b7-8d43-9b4ec69057c7","ios":"levelo://app?vid=ca0dc8e0-206b-40b7-8d43-9b4ec69057c7"},"vehicle_type_id":"4","last_reported":1737536996,"current_range_meters":17600,"station_id":"cpo36qri1sfpv3e86is0","pricing_plan_id":"cebpf4jnsgd1na2vs0mg"},{"bike_id":"d9c56be9-ad46-407b-9efa-70df14cd91f1","system_id":"levelo_inurba_marseille","lat":43.27199,"lon":5.3919,"is_reserved":false,"is_disabled":true,"rental_uris":{"android":"levelo://app?vid=d9c56be9-ad46-407b-9efa-70df14cd91f1","ios":"levelo://app?vid=d9c56be9-ad46-407b-9efa-70df14cd91f1"},"vehicle_type_id":"4","last_reported":1737536996,"current_range_meters":38400,"station_id":"ce4bhhp2rcd13ifvqfm0","pricing_plan_id":"cebpf4jnsgd1na2vs0mg"},{"bike_id":"6ff3890b-4ee4-40dd-9c01-ccb6adedf00e","system_id":"levelo_inurba_marseille","lat":43.28471,"lon":5.38555,"is_reserved":false,"is_disabled":false,"rental_uris":{"android":"levelo://app?vid=6ff3890b-4ee4-40dd-9c01-ccb6adedf00e","ios":"levelo://app?vid=6ff3890b-4ee4-40dd-9c01-ccb6adedf00e"},"vehicle_type_id":"4","last_reported":1737536996,"current_range_meters":38800,"station_id":"ce4bh8p2rcd13ifvqeb0","pricing_plan_id":"cebpf4jnsgd1na2vs0mg"},{"bike_id":"bb1d92ee-7d6f-4c03-b9b7-eb2447a8569b","system_id":"levelo_inurba_marseille","lat":43.30536,"lon":5.38414,"is_reserved":false,"is_disabled":false,"rental_uris":{"android":"levelo://app?vid=bb1d92ee-7d6f-4c03-b9b7-eb2447a8569b","ios":"levelo://app?vid=bb1d92ee-7d6f-4c03-b9b7-eb2447a8569b"},"vehicle_type_id":"4","last_reported":1737536996,"current_range_meters":8800,"station_id":"ce4bgg92rcd13ifvqb30","pricing_plan_id":"cebpf4jnsgd1na2vs0mg"},{"bike_id":"d8b49f42-144a-4cb8-8172-0b5099baab4f","system_id":"levelo_inurba_marseille","lat":43.2397,"lon":5.36622,"is_reserved":false,"is_disabled":false,"rental_uris":{"android":"levelo://app?vid=d8b49f42-144a-4cb8-8172-0b5099baab4f","ios":"levelo://app?vid=d8b49f42-144a-4cb8-8172-0b5099baab4f"},"vehicle_type_id":"4","last_reported":1737536996,"current_range_meters":25200,"station_id":"ce4bhi12rcd13ifvqfp0","pricing_plan_id":"cebpf4jnsgd1na2vs0mg"},{"bike_id":"df7c011c-5cd5-4fbb-8a4e-d73dd3867dd2","system_id":"levelo_inurba_marseille","lat":43.324726,"lon":5.365854,"is_reserved":false,"is_disabled":true,"rental_uris":{"android":"levelo://app?vid=df7c011c-5cd5-4fbb-8a4e-d73dd3867dd2","ios":"levelo://app?vid=df7c011c-5cd5-4fbb-8a4e-d73dd3867dd2"},"vehicle_type_id":"4","last_reported":1737536996,"current_range_meters":38400,"station_id":"ce4bhs12rcd13ifvqhvg","pricing_plan_id":"cebpf4jnsgd1na2vs0mg"},{"bike_id":"aed5fa70-4990-42bd-9642-b2e4c9490fce","system_id":"levelo_inurba_marseille","lat":43.30139,"lon":5.37413,"is_reserved":false,"is_disabled":false,"rental_uris":{"android":"levelo://app?vid=aed5fa70-4990-42bd-9642-b2e4c9490fce","ios":"levelo://app?vid=aed5fa70-4990-42bd-9642-b2e4c9490fce"},"vehicle_type_id":"4","last_reported":1737536996,"current_range_meters":26800,"station_id":"ce4bgs92rcd13ifvqcc0","pricing_plan_id":"cebpf4jnsgd1na2vs0mg"},{"bike_id":"5fbadc7f-8eb5-4e6d-96ee-20e5fde4a45a","system_id":"levelo_inurba_marseille","lat":43.26193,"lon":5.37447,"is_reserved":false,"is_disabled":false,"rental_uris":{"android":"levelo://app?vid=5fbadc7f-8eb5-4e6d-96ee-20e5fde4a45a","ios":"levelo://app?vid=5fbadc7f-8eb5-4e6d-96ee-20e5fde4a45a"},"vehicle_type_id":"4","last_reported":1737536996,"current_range_meters":28400,"station_id":"ce4bhgp2rcd13ifvqfc0","pricing_plan_id":"cebpf4jnsgd1na2vs0mg"},{"bike_id":"a2d65268-c2c6-4ea7-9997-90163c52beca","system_id":"levelo_inurba_marseille","lat":43.28935,"lon":5.36634,"is_reserved":false,"is_disabled":true,"rental_uris":{"android":"levelo://app?vid=a2d65268-c2c6-4ea7-9997-90163c52beca","ios":"levelo://app?vid=a2d65268-c2c6-4ea7-9997-90163c52beca"},"vehicle_type_id":"4","last_reported":1737536996,"current_range_meters":0,"station_id":"ce4bhap2rcd13ifvqek0","pricing_plan_id":"cebpf4jnsgd1na2vs0mg"},{"bike_id":"e1e36e1e-7ddd-43af-8b95-1136cd322423","system_id":"levelo_inurba_marseille","lat":43.3105,"lon":5.38327,"is_reserved":false,"is_disabled":false,"rental_uris":{"android":"levelo://app?vid=e1e36e1e-7ddd-43af-8b95-1136cd322423","ios":"levelo://app?vid=e1e36e1e-7ddd-43af-8b95-1136cd322423"},"vehicle_type_id":"4","last_reported":1737536996,"current_range_meters":32800,"station_id":"ce4bgv92rcd13ifvqcr0","pricing_plan_id":"cebpf4jnsgd1na2vs0mg"},{"bike_id":"09f5a8d2-bea2-430e-9db1-b90cf9981772","system_id":"levelo_inurba_marseille","lat":43.29775,"lon":5.371,"is_reserved":false,"is_disabled":false,"rental_uris":{"android":"levelo://app?vid=09f5a8d2-bea2-430e-9db1-b90cf9981772","ios":"levelo://app?vid=09f5a8d2-bea2-430e-9db1-b90cf9981772"},"vehicle_type_id":"4","last_reported":1737536996,"current_range_meters":22000,"station_id":"ce4bgop2rcd13ifvqc1g","pricing_plan_id":"cebpf4jnsgd1na2vs0mg"},{"bike_id":"2cc6f5df-1b42-4b6d-87d2-2a8900168535","system_id":"levelo_inurba_marseille","lat":43.2981,"lon":5.40435,"is_reserved":false,"is_disabled":true,"rental_uris":{"android":"levelo://app?vid=2cc6f5df-1b42-4b6d-87d2-2a8900168535","ios":"levelo://app?vid=2cc6f5df-1b42-4b6d-87d2-2a8900168535"},"vehicle_type_id":"4","last_reported":1737536996,"current_range_meters":12000,"station_id":"ce4bh112rcd13ifvqd90","pricing_plan_id":"cebpf4jnsgd1na2vs0mg"},{"bike_id":"7ee5bdd6-f200-47e6-a1f6-d4967fd14fec","system_id":"levelo_inurba_marseille","lat":43.27662,"lon":5.38875,"is_reserved":false,"is_disabled":false,"rental_uris":{"android":"levelo://app?vid=7ee5bdd6-f200-47e6-a1f6-d4967fd14fec","ios":"levelo://app?vid=7ee5bdd6-f200-47e6-a1f6-d4967fd14fec"},"vehicle_type_id":"4","last_reported":1737536996,"current_range_meters":39200,"station_id":"ce4bhi12rcd13ifvqfo0","pricing_plan_id":"cebpf4jnsgd1na2vs0mg"},{"bike_id":"cb662706-1259-41de-8e51-a8b72ac231ab","system_id":"levelo_inurba_marseille","lat":43.30352,"lon":5.38564,"is_reserved":false,"is_disabled":false,"rental_uris":{"android":"levelo://app?vid=cb662706-1259-41de-8e51-a8b72ac231ab","ios":"levelo://app?vid=cb662706-1259-41de-8e51-a8b72ac231ab"},"vehicle_type_id":"4","last_reported":1737536996,"current_range_meters":28400,"station_id":"","pricing_plan_id":"cebpf4jnsgd1na2vs0mg"},{"bike_id":"7cf4886e-7ea9-431b-ae7d-a9c055aef1a5","system_id":"levelo_inurba_marseille","lat":43.3014,"lon":5.38779,"is_reserved":false,"is_disabled":false,"rental_uris":{"android":"levelo://app?vid=7cf4886e-7ea9-431b-ae7d-a9c055aef1a5","ios":"levelo://app?vid=7cf4886e-7ea9-431b-ae7d-a9c055aef1a5"},"vehicle_type_id":"4","last_reported":1737536996,"current_range_meters":30400,"station_id":"ce4bhoh2rcd13ifvqh6g","pricing_plan_id":"cebpf4jnsgd1na2vs0mg"},{"bike_id":"61d4266f-fc8a-4049-a3f0-d3cb8b6a79aa","system_id":"levelo_inurba_marseille","lat":43.28938,"lon":5.3641,"is_reserved":false,"is_disabled":true,"rental_uris":{"android":"levelo://app?vid=61d4266f-fc8a-4049-a3f0-d3cb8b6a79aa","ios":"levelo://app?vid=61d4266f-fc8a-4049-a3f0-d3cb8b6a79aa"},"vehicle_type_id":"4","last_reported":1737536996,"current_range_meters":30000,"station_id":"ce4bhc92rcd13ifvqetg","pricing_plan_id":"cebpf4jnsgd1na2vs0mg"},{"bike_id":"72afd676-a0aa-46c7-b23f-fb50bae19a9e","system_id":"levelo_inurba_marseille","lat":43.30492,"lon":5.37865,"is_reserved":false,"is_disabled":false,"rental_uris":{"android":"levelo://app?vid=72afd676-a0aa-46c7-b23f-fb50bae19a9e","ios":"levelo://app?vid=72afd676-a0aa-46c7-b23f-fb50bae19a9e"},"vehicle_type_id":"4","last_reported":1737536996,"current_range_meters":20000,"station_id":"ce4bgup2rcd13ifvqcn0","pricing_plan_id":"cebpf4jnsgd1na2vs0mg"},{"bike_id":"c05d17e6-8ff9-46c6-8c1e-4a317d252d9d","system_id":"levelo_inurba_marseille","lat":43.32355,"lon":5.36742,"is_reserved":false,"is_disabled":false,"rental_uris":{"android":"levelo://app?vid=c05d17e6-8ff9-46c6-8c1e-4a317d252d9d","ios":"levelo://app?vid=c05d17e6-8ff9-46c6-8c1e-4a317d252d9d"},"vehicle_type_id":"4","last_reported":1737536996,"current_range_meters":28400,"station_id":"ce4bhsh2rcd13ifvqi2g","pricing_plan_id":"cebpf4jnsgd1na2vs0mg"},{"bike_id":"1da7ad70-ab8d-4acc-81b9-b3f208a4e8b9","system_id":"levelo_inurba_marseille","lat":43.28349,"lon":5.38123,"is_reserved":false,"is_disabled":true,"rental_uris":{"android":"levelo://app?vid=1da7ad70-ab8d-4acc-81b9-b3f208a4e8b9","ios":"levelo://app?vid=1da7ad70-ab8d-4acc-81b9-b3f208a4e8b9"},"vehicle_type_id":"4","last_reported":1737536996,"current_range_meters":1600,"station_id":"ce4bh412rcd13ifvqdr0","pricing_plan_id":"cebpf4jnsgd1na2vs0mg"},{"bike_id":"70c457e0-4412-429f-834d-73746f9cc5ef","system_id":"levelo_inurba_marseille","lat":43.30536,"lon":5.36585,"is_reserved":false,"is_disabled":false,"rental_uris":{"android":"levelo://app?vid=70c457e0-4412-429f-834d-73746f9cc5ef","ios":"levelo://app?vid=70c457e0-4412-429f-834d-73746f9cc5ef"},"vehicle_type_id":"4","last_reported":1737536996,"current_range_meters":31200,"station_id":"ce4bgs12rcd13ifvqcag","pricing_plan_id":"cebpf4jnsgd1na2vs0mg"},{"bike_id":"ec9864b4-299b-47f3-ba8a-38b5cf795a7a","system_id":"levelo_inurba_marseille","lat":43.24653,"lon":5.38916,"is_reserved":false,"is_disabled":false,"rental_uris":{"android":"levelo://app?vid=ec9864b4-299b-47f3-ba8a-38b5cf795a7a","ios":"levelo://app?vid=ec9864b4-299b-47f3-ba8a-38b5cf795a7a"},"vehicle_type_id":"4","last_reported":1737536996,"current_range_meters":39200,"station_id":"ce4bhg12rcd13ifvqf60","pricing_plan_id":"cebpf4jnsgd1na2vs0mg"},{"bike_id":"2abcb777-2f75-44f8-b2ed-158bcd3e9732","system_id":"levelo_inurba_marseille","lat":43.30402,"lon":5.41285,"is_reserved":false,"is_disabled":false,"rental_uris":{"android":"levelo://app?vid=2abcb777-2f75-44f8-b2ed-158bcd3e9732","ios":"levelo://app?vid=2abcb777-2f75-44f8-b2ed-158bcd3e9732"},"vehicle_type_id":"4","last_reported":1737536996,"current_range_meters":38400,"station_id":"ce4bhop2rcd13ifvqh8g","pricing_plan_id":"cebpf4jnsgd1na2vs0mg"},{"bike_id":"188bc35e-b96d-4353-8224-81939b718e35","system_id":"levelo_inurba_marseille","lat":43.32379,"lon":5.38891,"is_reserved":false,"is_disabled":false,"rental_uris":{"android":"levelo://app?vid=188bc35e-b96d-4353-8224-81939b718e35","ios":"levelo://app?vid=188bc35e-b96d-4353-8224-81939b718e35"},"vehicle_type_id":"4","last_reported":1737536996,"current_range_meters":27200,"station_id":"ce4bhqp2rcd13ifvqhog","pricing_plan_id":"cebpf4jnsgd1na2vs0mg"},{"bike_id":"42707e4f-fc86-4055-94d3-267e0305077b","system_id":"levelo_inurba_marseille","lat":43.298529,"lon":5.362864,"is_reserved":false,"is_disabled":false,"rental_uris":{"android":"levelo://app?vid=42707e4f-fc86-4055-94d3-267e0305077b","ios":"levelo://app?vid=42707e4f-fc86-4055-94d3-267e0305077b"},"vehicle_type_id":"4","last_reported":1737536996,"current_range_meters":37600,"station_id":"ce4bgpp2rcd13ifvqc3g","pricing_plan_id":"cebpf4jnsgd1na2vs0mg"},{"bike_id":"41162eaf-1d86-4562-a41f-047ccb2288c4","system_id":"levelo_inurba_marseille","lat":43.31503,"lon":5.42966,"is_reserved":false,"is_disabled":true,"rental_uris":{"android":"levelo://app?vid=41162eaf-1d86-4562-a41f-047ccb2288c4","ios":"levelo://app?vid=41162eaf-1d86-4562-a41f-047ccb2288c4"},"vehicle_type_id":"4","last_reported":1737536996,"current_range_meters":33600,"station_id":"","pricing_plan_id":"cebpf4jnsgd1na2vs0mg"},{"bike_id":"92b1553e-063e-4a75-8df6-139bf5f9d010","system_id":"levelo_inurba_marseille","lat":43.28154,"lon":5.42641,"is_reserved":false,"is_disabled":true,"rental_uris":{"android":"levelo://app?vid=92b1553e-063e-4a75-8df6-139bf5f9d010","ios":"levelo://app?vid=92b1553e-063e-4a75-8df6-139bf5f9d010"},"vehicle_type_id":"4","last_reported":1737536996,"current_range_meters":0,"station_id":"ce4bhnh2rcd13ifvqgug","pricing_plan_id":"cebpf4jnsgd1na2vs0mg"},{"bike_id":"3448e7d2-a85d-47d6-ad0c-f45a0c35e35f","system_id":"levelo_inurba_marseille","lat":43.30952,"lon":5.39052,"is_reserved":false,"is_disabled":false,"rental_uris":{"android":"levelo://app?vid=3448e7d2-a85d-47d6-ad0c-f45a0c35e35f","ios":"levelo://app?vid=3448e7d2-a85d-47d6-ad0c-f45a0c35e35f"},"vehicle_type_id":"4","last_reported":1737536996,"current_range_meters":34800,"station_id":"ce4bgup2rcd13ifvqco0","pricing_plan_id":"cebpf4jnsgd1na2vs0mg"},{"bike_id":"634e500c-74ef-4cdc-830f-99b7d06c375b","system_id":"levelo_inurba_marseille","lat":43.30365,"lon":5.41894,"is_reserved":false,"is_disabled":false,"rental_uris":{"android":"levelo://app?vid=634e500c-74ef-4cdc-830f-99b7d06c375b","ios":"levelo://app?vid=634e500c-74ef-4cdc-830f-99b7d06c375b"},"vehicle_type_id":"4","last_reported":1737536996,"current_range_meters":38800,"station_id":"ce4bhop2rcd13ifvqh7g","pricing_plan_id":"cebpf4jnsgd1na2vs0mg"},{"bike_id":"332ed00f-1a13-4d8b-8b0c-d1b24118bc07","system_id":"levelo_inurba_marseille","lat":43.31421,"lon":5.36967,"is_reserved":false,"is_disabled":false,"rental_uris":{"android":"levelo://app?vid=332ed00f-1a13-4d8b-8b0c-d1b24118bc07","ios":"levelo://app?vid=332ed00f-1a13-4d8b-8b0c-d1b24118bc07"},"vehicle_type_id":"4","last_reported":1737536996,"current_range_meters":16000,"station_id":"","pricing_plan_id":"cebpf4jnsgd1na2vs0mg"},{"bike_id":"cd4173de-fac2-4f70-a8a5-1fb681dfbecf","system_id":"levelo_inurba_marseille","lat":43.2963,"lon":5.37152,"is_reserved":false,"is_disabled":false,"rental_uris":{"android":"levelo://app?vid=cd4173de-fac2-4f70-a8a5-1fb681dfbecf","ios":"levelo://app?vid=cd4173de-fac2-4f70-a8a5-1fb681dfbecf"},"vehicle_type_id":"4","last_reported":1737536996,"current_range_meters":25200,"station_id":"ce4bgnh2rcd13ifvqc0g","pricing_plan_id":"cebpf4jnsgd1na2vs0mg"},{"bike_id":"daa95c34-b998-42f7-a8b9-b93b3a858a82","system_id":"levelo_inurba_marseille","lat":43.3136,"lon":5.38485,"is_reserved":false,"is_disabled":false,"rental_uris":{"android":"levelo://app?vid=daa95c34-b998-42f7-a8b9-b93b3a858a82","ios":"levelo://app?vid=daa95c34-b998-42f7-a8b9-b93b3a858a82"},"vehicle_type_id":"4","last_reported":1737536996,"current_range_meters":38800,"station_id":"ce4bgt92rcd13ifvqcf0","pricing_plan_id":"cebpf4jnsgd1na2vs0mg"},{"bike_id":"8468c3e1-7572-4280-8fea-6ed342699a9f","system_id":"levelo_inurba_marseille","lat":43.29296,"lon":5.37457,"is_reserved":false,"is_disabled":false,"rental_uris":{"android":"levelo://app?vid=8468c3e1-7572-4280-8fea-6ed342699a9f","ios":"levelo://app?vid=8468c3e1-7572-4280-8fea-6ed342699a9f"},"vehicle_type_id":"4","last_reported":1737536996,"current_range_meters":36800,"station_id":"ce4bgi12rcd13ifvqb70","pricing_plan_id":"cebpf4jnsgd1na2vs0mg"},{"bike_id":"cc4f9a0b-1c1a-4123-a1e3-ae4ed873a4c0","system_id":"levelo_inurba_marseille","lat":43.24075,"lon":5.37747,"is_reserved":false,"is_disabled":false,"rental_uris":{"android":"levelo://app?vid=cc4f9a0b-1c1a-4123-a1e3-ae4ed873a4c0","ios":"levelo://app?vid=cc4f9a0b-1c1a-4123-a1e3-ae4ed873a4c0"},"vehicle_type_id":"4","last_reported":1737536996,"current_range_meters":34000,"station_id":"ce4bhnp2rcd13ifvqgvg","pricing_plan_id":"cebpf4jnsgd1na2vs0mg"},{"bike_id":"022d942c-9315-4fd9-8ecd-dd95de916b89","system_id":"levelo_inurba_marseille","lat":43.24653,"lon":5.38886,"is_reserved":false,"is_disabled":false,"rental_uris":{"android":"levelo://app?vid=022d942c-9315-4fd9-8ecd-dd95de916b89","ios":"levelo://app?vid=022d942c-9315-4fd9-8ecd-dd95de916b89"},"vehicle_type_id":"4","last_reported":1737536996,"current_range_meters":4000,"station_id":"ce4bhg12rcd13ifvqf60","pricing_plan_id":"cebpf4jnsgd1na2vs0mg"},{"bike_id":"61e4a5be-8f04-4c3f-94ce-459a800ea6fb","system_id":"levelo_inurba_marseille","lat":43.2407,"lon":5.37766,"is_reserved":false,"is_disabled":false,"rental_uris":{"android":"levelo://app?vid=61e4a5be-8f04-4c3f-94ce-459a800ea6fb","ios":"levelo://app?vid=61e4a5be-8f04-4c3f-94ce-459a800ea6fb"},"vehicle_type_id":"4","last_reported":1737536996,"current_range_meters":21600,"station_id":"ce4bhnp2rcd13ifvqgvg","pricing_plan_id":"cebpf4jnsgd1na2vs0mg"},{"bike_id":"f5b04eba-d976-4a88-a384-7207daf1f229","system_id":"levelo_inurba_marseille","lat":43.336047,"lon":5.410287,"is_reserved":false,"is_disabled":false,"rental_uris":{"android":"levelo://app?vid=f5b04eba-d976-4a88-a384-7207daf1f229","ios":"levelo://app?vid=f5b04eba-d976-4a88-a384-7207daf1f229"},"vehicle_type_id":"4","last_reported":1737536996,"current_range_meters":27200,"station_id":"ce4bhqh2rcd13ifvqhmg","pricing_plan_id":"cebpf4jnsgd1na2vs0mg"},{"bike_id":"0be7b2c7-2777-4b25-8850-4a2e896eb2fe","system_id":"levelo_inurba_marseille","lat":43.27498,"lon":5.3981,"is_reserved":false,"is_disabled":false,"rental_uris":{"android":"levelo://app?vid=0be7b2c7-2777-4b25-8850-4a2e896eb2fe","ios":"levelo://app?vid=0be7b2c7-2777-4b25-8850-4a2e896eb2fe"},"vehicle_type_id":"4","last_reported":1737536996,"current_range_meters":12400,"station_id":"","pricing_plan_id":"cebpf4jnsgd1na2vs0mg"},{"bike_id":"d0997201-ec75-42f2-8313-65e04cf609c0","system_id":"levelo_inurba_marseille","lat":43.24067,"lon":5.37763,"is_reserved":false,"is_disabled":false,"rental_uris":{"android":"levelo://app?vid=d0997201-ec75-42f2-8313-65e04cf609c0","ios":"levelo://app?vid=d0997201-ec75-42f2-8313-65e04cf609c0"},"vehicle_type_id":"4","last_reported":1737536996,"current_range_meters":10000,"station_id":"ce4bhnp2rcd13ifvqgvg","pricing_plan_id":"cebpf4jnsgd1na2vs0mg"},{"bike_id":"fe7011bb-5454-4247-a00a-90c1b444d493","system_id":"levelo_inurba_marseille","lat":43.23955,"lon":5.36655,"is_reserved":false,"is_disabled":false,"rental_uris":{"android":"levelo://app?vid=fe7011bb-5454-4247-a00a-90c1b444d493","ios":"levelo://app?vid=fe7011bb-5454-4247-a00a-90c1b444d493"},"vehicle_type_id":"4","last_reported":1737536996,"current_range_meters":9600,"station_id":"ce4bhi12rcd13ifvqfp0","pricing_plan_id":"cebpf4jnsgd1na2vs0mg"},{"bike_id":"de54a39c-85a2-40b1-b3e0-a69725dd3d03","system_id":"levelo_inurba_marseille","lat":43.26925,"lon":5.40295,"is_reserved":false,"is_disabled":false,"rental_uris":{"android":"levelo://app?vid=de54a39c-85a2-40b1-b3e0-a69725dd3d03","ios":"levelo://app?vid=de54a39c-85a2-40b1-b3e0-a69725dd3d03"},"vehicle_type_id":"4","last_reported":1737536996,"current_range_meters":38000,"station_id":"cjm6bp8fraef2m0cb0m0","pricing_plan_id":"cebpf4jnsgd1na2vs0mg"},{"bike_id":"75d5fc2f-d46b-4ecb-ba71-c08e0bd8a730","system_id":"levelo_inurba_marseille","lat":43.24054,"lon":5.37749,"is_reserved":false,"is_disabled":true,"rental_uris":{"android":"levelo://app?vid=75d5fc2f-d46b-4ecb-ba71-c08e0bd8a730","ios":"levelo://app?vid=75d5fc2f-d46b-4ecb-ba71-c08e0bd8a730"},"vehicle_type_id":"4","last_reported":1737536996,"current_range_meters":1600,"station_id":"ce4bhnp2rcd13ifvqgvg","pricing_plan_id":"cebpf4jnsgd1na2vs0mg"},{"bike_id":"f0b7ede6-ae3e-4357-996f-96fcff157b0f","system_id":"levelo_inurba_marseille","lat":43.32535,"lon":5.41453,"is_reserved":false,"is_disabled":true,"rental_uris":{"android":"levelo://app?vid=f0b7ede6-ae3e-4357-996f-96fcff157b0f","ios":"levelo://app?vid=f0b7ede6-ae3e-4357-996f-96fcff157b0f"},"vehicle_type_id":"4","last_reported":1737536996,"current_range_meters":38000,"station_id":"ce4bhq12rcd13ifvqhhg","pricing_plan_id":"cebpf4jnsgd1na2vs0mg"},{"bike_id":"124c9a7e-ac93-4042-a17e-ce5f8e892a37","system_id":"levelo_inurba_marseille","lat":43.32503,"lon":5.36716,"is_reserved":false,"is_disabled":false,"rental_uris":{"android":"levelo://app?vid=124c9a7e-ac93-4042-a17e-ce5f8e892a37","ios":"levelo://app?vid=124c9a7e-ac93-4042-a17e-ce5f8e892a37"},"vehicle_type_id":"4","last_reported":1737536996,"current_range_meters":6800,"station_id":"","pricing_plan_id":"cebpf4jnsgd1na2vs0mg"},{"bike_id":"a135673d-732d-4ab1-8ced-2bc098fc353d","system_id":"levelo_inurba_marseille","lat":43.270555,"lon":5.402597,"is_reserved":false,"is_disabled":false,"rental_uris":{"android":"levelo://app?vid=a135673d-732d-4ab1-8ced-2bc098fc353d","ios":"levelo://app?vid=a135673d-732d-4ab1-8ced-2bc098fc353d"},"vehicle_type_id":"4","last_reported":1737536996,"current_range_meters":23200,"station_id":"ce4bhk92rcd13ifvqgc0","pricing_plan_id":"cebpf4jnsgd1na2vs0mg"},{"bike_id":"aae7e03d-5289-421a-9035-b75ee928b86a","system_id":"levelo_inurba_marseille","lat":43.24072,"lon":5.37751,"is_reserved":false,"is_disabled":false,"rental_uris":{"android":"levelo://app?vid=aae7e03d-5289-421a-9035-b75ee928b86a","ios":"levelo://app?vid=aae7e03d-5289-421a-9035-b75ee928b86a"},"vehicle_type_id":"4","last_reported":1737536996,"current_range_meters":7200,"station_id":"ce4bhnp2rcd13ifvqgvg","pricing_plan_id":"cebpf4jnsgd1na2vs0mg"},{"bike_id":"ae0bbd57-f7db-40a7-bc84-00325ac093a7","system_id":"levelo_inurba_marseille","lat":43.32109,"lon":5.36821,"is_reserved":false,"is_disabled":false,"rental_uris":{"android":"levelo://app?vid=ae0bbd57-f7db-40a7-bc84-00325ac093a7","ios":"levelo://app?vid=ae0bbd57-f7db-40a7-bc84-00325ac093a7"},"vehicle_type_id":"4","last_reported":1737536996,"current_range_meters":22400,"station_id":"ce4bhrh2rcd13ifvqhug","pricing_plan_id":"cebpf4jnsgd1na2vs0mg"},{"bike_id":"17d25b50-a10e-43fb-882d-9c9dc2188e51","system_id":"levelo_inurba_marseille","lat":43.33602,"lon":5.41023,"is_reserved":false,"is_disabled":false,"rental_uris":{"android":"levelo://app?vid=17d25b50-a10e-43fb-882d-9c9dc2188e51","ios":"levelo://app?vid=17d25b50-a10e-43fb-882d-9c9dc2188e51"},"vehicle_type_id":"4","last_reported":1737536996,"current_range_meters":8800,"station_id":"ce4bhqh2rcd13ifvqhmg","pricing_plan_id":"cebpf4jnsgd1na2vs0mg"},{"bike_id":"ba769519-d785-483e-a5f5-f1a1ebdda9f3","system_id":"levelo_inurba_marseille","lat":43.27919,"lon":5.41191,"is_reserved":false,"is_disabled":true,"rental_uris":{"android":"levelo://app?vid=ba769519-d785-483e-a5f5-f1a1ebdda9f3","ios":"levelo://app?vid=ba769519-d785-483e-a5f5-f1a1ebdda9f3"},"vehicle_type_id":"4","last_reported":1737536996,"current_range_meters":0,"station_id":"","pricing_plan_id":"cebpf4jnsgd1na2vs0mg"},{"bike_id":"5aff4fe0-bf62-4dab-94ad-8db7d9d98b12","system_id":"levelo_inurba_marseille","lat":43.29227,"lon":5.36059,"is_reserved":false,"is_disabled":false,"rental_uris":{"android":"levelo://app?vid=5aff4fe0-bf62-4dab-94ad-8db7d9d98b12","ios":"levelo://app?vid=5aff4fe0-bf62-4dab-94ad-8db7d9d98b12"},"vehicle_type_id":"4","last_reported":1737536996,"current_range_meters":36800,"station_id":"ce4bhbh2rcd13ifvqeqg","pricing_plan_id":"cebpf4jnsgd1na2vs0mg"},{"bike_id":"b76a1ecc-7d85-471e-b218-134ef5c942e1","system_id":"levelo_inurba_marseille","lat":43.32357,"lon":5.40629,"is_reserved":false,"is_disabled":false,"rental_uris":{"android":"levelo://app?vid=b76a1ecc-7d85-471e-b218-134ef5c942e1","ios":"levelo://app?vid=b76a1ecc-7d85-471e-b218-134ef5c942e1"},"vehicle_type_id":"4","last_reported":1737536996,"current_range_meters":22400,"station_id":"ce4bhq92rcd13ifvqhjg","pricing_plan_id":"cebpf4jnsgd1na2vs0mg"},{"bike_id":"401b8474-3c2e-4106-ad30-96ea6a9ba2df","system_id":"levelo_inurba_marseille","lat":43.3127,"lon":5.40161,"is_reserved":false,"is_disabled":false,"rental_uris":{"android":"levelo://app?vid=401b8474-3c2e-4106-ad30-96ea6a9ba2df","ios":"levelo://app?vid=401b8474-3c2e-4106-ad30-96ea6a9ba2df"},"vehicle_type_id":"4","last_reported":1737536996,"current_range_meters":37600,"station_id":"ce4bh092rcd13ifvqd30","pricing_plan_id":"cebpf4jnsgd1na2vs0mg"},{"bike_id":"8f00a781-fdeb-4314-9b0d-06e54016dd1b","system_id":"levelo_inurba_marseille","lat":43.26678,"lon":5.38277,"is_reserved":false,"is_disabled":false,"rental_uris":{"android":"levelo://app?vid=8f00a781-fdeb-4314-9b0d-06e54016dd1b","ios":"levelo://app?vid=8f00a781-fdeb-4314-9b0d-06e54016dd1b"},"vehicle_type_id":"4","last_reported":1737536996,"current_range_meters":38800,"station_id":"ce4bhg92rcd13ifvqf90","pricing_plan_id":"cebpf4jnsgd1na2vs0mg"},{"bike_id":"f18ee360-d004-4ff1-a56b-244e81134406","system_id":"levelo_inurba_marseille","lat":43.24076,"lon":5.3773,"is_reserved":false,"is_disabled":false,"rental_uris":{"android":"levelo://app?vid=f18ee360-d004-4ff1-a56b-244e81134406","ios":"levelo://app?vid=f18ee360-d004-4ff1-a56b-244e81134406"},"vehicle_type_id":"4","last_reported":1737536996,"current_range_meters":31200,"station_id":"ce4bhnp2rcd13ifvqgvg","pricing_plan_id":"cebpf4jnsgd1na2vs0mg"},{"bike_id":"28a1d0b7-a9fa-47d7-aa2a-5338f1abf170","system_id":"levelo_inurba_marseille","lat":43.29602,"lon":5.38128,"is_reserved":false,"is_disabled":true,"rental_uris":{"android":"levelo://app?vid=28a1d0b7-a9fa-47d7-aa2a-5338f1abf170","ios":"levelo://app?vid=28a1d0b7-a9fa-47d7-aa2a-5338f1abf170"},"vehicle_type_id":"4","last_reported":1737536996,"current_range_meters":0,"station_id":"ce4bgl12rcd13ifvqbo0","pricing_plan_id":"cebpf4jnsgd1na2vs0mg"},