{"last_updated":1743876727,"ttl":60,"version":"2.2","data":{"bikes":[{"bike_id":"e32b8dbd-917e-4881-9e53-fda8d5740045","system_id":"levelo_inurba_marseille","lat":43.28994,"lon":5.35606,"is_reserved":false,"is_disabled":false,"rental_uris":{"android":"levelo://app?vid=e32b8dbd-917e-4881-9e53-fda8d5740045","ios":"levelo://app?vid=e32b8dbd-917e-4881-9e53-fda8d5740045"},"vehicle_type_id":"4","last_reported":1743876727,"current_range_meters":2800,"station_id":"ce4bhb92rcd13ifvqen0","pricing_plan_id":"cebpf4jnsgd1na2vs0mg"},{"bike_id":"2cb55085-db98-4b0a-9d7e-c992258da0f7","system_id":"levelo_inurba_marseille","lat":43.27213,"lon":5.39176,"is_reserved":false,"is_disabled":false,"rental_uris":{"android":"levelo://app?vid=2cb55085-db98-4b0a-9d7e-c992258da0f7","ios":"levelo://app?vid=2cb55085-db98-4b0a-9d7e-c992258da0f7"},"vehicle_type_id":"4","last_reported":1743876727,"current_range_meters":2800,"station_id":"ce4bhhp2rcd13ifvqfm0","pricing_plan_id":"cebpf4jnsgd1na2vs0mg"},{"bike_id":"7898cdc6-cdc5-4ad6-9ac5-748e3e6ae3a0","system_id":"levelo_inurba_marseille","lat":43.283289,"lon":5.350223,"is_reserved":false,"is_disabled":false,"rental_uris":{"android":"levelo://app?vid=7898cdc6-cdc5-4ad6-9ac5-748e3e6ae3a0","ios":"levelo://app?vid=7898cdc6-cdc5-4ad6-9ac5-748e3e6ae3a0"},"vehicle_type_id":"4","last_reported":1743876727,"current_range_meters":2800,"station_id":"ce4bhbp2rcd13ifvqerg","pricing_plan_id":"cebpf4jnsgd1na2vs0mg"},{"bike_id":"e80766a1-7de2-48e3-900b-2a181da9ec19","system_id":"levelo_inurba_marseille","lat":43.28092,"lon":5.37835,"is_reserved":false,"is_disabled":false,"rental_uris":{"android":"levelo://app?vid=e80766a1-7de2-48e3-900b-2a181da9ec19","ios":"levelo://app?vid=e80766a1-7de2-48e3-900b-2a181da9ec19"},"vehicle_type_id":"4","last_reported":1743876727,"current_range_meters":2800,"station_id":"ce4bha12rcd13ifvqee0","pricing_plan_id":"cebpf4jnsgd1na2vs0mg"},{"bike_id":"c1805ee5-a9d8-4cef-a26b-de4f1477b09e","system_id":"levelo_inurba_marseille","lat":43.299591,"lon":5.384847,"is_reserved":false,"is_disabled":false,"rental_uris":{"android":"levelo://app?vid=c1805ee5-a9d8-4cef-a26b-de4f1477b09e","ios":"levelo://app?vid=c1805ee5-a9d8-4cef-a26b-de4f1477b09e"},"vehicle_type_id":"4","last_reported":1743876727,"current_range_meters":4000,"station_id":"ce4bgj92rcd13ifvqbd0","pricing_plan_id":"cebpf4jnsgd1na2vs0mg"},{"bike_id":"c334e90a-a1ae-4b1c-a131-dfc94bbc62e8","system_id":"levelo_inurba_marseille","lat":43.28942,"lon":5.3639,"is_reserved":false,"is_disabled":true,"rental_uris":{"android":"levelo://app?vid=c334e90a-a1ae-4b1c-a131-dfc94bbc62e8","ios":"levelo://app?vid=c334e90a-a1ae-4b1c-a131-dfc94bbc62e8"},"vehicle_type_id":"4","last_reported":1743876727,"current_range_meters":2800,"station_id":"ce4bhc92rcd13ifvqetg","pricing_plan_id":"cebpf4jnsgd1na2vs0mg"},{"bike_id":"0f3f1e7e-3afe-4ea2-9d0e-6a9dda0edd3d","system_id":"levelo_inurba_marseille","lat":43.28426,"lon":5.37511,"is_reserved":false,"is_disabled":false,"rental_uris":{"android":"levelo://app?vid=0f3f1e7e-3afe-4ea2-9d0e-6a9dda0edd3d","ios":"levelo://app?vid=0f3f1e7e-3afe-4ea2-9d0e-6a9dda0edd3d"},"vehicle_type_id":"4","last_reported":1743876727,"current_range_meters":2800,"station_id":"ce4bh412rcd13ifvqds0","pricing_plan_id":"cebpf4jnsgd1na2vs0mg"},{"bike_id":"ea64ce70-e20d-496c-ab55-9015ed50b2a6","system_id":"levelo_inurba_marseille","lat":43.282611,"lon":5.350559,"is_reserved":false,"is_disabled":false,"rental_uris":{"android":"levelo://app?vid=ea64ce70-e20d-496c-ab55-9015ed50b2a6","ios":"levelo://app?vid=ea64ce70-e20d-496c-ab55-9015ed50b2a6"},"vehicle_type_id":"4","last_reported":1743876727,"current_range_meters":2800,"station_id":"ce4bhbp2rcd13ifvqerg","pricing_plan_id":"cebpf4jnsgd1na2vs0mg"},{"bike_id":"b2cbb2bf-d88e-4c6a-a7ef-293c329bbc8e","system_id":"levelo_inurba_marseille","lat":43.2655,"lon":5.37281,"is_reserved":false,"is_disabled":false,"rental_uris":{"android":"levelo://app?vid=b2cbb2bf-d88e-4c6a-a7ef-293c329bbc8e","ios":"levelo://app?vid=b2cbb2bf-d88e-4c6a-a7ef-293c329bbc8e"},"vehicle_type_id":"4","last_reported":1743876727,"current_range_meters":2800,"station_id":"ce4bhg12rcd13ifvqf70","pricing_plan_id":"cebpf4jnsgd1na2vs0mg"},{"bike_id":"38ba90d3-51ea-43c9-bb03-bf57c11cac5b","system_id":"levelo_inurba_marseille","lat":43.26952,"lon":5.38633,"is_reserved":false,"is_disabled":false,"rental_uris":{"android":"levelo://app?vid=38ba90d3-51ea-43c9-bb03-bf57c11cac5b","ios":"levelo://app?vid=38ba90d3-51ea-43c9-bb03-bf57c11cac5b"},"vehicle_type_id":"4","last_reported":1743876727,"current_range_meters":3200,"station_id":"ce4bhh92rcd13ifvqfh0","pricing_plan_id":"cebpf4jnsgd1na2vs0mg"},{"bike_id":"2947ce29-c55a-4f00-b57b-cb647d290c55","system_id":"levelo_inurba_marseille","lat":43.248067,"lon":5.374533,"is_reserved":false,"is_disabled":true,"rental_uris":{"android":"levelo://app?vid=2947ce29-c55a-4f00-b57b-cb647d290c55","ios":"levelo://app?vid=2947ce29-c55a-4f00-b57b-cb647d290c55"},"vehicle_type_id":"4","last_reported":1743876727,"current_range_meters":3200,"station_id":"ce4bhgh2rcd13ifvqfb0","pricing_plan_id":"cebpf4jnsgd1na2vs0mg"},{"bike_id":"b5349f7b-6f69-44a5-82f3-2980fe38c852","system_id":"levelo_inurba_marseille","lat":43.24795,"lon":5.3745,"is_reserved":false,"is_disabled":false,"rental_uris":{"android":"levelo://app?vid=b5349f7b-6f69-44a5-82f3-2980fe38c852","ios":"levelo://app?vid=b5349f7b-6f69-44a5-82f3-2980fe38c852"},"vehicle_type_id":"4","last_reported":1743876727,"current_range_meters":3200,"station_id":"ce4bhgh2rcd13ifvqfb0","pricing_plan_id":"cebpf4jnsgd1na2vs0mg"},{"bike_id":"ead71a14-a3c6-4556-ac9f-3c5cd14c8b53","system_id":"levelo_inurba_marseille","lat":43.26195,"lon":5.37459,"is_reserved":false,"is_disabled":false,"rental_uris":{"android":"levelo://app?vid=ead71a14-a3c6-4556-ac9f-3c5cd14c8b53","ios":"levelo://app?vid=ead71a14-a3c6-4556-ac9f-3c5cd14c8b53"},"vehicle_type_id":"4","last_reported":1743876727,"current_range_meters":3200,"station_id":"ce4bhgp2rcd13ifvqfc0","pricing_plan_id":"cebpf4jnsgd1na2vs0mg"},{"bike_id":"5ca6e8c5-294b-49bb-b113-a9faee54bd52","system_id":"levelo_inurba_marseille","lat":43.29257,"lon":5.38433,"is_reserved":false,"is_disabled":false,"rental_uris":{"android":"levelo://app?vid=5ca6e8c5-294b-49bb-b113-a9faee54bd52","ios":"levelo://app?vid=5ca6e8c5-294b-49bb-b113-a9faee54bd52"},"vehicle_type_id":"4","last_reported":1743876727,"current_range_meters":3200,"station_id":"ce4bh692rcd13ifvqea0","pricing_plan_id":"cebpf4jnsgd1na2vs0mg"},{"bike_id":"2dd2ca3d-4991-4739-a46f-831a32895452","system_id":"levelo_inurba_marseille","lat":43.2913,"lon":5.35578,"is_reserved":false,"is_disabled":true,"rental_uris":{"android":"levelo://app?vid=2dd2ca3d-4991-4739-a46f-831a32895452","ios":"levelo://app?vid=2dd2ca3d-4991-4739-a46f-831a32895452"},"vehicle_type_id":"4","last_reported":1743876727,"current_range_meters":3200,"station_id":"","pricing_plan_id":"cebpf4jnsgd1na2vs0mg"},{"bike_id":"0ee096ed-d5b0-4067-b5bf-4b95a017b328","system_id":"levelo_inurba_marseille","lat":43.30946,"lon":5.39037,"is_reserved":false,"is_disabled":false,"rental_uris":{"android":"levelo://app?vid=0ee096ed-d5b0-4067-b5bf-4b95a017b328","ios":"levelo://app?vid=0ee096ed-d5b0-4067-b5bf-4b95a017b328"},"vehicle_type_id":"4","last_reported":1743876727,"current_range_meters":3200,"station_id":"ce4bgup2rcd13ifvqco0","pricing_plan_id":"cebpf4jnsgd1na2vs0mg"},{"bike_id":"9afb3cfb-3b7c-44be-a311-f0ffb827c807","system_id":"levelo_inurba_marseille","lat":43.24807,"lon":5.37457,"is_reserved":false,"is_disabled":false,"rental_uris":{"android":"levelo://app?vid=9afb3cfb-3b7c-44be-a311-f0ffb827c807","ios":"levelo://app?vid=9afb3cfb-3b7c-44be-a311-f0ffb827c807"},"vehicle_type_id":"4","last_reported":1743876727,"current_range_meters":3200,"station_id":"ce4bhgh2rcd13ifvqfb0","pricing_plan_id":"cebpf4jnsgd1na2vs0mg"},{"bike_id":"7193889a-64ed-4cdb-a5b4-348e431a0fb9","system_id":"levelo_inurba_marseille","lat":43.29786,"lon":5.39343,"is_reserved":false,"is_disabled":false,"rental_uris":{"android":"levelo://app?vid=7193889a-64ed-4cdb-a5b4-348e431a0fb9","ios":"levelo://app?vid=7193889a-64ed-4cdb-a5b4-348e431a0fb9"},"vehicle_type_id":"4","last_reported":1743876727,"current_range_meters":3200,"station_id":"chh1huq6cuj3fo74tm60","pricing_plan_id":"cebpf4jnsgd1na2vs0mg"},{"bike_id":"4478c25e-d578-4c7b-96b5-c3ace36a87e4","system_id":"levelo_inurba_marseille","lat":43.27354,"lon":5.36227,"is_reserved":false,"is_disabled":false,"rental_uris":{"android":"levelo://app?vid=4478c25e-d578-4c7b-96b5-c3ace36a87e4","ios":"levelo://app?vid=4478c25e-d578-4c7b-96b5-c3ace36a87e4"},"vehicle_type_id":"4","last_reported":1743876727,"current_range_meters":3200,"station_id":"ce4bhbh2rcd13ifvqeo0","pricing_plan_id":"cebpf4jnsgd1na2vs0mg"},{"bike_id":"b430d311-5757-44ef-87bf-7c5e35f389f3","system_id":"levelo_inurba_marseille","lat":43.30317,"lon":5.40433,"is_reserved":false,"is_disabled":false,"rental_uris":{"android":"levelo://app?vid=b430d311-5757-44ef-87bf-7c5e35f389f3","ios":"levelo://app?vid=b430d311-5757-44ef-87bf-7c5e35f389f3"},"vehicle_type_id":"4","last_reported":1743876727,"current_range_meters":3200,"station_id":"ce4bh012rcd13ifvqd10","pricing_plan_id":"cebpf4jnsgd1na2vs0mg"},{"bike_id":"f5cf8f4a-a5da-48a0-92a5-f8ab03af092a","system_id":"levelo_inurba_marseille","lat":43.29706,"lon":5.36612,"is_reserved":false,"is_disabled":false,"rental_uris":{"android":"levelo://app?vid=f5cf8f4a-a5da-48a0-92a5-f8ab03af092a","ios":"levelo://app?vid=f5cf8f4a-a5da-48a0-92a5-f8ab03af092a"},"vehicle_type_id":"4","last_reported":1743876727,"current_range_meters":3200,"station_id":"ce4bgn12rcd13ifvqbt0","pricing_plan_id":"cebpf4jnsgd1na2vs0mg"},{"bike_id":"50fbff52-5fb8-4076-84ef-845283160943","system_id":"levelo_inurba_marseille","lat":43.30087,"lon":5.39085,"is_reserved":false,"is_disabled":false,"rental_uris":{"android":"levelo://app?vid=50fbff52-5fb8-4076-84ef-845283160943","ios":"levelo://app?vid=50fbff52-5fb8-4076-84ef-845283160943"},"vehicle_type_id":"4","last_reported":1743876727,"current_range_meters":3200,"station_id":"ce4bh192rcd13ifvqdb0","pricing_plan_id":"cebpf4jnsgd1na2vs0mg"},{"bike_id":"392bab13-99db-4538-944b-dee6c39bc607","system_id":"levelo_inurba_marseille","lat":43.29298,"lon":5.37169,"is_reserved":false,"is_disabled":false,"rental_uris":{"android":"levelo://app?vid=392bab13-99db-4538-944b-dee6c39bc607","ios":"levelo://app?vid=392bab13-99db-4538-944b-dee6c39bc607"},"vehicle_type_id":"4","last_reported":1743876727,"current_range_meters":3600,"station_id":"ce4bgh92rcd13ifvqb40","pricing_plan_id":"cebpf4jnsgd1na2vs0mg"},{"bike_id":"7c74100e-2b4f-4c35-92e0-4536d8587d3c","system_id":"levelo_inurba_marseille","lat":43.26808,"lon":5.40282,"is_reserved":false,"is_disabled":false,"rental_uris":{"android":"levelo://app?vid=7c74100e-2b4f-4c35-92e0-4536d8587d3c","ios":"levelo://app?vid=7c74100e-2b4f-4c35-92e0-4536d8587d3c"},"vehicle_type_id":"4","last_reported":1743876727,"current_range_meters":3600,"station_id":"ce501612rcd8frsf0b60","pricing_plan_id":"cebpf4jnsgd1na2vs0mg"},{"bike_id":"61e62079-5ebb-463b-9a52-b27e6b748d6b","system_id":"levelo_inurba_marseille","lat":43.29302,"lon":5.37171,"is_reserved":false,"is_disabled":false,"rental_uris":{"android":"levelo://app?vid=61e62079-5ebb-463b-9a52-b27e6b748d6b","ios":"levelo://app?vid=61e62079-5ebb-463b-9a52-b27e6b748d6b"},"vehicle_type_id":"4","last_reported":1743876727,"current_range_meters":3600,"station_id":"ce4bgh92rcd13ifvqb40","pricing_plan_id":"cebpf4jnsgd1na2vs0mg"},{"bike_id":"6847ef93-24cb-4717-81ac-eb1646d04969","system_id":"levelo_inurba_marseille","lat":43.28044,"lon":5.36949,"is_reserved":false,"is_disabled":false,"rental_uris":{"android":"levelo://app?vid=6847ef93-24cb-4717-81ac-eb1646d04969","ios":"levelo://app?vid=6847ef93-24cb-4717-81ac-eb1646d04969"},"vehicle_type_id":"4","last_reported":1743876727,"current_range_meters":3600,"station_id":"ce4bha12rcd13ifvqef0","pricing_plan_id":"cebpf4jnsgd1na2vs0mg"},{"bike_id":"54d1a97a-acf8-4813-bdd7-fb5bc86a7e5e","system_id":"levelo_inurba_marseille","lat":43.28475,"lon":5.38566,"is_reserved":false,"is_disabled":false,"rental_uris":{"android":"levelo://app?vid=54d1a97a-acf8-4813-bdd7-fb5bc86a7e5e","ios":"levelo://app?vid=54d1a97a-acf8-4813-bdd7-fb5bc86a7e5e"},"vehicle_type_id":"4","last_reported":1743876727,"current_range_meters":3600,"station_id":"ce4bh8p2rcd13ifvqeb0","pricing_plan_id":"cebpf4jnsgd1na2vs0mg"},{"bike_id":"fc333f3e-9c57-4d6c-91e5-9fcf405b41e1","system_id":"levelo_inurba_marseille","lat":43.2904,"lon":5.37563,"is_reserved":false,"is_disabled":false,"rental_uris":{"android":"levelo://app?vid=fc333f3e-9c57-4d6c-91e5-9fcf405b41e1","ios":"levelo://app?vid=fc333f3e-9c57-4d6c-91e5-9fcf405b41e1"},"vehicle_type_id":"4","last_reported":1743876727,"current_range_meters":3600,"station_id":"ce4bh692rcd13ifvqe90","pricing_plan_id":"cebpf4jnsgd1na2vs0mg"},{"bike_id":"de8f46d6-634d-412e-803d-fd95dfeb63c9","system_id":"levelo_inurba_marseille","lat":43.25491,"lon":5.37648,"is_reserved":false,"is_disabled":false,"rental_uris":{"android":"levelo://app?vid=de8f46d6-634d-412e-803d-fd95dfeb63c9","ios":"levelo://app?vid=de8f46d6-634d-412e-803d-fd95dfeb63c9"},"vehicle_type_id":"4","last_reported":1743876727,"current_range_meters":3600,"station_id":"ce4bhh12rcd13ifvqff0","pricing_plan_id":"cebpf4jnsgd1na2vs0mg"},{"bike_id":"fd0388bf-a564-4286-b8c5-23c7daf72f30","system_id":"levelo_inurba_marseille","lat":43.29944,"lon":5.36519,"is_reserved":false,"is_disabled":false,"rental_uris":{"android":"levelo://app?vid=fd0388bf-a564-4286-b8c5-23c7daf72f30","ios":"levelo://app?vid=fd0388bf-a564-4286-b8c5-23c7daf72f30"},"vehicle_type_id":"4","last_reported":1743876727,"current_range_meters":3600,"station_id":"ce4bgm92rcd13ifvqbr0","pricing_plan_id":"cebpf4jnsgd1na2vs0mg"},{"bike_id":"2423f9e9-3133-4423-82ab-0e5116f9091e","system_id":"levelo_inurba_marseille","lat":43.26568,"lon":5.37325,"is_reserved":false,"is_disabled":false,"rental_uris":{"android":"levelo://app?vid=2423f9e9-3133-4423-82ab-0e5116f9091e","ios":"levelo://app?vid=2423f9e9-3133-4423-82ab-0e5116f9091e"},"vehicle_type_id":"4","last_reported":1743876727,"current_range_meters":3600,"station_id":"ce4bhg12rcd13ifvqf70","pricing_plan_id":"cebpf4jnsgd1na2vs0mg"},{"bike_id":"fed25cf4-7be8-408e-848d-a778b08cb7e9","system_id":"levelo_inurba_marseille","lat":43.29902,"lon":5.43673,"is_reserved":false,"is_disabled":false,"rental_uris":{"android":"levelo://app?vid=fed25cf4-7be8-408e-848d-a778b08cb7e9","ios":"levelo://app?vid=fed25cf4-7be8-408e-848d-a778b08cb7e9"},"vehicle_type_id":"4","last_reported":1743876727,"current_range_meters":3600,"station_id":"ce4bhpp2rcd13ifvqhfg","pricing_plan_id":"cebpf4jnsgd1na2vs0mg"},{"bike_id":"fccdc390-177d-4d65-ad1d-6a4ce9edd117","system_id":"levelo_inurba_marseille","lat":43.27834,"lon":5.39215,"is_reserved":false,"is_disabled":false,"rental_uris":{"android":"levelo://app?vid=fccdc390-177d-4d65-ad1d-6a4ce9edd117","ios":"levelo://app?vid=fccdc390-177d-4d65-ad1d-6a4ce9edd117"},"vehicle_type_id":"4","last_reported":1743876727,"current_range_meters":3600,"station_id":"ce4bhjp2rcd13ifvqga0","pricing_plan_id":"cebpf4jnsgd1na2vs0mg"},{"bike_id":"f3d67351-f957-424c-ac58-af59a5aa071a","system_id":"levelo_inurba_marseille","lat":43.29963,"lon":5.38495,"is_reserved":false,"is_disabled":false,"rental_uris":{"android":"levelo://app?vid=f3d67351-f957-424c-ac58-af59a5aa071a","ios":"levelo://app?vid=f3d67351-f957-424c-ac58-af59a5aa071a"},"vehicle_type_id":"4","last_reported":1743876727,"current_range_meters":4000,"station_id":"ce4bgj92rcd13ifvqbd0","pricing_plan_id":"cebpf4jnsgd1na2vs0mg"},{"bike_id":"46ab1a5f-8d37-48de-9ef6-b390a7676eca","system_id":"levelo_inurba_marseille","lat":43.30945,"lon":5.39064,"is_reserved":false,"is_disabled":false,"rental_uris":{"android":"levelo://app?vid=46ab1a5f-8d37-48de-9ef6-b390a7676eca","ios":"levelo://app?vid=46ab1a5f-8d37-48de-9ef6-b390a7676eca"},"vehicle_type_id":"4","last_reported":1743876727,"current_range_meters":4000,"station_id":"ce4bgup2rcd13ifvqco0","pricing_plan_id":"cebpf4jnsgd1na2vs0mg"},{"bike_id":"5e58074e-2499-49d9-974d-f4b5b8facf93","system_id":"levelo_inurba_marseille","lat":43.27808,"lon":5.40708,"is_reserved":false,"is_disabled":false,"rental_uris":{"android":"levelo://app?vid=5e58074e-2499-49d9-974d-f4b5b8facf93","ios":"levelo://app?vid=5e58074e-2499-49d9-974d-f4b5b8facf93"},"vehicle_type_id":"4","last_reported":1743876727,"current_range_meters":4000,"station_id":"ce4bhnh2rcd13ifvqgtg","pricing_plan_id":"cebpf4jnsgd1na2vs0mg"},{"bike_id":"d75b7b3c-294d-44f6-87e9-4123badd28f8","system_id":"levelo_inurba_marseille","lat":43.27561,"lon":5.38416,"is_reserved":false,"is_disabled":false,"rental_uris":{"android":"levelo://app?vid=d75b7b3c-294d-44f6-87e9-4123badd28f8","ios":"levelo://app?vid=d75b7b3c-294d-44f6-87e9-4123badd28f8"},"vehicle_type_id":"4","last_reported":1743876727,"current_range_meters":3600,"station_id":"ce4bhh92rcd13ifvqfi0","pricing_plan_id":"cebpf4jnsgd1na2vs0mg"},{"bike_id":"d068b854-b85b-426c-9ad9-8713ef79f66d","system_id":"levelo_inurba_marseille","lat":43.288677,"lon":5.358408,"is_reserved":false,"is_disabled":false,"rental_uris":{"android":"levelo://app?vid=d068b854-b85b-426c-9ad9-8713ef79f66d","ios":"levelo://app?vid=d068b854-b85b-426c-9ad9-8713ef79f66d"},"vehicle_type_id":"4","last_reported":1743876727,"current_range_meters":4000,"station_id":"ce4bhb12rcd13ifvqem0","pricing_plan_id":"cebpf4jnsgd1na2vs0mg"},{"bike_id":"6750b0ef-859d-4ecf-9437-1109239d7b08","system_id":"levelo_inurba_marseille","lat":43.28719,"lon":5.37433,"is_reserved":false,"is_disabled":false,"rental_uris":{"android":"levelo://app?vid=6750b0ef-859d-4ecf-9437-1109239d7b08","ios":"levelo://app?vid=6750b0ef-859d-4ecf-9437-1109239d7b08"},"vehicle_type_id":"4","last_reported":1743876727,"current_range_meters":4000,"station_id":"ce4bh3p2rcd13ifvqdq0","pricing_plan_id":"cebpf4jnsgd1na2vs0mg"},{"bike_id":"a6ed7d55-4106-48bb-9c99-deb74dd690fc","system_id":"levelo_inurba_marseille","lat":43.28616,"lon":5.35106,"is_reserved":false,"is_disabled":false,"rental_uris":{"android":"levelo://app?vid=a6ed7d55-4106-48bb-9c99-deb74dd690fc","ios":"levelo://app?vid=a6ed7d55-4106-48bb-9c99-deb74dd690fc"},"vehicle_type_id":"4","last_reported":1743876727,"current_range_meters":4400,"station_id":"ce4bhch2rcd13ifvqeug","pricing_plan_id":"cebpf4jnsgd1na2vs0mg"},{"bike_id":"ae40b1e0-6383-4acf-8389-5599dc54e4ce","system_id":"levelo_inurba_marseille","lat":43.23963,"lon":5.36635,"is_reserved":false,"is_disabled":false,"rental_uris":{"android":"levelo://app?vid=ae40b1e0-6383-4acf-8389-5599dc54e4ce","ios":"levelo://app?vid=ae40b1e0-6383-4acf-8389-5599dc54e4ce"},"vehicle_type_id":"4","last_reported":1743876727,"current_range_meters":4400,"station_id":"ce4bhi12rcd13ifvqfp0","pricing_plan_id":"cebpf4jnsgd1na2vs0mg"},{"bike_id":"6b233fa9-bf8e-43df-9501-941f6df93147","system_id":"levelo_inurba_marseille","lat":43.27052,"lon":5.40257,"is_reserved":false,"is_disabled":false,"rental_uris":{"android":"levelo://app?vid=6b233fa9-bf8e-43df-9501-941f6df93147","ios":"levelo://app?vid=6b233fa9-bf8e-43df-9501-941f6df93147"},"vehicle_type_id":"4","last_reported":1743876727,"current_range_meters":4400,"station_id":"ce4bhk92rcd13ifvqgc0","pricing_plan_id":"cebpf4jnsgd1na2vs0mg"},{"bike_id":"4dda47e4-2337-45a1-9d65-2a2e23521eb7","system_id":"levelo_inurba_marseille","lat":43.31076,"lon":5.42434,"is_reserved":false,"is_disabled":false,"rental_uris":{"android":"levelo://app?vid=4dda47e4-2337-45a1-9d65-2a2e23521eb7","ios":"levelo://app?vid=4dda47e4-2337-45a1-9d65-2a2e23521eb7"},"vehicle_type_id":"4","last_reported":1743876727,"current_range_meters":4400,"station_id":"ce4bhp92rcd13ifvqhag","pricing_plan_id":"cebpf4jnsgd1na2vs0mg"},{"bike_id":"5ede3bf2-b2a1-4e9b-8e50-64a4c81aaf66","system_id":"levelo_inurba_marseille","lat":43.27904,"lon":5.38015,"is_reserved":false,"is_disabled":false,"rental_uris":{"android":"levelo://app?vid=5ede3bf2-b2a1-4e9b-8e50-64a4c81aaf66","ios":"levelo://app?vid=5ede3bf2-b2a1-4e9b-8e50-64a4c81aaf66"},"vehicle_type_id":"4","last_reported":1743876727,"current_range_meters":4000,"station_id":"ce4bhf92rcd13ifvqf50","pricing_plan_id":"cebpf4jnsgd1na2vs0mg"},{"bike_id":"c7ea3e48-f127-4978-b5fa-3a1d2ee3631b","system_id":"levelo_inurba_marseille","lat":43.29987,"lon":5.37166,"is_reserved":false,"is_disabled":false,"rental_uris":{"android":"levelo://app?vid=c7ea3e48-f127-4978-b5fa-3a1d2ee3631b","ios":"levelo://app?vid=c7ea3e48-f127-4978-b5fa-3a1d2ee3631b"},"vehicle_type_id":"4","last_reported":1743876727,"current_range_meters":4400,"station_id":"ce4bgr92rcd13ifvqc7g","pricing_plan_id":"cebpf4jnsgd1na2vs0mg"},{"bike_id":"67adb376-a358-493e-a5ed-0ea1baa4a84e","system_id":"levelo_inurba_marseille","lat":43.26209,"lon":5.37432,"is_reserved":false,"is_disabled":false,"rental_uris":{"android":"levelo://app?vid=67adb376-a358-493e-a5ed-0ea1baa4a84e","ios":"levelo://app?vid=67adb376-a358-493e-a5ed-0ea1baa4a84e"},"vehicle_type_id":"4","last_reported":1743876727,"current_range_meters":4400,"station_id":"ce4bhgp2rcd13ifvqfc0","pricing_plan_id":"cebpf4jnsgd1na2vs0mg"},{"bike_id":"695ea2d5-5242-420c-8db2-7cceaa35fe58","system_id":"levelo_inurba_marseille","lat":43.31071,"lon":5.38351,"is_reserved":false,"is_disabled":false,"rental_uris":{"android":"levelo://app?vid=695ea2d5-5242-420c-8db2-7cceaa35fe58","ios":"levelo://app?vid=695ea2d5-5242-420c-8db2-7cceaa35fe58"},"vehicle_type_id":"4","last_reported":1743876727,"current_range_meters":4400,"station_id":"ce4bgv92rcd13ifvqcr0","pricing_plan_id":"cebpf4jnsgd1na2vs0mg"},{"bike_id":"f917f609-5a32-4424-a82b-a6fd6f815fb0","system_id":"levelo_inurba_marseille","lat":43.28941,"lon":5.36647,"is_reserved":false,"is_disabled":false,"rental_uris":{"android":"levelo://app?vid=f917f609-5a32-4424-a82b-a6fd6f815fb0","ios":"levelo://app?vid=f917f609-5a32-4424-a82b-a6fd6f815fb0"},"vehicle_type_id":"4","last_reported":1743876727,"current_range_meters":4800,"station_id":"ce4bhap2rcd13ifvqek0","pricing_plan_id":"cebpf4jnsgd1na2vs0mg"},{"bike_id":"900cc1f8-7651-4113-8058-69adfe25a0d3","system_id":"levelo_inurba_marseille","lat":43.29925,"lon":5.37455,"is_reserved":false,"is_disabled":false,"rental_uris":{"android":"levelo://app?vid=900cc1f8-7651-4113-8058-69adfe25a0d3","ios":"levelo://app?vid=900cc1f8-7651-4113-8058-69adfe25a0d3"},"vehicle_type_id":"4","last_reported":1743876727,"current_range_meters":4800,"station_id":"ce4bgjh2rcd13ifvqbg0","pricing_plan_id":"cebpf4jnsgd1na2vs0mg"},{"bike_id":"a9d3bb19-6a6e-468f-9b3e-c28f2bc00029","system_id":"levelo_inurba_marseille","lat":43.29712,"lon":5.36613,"is_reserved":false,"is_disabled":false,"rental_uris":{"android":"levelo://app?vid=a9d3bb19-6a6e-468f-9b3e-c28f2bc00029","ios":"levelo://app?vid=a9d3bb19-6a6e-468f-9b3e-c28f2bc00029"},"vehicle_type_id":"4","last_reported":1743876727,"current_range_meters":4800,"station_id":"ce4bgn12rcd13ifvqbt0","pricing_plan_id":"cebpf4jnsgd1na2vs0mg"},{"bike_id":"52992c23-543a-4e52-ace5-52452780bd87","system_id":"levelo_inurba_marseille","lat":43.2848,"lon":5.38434,"is_reserved":false,"is_disabled":false,"rental_uris":{"android":"levelo://app?vid=52992c23-543a-4e52-ace5-52452780bd87","ios":"levelo://app?vid=52992c23-543a-4e52-ace5-52452780bd87"},"vehicle_type_id":"4","last_reported":1743876727,"current_range_meters":4800,"station_id":"ce4bh512rcd13ifvqe3g","pricing_plan_id":"cebpf4jnsgd1na2vs0mg"},{"bike_id":"fc7ae292-1bb5-4bb7-9d9d-5d6931f8b516","system_id":"levelo_inurba_marseille","lat":43.28259,"lon":5.35072,"is_reserved":false,"is_disabled":false,"rental_uris":{"android":"levelo://app?vid=fc7ae292-1bb5-4bb7-9d9d-5d6931f8b516","ios":"levelo://app?vid=fc7ae292-1bb5-4bb7-9d9d-5d6931f8b516"},"vehicle_type_id":"4","last_reported":1743876727,"current_range_meters":5600,"station_id":"ce4bhbp2rcd13ifvqerg","pricing_plan_id":"cebpf4jnsgd1na2vs0mg"},{"bike_id":"037a3688-1113-4c7f-803b-25f60b7d4e3b","system_id":"levelo_inurba_marseille","lat":43.24796,"lon":5.37456,"is_reserved":false,"is_disabled":false,"rental_uris":{"android":"levelo://app?vid=037a3688-1113-4c7f-803b-25f60b7d4e3b","ios":"levelo://app?vid=037a3688-1113-4c7f-803b-25f60b7d4e3b"},"vehicle_type_id":"4","last_reported":1743876727,"current_range_meters":5600,"station_id":"ce4bhgh2rcd13ifvqfb0","pricing_plan_id":"cebpf4jnsgd1na2vs0mg"},{"bike_id":"deeeaa76-b5b4-4a3a-8896-3fd819dd6fe8","system_id":"levelo_inurba_marseille","lat":43.29696,"lon":5.36605,"is_reserved":false,"is_disabled":false,"rental_uris":{"android":"levelo://app?vid=deeeaa76-b5b4-4a3a-8896-3fd819dd6fe8","ios":"levelo://app?vid=deeeaa76-b5b4-4a3a-8896-3fd819dd6fe8"},"vehicle_type_id":"4","last_reported":1743876727,"current_range_meters":5600,"station_id":"ce4bgn12rcd13ifvqbt0","pricing_plan_id":"cebpf4jnsgd1na2vs0mg"},{"bike_id":"866d7be4-af44-453c-a0e8-679533a577e0","system_id":"levelo_inurba_marseille","lat":43.25112,"lon":5.4032,"is_reserved":false,"is_disabled":false,"rental_uris":{"android":"levelo://app?vid=866d7be4-af44-453c-a0e8-679533a577e0","ios":"levelo://app?vid=866d7be4-af44-453c-a0e8-679533a577e0"},"vehicle_type_id":"4","last_reported":1743876727,"current_range_meters":4800,"station_id":"ce4bhlh2rcd13ifvqgig","pricing_plan_id":"cebpf4jnsgd1na2vs0mg"},{"bike_id":"1f50cec9-13df-464c-87a2-94da26279ed6","system_id":"levelo_inurba_marseille","lat":43.3025,"lon":5.40081,"is_reserved":false,"is_disabled":false,"rental_uris":{"android":"levelo://app?vid=1f50cec9-13df-464c-87a2-94da26279ed6","ios":"levelo://app?vid=1f50cec9-13df-464c-87a2-94da26279ed6"},"vehicle_type_id":"4","last_reported":1743876727,"current_range_meters":5600,"station_id":"ce4bgvh2rcd13ifvqcs0","pricing_plan_id":"cebpf4jnsgd1na2vs0mg"},{"bike_id":"e3d5d7cd-fa75-46bb-b447-e689ca1fe73c","system_id":"levelo_inurba_marseille","lat":43.286988,"lon":5.399886,"is_reserved":false,"is_disabled":false,"rental_uris":{"android":"levelo://app?vid=e3d5d7cd-fa75-46bb-b447-e689ca1fe73c","ios":"levelo://app?vid=e3d5d7cd-fa75-46bb-b447-e689ca1fe73c"},"vehicle_type_id":"4","last_reported":1743876727,"current_range_meters":5600,"station_id":"","pricing_plan_id":"cebpf4jnsgd1na2vs0mg"},{"bike_id":"e69c43a5-3b92-48a7-a8f6-139bb325f259","system_id":"levelo_inurba_marseille","lat":43.29296,"lon":5.37458,"is_reserved":false,"is_disabled":false,"rental_uris":{"android":"levelo://app?vid=e69c43a5-3b92-48a7-a8f6-139bb325f259","ios":"levelo://app?vid=e69c43a5-3b92-48a7-a8f6-139bb325f259"},"vehicle_type_id":"4","last_reported":1743876727,"current_range_meters":5600,"station_id":"ce4bgi12rcd13ifvqb70","pricing_plan_id":"cebpf4jnsgd1na2vs0mg"},{"bike_id":"f38a8ae7-53ed-400a-a051-76b851441d6a","system_id":"levelo_inurba_marseille","lat":43.282679,"lon":5.350634,"is_reserved":false,"is_disabled":false,"rental_uris":{"android":"levelo://app?vid=f38a8ae7-53ed-400a-a051-76b851441d6a","ios":"levelo://app?vid=f38a8ae7-53ed-400a-a051-76b851441d6a"},"vehicle_type_id":"4","last_reported":1743876727,"current_range_meters":5600,"station_id":"ce4bhbp2rcd13ifvqerg","pricing_plan_id":"cebpf4jnsgd1na2vs0mg"},{"bike_id":"24d12fb5-be01-4b9c-af02-2bc122a28c76","system_id":"levelo_inurba_marseille","lat":43.29535,"lon":5.38548,"is_reserved":false,"is_disabled":false,"rental_uris":{"android":"levelo://app?vid=24d12fb5-be01-4b9c-af02-2bc122a28c76","ios":"levelo://app?vid=24d12fb5-be01-4b9c-af02-2bc122a28c76"},"vehicle_type_id":"4","last_reported":1743876727,"current_range_meters":6000,"station_id":"ce4bgih2rcd13ifvqba0","pricing_plan_id":"cebpf4jnsgd1na2vs0mg"},{"bike_id":"075d86ed-fa62-41b6-86bc-fe8c1994f677","system_id":"levelo_inurba_marseille","lat":43.30409,"lon":5.41255,"is_reserved":false,"is_disabled":false,"rental_uris":{"android":"levelo://app?vid=075d86ed-fa62-41b6-86bc-fe8c1994f677","ios":"levelo://app?vid=075d86ed-fa62-41b6-86bc-fe8c1994f677"},"vehicle_type_id":"4","last_reported":1743876727,"current_range_meters":6000,"station_id":"ce4bhop2rcd13ifvqh8g","pricing_plan_id":"cebpf4jnsgd1na2vs0mg"},{"bike_id":"eb1099fb-29c4-4fb7-b020-4d31e0150ff9","system_id":"levelo_inurba_marseille","lat":43.28157,"lon":5.42635,"is_reserved":false,"is_disabled":false,"rental_uris":{"android":"levelo://app?vid=eb1099fb-29c4-4fb7-b020-4d31e0150ff9","ios":"levelo://app?vid=eb1099fb-29c4-4fb7-b020-4d31e0150ff9"},"vehicle_type_id":"4","last_reported":1743876727,"current_range_meters":6000,"station_id":"ce4bhnh2rcd13ifvqgug","pricing_plan_id":"cebpf4jnsgd1na2vs0mg"},{"bike_id":"b991118a-b3fd-4081-a6c6-23b69168496a","system_id":"levelo_inurba_marseille","lat":43.21747,"lon":5.34607,"is_reserved":false,"is_disabled":true,"rental_uris":{"android":"levelo://app?vid=b991118a-b3fd-4081-a6c6-23b69168496a","ios":"levelo://app?vid=b991118a-b3fd-4081-a6c6-23b69168496a"},"vehicle_type_id":"4","last_reported":1743876727,"current_range_meters":6000,"station_id":"st_cvj6r9ubvosntc0bgbag","pricing_plan_id":"cebpf4jnsgd1na2vs0mg"},{"bike_id":"bc50b793-96cb-4f38-9997-3388c10ae2ed","system_id":"levelo_inurba_marseille","lat":43.302322,"lon":5.400777,"is_reserved":false,"is_disabled":false,"rental_uris":{"android":"levelo://app?vid=bc50b793-96cb-4f38-9997-3388c10ae2ed","ios":"levelo://app?vid=bc50b793-96cb-4f38-9997-3388c10ae2ed"},"vehicle_type_id":"4","last_reported":1743876727,"current_range_meters":6000,"station_id":"ce4bgvh2rcd13ifvqcs0","pricing_plan_id":"cebpf4jnsgd1na2vs0mg"},{"bike_id":"049f0823-1d72-41b6-bfcf-512682065c64","system_id":"levelo_inurba_marseille","lat":43.28055,"lon":5.36941,"is_reserved":false,"is_disabled":false,"rental_uris":{"android":"levelo://app?vid=049f0823-1d72-41b6-bfcf-512682065c64","ios":"levelo://app?vid=049f0823-1d72-41b6-bfcf-512682065c64"},"vehicle_type_id":"4","last_reported":1743876727,"current_range_meters":6000,"station_id":"ce4bha12rcd13ifvqef0","pricing_plan_id":"cebpf4jnsgd1na2vs0mg"},{"bike_id":"5eeaee7a-36ab-4806-922d-b761407bc2a5","system_id":"levelo_inurba_marseille","lat":43.29278,"lon":5.3684,"is_reserved":false,"is_disabled":false,"rental_uris":{"android":"levelo://app?vid=5eeaee7a-36ab-4806-922d-b761407bc2a5","ios":"levelo://app?vid=5eeaee7a-36ab-4806-922d-b761407bc2a5"},"vehicle_type_id":"4","last_reported":1743876727,"current_range_meters":6000,"station_id":"ce4bhbp2rcd13ifvqesg","pricing_plan_id":"cebpf4jnsgd1na2vs0mg"},{"bike_id":"50297066-959d-45c5-a71e-b062cc3724ec","system_id":"levelo_inurba_marseille","lat":43.30792,"lon":5.37345,"is_reserved":false,"is_disabled":false,"rental_uris":{"android":"levelo://app?vid=50297066-959d-45c5-a71e-b062cc3724ec","ios":"levelo://app?vid=50297066-959d-45c5-a71e-b062cc3724ec"},"vehicle_type_id":"4","last_reported":1743876727,"current_range_meters":6000,"station_id":"","pricing_plan_id":"cebpf4jnsgd1na2vs0mg"},{"bike_id":"56015f41-0ad7-4c34-ac05-b1864a4cd1b8","system_id":"levelo_inurba_marseille","lat":43.29254,"lon":5.38431,"is_reserved":false,"is_disabled":false,"rental_uris":{"android":"levelo://app?vid=56015f41-0ad7-4c34-ac05-b1864a4cd1b8","ios":"levelo://app?vid=56015f41-0ad7-4c34-ac05-b1864a4cd1b8"},"vehicle_type_id":"4","last_reported":1743876727,"current_range_meters":6000,"station_id":"ce4bh692rcd13ifvqea0","pricing_plan_id":"cebpf4jnsgd1na2vs0mg"},{"bike_id":"2eda23ce-f98d-4d11-9999-0fc13e374782","system_id":"levelo_inurba_marseille","lat":43.30232,"lon":5.39497,"is_reserved":false,"is_disabled":false,"rental_uris":{"android":"levelo://app?vid=2eda23ce-f98d-4d11-9999-0fc13e374782","ios":"levelo://app?vid=2eda23ce-f98d-4d11-9999-0fc13e374782"},"vehicle_type_id":"4","last_reported":1743876727,"current_range_meters":6400,"station_id":"ce4bh0p2rcd13ifvqd70","pricing_plan_id":"cebpf4jnsgd1na2vs0mg"},{"bike_id":"f3cf4d25-5999-4b1a-9792-b315490e9e32","system_id":"levelo_inurba_marseille","lat":43.31364,"lon":5.38489,"is_reserved":false,"is_disabled":false,"rental_uris":{"android":"levelo://app?vid=f3cf4d25-5999-4b1a-9792-b315490e9e32","ios":"levelo://app?vid=f3cf4d25-5999-4b1a-9792-b315490e9e32"},"vehicle_type_id":"4","last_reported":1743876727,"current_range_meters":6000,"station_id":"ce4bgt92rcd13ifvqcf0","pricing_plan_id":"cebpf4jnsgd1na2vs0mg"},{"bike_id":"fd368e52-28cf-414d-a46d-b367645ec73e","system_id":"levelo_inurba_marseille","lat":43.29268,"lon":5.3844,"is_reserved":false,"is_disabled":false,"rental_uris":{"android":"levelo://app?vid=fd368e52-28cf-414d-a46d-b367645ec73e","ios":"levelo://app?vid=fd368e52-28cf-414d-a46d-b367645ec73e"},"vehicle_type_id":"4","last_reported":1743876727,"current_range_meters":6400,"station_id":"ce4bh692rcd13ifvqea0","pricing_plan_id":"cebpf4jnsgd1na2vs0mg"},{"bike_id":"a4d2c98f-6cdc-4d59-a681-294db74d27dd","system_id":"levelo_inurba_marseille","lat":43.29261,"lon":5.38429,"is_reserved":false,"is_disabled":false,"rental_uris":{"android":"levelo://app?vid=a4d2c98f-6cdc-4d59-a681-294db74d27dd","ios":"levelo://app?vid=a4d2c98f-6cdc-4d59-a681-294db74d27dd"},"vehicle_type_id":"4","last_reported":1743876727,"current_range_meters":6400,"station_id":"ce4bh692rcd13ifvqea0","pricing_plan_id":"cebpf4jnsgd1na2vs0mg"},{"bike_id":"c2701643-f413-412e-ae38-f0fec5def7c8","system_id":"levelo_inurba_marseille","lat":43.29307,"lon":5.37175,"is_reserved":false,"is_disabled":false,"rental_uris":{"android":"levelo://app?vid=c2701643-f413-412e-ae38-f0fec5def7c8","ios":"levelo://app?vid=c2701643-f413-412e-ae38-f0fec5def7c8"},"vehicle_type_id":"4","last_reported":1743876727,"current_range_meters":6400,"station_id":"ce4bgh92rcd13ifvqb40","pricing_plan_id":"cebpf4jnsgd1na2vs0mg"},{"bike_id":"d144cdeb-94c3-4a1d-92d5-9d5462e2a94e","system_id":"levelo_inurba_marseille","lat":43.28029,"lon":5.36957,"is_reserved":false,"is_disabled":false,"rental_uris":{"android":"levelo://app?vid=d144cdeb-94c3-4a1d-92d5-9d5462e2a94e","ios":"levelo://app?vid=d144cdeb-94c3-4a1d-92d5-9d5462e2a94e"},"vehicle_type_id":"4","last_reported":1743876727,"current_range_meters":6400,"station_id":"ce4bha12rcd13ifvqef0","pricing_plan_id":"cebpf4jnsgd1na2vs0mg"},{"bike_id":"02dd5f37-e4ce-4efc-9ce6-2776472fc632","system_id":"levelo_inurba_marseille","lat":43.25126,"lon":5.40327,"is_reserved":false,"is_disabled":false,"rental_uris":{"android":"levelo://app?vid=02dd5f37-e4ce-4efc-9ce6-2776472fc632","ios":"levelo://app?vid=02dd5f37-e4ce-4efc-9ce6-2776472fc632"},"vehicle_type_id":"4","last_reported":1743876727,"current_range_meters":6400,"station_id":"ce4bhlh2rcd13ifvqgig","pricing_plan_id":"cebpf4jnsgd1na2vs0mg"},{"bike_id":"43fe2ba1-31d3-42fc-b0e3-8377005f35b2","system_id":"levelo_inurba_marseille","lat":43.29262,"lon":5.3762,"is_reserved":false,"is_disabled":false,"rental_uris":{"android":"levelo://app?vid=43fe2ba1-31d3-42fc-b0e3-8377005f35b2","ios":"levelo://app?vid=43fe2ba1-31d3-42fc-b0e3-8377005f35b2"},"vehicle_type_id":"4","last_reported":1743876727,"current_range_meters":6400,"station_id":"ce4bgi12rcd13ifvqb80","pricing_plan_id":"cebpf4jnsgd1na2vs0mg"},{"bike_id":"d9e25032-ad52-4a20-ad28-d5feafc886c2","system_id":"levelo_inurba_marseille","lat":43.29419,"lon":5.38628,"is_reserved":false,"is_disabled":false,"rental_uris":{"android":"levelo://app?vid=d9e25032-ad52-4a20-ad28-d5feafc886c2","ios":"levelo://app?vid=d9e25032-ad52-4a20-ad28-d5feafc886c2"},"vehicle_type_id":"4","last_reported":1743876727,"current_range_meters":6400,"station_id":"ce4bh2h2rcd13ifvqdh0","pricing_plan_id":"cebpf4jnsgd1na2vs0mg"},{"bike_id":"3a673a01-13fc-4ed6-b9b1-08a0faf2fd75","system_id":"levelo_inurba_marseille","lat":43.2319,"lon":5.39983,"is_reserved":false,"is_disabled":false,"rental_uris":{"android":"levelo://app?vid=3a673a01-13fc-4ed6-b9b1-08a0faf2fd75","ios":"levelo://app?vid=3a673a01-13fc-4ed6-b9b1-08a0faf2fd75"},"vehicle_type_id":"4","last_reported":1743876727,"current_range_meters":6400,"station_id":"ce4bhn12rcd13ifvqgqg","pricing_plan_id":"cebpf4jnsgd1na2vs0mg"},{"bike_id":"95ebc31d-ba2c-4855-9413-141191b5e202","system_id":"levelo_inurba_marseille","lat":43.29266,"lon":5.40119,"is_reserved":false,"is_disabled":true,"rental_uris":{"android":"levelo://app?vid=95ebc31d-ba2c-4855-9413-141191b5e202","ios":"levelo://app?vid=95ebc31d-ba2c-4855-9413-141191b5e202"},"vehicle_type_id":"4","last_reported":1743876727,"current_range_meters":6400,"station_id":"ce4bh312rcd13ifvqdk0","pricing_plan_id":"cebpf4jnsgd1na2vs0mg"},{"bike_id":"9d0b1df5-269a-4f2e-8376-0259719bba0d","system_id":"levelo_inurba_marseille","lat":43.26951,"lon":5.38637,"is_reserved":false,"is_disabled":false,"rental_uris":{"android":"levelo://app?vid=9d0b1df5-269a-4f2e-8376-0259719bba0d","ios":"levelo://app?vid=9d0b1df5-269a-4f2e-8376-0259719bba0d"},"vehicle_type_id":"4","last_reported":1743876727,"current_range_meters":6800,"station_id":"ce4bhh92rcd13ifvqfh0","pricing_plan_id":"cebpf4jnsgd1na2vs0mg"},{"bike_id":"cea6d1ff-12be-405d-ac98-b54de20e55a3","system_id":"levelo_inurba_marseille","lat":43.29777,"lon":5.37094,"is_reserved":false,"is_disabled":false,"rental_uris":{"android":"levelo://app?vid=cea6d1ff-12be-405d-ac98-b54de20e55a3","ios":"levelo://app?vid=cea6d1ff-12be-405d-ac98-b54de20e55a3"},"vehicle_type_id":"4","last_reported":1743876727,"current_range_meters":6800,"station_id":"ce4bgop2rcd13ifvqc1g","pricing_plan_id":"cebpf4jnsgd1na2vs0mg"},{"bike_id":"0f3edcc6-8be6-42d8-a7a5-f2c12fb20dfe","system_id":"levelo_inurba_marseille","lat":43.27367,"lon":5.3625,"is_reserved":false,"is_disabled":false,"rental_uris":{"android":"levelo://app?vid=0f3edcc6-8be6-42d8-a7a5-f2c12fb20dfe","ios":"levelo://app?vid=0f3edcc6-8be6-42d8-a7a5-f2c12fb20dfe"},"vehicle_type_id":"4","last_reported":1743876727,"current_range_meters":6800,"station_id":"ce4bhbh2rcd13ifvqeo0","pricing_plan_id":"cebpf4jnsgd1na2vs0mg"},{"bike_id":"b0fafa95-1459-4a51-b762-4a0b1e6fee37","system_id":"levelo_inurba_marseille","lat":43.26209,"lon":5.37453,"is_reserved":false,"is_disabled":false,"rental_uris":{"android":"levelo://app?vid=b0fafa95-1459-4a51-b762-4a0b1e6fee37","ios":"levelo://app?vid=b0fafa95-1459-4a51-b762-4a0b1e6fee37"},"vehicle_type_id":"4","last_reported":1743876727,"current_range_meters":6800,"station_id":"ce4bhgp2rcd13ifvqfc0","pricing_plan_id":"cebpf4jnsgd1na2vs0mg"},{"bike_id":"e72043e3-ca76-4ba5-8094-a09cddbb9645","system_id":"levelo_inurba_marseille","lat":43.249997,"lon":5.389249,"is_reserved":false,"is_disabled":false,"rental_uris":{"android":"levelo://app?vid=e72043e3-ca76-4ba5-8094-a09cddbb9645","ios":"levelo://app?vid=e72043e3-ca76-4ba5-8094-a09cddbb9645"},"vehicle_type_id":"4","last_reported":1743876727,"current_range_meters":6800,"station_id":"ce4bhgp2rcd13ifvqfd0","pricing_plan_id":"cebpf4jnsgd1na2vs0mg"},{"bike_id":"6c9dc075-4316-43ae-8688-67ee4641a7f4","system_id":"levelo_inurba_marseille","lat":43.284253,"lon":5.374916,"is_reserved":false,"is_disabled":false,"rental_uris":{"android":"levelo://app?vid=6c9dc075-4316-43ae-8688-67ee4641a7f4","ios":"levelo://app?vid=6c9dc075-4316-43ae-8688-67ee4641a7f4"},"vehicle_type_id":"4","last_reported":1743876727,"current_range_meters":6400,"station_id":"ce4bh412rcd13ifvqds0","pricing_plan_id":"cebpf4jnsgd1na2vs0mg"},{"bike_id":"1c600046-fb8a-47c3-8c47-03c4e2502051","system_id":"levelo_inurba_marseille","lat":43.29027,"lon":5.38634,"is_reserved":false,"is_disabled":false,"rental_uris":{"android":"levelo://app?vid=1c600046-fb8a-47c3-8c47-03c4e2502051","ios":"levelo://app?vid=1c600046-fb8a-47c3-8c47-03c4e2502051"},"vehicle_type_id":"4","last_reported":1743876727,"current_range_meters":6800,"station_id":"ce4bh4p2rcd13ifvqe0g","pricing_plan_id":"cebpf4jnsgd1na2vs0mg"},{"bike_id":"fa550e5d-f8a6-4f7e-86c7-e04ab163d525","system_id":"levelo_inurba_marseille","lat":43.30796,"lon":5.43529,"is_reserved":false,"is_disabled":false,"rental_uris":{"android":"levelo://app?vid=fa550e5d-f8a6-4f7e-86c7-e04ab163d525","ios":"levelo://app?vid=fa550e5d-f8a6-4f7e-86c7-e04ab163d525"},"vehicle_type_id":"4","last_reported":1743876727,"current_range_meters":6800,"station_id":"ce4bhph2rcd13ifvqheg","pricing_plan_id":"cebpf4jnsgd1na2vs0mg"},{"bike_id":"11101b03-02c0-4bb4-a9dc-326497f91f4e","system_id":"levelo_inurba_marseille","lat":43.292519,"lon":5.409141,"is_reserved":false,"is_disabled":true,"rental_uris":{"android":"levelo://app?vid=11101b03-02c0-4bb4-a9dc-326497f91f4e","ios":"levelo://app?vid=11101b03-02c0-4bb4-a9dc-326497f91f4e"},"vehicle_type_id":"4","last_reported":1743876727,"current_range_meters":6800,"station_id":"ce4bh192rcd13ifvqdc0","pricing_plan_id":"cebpf4jnsgd1na2vs0mg"},{"bike_id":"030dcba7-b8eb-4439-8f32-8113bfa9f9af","system_id":"levelo_inurba_marseille","lat":43.29799,"lon":5.39324,"is_reserved":false,"is_disabled":false,"rental_uris":{"android":"levelo://app?vid=030dcba7-b8eb-4439-8f32-8113bfa9f9af","ios":"levelo://app?vid=030dcba7-b8eb-4439-8f32-8113bfa9f9af"},"vehicle_type_id":"4","last_reported":1743876727,"current_range_meters":6800,"station_id":"chh1huq6cuj3fo74tm60","pricing_plan_id":"cebpf4jnsgd1na2vs0mg"},{"bike_id":"f1a18076-cb60-4709-9875-8e0e054a7844","system_id":"levelo_inurba_marseille","lat":43.27625,"lon":5.36121,"is_reserved":false,"is_disabled":false,"rental_uris":{"android":"levelo://app?vid=f1a18076-cb60-4709-9875-8e0e054a7844","ios":"levelo://app?vid=f1a18076-cb60-4709-9875-8e0e054a7844"},"vehicle_type_id":"4","last_reported":1743876727,"current_range_meters":6800,"station_id":"ce4bgj92rcd13ifvqbe0","pricing_plan_id":"cebpf4jnsgd1na2vs0mg"},{"bike_id":"1ad09fb7-e897-474d-aec4-1e462ab61a19","system_id":"levelo_inurba_marseille","lat":43.27833,"lon":5.39211,"is_reserved":false,"is_disabled":false,"rental_uris":{"android":"levelo://app?vid=1ad09fb7-e897-474d-aec4-1e462ab61a19","ios":"levelo://app?vid=1ad09fb7-e897-474d-aec4-1e462ab61a19"},"vehicle_type_id":"4","last_reported":1743876727,"current_range_meters":6800,"station_id":"ce4bhjp2rcd13ifvqga0","pricing_plan_id":"cebpf4jnsgd1na2vs0mg"},{"bike_id":"962776e6-1660-41a5-9082-9334ede4dd93","system_id":"levelo_inurba_marseille","lat":43.29103,"lon":5.38145,"is_reserved":false,"is_disabled":false,"rental_uris":{"android":"levelo://app?vid=962776e6-1660-41a5-9082-9334ede4dd93","ios":"levelo://app?vid=962776e6-1660-41a5-9082-9334ede4dd93"},"vehicle_type_id":"4","last_reported":1743876727,"current_range_meters":6800,"station_id":"ce4bh512rcd13ifvqe2g","pricing_plan_id":"cebpf4jnsgd1na2vs0mg"},{"bike_id":"549e500a-1dbc-433d-a2cf-e53f4d655e83","system_id":"levelo_inurba_marseille","lat":43.286926,"lon":5.386626,"is_reserved":false,"is_disabled":false,"rental_uris":{"android":"levelo://app?vid=549e500a-1dbc-433d-a2cf-e53f4d655e83","ios":"levelo://app?vid=549e500a-1dbc-433d-a2cf-e53f4d655e83"},"vehicle_type_id":"4","last_reported":1743876727,"current_range_meters":6800,"station_id":"ce4bh492rcd13ifvqdug","pricing_plan_id":"cebpf4jnsgd1na2vs0mg"},{"bike_id":"2148bd29-323e-49b7-945c-369e0ae50c2c","system_id":"levelo_inurba_marseille","lat":43.30043,"lon":5.38936,"is_reserved":false,"is_disabled":false,"rental_uris":{"android":"levelo://app?vid=2148bd29-323e-49b7-945c-369e0ae50c2c","ios":"levelo://app?vid=2148bd29-323e-49b7-945c-369e0ae50c2c"},"vehicle_type_id":"4","last_reported":1743876727,"current_range_meters":7200,"station_id":"ce4bh192rcd13ifvqdb0","pricing_plan_id":"cebpf4jnsgd1na2vs0mg"},{"bike_id":"916532c1-dec2-46cf-9a09-7b44494b78ad","system_id":"levelo_inurba_marseille","lat":43.30194,"lon":5.3661,"is_reserved":false,"is_disabled":false,"rental_uris":{"android":"levelo://app?vid=916532c1-dec2-46cf-9a09-7b44494b78ad","ios":"levelo://app?vid=916532c1-dec2-46cf-9a09-7b44494b78ad"},"vehicle_type_id":"4","last_reported":1743876727,"current_range_meters":7200,"station_id":"ce4bgrh2rcd13ifvqc8g","pricing_plan_id":"cebpf4jnsgd1na2vs0mg"},{"bike_id":"8fa92ff1-c2cb-4fa2-b3ce-e14c12ce1bf4","system_id":"levelo_inurba_marseille","lat":43.28161,"lon":5.4263,"is_reserved":false,"is_disabled":false,"rental_uris":{"android":"levelo://app?vid=8fa92ff1-c2cb-4fa2-b3ce-e14c12ce1bf4","ios":"levelo://app?vid=8fa92ff1-c2cb-4fa2-b3ce-e14c12ce1bf4"},"vehicle_type_id":"4","last_reported":1743876727,"current_range_meters":7200,"station_id":"ce4bhnh2rcd13ifvqgug","pricing_plan_id":"cebpf4jnsgd1na2vs0mg"},{"bike_id":"e7b956ce-2ab2-4301-8fd3-6312d753e8f6","system_id":"levelo_inurba_marseille","lat":43.24676,"lon":5.38151,"is_reserved":false,"is_disabled":true,"rental_uris":{"android":"levelo://app?vid=e7b956ce-2ab2-4301-8fd3-6312d753e8f6","ios":"levelo://app?vid=e7b956ce-2ab2-4301-8fd3-6312d753e8f6"},"vehicle_type_id":"4","last_reported":1743876727,"current_range_meters":7200,"station_id":"ce4bhih2rcd13ifvqfr0","pricing_plan_id":"cebpf4jnsgd1na2vs0mg"},{"bike_id":"783ef245-163c-4c81-b038-df23059b7c57","system_id":"levelo_inurba_marseille","lat":43.310755,"lon":5.383546,"is_reserved":false,"is_disabled":false,"rental_uris":{"android":"levelo://app?vid=783ef245-163c-4c81-b038-df23059b7c57","ios":"levelo://app?vid=783ef245-163c-4c81-b038-df23059b7c57"},"vehicle_type_id":"4","last_reported":1743876727,"current_range_meters":7200,"station_id":"","pricing_plan_id":"cebpf4jnsgd1na2vs0mg"},{"bike_id":"b8ea7543-4f4d-43dd-964e-6d7060acec98","system_id":"levelo_inurba_marseille","lat":43.29308,"lon":5.37175,"is_reserved":false,"is_disabled":false,"rental_uris":{"android":"levelo://app?vid=b8ea7543-4f4d-43dd-964e-6d7060acec98","ios":"levelo://app?vid=b8ea7543-4f4d-43dd-964e-6d7060acec98"},"vehicle_type_id":"4","last_reported":1743876727,"current_range_meters":7200,"station_id":"ce4bgh92rcd13ifvqb40","pricing_plan_id":"cebpf4jnsgd1na2vs0mg"},{"bike_id":"21aa385d-31bf-42ef-9108-2f3e388246dd","system_id":"levelo_inurba_marseille","lat":43.279375,"lon":5.410471,"is_reserved":false,"is_disabled":false,"rental_uris":{"android":"levelo://app?vid=21aa385d-31bf-42ef-9108-2f3e388246dd","ios":"levelo://app?vid=21aa385d-31bf-42ef-9108-2f3e388246dd"},"vehicle_type_id":"4","last_reported":1743876727,"current_range_meters":6800,"station_id":"cjm6bp8fraef2m0cb0m0","pricing_plan_id":"cebpf4jnsgd1na2vs0mg"},{"bike_id":"608c97a4-61d0-4b3d-9964-9bde4fb0e2e3","system_id":"levelo_inurba_marseille","lat":43.23956,"lon":5.36614,"is_reserved":false,"is_disabled":false,"rental_uris":{"android":"levelo://app?vid=608c97a4-61d0-4b3d-9964-9bde4fb0e2e3","ios":"levelo://app?vid=608c97a4-61d0-4b3d-9964-9bde4fb0e2e3"},"vehicle_type_id":"4","last_reported":1743876727,"current_range_meters":7200,"station_id":"ce4bhi12rcd13ifvqfp0","pricing_plan_id":"cebpf4jnsgd1na2vs0mg"},{"bike_id":"e1d234d1-866d-497b-962d-6fc13a139f2f","system_id":"levelo_inurba_marseille","lat":43.28606,"lon":5.35096,"is_reserved":false,"is_disabled":false,"rental_uris":{"android":"levelo://app?vid=e1d234d1-866d-497b-962d-6fc13a139f2f","ios":"levelo://app?vid=e1d234d1-866d-497b-962d-6fc13a139f2f"},"vehicle_type_id":"4","last_reported":1743876727,"current_range_meters":7200,"station_id":"ce4bhch2rcd13ifvqeug","pricing_plan_id":"cebpf4jnsgd1na2vs0mg"},{"bike_id":"d043da4c-8593-477c-a3f7-8e7748e47725","system_id":"levelo_inurba_marseille","lat":43.3251,"lon":5.39026,"is_reserved":false,"is_disabled":false,"rental_uris":{"android":"levelo://app?vid=d043da4c-8593-477c-a3f7-8e7748e47725","ios":"levelo://app?vid=d043da4c-8593-477c-a3f7-8e7748e47725"},"vehicle_type_id":"4","last_reported":1743876727,"current_range_meters":7200,"station_id":"","pricing_plan_id":"cebpf4jnsgd1na2vs0mg"},{"bike_id":"c028564b-dd93-484a-8f41-5b40f3b67039","system_id":"levelo_inurba_marseille","lat":43.28942,"lon":5.36643,"is_reserved":false,"is_disabled":false,"rental_uris":{"android":"levelo://app?vid=c028564b-dd93-484a-8f41-5b40f3b67039","ios":"levelo://app?vid=c028564b-dd93-484a-8f41-5b40f3b67039"},"vehicle_type_id":"4","last_reported":1743876727,"current_range_meters":7200,"station_id":"ce4bhap2rcd13ifvqek0","pricing_plan_id":"cebpf4jnsgd1na2vs0mg"},{"bike_id":"932cc725-1be2-4328-94d3-cfba6becf588","system_id":"levelo_inurba_marseille","lat":43.284112,"lon":5.374825,"is_reserved":false,"is_disabled":false,"rental_uris":{"android":"levelo://app?vid=932cc725-1be2-4328-94d3-cfba6becf588","ios":"levelo://app?vid=932cc725-1be2-4328-94d3-cfba6becf588"},"vehicle_type_id":"4","last_reported":1743876727,"current_range_meters":7200,"station_id":"ce4bgi92rcd13ifvqb90","pricing_plan_id":"cebpf4jnsgd1na2vs0mg"},{"bike_id":"c5c32523-e8ab-4477-97f4-401980d9dd53","system_id":"levelo_inurba_marseille","lat":43.239146,"lon":5.385209,"is_reserved":false,"is_disabled":false,"rental_uris":{"android":"levelo://app?vid=c5c32523-e8ab-4477-97f4-401980d9dd53","ios":"levelo://app?vid=c5c32523-e8ab-4477-97f4-401980d9dd53"},"vehicle_type_id":"4","last_reported":1743876727,"current_range_meters":7200,"station_id":"ce4bhnp2rcd13ifvqgvg","pricing_plan_id":"cebpf4jnsgd1na2vs0mg"},{"bike_id":"a9bee0e3-04a3-4248-90c3-47dda797419d","system_id":"levelo_inurba_marseille","lat":43.2741,"lon":5.36304,"is_reserved":false,"is_disabled":false,"rental_uris":{"android":"levelo://app?vid=a9bee0e3-04a3-4248-90c3-47dda797419d","ios":"levelo://app?vid=a9bee0e3-04a3-4248-90c3-47dda797419d"},"vehicle_type_id":"4","last_reported":1743876727,"current_range_meters":7200,"station_id":"","pricing_plan_id":"cebpf4jnsgd1na2vs0mg"},{"bike_id":"9a36e749-313f-43fc-ac90-b52b5015306e","system_id":"levelo_inurba_marseille","lat":43.21197,"lon":5.35065,"is_reserved":false,"is_disabled":false,"rental_uris":{"android":"levelo://app?vid=9a36e749-313f-43fc-ac90-b52b5015306e","ios":"levelo://app?vid=9a36e749-313f-43fc-ac90-b52b5015306e"},"vehicle_type_id":"4","last_reported":1743876727,"current_range_meters":8000,"station_id":"st_cvj6sg6p6f1abm77japg","pricing_plan_id":"cebpf4jnsgd1na2vs0mg"},{"bike_id":"f36ffb85-e9eb-4bd6-b95d-b3329b5e9e4b","system_id":"levelo_inurba_marseille","lat":43.30344,"lon":5.41874,"is_reserved":false,"is_disabled":false,"rental_uris":{"android":"levelo://app?vid=f36ffb85-e9eb-4bd6-b95d-b3329b5e9e4b","ios":"levelo://app?vid=f36ffb85-e9eb-4bd6-b95d-b3329b5e9e4b"},"vehicle_type_id":"4","last_reported":1743876727,"current_range_meters":8000,"station_id":"ce4bhop2rcd13ifvqh7g","pricing_plan_id":"cebpf4jnsgd1na2vs0mg"},{"bike_id":"824b188c-9b6a-4fc9-be07-ed2fdda29983","system_id":"levelo_inurba_marseille","lat":43.2723,"lon":5.39158,"is_reserved":false,"is_disabled":false,"rental_uris":{"android":"levelo://app?vid=824b188c-9b6a-4fc9-be07-ed2fdda29983","ios":"levelo://app?vid=824b188c-9b6a-4fc9-be07-ed2fdda29983"},"vehicle_type_id":"4","last_reported":1743876727,"current_range_meters":8000,"station_id":"ce4bhhp2rcd13ifvqfm0","pricing_plan_id":"cebpf4jnsgd1na2vs0mg"},{"bike_id":"d823f51c-a484-45b7-a751-839c921225bc","system_id":"levelo_inurba_marseille","lat":43.29913,"lon":5.37472,"is_reserved":false,"is_disabled":false,"rental_uris":{"android":"levelo://app?vid=d823f51c-a484-45b7-a751-839c921225bc","ios":"levelo://app?vid=d823f51c-a484-45b7-a751-839c921225bc"},"vehicle_type_id":"4","last_reported":1743876727,"current_range_meters":8000,"station_id":"ce4bgjh2rcd13ifvqbg0","pricing_plan_id":"cebpf4jnsgd1na2vs0mg"},{"bike_id":"dcb3bde2-257c-4352-a361-bd53150773b3","system_id":"levelo_inurba_marseille","lat":43.28813,"lon":5.35788,"is_reserved":false,"is_disabled":false,"rental_uris":{"android":"levelo://app?vid=dcb3bde2-257c-4352-a361-bd53150773b3","ios":"levelo://app?vid=dcb3bde2-257c-4352-a361-bd53150773b3"},"vehicle_type_id":"4","last_reported":1743876727,"current_range_meters":8000,"station_id":"ce4bhb12rcd13ifvqem0","pricing_plan_id":"cebpf4jnsgd1na2vs0mg"},{"bike_id":"08445db6-9011-4a0c-a9d8-d9e4ea287913","system_id":"levelo_inurba_marseille","lat":43.29418,"lon":5.3863,"is_reserved":false,"is_disabled":false,"rental_uris":{"android":"levelo://app?vid=08445db6-9011-4a0c-a9d8-d9e4ea287913","ios":"levelo://app?vid=08445db6-9011-4a0c-a9d8-d9e4ea287913"},"vehicle_type_id":"4","last_reported":1743876727,"current_range_meters":8000,"station_id":"ce4bh2h2rcd13ifvqdh0","pricing_plan_id":"cebpf4jnsgd1na2vs0mg"},{"bike_id":"82e42512-0143-41e9-8304-aae55767297b","system_id":"levelo_inurba_marseille","lat":43.29258,"lon":5.38437,"is_reserved":false,"is_disabled":false,"rental_uris":{"android":"levelo://app?vid=82e42512-0143-41e9-8304-aae55767297b","ios":"levelo://app?vid=82e42512-0143-41e9-8304-aae55767297b"},"vehicle_type_id":"4","last_reported":1743876727,"current_range_meters":8000,"station_id":"ce4bh692rcd13ifvqea0","pricing_plan_id":"cebpf4jnsgd1na2vs0mg"},{"bike_id":"feb6e46c-3fb2-45a9-a2fb-22ac62feb505","system_id":"levelo_inurba_marseille","lat":43.23057,"lon":5.35493,"is_reserved":false,"is_disabled":true,"rental_uris":{"android":"levelo://app?vid=feb6e46c-3fb2-45a9-a2fb-22ac62feb505","ios":"levelo://app?vid=feb6e46c-3fb2-45a9-a2fb-22ac62feb505"},"vehicle_type_id":"4","last_reported":1743876727,"current_range_meters":8000,"station_id":"cpo3342slgdg3j2ifvpg","pricing_plan_id":"cebpf4jnsgd1na2vs0mg"},{"bike_id":"5ed0a718-29a1-4eb4-85b3-ff92756635a9","system_id":"levelo_inurba_marseille","lat":43.299,"lon":5.38148,"is_reserved":false,"is_disabled":false,"rental_uris":{"android":"levelo://app?vid=5ed0a718-29a1-4eb4-85b3-ff92756635a9","ios":"levelo://app?vid=5ed0a718-29a1-4eb4-85b3-ff92756635a9"},"vehicle_type_id":"4","last_reported":1743876727,"current_range_meters":8400,"station_id":"ce4bgj12rcd13ifvqbc0","pricing_plan_id":"cebpf4jnsgd1na2vs0mg"},{"bike_id":"3b4ad8c6-6244-4378-90d7-dac703d1508d","system_id":"levelo_inurba_marseille","lat":43.23217,"lon":5.35581,"is_reserved":false,"is_disabled":false,"rental_uris":{"android":"levelo://app?vid=3b4ad8c6-6244-4378-90d7-dac703d1508d","ios":"levelo://app?vid=3b4ad8c6-6244-4378-90d7-dac703d1508d"},"vehicle_type_id":"4","last_reported":1743876727,"current_range_meters":8400,"station_id":"ce4bhu92rcd13ifvqi70","pricing_plan_id":"cebpf4jnsgd1na2vs0mg"},{"bike_id":"ef57254c-68b9-422d-8695-4b00a526f15b","system_id":"levelo_inurba_marseille","lat":43.27617,"lon":5.36103,"is_reserved":false,"is_disabled":false,"rental_uris":{"android":"levelo://app?vid=ef57254c-68b9-422d-8695-4b00a526f15b","ios":"levelo://app?vid=ef57254c-68b9-422d-8695-4b00a526f15b"},"vehicle_type_id":"4","last_reported":1743876727,"current_range_meters":8400,"station_id":"ce4bgj92rcd13ifvqbe0","pricing_plan_id":"cebpf4jnsgd1na2vs0mg"},{"bike_id":"6b8df6c6-e69f-416d-869f-6c58b572d426","system_id":"levelo_inurba_marseille","lat":43.23197,"lon":5.40007,"is_reserved":false,"is_disabled":false,"rental_uris":{"android":"levelo://app?vid=6b8df6c6-e69f-416d-869f-6c58b572d426","ios":"levelo://app?vid=6b8df6c6-e69f-416d-869f-6c58b572d426"},"vehicle_type_id":"4","last_reported":1743876727,"current_range_meters":8400,"station_id":"ce4bhn12rcd13ifvqgqg","pricing_plan_id":"cebpf4jnsgd1na2vs0mg"},{"bike_id":"00630fd7-4a1a-4ee6-b627-23e4ad012b26","system_id":"levelo_inurba_marseille","lat":43.30884,"lon":5.39654,"is_reserved":false,"is_disabled":false,"rental_uris":{"android":"levelo://app?vid=00630fd7-4a1a-4ee6-b627-23e4ad012b26","ios":"levelo://app?vid=00630fd7-4a1a-4ee6-b627-23e4ad012b26"},"vehicle_type_id":"4","last_reported":1743876727,"current_range_meters":8400,"station_id":"ce4bh012rcd13ifvqcv0","pricing_plan_id":"cebpf4jnsgd1na2vs0mg"},{"bike_id":"fb0d4993-67fa-4314-9525-ef2ba9197c72","system_id":"levelo_inurba_marseille","lat":43.30321,"lon":5.4059,"is_reserved":false,"is_disabled":false,"rental_uris":{"android":"levelo://app?vid=fb0d4993-67fa-4314-9525-ef2ba9197c72","ios":"levelo://app?vid=fb0d4993-67fa-4314-9525-ef2ba9197c72"},"vehicle_type_id":"4","last_reported":1743876727,"current_range_meters":8400,"station_id":"","pricing_plan_id":"cebpf4jnsgd1na2vs0mg"},{"bike_id":"f229a08a-9237-44f3-870a-72cc9aa4aa81","system_id":"levelo_inurba_marseille","lat":43.27379,"lon":5.36265,"is_reserved":false,"is_disabled":false,"rental_uris":{"android":"levelo://app?vid=f229a08a-9237-44f3-870a-72cc9aa4aa81","ios":"levelo://app?vid=f229a08a-9237-44f3-870a-72cc9aa4aa81"},"vehicle_type_id":"4","last_reported":1743876727,"current_range_meters":8400,"station_id":"ce4bhbh2rcd13ifvqeo0","pricing_plan_id":"cebpf4jnsgd1na2vs0mg"},{"bike_id":"c38496df-4bf6-4c97-91c3-17abcf370a7f","system_id":"levelo_inurba_marseille","lat":43.29262,"lon":5.38436,"is_reserved":false,"is_disabled":false,"rental_uris":{"android":"levelo://app?vid=c38496df-4bf6-4c97-91c3-17abcf370a7f","ios":"levelo://app?vid=c38496df-4bf6-4c97-91c3-17abcf370a7f"},"vehicle_type_id":"4","last_reported":1743876727,"current_range_meters":8400,"station_id":"ce4bh692rcd13ifvqea0","pricing_plan_id":"cebpf4jnsgd1na2vs0mg"},{"bike_id":"66b14ad6-0def-4b23-976b-6d33d29ea53a","system_id":"levelo_inurba_marseille","lat":43.28058,"lon":5.3482,"is_reserved":false,"is_disabled":false,"rental_uris":{"android":"levelo://app?vid=66b14ad6-0def-4b23-976b-6d33d29ea53a","ios":"levelo://app?vid=66b14ad6-0def-4b23-976b-6d33d29ea53a"},"vehicle_type_id":"4","last_reported":1743876727,"current_range_meters":8400,"station_id":"","pricing_plan_id":"cebpf4jnsgd1na2vs0mg"},{"bike_id":"3d23369b-786b-4689-a3c1-a79aa3389f8c","system_id":"levelo_inurba_marseille","lat":43.28711,"lon":5.35153,"is_reserved":false,"is_disabled":false,"rental_uris":{"android":"levelo://app?vid=3d23369b-786b-4689-a3c1-a79aa3389f8c","ios":"levelo://app?vid=3d23369b-786b-4689-a3c1-a79aa3389f8c"},"vehicle_type_id":"4","last_reported":1743876727,"current_range_meters":8400,"station_id":"","pricing_plan_id":"cebpf4jnsgd1na2vs0mg"},{"bike_id":"020181d2-31a5-4ed0-9ac7-23a9efb5c985","system_id":"levelo_inurba_marseille","lat":43.26956,"lon":5.38637,"is_reserved":false,"is_disabled":false,"rental_uris":{"android":"levelo://app?vid=020181d2-31a5-4ed0-9ac7-23a9efb5c985","ios":"levelo://app?vid=020181d2-31a5-4ed0-9ac7-23a9efb5c985"},"vehicle_type_id":"4","last_reported":1743876727,"current_range_meters":8400,"station_id":"ce4bhh92rcd13ifvqfh0","pricing_plan_id":"cebpf4jnsgd1na2vs0mg"},{"bike_id":"776006bd-9a55-4dd7-81db-377c3bf69019","system_id":"levelo_inurba_marseille","lat":43.30319,"lon":5.40435,"is_reserved":false,"is_disabled":false,"rental_uris":{"android":"levelo://app?vid=776006bd-9a55-4dd7-81db-377c3bf69019","ios":"levelo://app?vid=776006bd-9a55-4dd7-81db-377c3bf69019"},"vehicle_type_id":"4","last_reported":1743876727,"current_range_meters":8400,"station_id":"ce4bh012rcd13ifvqd10","pricing_plan_id":"cebpf4jnsgd1na2vs0mg"},{"bike_id":"831af6d8-f807-4ce8-9f99-a2a24b8049e5","system_id":"levelo_inurba_marseille","lat":43.27942,"lon":5.41046,"is_reserved":false,"is_disabled":false,"rental_uris":{"android":"levelo://app?vid=831af6d8-f807-4ce8-9f99-a2a24b8049e5","ios":"levelo://app?vid=831af6d8-f807-4ce8-9f99-a2a24b8049e5"},"vehicle_type_id":"4","last_reported":1743876727,"current_range_meters":8400,"station_id":"ce4bhnp2rcd13ifvqh0g","pricing_plan_id":"cebpf4jnsgd1na2vs0mg"},{"bike_id":"86950742-2a83-439a-b6d7-c0601bd4f799","system_id":"levelo_inurba_marseille","lat":43.28027,"lon":5.36942,"is_reserved":false,"is_disabled":false,"rental_uris":{"android":"levelo://app?vid=86950742-2a83-439a-b6d7-c0601bd4f799","ios":"levelo://app?vid=86950742-2a83-439a-b6d7-c0601bd4f799"},"vehicle_type_id":"4","last_reported":1743876727,"current_range_meters":8400,"station_id":"ce4bha12rcd13ifvqef0","pricing_plan_id":"cebpf4jnsgd1na2vs0mg"},{"bike_id":"58f2ce45-fc04-4c4b-9865-0e114db3c331","system_id":"levelo_inurba_marseille","lat":43.24809,"lon":5.37454,"is_reserved":false,"is_disabled":false,"rental_uris":{"android":"levelo://app?vid=58f2ce45-fc04-4c4b-9865-0e114db3c331","ios":"levelo://app?vid=58f2ce45-fc04-4c4b-9865-0e114db3c331"},"vehicle_type_id":"4","last_reported":1743876727,"current_range_meters":8400,"station_id":"ce4bhgh2rcd13ifvqfb0","pricing_plan_id":"cebpf4jnsgd1na2vs0mg"},{"bike_id":"eb79d1f9-7c91-4ea2-b5f8-796189743e1a","system_id":"levelo_inurba_marseille","lat":43.33712,"lon":5.39194,"is_reserved":false,"is_disabled":false,"rental_uris":{"android":"levelo://app?vid=eb79d1f9-7c91-4ea2-b5f8-796189743e1a","ios":"levelo://app?vid=eb79d1f9-7c91-4ea2-b5f8-796189743e1a"},"vehicle_type_id":"4","last_reported":1743876727,"current_range_meters":8800,"station_id":"ce4bhr92rcd13ifvqhsg","pricing_plan_id":"cebpf4jnsgd1na2vs0mg"},{"bike_id":"0d5f1e9f-07aa-4e1e-8cc1-cb9a9a7687f2","system_id":"levelo_inurba_marseille","lat":43.29414,"lon":5.38616,"is_reserved":false,"is_disabled":false,"rental_uris":{"android":"levelo://app?vid=0d5f1e9f-07aa-4e1e-8cc1-cb9a9a7687f2","ios":"levelo://app?vid=0d5f1e9f-07aa-4e1e-8cc1-cb9a9a7687f2"},"vehicle_type_id":"4","last_reported":1743876727,"current_range_meters":8800,"station_id":"ce4bh2h2rcd13ifvqdh0","pricing_plan_id":"cebpf4jnsgd1na2vs0mg"},{"bike_id":"4af298d8-5868-4f7d-b6a3-d40421e8cc73","system_id":"levelo_inurba_marseille","lat":43.27367,"lon":5.36262,"is_reserved":false,"is_disabled":false,"rental_uris":{"android":"levelo://app?vid=4af298d8-5868-4f7d-b6a3-d40421e8cc73","ios":"levelo://app?vid=4af298d8-5868-4f7d-b6a3-d40421e8cc73"},"vehicle_type_id":"4","last_reported":1743876727,"current_range_meters":8800,"station_id":"ce4bhbh2rcd13ifvqeo0","pricing_plan_id":"cebpf4jnsgd1na2vs0mg"},{"bike_id":"ed33f895-d65e-495f-abb8-b8f6df67f426","system_id":"levelo_inurba_marseille","lat":43.2926,"lon":5.38434,"is_reserved":false,"is_disabled":false,"rental_uris":{"android":"levelo://app?vid=ed33f895-d65e-495f-abb8-b8f6df67f426","ios":"levelo://app?vid=ed33f895-d65e-495f-abb8-b8f6df67f426"},"vehicle_type_id":"4","last_reported":1743876727,"current_range_meters":8800,"station_id":"ce4bh692rcd13ifvqea0","pricing_plan_id":"cebpf4jnsgd1na2vs0mg"},{"bike_id":"0ac1c113-034e-4c1a-803e-7888b3715e31","system_id":"levelo_inurba_marseille","lat":43.24167,"lon":5.36397,"is_reserved":false,"is_disabled":false,"rental_uris":{"android":"levelo://app?vid=0ac1c113-034e-4c1a-803e-7888b3715e31","ios":"levelo://app?vid=0ac1c113-034e-4c1a-803e-7888b3715e31"},"vehicle_type_id":"4","last_reported":1743876727,"current_range_meters":8800,"station_id":"cpo36qri1sfpv3e86is0","pricing_plan_id":"cebpf4jnsgd1na2vs0mg"},{"bike_id":"ac7a85da-6a1d-42f4-b3e0-decaec458451","system_id":"levelo_inurba_marseille","lat":43.22919,"lon":5.35379,"is_reserved":false,"is_disabled":true,"rental_uris":{"android":"levelo://app?vid=ac7a85da-6a1d-42f4-b3e0-decaec458451","ios":"levelo://app?vid=ac7a85da-6a1d-42f4-b3e0-decaec458451"},"vehicle_type_id":"4","last_reported":1743876727,"current_range_meters":8800,"station_id":"cpo3532slgdg3j2ikp40","pricing_plan_id":"cebpf4jnsgd1na2vs0mg"},{"bike_id":"fdad6e5e-1467-4616-9d72-68b29d343e00","system_id":"levelo_inurba_marseille","lat":43.32289,"lon":5.38282,"is_reserved":false,"is_disabled":false,"rental_uris":{"android":"levelo://app?vid=fdad6e5e-1467-4616-9d72-68b29d343e00","ios":"levelo://app?vid=fdad6e5e-1467-4616-9d72-68b29d343e00"},"vehicle_type_id":"4","last_reported":1743876727,"current_range_meters":8800,"station_id":"ce4bhr12rcd13ifvqhqg","pricing_plan_id":"cebpf4jnsgd1na2vs0mg"},{"bike_id":"6d9ea415-53e6-474d-a195-171168dfda06","system_id":"levelo_inurba_marseille","lat":43.29254,"lon":5.3843,"is_reserved":false,"is_disabled":false,"rental_uris":{"android":"levelo://app?vid=6d9ea415-53e6-474d-a195-171168dfda06","ios":"levelo://app?vid=6d9ea415-53e6-474d-a195-171168dfda06"},"vehicle_type_id":"4","last_reported":1743876727,"current_range_meters":8800,"station_id":"ce4bh692rcd13ifvqea0","pricing_plan_id":"cebpf4jnsgd1na2vs0mg"},{"bike_id":"6b652b17-4709-4398-8896-6b070cee45a3","system_id":"levelo_inurba_marseille","lat":43.31529,"lon":5.38047,"is_reserved":false,"is_disabled":false,"rental_uris":{"android":"levelo://app?vid=6b652b17-4709-4398-8896-6b070cee45a3","ios":"levelo://app?vid=6b652b17-4709-4398-8896-6b070cee45a3"},"vehicle_type_id":"4","last_reported":1743876727,"current_range_meters":9200,"station_id":"ce4bhsp2rcd13ifvqi50","pricing_plan_id":"cebpf4jnsgd1na2vs0mg"},{"bike_id":"036d07ea-6ab3-4fb2-95f7-8dc2d9cbe8e6","system_id":"levelo_inurba_marseille","lat":43.2927,"lon":5.36847,"is_reserved":false,"is_disabled":false,"rental_uris":{"android":"levelo://app?vid=036d07ea-6ab3-4fb2-95f7-8dc2d9cbe8e6","ios":"levelo://app?vid=036d07ea-6ab3-4fb2-95f7-8dc2d9cbe8e6"},"vehicle_type_id":"4","last_reported":1743876727,"current_range_meters":9200,"station_id":"ce4bhbp2rcd13ifvqesg","pricing_plan_id":"cebpf4jnsgd1na2vs0mg"},{"bike_id":"2f899a2a-96f9-4722-8605-8c16398d8cfe","system_id":"levelo_inurba_marseille","lat":43.28412,"lon":5.37512,"is_reserved":false,"is_disabled":false,"rental_uris":{"android":"levelo://app?vid=2f899a2a-96f9-4722-8605-8c16398d8cfe","ios":"levelo://app?vid=2f899a2a-96f9-4722-8605-8c16398d8cfe"},"vehicle_type_id":"4","last_reported":1743876727,"current_range_meters":9200,"station_id":"ce4bh412rcd13ifvqds0","pricing_plan_id":"cebpf4jnsgd1na2vs0mg"},{"bike_id":"715a61f4-d158-4bf6-bd64-6b1334d47d91","system_id":"levelo_inurba_marseille","lat":43.30584,"lon":5.39358,"is_reserved":false,"is_disabled":false,"rental_uris":{"android":"levelo://app?vid=715a61f4-d158-4bf6-bd64-6b1334d47d91","ios":"levelo://app?vid=715a61f4-d158-4bf6-bd64-6b1334d47d91"},"vehicle_type_id":"4","last_reported":1743876727,"current_range_meters":9200,"station_id":"ce4bh0p2rcd13ifvqd80","pricing_plan_id":"cebpf4jnsgd1na2vs0mg"},{"bike_id":"cae2ed56-5a2e-4c29-a89b-0e213a3df651","system_id":"levelo_inurba_marseille","lat":43.29909,"lon":5.43667,"is_reserved":false,"is_disabled":false,"rental_uris":{"android":"levelo://app?vid=cae2ed56-5a2e-4c29-a89b-0e213a3df651","ios":"levelo://app?vid=cae2ed56-5a2e-4c29-a89b-0e213a3df651"},"vehicle_type_id":"4","last_reported":1743876727,"current_range_meters":9200,"station_id":"ce4bhpp2rcd13ifvqhfg","pricing_plan_id":"cebpf4jnsgd1na2vs0mg"},{"bike_id":"1f1a6bfb-63bc-49b1-a14e-827905bba666","system_id":"levelo_inurba_marseille","lat":43.29536,"lon":5.3854,"is_reserved":false,"is_disabled":false,"rental_uris":{"android":"levelo://app?vid=1f1a6bfb-63bc-49b1-a14e-827905bba666","ios":"levelo://app?vid=1f1a6bfb-63bc-49b1-a14e-827905bba666"},"vehicle_type_id":"4","last_reported":1743876727,"current_range_meters":9200,"station_id":"ce4bgih2rcd13ifvqba0","pricing_plan_id":"cebpf4jnsgd1na2vs0mg"},{"bike_id":"4d9a97df-9514-453a-9968-ae73a4560323","system_id":"levelo_inurba_marseille","lat":43.29643,"lon":5.37157,"is_reserved":false,"is_disabled":false,"rental_uris":{"android":"levelo://app?vid=4d9a97df-9514-453a-9968-ae73a4560323","ios":"levelo://app?vid=4d9a97df-9514-453a-9968-ae73a4560323"},"vehicle_type_id":"4","last_reported":1743876727,"current_range_meters":8800,"station_id":"ce4bgnh2rcd13ifvqc0g","pricing_plan_id":"cebpf4jnsgd1na2vs0mg"},{"bike_id":"09b65bd7-ade1-44ba-b768-34e98f4f0d73","system_id":"levelo_inurba_marseille","lat":43.30732,"lon":5.42452,"is_reserved":false,"is_disabled":false,"rental_uris":{"android":"levelo://app?vid=09b65bd7-ade1-44ba-b768-34e98f4f0d73","ios":"levelo://app?vid=09b65bd7-ade1-44ba-b768-34e98f4f0d73"},"vehicle_type_id":"4","last_reported":1743876727,"current_range_meters":9200,"station_id":"st_cvj6ca6bvosntc0bfgr0","pricing_plan_id":"cebpf4jnsgd1na2vs0mg"},{"bike_id":"8e8105ce-63e2-4441-9ebe-d6a09a08a22e","system_id":"levelo_inurba_marseille","lat":43.29668,"lon":5.36204,"is_reserved":false,"is_disabled":false,"rental_uris":{"android":"levelo://app?vid=8e8105ce-63e2-4441-9ebe-d6a09a08a22e","ios":"levelo://app?vid=8e8105ce-63e2-4441-9ebe-d6a09a08a22e"},"vehicle_type_id":"4","last_reported":1743876727,"current_range_meters":9200,"station_id":"","pricing_plan_id":"cebpf4jnsgd1na2vs0mg"},{"bike_id":"2788ade7-4ab4-4cf6-bced-d6e3643d8439","system_id":"levelo_inurba_marseille","lat":43.28991,"lon":5.35598,"is_reserved":false,"is_disabled":false,"rental_uris":{"android":"levelo://app?vid=2788ade7-4ab4-4cf6-bced-d6e3643d8439","ios":"levelo://app?vid=2788ade7-4ab4-4cf6-bced-d6e3643d8439"},"vehicle_type_id":"4","last_reported":1743876727,"current_range_meters":9200,"station_id":"ce4bhb92rcd13ifvqen0","pricing_plan_id":"cebpf4jnsgd1na2vs0mg"},{"bike_id":"d5e984d3-343e-4e16-bd54-bc3ebbd48639","system_id":"levelo_inurba_marseille","lat":43.301168,"lon":5.38797,"is_reserved":false,"is_disabled":true,"rental_uris":{"android":"levelo://app?vid=d5e984d3-343e-4e16-bd54-bc3ebbd48639","ios":"levelo://app?vid=d5e984d3-343e-4e16-bd54-bc3ebbd48639"},"vehicle_type_id":"4","last_reported":1743876727,"current_range_meters":9600,"station_id":"ce4bghh2rcd13ifvqb60","pricing_plan_id":"cebpf4jnsgd1na2vs0mg"},{"bike_id":"49efb202-0b0d-40ae-b317-bfa633001541","system_id":"levelo_inurba_marseille","lat":43.290163,"lon":5.356113,"is_reserved":false,"is_disabled":false,"rental_uris":{"android":"levelo://app?vid=49efb202-0b0d-40ae-b317-bfa633001541","ios":"levelo://app?vid=49efb202-0b0d-40ae-b317-bfa633001541"},"vehicle_type_id":"4","last_reported":1743876727,"current_range_meters":9600,"station_id":"ce4bhb92rcd13ifvqen0","pricing_plan_id":"cebpf4jnsgd1na2vs0mg"},{"bike_id":"8c04198a-2755-4dcf-8ee9-98900092ba78","system_id":"levelo_inurba_marseille","lat":43.27381,"lon":5.36259,"is_reserved":false,"is_disabled":false,"rental_uris":{"android":"levelo://app?vid=8c04198a-2755-4dcf-8ee9-98900092ba78","ios":"levelo://app?vid=8c04198a-2755-4dcf-8ee9-98900092ba78"},"vehicle_type_id":"4","last_reported":1743876727,"current_range_meters":9600,"station_id":"ce4bhbh2rcd13ifvqeo0","pricing_plan_id":"cebpf4jnsgd1na2vs0mg"},{"bike_id":"db5b074a-d935-442f-b4d3-96df771d91d1","system_id":"levelo_inurba_marseille","lat":43.24818,"lon":5.37458,"is_reserved":false,"is_disabled":false,"rental_uris":{"android":"levelo://app?vid=db5b074a-d935-442f-b4d3-96df771d91d1","ios":"levelo://app?vid=db5b074a-d935-442f-b4d3-96df771d91d1"},"vehicle_type_id":"4","last_reported":1743876727,"current_range_meters":9600,"station_id":"ce4bhgh2rcd13ifvqfb0","pricing_plan_id":"cebpf4jnsgd1na2vs0mg"},{"bike_id":"8556af88-daaf-42e0-b67a-04f02050beb0","system_id":"levelo_inurba_marseille","lat":43.27385,"lon":5.36268,"is_reserved":false,"is_disabled":false,"rental_uris":{"android":"levelo://app?vid=8556af88-daaf-42e0-b67a-04f02050beb0","ios":"levelo://app?vid=8556af88-daaf-42e0-b67a-04f02050beb0"},"vehicle_type_id":"4","last_reported":1743876727,"current_range_meters":9600,"station_id":"ce4bhbh2rcd13ifvqeo0","pricing_plan_id":"cebpf4jnsgd1na2vs0mg"},{"bike_id":"1622461e-25a5-4ec6-9188-643400d8cf0e","system_id":"levelo_inurba_marseille","lat":43.292825,"lon":5.401123,"is_reserved":false,"is_disabled":false,"rental_uris":{"android":"levelo://app?vid=1622461e-25a5-4ec6-9188-643400d8cf0e","ios":"levelo://app?vid=1622461e-25a5-4ec6-9188-643400d8cf0e"},"vehicle_type_id":"4","last_reported":1743876727,"current_range_meters":9600,"station_id":"ce4bhph2rcd13ifvqheg","pricing_plan_id":"cebpf4jnsgd1na2vs0mg"},{"bike_id":"21a49a35-60ed-415f-b631-4e9a5295ff32","system_id":"levelo_inurba_marseille","lat":43.29273,"lon":5.36846,"is_reserved":false,"is_disabled":false,"rental_uris":{"android":"levelo://app?vid=21a49a35-60ed-415f-b631-4e9a5295ff32","ios":"levelo://app?vid=21a49a35-60ed-415f-b631-4e9a5295ff32"},"vehicle_type_id":"4","last_reported":1743876727,"current_range_meters":9600,"station_id":"ce4bhbp2rcd13ifvqesg","pricing_plan_id":"cebpf4jnsgd1na2vs0mg"},{"bike_id":"37860e01-e269-47e1-9e12-3a39d352aff7","system_id":"levelo_inurba_marseille","lat":43.26934,"lon":5.38933,"is_reserved":false,"is_disabled":false,"rental_uris":{"android":"levelo://app?vid=37860e01-e269-47e1-9e12-3a39d352aff7","ios":"levelo://app?vid=37860e01-e269-47e1-9e12-3a39d352aff7"},"vehicle_type_id":"4","last_reported":1743876727,"current_range_meters":9600,"station_id":"ce4bhhh2rcd13ifvqfl0","pricing_plan_id":"cebpf4jnsgd1na2vs0mg"},{"bike_id":"ec1d3458-0a90-4120-8a34-a42a38cc7495","system_id":"levelo_inurba_marseille","lat":43.28408,"lon":5.35007,"is_reserved":false,"is_disabled":false,"rental_uris":{"android":"levelo://app?vid=ec1d3458-0a90-4120-8a34-a42a38cc7495","ios":"levelo://app?vid=ec1d3458-0a90-4120-8a34-a42a38cc7495"},"vehicle_type_id":"4","last_reported":1743876727,"current_range_meters":9600,"station_id":"ce4bhbh2rcd13ifvqepg","pricing_plan_id":"cebpf4jnsgd1na2vs0mg"},{"bike_id":"1e72d3fb-accb-4636-a1fd-813f0b952e02","system_id":"levelo_inurba_marseille","lat":43.30878,"lon":5.39642,"is_reserved":false,"is_disabled":false,"rental_uris":{"android":"levelo://app?vid=1e72d3fb-accb-4636-a1fd-813f0b952e02","ios":"levelo://app?vid=1e72d3fb-accb-4636-a1fd-813f0b952e02"},"vehicle_type_id":"4","last_reported":1743876727,"current_range_meters":9600,"station_id":"ce4bh012rcd13ifvqcv0","pricing_plan_id":"cebpf4jnsgd1na2vs0mg"},{"bike_id":"dc6173dc-3d81-459d-a04a-7f3427cb4b31","system_id":"levelo_inurba_marseille","lat":43.28708,"lon":5.37925,"is_reserved":false,"is_disabled":false,"rental_uris":{"android":"levelo://app?vid=dc6173dc-3d81-459d-a04a-7f3427cb4b31","ios":"levelo://app?vid=dc6173dc-3d81-459d-a04a-7f3427cb4b31"},"vehicle_type_id":"4","last_reported":1743876727,"current_range_meters":9600,"station_id":"ce4bh9p2rcd13ifvqec0","pricing_plan_id":"cebpf4jnsgd1na2vs0mg"},{"bike_id":"c82eef39-df51-4613-a4a2-f932d832001b","system_id":"levelo_inurba_marseille","lat":43.30145,"lon":5.37432,"is_reserved":false,"is_disabled":false,"rental_uris":{"android":"levelo://app?vid=c82eef39-df51-4613-a4a2-f932d832001b","ios":"levelo://app?vid=c82eef39-df51-4613-a4a2-f932d832001b"},"vehicle_type_id":"4","last_reported":1743876727,"current_range_meters":9600,"station_id":"ce4bgs92rcd13ifvqcc0","pricing_plan_id":"cebpf4jnsgd1na2vs0mg"},{"bike_id":"9240dbb3-7e91-4c40-880d-f2bdf0f5f3a2","system_id":"levelo_inurba_marseille","lat":43.28077,"lon":5.39667,"is_reserved":false,"is_disabled":false,"rental_uris":{"android":"levelo://app?vid=9240dbb3-7e91-4c40-880d-f2bdf0f5f3a2","ios":"levelo://app?vid=9240dbb3-7e91-4c40-880d-f2bdf0f5f3a2"},"vehicle_type_id":"4","last_reported":1743876727,"current_range_meters":9600,"station_id":"ce4bho12rcd13ifvqh2g","pricing_plan_id":"cebpf4jnsgd1na2vs0mg"},{"bike_id":"db29433a-c7f6-40d6-b0e1-3a1f0abf15ab","system_id":"levelo_inurba_marseille","lat":43.241712,"lon":5.364041,"is_reserved":false,"is_disabled":true,"rental_uris":{"android":"levelo://app?vid=db29433a-c7f6-40d6-b0e1-3a1f0abf15ab","ios":"levelo://app?vid=db29433a-c7f6-40d6-b0e1-3a1f0abf15ab"},"vehicle_type_id":"4","last_reported":1743876727,"current_range_meters":10000,"station_id":"ce4bh412rcd13ifvqdr0","pricing_plan_id":"cebpf4jnsgd1na2vs0mg"},{"bike_id":"d17ca5fe-fa8f-4c9a-8526-074eec4a692c","system_id":"levelo_inurba_marseille","lat":43.2926,"lon":5.38449,"is_reserved":false,"is_disabled":false,"rental_uris":{"android":"levelo://app?vid=d17ca5fe-fa8f-4c9a-8526-074eec4a692c","ios":"levelo://app?vid=d17ca5fe-fa8f-4c9a-8526-074eec4a692c"},"vehicle_type_id":"4","last_reported":1743876727,"current_range_meters":10000,"station_id":"ce4bh692rcd13ifvqea0","pricing_plan_id":"cebpf4jnsgd1na2vs0mg"},{"bike_id":"fdfd01fc-093d-4c48-8c80-06fe1b4633e3","system_id":"levelo_inurba_marseille","lat":43.29256,"lon":5.38434,"is_reserved":false,"is_disabled":true,"rental_uris":{"android":"levelo://app?vid=fdfd01fc-093d-4c48-8c80-06fe1b4633e3","ios":"levelo://app?vid=fdfd01fc-093d-4c48-8c80-06fe1b4633e3"},"vehicle_type_id":"4","last_reported":1743876727,"current_range_meters":10000,"station_id":"ce4bh692rcd13ifvqea0","pricing_plan_id":"cebpf4jnsgd1na2vs0mg"},{"bike_id":"8008d68f-a112-44d4-8f83-c29bd19d0ce4","system_id":"levelo_inurba_marseille","lat":43.29031,"lon":5.38634,"is_reserved":false,"is_disabled":false,"rental_uris":{"android":"levelo://app?vid=8008d68f-a112-44d4-8f83-c29bd19d0ce4","ios":"levelo://app?vid=8008d68f-a112-44d4-8f83-c29bd19d0ce4"},"vehicle_type_id":"4","last_reported":1743876727,"current_range_meters":10000,"station_id":"ce4bh4p2rcd13ifvqe0g","pricing_plan_id":"cebpf4jnsgd1na2vs0mg"},{"bike_id":"258af751-001b-4c05-9d89-1a9ba218e7cd","system_id":"levelo_inurba_marseille","lat":43.29566,"lon":5.39976,"is_reserved":false,"is_disabled":false,"rental_uris":{"android":"levelo://app?vid=258af751-001b-4c05-9d89-1a9ba218e7cd","ios":"levelo://app?vid=258af751-001b-4c05-9d89-1a9ba218e7cd"},"vehicle_type_id":"4","last_reported":1743876727,"current_range_meters":10000,"station_id":"ce4bh312rcd13ifvqdj0","pricing_plan_id":"cebpf4jnsgd1na2vs0mg"},{"bike_id":"3247f4df-0565-468a-8d62-a79c4814cf8e","system_id":"levelo_inurba_marseille","lat":43.27642,"lon":5.36113,"is_reserved":false,"is_disabled":false,"rental_uris":{"android":"levelo://app?vid=3247f4df-0565-468a-8d62-a79c4814cf8e","ios":"levelo://app?vid=3247f4df-0565-468a-8d62-a79c4814cf8e"},"vehicle_type_id":"4","last_reported":1743876727,"current_range_meters":10000,"station_id":"ce4bgj92rcd13ifvqbe0","pricing_plan_id":"cebpf4jnsgd1na2vs0mg"},{"bike_id":"30b57730-cb66-4122-bd93-7dabcaba84e7","system_id":"levelo_inurba_marseille","lat":43.24943,"lon":5.40709,"is_reserved":false,"is_disabled":false,"rental_uris":{"android":"levelo://app?vid=30b57730-cb66-4122-bd93-7dabcaba84e7","ios":"levelo://app?vid=30b57730-cb66-4122-bd93-7dabcaba84e7"},"vehicle_type_id":"4","last_reported":1743876727,"current_range_meters":10000,"station_id":"","pricing_plan_id":"cebpf4jnsgd1na2vs0mg"},{"bike_id":"1532c609-806e-4c57-a20c-226f9425d04b","system_id":"levelo_inurba_marseille","lat":43.29259,"lon":5.38441,"is_reserved":false,"is_disabled":false,"rental_uris":{"android":"levelo://app?vid=1532c609-806e-4c57-a20c-226f9425d04b","ios":"levelo://app?vid=1532c609-806e-4c57-a20c-226f9425d04b"},"vehicle_type_id":"4","last_reported":1743876727,"current_range_meters":10800,"station_id":"ce4bh692rcd13ifvqea0","pricing_plan_id":"cebpf4jnsgd1na2vs0mg"},{"bike_id":"f026eb80-b911-4274-bb5d-af622566135d","system_id":"levelo_inurba_marseille","lat":43.29266,"lon":5.38478,"is_reserved":false,"is_disabled":false,"rental_uris":{"android":"levelo://app?vid=f026eb80-b911-4274-bb5d-af622566135d","ios":"levelo://app?vid=f026eb80-b911-4274-bb5d-af622566135d"},"vehicle_type_id":"4","last_reported":1743876727,"current_range_meters":10800,"station_id":"ce4bh692rcd13ifvqea0","pricing_plan_id":"cebpf4jnsgd1na2vs0mg"},{"bike_id":"fb7a6658-65a4-4af9-acc1-679ce624548f","system_id":"levelo_inurba_marseille","lat":43.26258,"lon":5.40469,"is_reserved":false,"is_disabled":false,"rental_uris":{"android":"levelo://app?vid=fb7a6658-65a4-4af9-acc1-679ce624548f","ios":"levelo://app?vid=fb7a6658-65a4-4af9-acc1-679ce624548f"},"vehicle_type_id":"4","last_reported":1743876727,"current_range_meters":10800,"station_id":"ce4bhmh2rcd13ifvqgmg","pricing_plan_id":"cebpf4jnsgd1na2vs0mg"},{"bike_id":"58b17406-9bc6-4a67-b002-5d6db4195932","system_id":"levelo_inurba_marseille","lat":43.26227,"lon":5.40453,"is_reserved":false,"is_disabled":false,"rental_uris":{"android":"levelo://app?vid=58b17406-9bc6-4a67-b002-5d6db4195932","ios":"levelo://app?vid=58b17406-9bc6-4a67-b002-5d6db4195932"},"vehicle_type_id":"4","last_reported":1743876727,"current_range_meters":10800,"station_id":"ce4bhmh2rcd13ifvqgmg","pricing_plan_id":"cebpf4jnsgd1na2vs0mg"},{"bike_id":"a6a4aada-4dec-4c66-9029-bd9ebff46b38","system_id":"levelo_inurba_marseille","lat":43.31307,"lon":5.39668,"is_reserved":false,"is_disabled":false,"rental_uris":{"android":"levelo://app?vid=a6a4aada-4dec-4c66-9029-bd9ebff46b38","ios":"levelo://app?vid=a6a4aada-4dec-4c66-9029-bd9ebff46b38"},"vehicle_type_id":"4","last_reported":1743876727,"current_range_meters":10800,"station_id":"ce4bgvp2rcd13ifvqcu0","pricing_plan_id":"cebpf4jnsgd1na2vs0mg"},{"bike_id":"301b6729-c45c-4915-8ef6-dadde3959d3d","system_id":"levelo_inurba_marseille","lat":43.26575,"lon":5.39016,"is_reserved":false,"is_disabled":true,"rental_uris":{"android":"levelo://app?vid=301b6729-c45c-4915-8ef6-dadde3959d3d","ios":"levelo://app?vid=301b6729-c45c-4915-8ef6-dadde3959d3d"},"vehicle_type_id":"4","last_reported":1743876727,"current_range_meters":10800,"station_id":"ce4bhe12rcd13ifvqf30","pricing_plan_id":"cebpf4jnsgd1na2vs0mg"},{"bike_id":"990da929-1cb7-46ce-a5e3-a46343bfffe7","system_id":"levelo_inurba_marseille","lat":43.29787,"lon":5.38113,"is_reserved":false,"is_disabled":true,"rental_uris":{"android":"levelo://app?vid=990da929-1cb7-46ce-a5e3-a46343bfffe7","ios":"levelo://app?vid=990da929-1cb7-46ce-a5e3-a46343bfffe7"},"vehicle_type_id":"4","last_reported":1743876727,"current_range_meters":10800,"station_id":"ce4bgip2rcd13ifvqbb0","pricing_plan_id":"cebpf4jnsgd1na2vs0mg"},{"bike_id":"de75158f-cbcc-40ab-9136-8c0275744e50","system_id":"levelo_inurba_marseille","lat":43.257845,"lon":5.382226,"is_reserved":false,"is_disabled":false,"rental_uris":{"android":"levelo://app?vid=de75158f-cbcc-40ab-9136-8c0275744e50","ios":"levelo://app?vid=de75158f-cbcc-40ab-9136-8c0275744e50"},"vehicle_type_id":"4","last_reported":1743876727,"current_range_meters":10000,"station_id":"ce4bhgh2rcd13ifvqfa0","pricing_plan_id":"cebpf4jnsgd1na2vs0mg"},{"bike_id":"eb51f2c0-a95d-4f68-8c9c-a9dfc5d1d24a","system_id":"levelo_inurba_marseille","lat":43.28483,"lon":5.38413,"is_reserved":false,"is_disabled":false,"rental_uris":{"android":"levelo://app?vid=eb51f2c0-a95d-4f68-8c9c-a9dfc5d1d24a","ios":"levelo://app?vid=eb51f2c0-a95d-4f68-8c9c-a9dfc5d1d24a"},"vehicle_type_id":"4","last_reported":1743876727,"current_range_meters":10000,"station_id":"ce4bh512rcd13ifvqe3g","pricing_plan_id":"cebpf4jnsgd1na2vs0mg"},{"bike_id":"7a935817-47e2-4cb3-8324-a647fdf3a140","system_id":"levelo_inurba_marseille","lat":43.29535,"lon":5.3855,"is_reserved":false,"is_disabled":true,"rental_uris":{"android":"levelo://app?vid=7a935817-47e2-4cb3-8324-a647fdf3a140","ios":"levelo://app?vid=7a935817-47e2-4cb3-8324-a647fdf3a140"},"vehicle_type_id":"4","last_reported":1743876727,"current_range_meters":10800,"station_id":"ce4bgih2rcd13ifvqba0","pricing_plan_id":"cebpf4jnsgd1na2vs0mg"},{"bike_id":"b52360bf-763d-46e5-87c5-983b3c3faa9f","system_id":"levelo_inurba_marseille","lat":43.29163,"lon":5.37152,"is_reserved":false,"is_disabled":false,"rental_uris":{"android":"levelo://app?vid=b52360bf-763d-46e5-87c5-983b3c3faa9f","ios":"levelo://app?vid=b52360bf-763d-46e5-87c5-983b3c3faa9f"},"vehicle_type_id":"4","last_reported":1743876727,"current_range_meters":11200,"station_id":"ce4bha92rcd13ifvqeh0","pricing_plan_id":"cebpf4jnsgd1na2vs0mg"},{"bike_id":"da11912c-6acf-4446-be05-a1b58a41c262","system_id":"levelo_inurba_marseille","lat":43.28981,"lon":5.37829,"is_reserved":false,"is_disabled":false,"rental_uris":{"android":"levelo://app?vid=da11912c-6acf-4446-be05-a1b58a41c262","ios":"levelo://app?vid=da11912c-6acf-4446-be05-a1b58a41c262"},"vehicle_type_id":"4","last_reported":1743876727,"current_range_meters":11200,"station_id":"ce4bh9p2rcd13ifvqed0","pricing_plan_id":"cebpf4jnsgd1na2vs0mg"},{"bike_id":"12095ccb-6f38-4ea3-8f75-94bec0f83432","system_id":"levelo_inurba_marseille","lat":43.29273,"lon":5.38429,"is_reserved":false,"is_disabled":false,"rental_uris":{"android":"levelo://app?vid=12095ccb-6f38-4ea3-8f75-94bec0f83432","ios":"levelo://app?vid=12095ccb-6f38-4ea3-8f75-94bec0f83432"},"vehicle_type_id":"4","last_reported":1743876727,"current_range_meters":11200,"station_id":"ce4bh692rcd13ifvqea0","pricing_plan_id":"cebpf4jnsgd1na2vs0mg"},{"bike_id":"af4bae0d-9a81-4c70-932e-69691469b741","system_id":"levelo_inurba_marseille","lat":43.25867,"lon":5.3991,"is_reserved":false,"is_disabled":false,"rental_uris":{"android":"levelo://app?vid=af4bae0d-9a81-4c70-932e-69691469b741","ios":"levelo://app?vid=af4bae0d-9a81-4c70-932e-69691469b741"},"vehicle_type_id":"4","last_reported":1743876727,"current_range_meters":11200,"station_id":"ce4bhl92rcd13ifvqghg","pricing_plan_id":"cebpf4jnsgd1na2vs0mg"},{"bike_id":"cef27be6-7607-46ea-96c4-f01a5524965f","system_id":"levelo_inurba_marseille","lat":43.29005,"lon":5.35606,"is_reserved":false,"is_disabled":false,"rental_uris":{"android":"levelo://app?vid=cef27be6-7607-46ea-96c4-f01a5524965f","ios":"levelo://app?vid=cef27be6-7607-46ea-96c4-f01a5524965f"},"vehicle_type_id":"4","last_reported":1743876727,"current_range_meters":10800,"station_id":"ce4bhb92rcd13ifvqen0","pricing_plan_id":"cebpf4jnsgd1na2vs0mg"},{"bike_id":"f3c86052-234c-4088-a461-50c2afd2b244","system_id":"levelo_inurba_marseille","lat":43.23194,"lon":5.35551,"is_reserved":false,"is_disabled":false,"rental_uris":{"android":"levelo://app?vid=f3c86052-234c-4088-a461-50c2afd2b244","ios":"levelo://app?vid=f3c86052-234c-4088-a461-50c2afd2b244"},"vehicle_type_id":"4","last_reported":1743876727,"current_range_meters":11200,"station_id":"ce4bhu92rcd13ifvqi70","pricing_plan_id":"cebpf4jnsgd1na2vs0mg"},{"bike_id":"2b3ece07-41ed-4afd-b18e-79aab740adcb","system_id":"levelo_inurba_marseille","lat":43.286982,"lon":5.399806,"is_reserved":false,"is_disabled":false,"rental_uris":{"android":"levelo://app?vid=2b3ece07-41ed-4afd-b18e-79aab740adcb","ios":"levelo://app?vid=2b3ece07-41ed-4afd-b18e-79aab740adcb"},"vehicle_type_id":"4","last_reported":1743876727,"current_range_meters":11200,"station_id":"ce4bho92rcd13ifvqh3g","pricing_plan_id":"cebpf4jnsgd1na2vs0mg"},{"bike_id":"3a4ddc82-3be1-4056-8cce-a5d400df90fd","system_id":"levelo_inurba_marseille","lat":43.28619,"lon":5.35118,"is_reserved":false,"is_disabled":false,"rental_uris":{"android":"levelo://app?vid=3a4ddc82-3be1-4056-8cce-a5d400df90fd","ios":"levelo://app?vid=3a4ddc82-3be1-4056-8cce-a5d400df90fd"},"vehicle_type_id":"4","last_reported":1743876727,"current_range_meters":11200,"station_id":"ce4bhch2rcd13ifvqeug","pricing_plan_id":"cebpf4jnsgd1na2vs0mg"},{"bike_id":"25ab24b5-b311-4a08-b362-36380a20f6db","system_id":"levelo_inurba_marseille","lat":43.29257,"lon":5.38438,"is_reserved":false,"is_disabled":false,"rental_uris":{"android":"levelo://app?vid=25ab24b5-b311-4a08-b362-36380a20f6db","ios":"levelo://app?vid=25ab24b5-b311-4a08-b362-36380a20f6db"},"vehicle_type_id":"4","last_reported":1743876727,"current_range_meters":11200,"station_id":"ce4bh692rcd13ifvqea0","pricing_plan_id":"cebpf4jnsgd1na2vs0mg"},{"bike_id":"61e926fe-3dd1-4572-9b21-809d24ca6684","system_id":"levelo_inurba_marseille","lat":43.30417,"lon":5.41291,"is_reserved":false,"is_disabled":false,"rental_uris":{"android":"levelo://app?vid=61e926fe-3dd1-4572-9b21-809d24ca6684","ios":"levelo://app?vid=61e926fe-3dd1-4572-9b21-809d24ca6684"},"vehicle_type_id":"4","last_reported":1743876727,"current_range_meters":11600,"station_id":"ce4bhop2rcd13ifvqh8g","pricing_plan_id":"cebpf4jnsgd1na2vs0mg"},{"bike_id":"e4495aee-8de8-4369-8342-cab00e254e8c","system_id":"levelo_inurba_marseille","lat":43.29276,"lon":5.36847,"is_reserved":false,"is_disabled":false,"rental_uris":{"android":"levelo://app?vid=e4495aee-8de8-4369-8342-cab00e254e8c","ios":"levelo://app?vid=e4495aee-8de8-4369-8342-cab00e254e8c"},"vehicle_type_id":"4","last_reported":1743876727,"current_range_meters":11600,"station_id":"ce4bhbp2rcd13ifvqesg","pricing_plan_id":"cebpf4jnsgd1na2vs0mg"},{"bike_id":"c38ff59d-bdb1-41d6-8e46-5fee08887bdc","system_id":"levelo_inurba_marseille","lat":43.2969,"lon":5.37311,"is_reserved":false,"is_disabled":false,"rental_uris":{"android":"levelo://app?vid=c38ff59d-bdb1-41d6-8e46-5fee08887bdc","ios":"levelo://app?vid=c38ff59d-bdb1-41d6-8e46-5fee08887bdc"},"vehicle_type_id":"4","last_reported":1743876727,"current_range_meters":11600,"station_id":"ce4bgk12rcd13ifvqbj0","pricing_plan_id":"cebpf4jnsgd1na2vs0mg"},{"bike_id":"b70cced5-dc6e-4ac4-aef4-4cfbee9a2e11","system_id":"levelo_inurba_marseille","lat":43.29598,"lon":5.37702,"is_reserved":false,"is_disabled":true,"rental_uris":{"android":"levelo://app?vid=b70cced5-dc6e-4ac4-aef4-4cfbee9a2e11","ios":"levelo://app?vid=b70cced5-dc6e-4ac4-aef4-4cfbee9a2e11"},"vehicle_type_id":"4","last_reported":1743876727,"current_range_meters":11600,"station_id":"ce4bgi92rcd13ifvqb90","pricing_plan_id":"cebpf4jnsgd1na2vs0mg"},{"bike_id":"4a01353d-6b43-4ce9-9297-15c443e756f9","system_id":"levelo_inurba_marseille","lat":43.25115,"lon":5.4033,"is_reserved":false,"is_disabled":false,"rental_uris":{"android":"levelo://app?vid=4a01353d-6b43-4ce9-9297-15c443e756f9","ios":"levelo://app?vid=4a01353d-6b43-4ce9-9297-15c443e756f9"},"vehicle_type_id":"4","last_reported":1743876727,"current_range_meters":11600,"station_id":"ce4bhlh2rcd13ifvqgig","pricing_plan_id":"cebpf4jnsgd1na2vs0mg"},{"bike_id":"9b28574b-5a8f-4ca1-a2a8-7046c5dc6fa4","system_id":"levelo_inurba_marseille","lat":43.27375,"lon":5.3626,"is_reserved":false,"is_disabled":false,"rental_uris":{"android":"levelo://app?vid=9b28574b-5a8f-4ca1-a2a8-7046c5dc6fa4","ios":"levelo://app?vid=9b28574b-5a8f-4ca1-a2a8-7046c5dc6fa4"},"vehicle_type_id":"4","last_reported":1743876727,"current_range_meters":11600,"station_id":"ce4bhbh2rcd13ifvqeo0","pricing_plan_id":"cebpf4jnsgd1na2vs0mg"},{"bike_id":"acf5ad1b-97ca-423b-9d0e-180b947f3d98","system_id":"levelo_inurba_marseille","lat":43.28265,"lon":5.35051,"is_reserved":false,"is_disabled":false,"rental_uris":{"android":"levelo://app?vid=acf5ad1b-97ca-423b-9d0e-180b947f3d98","ios":"levelo://app?vid=acf5ad1b-97ca-423b-9d0e-180b947f3d98"},"vehicle_type_id":"4","last_reported":1743876727,"current_range_meters":11600,"station_id":"ce4bhbp2rcd13ifvqerg","pricing_plan_id":"cebpf4jnsgd1na2vs0mg"},{"bike_id":"52bb8641-135b-4c7e-ae22-5eacd6cf4b2f","system_id":"levelo_inurba_marseille","lat":43.301854,"lon":5.366123,"is_reserved":false,"is_disabled":false,"rental_uris":{"android":"levelo://app?vid=52bb8641-135b-4c7e-ae22-5eacd6cf4b2f","ios":"levelo://app?vid=52bb8641-135b-4c7e-ae22-5eacd6cf4b2f"},"vehicle_type_id":"4","last_reported":1743876727,"current_range_meters":11600,"station_id":"ce4bhc92rcd13ifvqetg","pricing_plan_id":"cebpf4jnsgd1na2vs0mg"},{"bike_id":"06c28898-e3be-4e6c-b2cc-eccb4eb62e31","system_id":"levelo_inurba_marseille","lat":43.27613,"lon":5.36123,"is_reserved":false,"is_disabled":false,"rental_uris":{"android":"levelo://app?vid=06c28898-e3be-4e6c-b2cc-eccb4eb62e31","ios":"levelo://app?vid=06c28898-e3be-4e6c-b2cc-eccb4eb62e31"},"vehicle_type_id":"4","last_reported":1743876727,"current_range_meters":11200,"station_id":"ce4bgj92rcd13ifvqbe0","pricing_plan_id":"cebpf4jnsgd1na2vs0mg"},{"bike_id":"c56bb888-4f43-43ba-9a7b-7e71007531b4","system_id":"levelo_inurba_marseille","lat":43.27363,"lon":5.36246,"is_reserved":false,"is_disabled":false,"rental_uris":{"android":"levelo://app?vid=c56bb888-4f43-43ba-9a7b-7e71007531b4","ios":"levelo://app?vid=c56bb888-4f43-43ba-9a7b-7e71007531b4"},"vehicle_type_id":"4","last_reported":1743876727,"current_range_meters":12000,"station_id":"ce4bhbh2rcd13ifvqeo0","pricing_plan_id":"cebpf4jnsgd1na2vs0mg"},{"bike_id":"06afbb6e-ea4e-4d1a-9862-46fd1028cb56","system_id":"levelo_inurba_marseille","lat":43.29172,"lon":5.35801,"is_reserved":false,"is_disabled":false,"rental_uris":{"android":"levelo://app?vid=06afbb6e-ea4e-4d1a-9862-46fd1028cb56","ios":"levelo://app?vid=06afbb6e-ea4e-4d1a-9862-46fd1028cb56"},"vehicle_type_id":"4","last_reported":1743876727,"current_range_meters":12000,"station_id":"ce4bhb12rcd13ifvqel0","pricing_plan_id":"cebpf4jnsgd1na2vs0mg"},{"bike_id":"e6d4998d-3bfe-4d08-a204-7827bb20e8f4","system_id":"levelo_inurba_marseille","lat":43.26212,"lon":5.37465,"is_reserved":false,"is_disabled":false,"rental_uris":{"android":"levelo://app?vid=e6d4998d-3bfe-4d08-a204-7827bb20e8f4","ios":"levelo://app?vid=e6d4998d-3bfe-4d08-a204-7827bb20e8f4"},"vehicle_type_id":"4","last_reported":1743876727,"current_range_meters":12000,"station_id":"ce4bhgp2rcd13ifvqfc0","pricing_plan_id":"cebpf4jnsgd1na2vs0mg"},{"bike_id":"0f3d6cb8-7efe-42ee-ab50-2a663f90e5af","system_id":"levelo_inurba_marseille","lat":43.27623,"lon":5.36107,"is_reserved":false,"is_disabled":false,"rental_uris":{"android":"levelo://app?vid=0f3d6cb8-7efe-42ee-ab50-2a663f90e5af","ios":"levelo://app?vid=0f3d6cb8-7efe-42ee-ab50-2a663f90e5af"},"vehicle_type_id":"4","last_reported":1743876727,"current_range_meters":12000,"station_id":"ce4bgj92rcd13ifvqbe0","pricing_plan_id":"cebpf4jnsgd1na2vs0mg"},{"bike_id":"6df0ef58-2396-4fef-b64c-a85911c6f825","system_id":"levelo_inurba_marseille","lat":43.28703,"lon":5.37381,"is_reserved":false,"is_disabled":false,"rental_uris":{"android":"levelo://app?vid=6df0ef58-2396-4fef-b64c-a85911c6f825","ios":"levelo://app?vid=6df0ef58-2396-4fef-b64c-a85911c6f825"},"vehicle_type_id":"4","last_reported":1743876727,"current_range_meters":12000,"station_id":"ce4bh3p2rcd13ifvqdq0","pricing_plan_id":"cebpf4jnsgd1na2vs0mg"},{"bike_id":"c2d80626-d46f-4f85-ad23-f2c5b0f5900d","system_id":"levelo_inurba_marseille","lat":43.28564,"lon":5.39503,"is_reserved":false,"is_disabled":false,"rental_uris":{"android":"levelo://app?vid=c2d80626-d46f-4f85-ad23-f2c5b0f5900d","ios":"levelo://app?vid=c2d80626-d46f-4f85-ad23-f2c5b0f5900d"},"vehicle_type_id":"4","last_reported":1743876727,"current_range_meters":11600,"station_id":"ce4bh292rcd13ifvqdg0","pricing_plan_id":"cebpf4jnsgd1na2vs0mg"},{"bike_id":"faded275-13e2-439d-8bb7-3dc43bc1b23d","system_id":"levelo_inurba_marseille","lat":43.28614,"lon":5.35104,"is_reserved":false,"is_disabled":false,"rental_uris":{"android":"levelo://app?vid=faded275-13e2-439d-8bb7-3dc43bc1b23d","ios":"levelo://app?vid=faded275-13e2-439d-8bb7-3dc43bc1b23d"},"vehicle_type_id":"4","last_reported":1743876727,"current_range_meters":12400,"station_id":"ce4bhch2rcd13ifvqeug","pricing_plan_id":"cebpf4jnsgd1na2vs0mg"},{"bike_id":"9c8303fa-3ccd-4ce0-a7b9-1f5998ff0638","system_id":"levelo_inurba_marseille","lat":43.29271,"lon":5.36852,"is_reserved":false,"is_disabled":false,"rental_uris":{"android":"levelo://app?vid=9c8303fa-3ccd-4ce0-a7b9-1f5998ff0638","ios":"levelo://app?vid=9c8303fa-3ccd-4ce0-a7b9-1f5998ff0638"},"vehicle_type_id":"4","last_reported":1743876727,"current_range_meters":12400,"station_id":"ce4bhbp2rcd13ifvqesg","pricing_plan_id":"cebpf4jnsgd1na2vs0mg"},{"bike_id":"730f249e-d9b5-4cdf-b2e5-be9a82372f6e","system_id":"levelo_inurba_marseille","lat":43.27377,"lon":5.36264,"is_reserved":false,"is_disabled":false,"rental_uris":{"android":"levelo://app?vid=730f249e-d9b5-4cdf-b2e5-be9a82372f6e","ios":"levelo://app?vid=730f249e-d9b5-4cdf-b2e5-be9a82372f6e"},"vehicle_type_id":"4","last_reported":1743876727,"current_range_meters":12400,"station_id":"ce4bhbh2rcd13ifvqeo0","pricing_plan_id":"cebpf4jnsgd1na2vs0mg"},{"bike_id":"66e4125d-e33c-48ae-8483-a7dcb8318b6e","system_id":"levelo_inurba_marseille","lat":43.24804,"lon":5.37451,"is_reserved":false,"is_disabled":false,"rental_uris":{"android":"levelo://app?vid=66e4125d-e33c-48ae-8483-a7dcb8318b6e","ios":"levelo://app?vid=66e4125d-e33c-48ae-8483-a7dcb8318b6e"},"vehicle_type_id":"4","last_reported":1743876727,"current_range_meters":12400,"station_id":"ce4bhgh2rcd13ifvqfb0","pricing_plan_id":"cebpf4jnsgd1na2vs0mg"},{"bike_id":"1562df3d-877f-4538-a869-0440e5f21d3f","system_id":"levelo_inurba_marseille","lat":43.29776,"lon":5.371243,"is_reserved":false,"is_disabled":false,"rental_uris":{"android":"levelo://app?vid=1562df3d-877f-4538-a869-0440e5f21d3f","ios":"levelo://app?vid=1562df3d-877f-4538-a869-0440e5f21d3f"},"vehicle_type_id":"4","last_reported":1743876727,"current_range_meters":12800,"station_id":"ce4bgop2rcd13ifvqc1g","pricing_plan_id":"cebpf4jnsgd1na2vs0mg"},{"bike_id":"74aa386e-40bb-4033-8cf4-8be7f9c96b67","system_id":"levelo_inurba_marseille","lat":43.26216,"lon":5.37922,"is_reserved":false,"is_disabled":true,"rental_uris":{"android":"levelo://app?vid=74aa386e-40bb-4033-8cf4-8be7f9c96b67","ios":"levelo://app?vid=74aa386e-40bb-4033-8cf4-8be7f9c96b67"},"vehicle_type_id":"4","last_reported":1743876727,"current_range_meters":12800,"station_id":"","pricing_plan_id":"cebpf4jnsgd1na2vs0mg"},{"bike_id":"97d77224-5748-4443-848a-6ab951c45d6d","system_id":"levelo_inurba_marseille","lat":43.32267,"lon":5.38296,"is_reserved":false,"is_disabled":false,"rental_uris":{"android":"levelo://app?vid=97d77224-5748-4443-848a-6ab951c45d6d","ios":"levelo://app?vid=97d77224-5748-4443-848a-6ab951c45d6d"},"vehicle_type_id":"4","last_reported":1743876727,"current_range_meters":12800,"station_id":"ce4bhr12rcd13ifvqhqg","pricing_plan_id":"cebpf4jnsgd1na2vs0mg"},{"bike_id":"1bf28fcd-357a-43a7-b215-31bb2951a59c","system_id":"levelo_inurba_marseille","lat":43.29543,"lon":5.42317,"is_reserved":false,"is_disabled":false,"rental_uris":{"android":"levelo://app?vid=1bf28fcd-357a-43a7-b215-31bb2951a59c","ios":"levelo://app?vid=1bf28fcd-357a-43a7-b215-31bb2951a59c"},"vehicle_type_id":"4","last_reported":1743876727,"current_range_meters":12800,"station_id":"ce4bhph2rcd13ifvqhdg","pricing_plan_id":"cebpf4jnsgd1na2vs0mg"},{"bike_id":"4b2da2ca-0c36-44bf-8956-ff6c3594cf8b","system_id":"levelo_inurba_marseille","lat":43.23965,"lon":5.36641,"is_reserved":false,"is_disabled":false,"rental_uris":{"android":"levelo://app?vid=4b2da2ca-0c36-44bf-8956-ff6c3594cf8b","ios":"levelo://app?vid=4b2da2ca-0c36-44bf-8956-ff6c3594cf8b"},"vehicle_type_id":"4","last_reported":1743876727,"current_range_meters":12400,"station_id":"ce4bhi12rcd13ifvqfp0","pricing_plan_id":"cebpf4jnsgd1na2vs0mg"},{"bike_id":"5be0e38c-fdee-4e7c-a7c0-0c1a8f635a82","system_id":"levelo_inurba_marseille","lat":43.29169,"lon":5.37157,"is_reserved":false,"is_disabled":false,"rental_uris":{"android":"levelo://app?vid=5be0e38c-fdee-4e7c-a7c0-0c1a8f635a82","ios":"levelo://app?vid=5be0e38c-fdee-4e7c-a7c0-0c1a8f635a82"},"vehicle_type_id":"4","last_reported":1743876727,"current_range_meters":12800,"station_id":"ce4bha92rcd13ifvqeh0","pricing_plan_id":"cebpf4jnsgd1na2vs0mg"},{"bike_id":"ba991623-d196-4285-bb24-378dab583942","system_id":"levelo_inurba_marseille","lat":43.32288,"lon":5.38253,"is_reserved":false,"is_disabled":false,"rental_uris":{"android":"levelo://app?vid=ba991623-d196-4285-bb24-378dab583942","ios":"levelo://app?vid=ba991623-d196-4285-bb24-378dab583942"},"vehicle_type_id":"4","last_reported":1743876727,"current_range_meters":12800,"station_id":"ce4bhr12rcd13ifvqhqg","pricing_plan_id":"cebpf4jnsgd1na2vs0mg"},{"bike_id":"dc3d3697-2cac-48f3-ba5d-80e4f049f6df","system_id":"levelo_inurba_marseille","lat":43.26556,"lon":5.37287,"is_reserved":false,"is_disabled":false,"rental_uris":{"android":"levelo://app?vid=dc3d3697-2cac-48f3-ba5d-80e4f049f6df","ios":"levelo://app?vid=dc3d3697-2cac-48f3-ba5d-80e4f049f6df"},"vehicle_type_id":"4","last_reported":1743876727,"current_range_meters":12800,"station_id":"ce4bhg12rcd13ifvqf70","pricing_plan_id":"cebpf4jnsgd1na2vs0mg"},{"bike_id":"3f29f8c3-8e3e-4e45-bae8-cc9e0f0c5f8e","system_id":"levelo_inurba_marseille","lat":43.32365,"lon":5.38887,"is_reserved":false,"is_disabled":false,"rental_uris":{"android":"levelo://app?vid=3f29f8c3-8e3e-4e45-bae8-cc9e0f0c5f8e","ios":"levelo://app?vid=3f29f8c3-8e3e-4e45-bae8-cc9e0f0c5f8e"},"vehicle_type_id":"4","last_reported":1743876727,"current_range_meters":13600,"station_id":"ce4bhqp2rcd13ifvqhog","pricing_plan_id":"cebpf4jnsgd1na2vs0mg"},{"bike_id":"8b28c698-f365-44f4-bd80-02004aa12a71","system_id":"levelo_inurba_marseille","lat":43.231771,"lon":5.399834,"is_reserved":false,"is_disabled":false,"rental_uris":{"android":"levelo://app?vid=8b28c698-f365-44f4-bd80-02004aa12a71","ios":"levelo://app?vid=8b28c698-f365-44f4-bd80-02004aa12a71"},"vehicle_type_id":"4","last_reported":1743876727,"current_range_meters":13600,"station_id":"ce4bhn12rcd13ifvqgqg","pricing_plan_id":"cebpf4jnsgd1na2vs0mg"},{"bike_id":"f72d7641-718f-48f7-aa4d-50cfe64c167c","system_id":"levelo_inurba_marseille","lat":43.29418,"lon":5.3861,"is_reserved":false,"is_disabled":false,"rental_uris":{"android":"levelo://app?vid=f72d7641-718f-48f7-aa4d-50cfe64c167c","ios":"levelo://app?vid=f72d7641-718f-48f7-aa4d-50cfe64c167c"},"vehicle_type_id":"4","last_reported":1743876727,"current_range_meters":13600,"station_id":"ce4bh2h2rcd13ifvqdh0","pricing_plan_id":"cebpf4jnsgd1na2vs0mg"},{"bike_id":"73272853-088e-4b39-8e6e-94fe10fc353c","system_id":"levelo_inurba_marseille","lat":43.33763,"lon":5.37509,"is_reserved":false,"is_disabled":false,"rental_uris":{"android":"levelo://app?vid=73272853-088e-4b39-8e6e-94fe10fc353c","ios":"levelo://app?vid=73272853-088e-4b39-8e6e-94fe10fc353c"},"vehicle_type_id":"4","last_reported":1743876727,"current_range_meters":13600,"station_id":"","pricing_plan_id":"cebpf4jnsgd1na2vs0mg"},{"bike_id":"60bd435b-e3ed-4dfb-943d-60dfecc5eb47","system_id":"levelo_inurba_marseille","lat":43.32327,"lon":5.40625,"is_reserved":false,"is_disabled":false,"rental_uris":{"android":"levelo://app?vid=60bd435b-e3ed-4dfb-943d-60dfecc5eb47","ios":"levelo://app?vid=60bd435b-e3ed-4dfb-943d-60dfecc5eb47"},"vehicle_type_id":"4","last_reported":1743876727,"current_range_meters":13600,"station_id":"ce4bhq92rcd13ifvqhjg","pricing_plan_id":"cebpf4jnsgd1na2vs0mg"},