{"last_updated":1737216529,"ttl":60,"version":"2.2","data":{"bikes":[{"bike_id":"11aa088e-754c-4068-8213-9ba1ce0cd642","system_id":"levelo_inurba_marseille","lat":43.31976,"lon":5.3808,"is_reserved":false,"is_disabled":false,"rental_uris":{"android":"levelo://app?vid=11aa088e-754c-4068-8213-9ba1ce0cd642","ios":"levelo://app?vid=11aa088e-754c-4068-8213-9ba1ce0cd642"},"vehicle_type_id":"4","last_reported":1737216530,"current_range_meters":29600,"station_id":"ce4bhr12rcd13ifvqhpg","pricing_plan_id":"cebpf4jnsgd1na2vs0mg"},{"bike_id":"e03858b6-a6d9-40dc-a423-8de2ee887f77","system_id":"levelo_inurba_marseille","lat":43.31758,"lon":5.39042,"is_reserved":false,"is_disabled":false,"rental_uris":{"android":"levelo://app?vid=e03858b6-a6d9-40dc-a423-8de2ee887f77","ios":"levelo://app?vid=e03858b6-a6d9-40dc-a423-8de2ee887f77"},"vehicle_type_id":"4","last_reported":1737216530,"current_range_meters":36800,"station_id":"ce4bhqp2rcd13ifvqhng","pricing_plan_id":"cebpf4jnsgd1na2vs0mg"},{"bike_id":"417d6d7b-b7a0-4f19-ad35-90ede6e9d613","system_id":"levelo_inurba_marseille","lat":43.3017,"lon":5.36607,"is_reserved":false,"is_disabled":false,"rental_uris":{"android":"levelo://app?vid=417d6d7b-b7a0-4f19-ad35-90ede6e9d613","ios":"levelo://app?vid=417d6d7b-b7a0-4f19-ad35-90ede6e9d613"},"vehicle_type_id":"4","last_reported":1737216530,"current_range_meters":19600,"station_id":"ce4bgrh2rcd13ifvqc8g","pricing_plan_id":"cebpf4jnsgd1na2vs0mg"},{"bike_id":"6546dee9-d38f-4171-a07d-c255cc5fb27e","system_id":"levelo_inurba_marseille","lat":43.25125,"lon":5.40338,"is_reserved":false,"is_disabled":false,"rental_uris":{"android":"levelo://app?vid=6546dee9-d38f-4171-a07d-c255cc5fb27e","ios":"levelo://app?vid=6546dee9-d38f-4171-a07d-c255cc5fb27e"},"vehicle_type_id":"4","last_reported":1737216530,"current_range_meters":29600,"station_id":"ce4bhlh2rcd13ifvqgig","pricing_plan_id":"cebpf4jnsgd1na2vs0mg"},{"bike_id":"b69bb44e-10d7-49c3-86c8-c77708bde8da","system_id":"levelo_inurba_marseille","lat":43.23196,"lon":5.35551,"is_reserved":false,"is_disabled":false,"rental_uris":{"android":"levelo://app?vid=b69bb44e-10d7-49c3-86c8-c77708bde8da","ios":"levelo://app?vid=b69bb44e-10d7-49c3-86c8-c77708bde8da"},"vehicle_type_id":"4","last_reported":1737216530,"current_range_meters":4400,"station_id":"ce4bhu92rcd13ifvqi70","pricing_plan_id":"cebpf4jnsgd1na2vs0mg"},{"bike_id":"5c113d8b-bb7a-43e8-ac32-d464a7ace101","system_id":"levelo_inurba_marseille","lat":43.29614,"lon":5.37722,"is_reserved":false,"is_disabled":false,"rental_uris":{"android":"levelo://app?vid=5c113d8b-bb7a-43e8-ac32-d464a7ace101","ios":"levelo://app?vid=5c113d8b-bb7a-43e8-ac32-d464a7ace101"},"vehicle_type_id":"4","last_reported":1737216530,"current_range_meters":33600,"station_id":"ce4bgi92rcd13ifvqb90","pricing_plan_id":"cebpf4jnsgd1na2vs0mg"},{"bike_id":"6f4db65e-9936-4d68-8803-be464010f04c","system_id":"levelo_inurba_marseille","lat":43.29041,"lon":5.35905,"is_reserved":false,"is_disabled":false,"rental_uris":{"android":"levelo://app?vid=6f4db65e-9936-4d68-8803-be464010f04c","ios":"levelo://app?vid=6f4db65e-9936-4d68-8803-be464010f04c"},"vehicle_type_id":"4","last_reported":1737216530,"current_range_meters":38800,"station_id":"ce4bha92rcd13ifvqeg0","pricing_plan_id":"cebpf4jnsgd1na2vs0mg"},{"bike_id":"4aa1d8a2-d3a5-479a-8113-ca88a7c203ac","system_id":"levelo_inurba_marseille","lat":43.28461,"lon":5.35887,"is_reserved":false,"is_disabled":true,"rental_uris":{"android":"levelo://app?vid=4aa1d8a2-d3a5-479a-8113-ca88a7c203ac","ios":"levelo://app?vid=4aa1d8a2-d3a5-479a-8113-ca88a7c203ac"},"vehicle_type_id":"4","last_reported":1737216530,"current_range_meters":0,"station_id":"ce4bhah2rcd13ifvqei0","pricing_plan_id":"cebpf4jnsgd1na2vs0mg"},{"bike_id":"02ce3e8e-6ef8-48e8-8e39-50ed964e3fb8","system_id":"levelo_inurba_marseille","lat":43.294,"lon":5.39425,"is_reserved":false,"is_disabled":true,"rental_uris":{"android":"levelo://app?vid=02ce3e8e-6ef8-48e8-8e39-50ed964e3fb8","ios":"levelo://app?vid=02ce3e8e-6ef8-48e8-8e39-50ed964e3fb8"},"vehicle_type_id":"4","last_reported":1737216530,"current_range_meters":0,"station_id":"","pricing_plan_id":"cebpf4jnsgd1na2vs0mg"},{"bike_id":"273ab049-19ea-49c6-b06f-6d1a45b662e6","system_id":"levelo_inurba_marseille","lat":43.30783,"lon":5.37652,"is_reserved":false,"is_disabled":false,"rental_uris":{"android":"levelo://app?vid=273ab049-19ea-49c6-b06f-6d1a45b662e6","ios":"levelo://app?vid=273ab049-19ea-49c6-b06f-6d1a45b662e6"},"vehicle_type_id":"4","last_reported":1737216530,"current_range_meters":38800,"station_id":"ce4bgv92rcd13ifvqcq0","pricing_plan_id":"cebpf4jnsgd1na2vs0mg"},{"bike_id":"dc47fec2-79b6-4576-98c0-4b785993241e","system_id":"levelo_inurba_marseille","lat":43.29275,"lon":5.36851,"is_reserved":false,"is_disabled":false,"rental_uris":{"android":"levelo://app?vid=dc47fec2-79b6-4576-98c0-4b785993241e","ios":"levelo://app?vid=dc47fec2-79b6-4576-98c0-4b785993241e"},"vehicle_type_id":"4","last_reported":1737216530,"current_range_meters":14400,"station_id":"ce4bhbp2rcd13ifvqesg","pricing_plan_id":"cebpf4jnsgd1na2vs0mg"},{"bike_id":"a582b803-4682-4e5a-ae6c-8f5c01c28b64","system_id":"levelo_inurba_marseille","lat":43.30428,"lon":5.3889,"is_reserved":false,"is_disabled":false,"rental_uris":{"android":"levelo://app?vid=a582b803-4682-4e5a-ae6c-8f5c01c28b64","ios":"levelo://app?vid=a582b803-4682-4e5a-ae6c-8f5c01c28b64"},"vehicle_type_id":"4","last_reported":1737216530,"current_range_meters":25600,"station_id":"ce4bgk12rcd13ifvqbi0","pricing_plan_id":"cebpf4jnsgd1na2vs0mg"},{"bike_id":"1d4289d5-4524-47f2-bcdc-c47e7edca5b0","system_id":"levelo_inurba_marseille","lat":43.29727,"lon":5.37686,"is_reserved":false,"is_disabled":false,"rental_uris":{"android":"levelo://app?vid=1d4289d5-4524-47f2-bcdc-c47e7edca5b0","ios":"levelo://app?vid=1d4289d5-4524-47f2-bcdc-c47e7edca5b0"},"vehicle_type_id":"4","last_reported":1737216530,"current_range_meters":32800,"station_id":"ce4bgkh2rcd13ifvqbl0","pricing_plan_id":"cebpf4jnsgd1na2vs0mg"},{"bike_id":"e05c420a-e909-49e2-8f98-b480ae2fb006","system_id":"levelo_inurba_marseille","lat":43.29282,"lon":5.36854,"is_reserved":false,"is_disabled":false,"rental_uris":{"android":"levelo://app?vid=e05c420a-e909-49e2-8f98-b480ae2fb006","ios":"levelo://app?vid=e05c420a-e909-49e2-8f98-b480ae2fb006"},"vehicle_type_id":"4","last_reported":1737216530,"current_range_meters":19600,"station_id":"ce4bhbp2rcd13ifvqesg","pricing_plan_id":"cebpf4jnsgd1na2vs0mg"},{"bike_id":"fc7df8a3-abbe-4ada-be1a-56779309c8d0","system_id":"levelo_inurba_marseille","lat":43.30957,"lon":5.39032,"is_reserved":false,"is_disabled":false,"rental_uris":{"android":"levelo://app?vid=fc7df8a3-abbe-4ada-be1a-56779309c8d0","ios":"levelo://app?vid=fc7df8a3-abbe-4ada-be1a-56779309c8d0"},"vehicle_type_id":"4","last_reported":1737216530,"current_range_meters":12800,"station_id":"ce4bgup2rcd13ifvqco0","pricing_plan_id":"cebpf4jnsgd1na2vs0mg"},{"bike_id":"1ca09bf7-61ea-456c-9bde-631c2561ab63","system_id":"levelo_inurba_marseille","lat":43.30552,"lon":5.36537,"is_reserved":false,"is_disabled":false,"rental_uris":{"android":"levelo://app?vid=1ca09bf7-61ea-456c-9bde-631c2561ab63","ios":"levelo://app?vid=1ca09bf7-61ea-456c-9bde-631c2561ab63"},"vehicle_type_id":"4","last_reported":1737216530,"current_range_meters":38800,"station_id":"ce4bgs12rcd13ifvqcag","pricing_plan_id":"cebpf4jnsgd1na2vs0mg"},{"bike_id":"d5dff82b-12f5-4264-9b6d-30582a12eca2","system_id":"levelo_inurba_marseille","lat":43.30635,"lon":5.40084,"is_reserved":false,"is_disabled":false,"rental_uris":{"android":"levelo://app?vid=d5dff82b-12f5-4264-9b6d-30582a12eca2","ios":"levelo://app?vid=d5dff82b-12f5-4264-9b6d-30582a12eca2"},"vehicle_type_id":"4","last_reported":1737216530,"current_range_meters":30800,"station_id":"ce4bh112rcd13ifvqda0","pricing_plan_id":"cebpf4jnsgd1na2vs0mg"},{"bike_id":"763ed4fc-16fd-47a0-aedf-62c028daa66f","system_id":"levelo_inurba_marseille","lat":43.36401,"lon":5.35554,"is_reserved":false,"is_disabled":false,"rental_uris":{"android":"levelo://app?vid=763ed4fc-16fd-47a0-aedf-62c028daa66f","ios":"levelo://app?vid=763ed4fc-16fd-47a0-aedf-62c028daa66f"},"vehicle_type_id":"4","last_reported":1737216530,"current_range_meters":18000,"station_id":"","pricing_plan_id":"cebpf4jnsgd1na2vs0mg"},{"bike_id":"a85b3416-5ca8-42e8-8f3c-d41d17c89946","system_id":"levelo_inurba_marseille","lat":43.29024,"lon":5.35949,"is_reserved":false,"is_disabled":false,"rental_uris":{"android":"levelo://app?vid=a85b3416-5ca8-42e8-8f3c-d41d17c89946","ios":"levelo://app?vid=a85b3416-5ca8-42e8-8f3c-d41d17c89946"},"vehicle_type_id":"4","last_reported":1737216530,"current_range_meters":38800,"station_id":"ce4bha92rcd13ifvqeg0","pricing_plan_id":"cebpf4jnsgd1na2vs0mg"},{"bike_id":"b42d349b-8767-4500-922c-77c53d2c4648","system_id":"levelo_inurba_marseille","lat":43.260602,"lon":5.393995,"is_reserved":false,"is_disabled":false,"rental_uris":{"android":"levelo://app?vid=b42d349b-8767-4500-922c-77c53d2c4648","ios":"levelo://app?vid=b42d349b-8767-4500-922c-77c53d2c4648"},"vehicle_type_id":"4","last_reported":1737216530,"current_range_meters":22000,"station_id":"ce4bhh92rcd13ifvqfj0","pricing_plan_id":"cebpf4jnsgd1na2vs0mg"},{"bike_id":"fc697a46-0d19-4146-ae76-c84bf483ae89","system_id":"levelo_inurba_marseille","lat":43.26053,"lon":5.39392,"is_reserved":false,"is_disabled":false,"rental_uris":{"android":"levelo://app?vid=fc697a46-0d19-4146-ae76-c84bf483ae89","ios":"levelo://app?vid=fc697a46-0d19-4146-ae76-c84bf483ae89"},"vehicle_type_id":"4","last_reported":1737216530,"current_range_meters":28800,"station_id":"ce4bhh92rcd13ifvqfj0","pricing_plan_id":"cebpf4jnsgd1na2vs0mg"},{"bike_id":"faa3d4b4-95cc-485d-a674-03994d40752b","system_id":"levelo_inurba_marseille","lat":43.2781,"lon":5.4072,"is_reserved":false,"is_disabled":false,"rental_uris":{"android":"levelo://app?vid=faa3d4b4-95cc-485d-a674-03994d40752b","ios":"levelo://app?vid=faa3d4b4-95cc-485d-a674-03994d40752b"},"vehicle_type_id":"4","last_reported":1737216530,"current_range_meters":20800,"station_id":"ce4bhnh2rcd13ifvqgtg","pricing_plan_id":"cebpf4jnsgd1na2vs0mg"},{"bike_id":"1839ab79-8d1b-4d0e-861a-85d4f32184dc","system_id":"levelo_inurba_marseille","lat":43.27379,"lon":5.36248,"is_reserved":false,"is_disabled":false,"rental_uris":{"android":"levelo://app?vid=1839ab79-8d1b-4d0e-861a-85d4f32184dc","ios":"levelo://app?vid=1839ab79-8d1b-4d0e-861a-85d4f32184dc"},"vehicle_type_id":"4","last_reported":1737216530,"current_range_meters":26000,"station_id":"ce4bhbh2rcd13ifvqeo0","pricing_plan_id":"cebpf4jnsgd1na2vs0mg"},{"bike_id":"f3c94274-f861-4c89-8bb1-1ebe1a531935","system_id":"levelo_inurba_marseille","lat":43.25029,"lon":5.38888,"is_reserved":false,"is_disabled":true,"rental_uris":{"android":"levelo://app?vid=f3c94274-f861-4c89-8bb1-1ebe1a531935","ios":"levelo://app?vid=f3c94274-f861-4c89-8bb1-1ebe1a531935"},"vehicle_type_id":"4","last_reported":1737216530,"current_range_meters":0,"station_id":"ce4bhgp2rcd13ifvqfd0","pricing_plan_id":"cebpf4jnsgd1na2vs0mg"},{"bike_id":"e5b7f72c-c6f3-4a0d-a907-2ac9cbf311d1","system_id":"levelo_inurba_marseille","lat":43.30586,"lon":5.36661,"is_reserved":false,"is_disabled":false,"rental_uris":{"android":"levelo://app?vid=e5b7f72c-c6f3-4a0d-a907-2ac9cbf311d1","ios":"levelo://app?vid=e5b7f72c-c6f3-4a0d-a907-2ac9cbf311d1"},"vehicle_type_id":"4","last_reported":1737216530,"current_range_meters":19200,"station_id":"ce4bgrp2rcd13ifvqc9g","pricing_plan_id":"cebpf4jnsgd1na2vs0mg"},{"bike_id":"ea820ade-d81d-428e-82b9-7f165f7e8e75","system_id":"levelo_inurba_marseille","lat":43.32361,"lon":5.3677,"is_reserved":false,"is_disabled":false,"rental_uris":{"android":"levelo://app?vid=ea820ade-d81d-428e-82b9-7f165f7e8e75","ios":"levelo://app?vid=ea820ade-d81d-428e-82b9-7f165f7e8e75"},"vehicle_type_id":"4","last_reported":1737216530,"current_range_meters":22000,"station_id":"ce4bhsh2rcd13ifvqi2g","pricing_plan_id":"cebpf4jnsgd1na2vs0mg"},{"bike_id":"c29020e0-83ef-4b06-ac4f-c4422257f84a","system_id":"levelo_inurba_marseille","lat":43.36383,"lon":5.3564,"is_reserved":false,"is_disabled":false,"rental_uris":{"android":"levelo://app?vid=c29020e0-83ef-4b06-ac4f-c4422257f84a","ios":"levelo://app?vid=c29020e0-83ef-4b06-ac4f-c4422257f84a"},"vehicle_type_id":"4","last_reported":1737216530,"current_range_meters":23200,"station_id":"","pricing_plan_id":"cebpf4jnsgd1na2vs0mg"},{"bike_id":"95e7a642-67ab-4ade-9bf3-15afba6014b6","system_id":"levelo_inurba_marseille","lat":43.26953,"lon":5.38633,"is_reserved":false,"is_disabled":false,"rental_uris":{"android":"levelo://app?vid=95e7a642-67ab-4ade-9bf3-15afba6014b6","ios":"levelo://app?vid=95e7a642-67ab-4ade-9bf3-15afba6014b6"},"vehicle_type_id":"4","last_reported":1737216530,"current_range_meters":34000,"station_id":"ce4bhh92rcd13ifvqfh0","pricing_plan_id":"cebpf4jnsgd1na2vs0mg"},{"bike_id":"234a24b2-67f4-470b-a11a-a7b60b2f1f3e","system_id":"levelo_inurba_marseille","lat":43.2923,"lon":5.36068,"is_reserved":false,"is_disabled":false,"rental_uris":{"android":"levelo://app?vid=234a24b2-67f4-470b-a11a-a7b60b2f1f3e","ios":"levelo://app?vid=234a24b2-67f4-470b-a11a-a7b60b2f1f3e"},"vehicle_type_id":"4","last_reported":1737216530,"current_range_meters":32800,"station_id":"ce4bhbh2rcd13ifvqeqg","pricing_plan_id":"cebpf4jnsgd1na2vs0mg"},{"bike_id":"778dcbaa-5f69-4407-88e2-ade4c08cd13b","system_id":"levelo_inurba_marseille","lat":43.30435,"lon":5.39747,"is_reserved":false,"is_disabled":false,"rental_uris":{"android":"levelo://app?vid=778dcbaa-5f69-4407-88e2-ade4c08cd13b","ios":"levelo://app?vid=778dcbaa-5f69-4407-88e2-ade4c08cd13b"},"vehicle_type_id":"4","last_reported":1737216530,"current_range_meters":27600,"station_id":"ce4bh092rcd13ifvqd20","pricing_plan_id":"cebpf4jnsgd1na2vs0mg"},{"bike_id":"b672b566-ae6e-4181-a2cb-0155be334a04","system_id":"levelo_inurba_marseille","lat":43.28932,"lon":5.36621,"is_reserved":false,"is_disabled":true,"rental_uris":{"android":"levelo://app?vid=b672b566-ae6e-4181-a2cb-0155be334a04","ios":"levelo://app?vid=b672b566-ae6e-4181-a2cb-0155be334a04"},"vehicle_type_id":"4","last_reported":1737216530,"current_range_meters":0,"station_id":"ce4bhap2rcd13ifvqek0","pricing_plan_id":"cebpf4jnsgd1na2vs0mg"},{"bike_id":"36a6ab60-3631-46d2-b602-e36f7128e263","system_id":"levelo_inurba_marseille","lat":43.28607,"lon":5.37069,"is_reserved":false,"is_disabled":false,"rental_uris":{"android":"levelo://app?vid=36a6ab60-3631-46d2-b602-e36f7128e263","ios":"levelo://app?vid=36a6ab60-3631-46d2-b602-e36f7128e263"},"vehicle_type_id":"4","last_reported":1737216530,"current_range_meters":20400,"station_id":"ce4bht12rcd13ifvqi60","pricing_plan_id":"cebpf4jnsgd1na2vs0mg"},{"bike_id":"d1532756-66c5-4ff3-a56e-45bc1c934e7d","system_id":"levelo_inurba_marseille","lat":43.26059,"lon":5.39397,"is_reserved":false,"is_disabled":false,"rental_uris":{"android":"levelo://app?vid=d1532756-66c5-4ff3-a56e-45bc1c934e7d","ios":"levelo://app?vid=d1532756-66c5-4ff3-a56e-45bc1c934e7d"},"vehicle_type_id":"4","last_reported":1737216530,"current_range_meters":10800,"station_id":"ce4bhh92rcd13ifvqfj0","pricing_plan_id":"cebpf4jnsgd1na2vs0mg"},{"bike_id":"189cd841-679e-40f9-985e-7c781c8e2a7c","system_id":"levelo_inurba_marseille","lat":43.29632,"lon":5.40594,"is_reserved":false,"is_disabled":false,"rental_uris":{"android":"levelo://app?vid=189cd841-679e-40f9-985e-7c781c8e2a7c","ios":"levelo://app?vid=189cd841-679e-40f9-985e-7c781c8e2a7c"},"vehicle_type_id":"4","last_reported":1737216530,"current_range_meters":30000,"station_id":"ce4bh0h2rcd13ifvqd60","pricing_plan_id":"cebpf4jnsgd1na2vs0mg"},{"bike_id":"5778b679-4eb0-4492-ad3a-39326de69ccc","system_id":"levelo_inurba_marseille","lat":43.29189,"lon":5.35805,"is_reserved":false,"is_disabled":false,"rental_uris":{"android":"levelo://app?vid=5778b679-4eb0-4492-ad3a-39326de69ccc","ios":"levelo://app?vid=5778b679-4eb0-4492-ad3a-39326de69ccc"},"vehicle_type_id":"4","last_reported":1737216530,"current_range_meters":38800,"station_id":"ce4bhb12rcd13ifvqel0","pricing_plan_id":"cebpf4jnsgd1na2vs0mg"},{"bike_id":"1d43ebf8-4880-4a3b-b8b8-e38fd5181144","system_id":"levelo_inurba_marseille","lat":43.29572,"lon":5.36736,"is_reserved":false,"is_disabled":false,"rental_uris":{"android":"levelo://app?vid=1d43ebf8-4880-4a3b-b8b8-e38fd5181144","ios":"levelo://app?vid=1d43ebf8-4880-4a3b-b8b8-e38fd5181144"},"vehicle_type_id":"4","last_reported":1737216530,"current_range_meters":38800,"station_id":"ce4bgph2rcd13ifvqc2g","pricing_plan_id":"cebpf4jnsgd1na2vs0mg"},{"bike_id":"3343a35c-5860-4438-bc7e-1a9d5d4833a5","system_id":"levelo_inurba_marseille","lat":43.26808,"lon":5.40265,"is_reserved":false,"is_disabled":false,"rental_uris":{"android":"levelo://app?vid=3343a35c-5860-4438-bc7e-1a9d5d4833a5","ios":"levelo://app?vid=3343a35c-5860-4438-bc7e-1a9d5d4833a5"},"vehicle_type_id":"4","last_reported":1737216530,"current_range_meters":38800,"station_id":"ce501612rcd8frsf0b60","pricing_plan_id":"cebpf4jnsgd1na2vs0mg"},{"bike_id":"6767abdc-3c6a-42d0-9e7b-2128533c47af","system_id":"levelo_inurba_marseille","lat":43.29016,"lon":5.38158,"is_reserved":false,"is_disabled":false,"rental_uris":{"android":"levelo://app?vid=6767abdc-3c6a-42d0-9e7b-2128533c47af","ios":"levelo://app?vid=6767abdc-3c6a-42d0-9e7b-2128533c47af"},"vehicle_type_id":"4","last_reported":1737216530,"current_range_meters":38800,"station_id":"ce4bh4p2rcd13ifvqe1g","pricing_plan_id":"cebpf4jnsgd1na2vs0mg"},{"bike_id":"662fe324-a7f9-4c88-b378-559ee4b19249","system_id":"levelo_inurba_marseille","lat":43.29008,"lon":5.35616,"is_reserved":false,"is_disabled":false,"rental_uris":{"android":"levelo://app?vid=662fe324-a7f9-4c88-b378-559ee4b19249","ios":"levelo://app?vid=662fe324-a7f9-4c88-b378-559ee4b19249"},"vehicle_type_id":"4","last_reported":1737216530,"current_range_meters":38400,"station_id":"ce4bhb92rcd13ifvqen0","pricing_plan_id":"cebpf4jnsgd1na2vs0mg"},{"bike_id":"31a98fb4-ec8e-4f3e-9363-3f49a6908b29","system_id":"levelo_inurba_marseille","lat":43.28421,"lon":5.34985,"is_reserved":false,"is_disabled":false,"rental_uris":{"android":"levelo://app?vid=31a98fb4-ec8e-4f3e-9363-3f49a6908b29","ios":"levelo://app?vid=31a98fb4-ec8e-4f3e-9363-3f49a6908b29"},"vehicle_type_id":"4","last_reported":1737216530,"current_range_meters":10000,"station_id":"ce4bhbh2rcd13ifvqepg","pricing_plan_id":"cebpf4jnsgd1na2vs0mg"},{"bike_id":"c064641d-ef9d-43e1-b527-e99b37fdf2bc","system_id":"levelo_inurba_marseille","lat":43.26552,"lon":5.3729,"is_reserved":false,"is_disabled":false,"rental_uris":{"android":"levelo://app?vid=c064641d-ef9d-43e1-b527-e99b37fdf2bc","ios":"levelo://app?vid=c064641d-ef9d-43e1-b527-e99b37fdf2bc"},"vehicle_type_id":"4","last_reported":1737216530,"current_range_meters":6800,"station_id":"ce4bhg12rcd13ifvqf70","pricing_plan_id":"cebpf4jnsgd1na2vs0mg"},{"bike_id":"295ae294-3a65-4fed-ae58-bcda6f46004d","system_id":"levelo_inurba_marseille","lat":43.23154,"lon":5.436975,"is_reserved":false,"is_disabled":false,"rental_uris":{"android":"levelo://app?vid=295ae294-3a65-4fed-ae58-bcda6f46004d","ios":"levelo://app?vid=295ae294-3a65-4fed-ae58-bcda6f46004d"},"vehicle_type_id":"4","last_reported":1737216530,"current_range_meters":12400,"station_id":"ce4bhmp2rcd13ifvqgog","pricing_plan_id":"cebpf4jnsgd1na2vs0mg"},{"bike_id":"1477df1e-7f90-456f-83d3-515b3688ceeb","system_id":"levelo_inurba_marseille","lat":43.259384,"lon":5.409033,"is_reserved":false,"is_disabled":false,"rental_uris":{"android":"levelo://app?vid=1477df1e-7f90-456f-83d3-515b3688ceeb","ios":"levelo://app?vid=1477df1e-7f90-456f-83d3-515b3688ceeb"},"vehicle_type_id":"4","last_reported":1737216530,"current_range_meters":8000,"station_id":"ce4bhm92rcd13ifvqglg","pricing_plan_id":"cebpf4jnsgd1na2vs0mg"},{"bike_id":"62b83982-25a3-4d28-9fc6-fa36665355dc","system_id":"levelo_inurba_marseille","lat":43.33471,"lon":5.41043,"is_reserved":false,"is_disabled":false,"rental_uris":{"android":"levelo://app?vid=62b83982-25a3-4d28-9fc6-fa36665355dc","ios":"levelo://app?vid=62b83982-25a3-4d28-9fc6-fa36665355dc"},"vehicle_type_id":"4","last_reported":1737216530,"current_range_meters":37600,"station_id":"","pricing_plan_id":"cebpf4jnsgd1na2vs0mg"},{"bike_id":"04f8d329-ad72-437f-869b-499e14f5d9b5","system_id":"levelo_inurba_marseille","lat":43.32053,"lon":5.41583,"is_reserved":false,"is_disabled":true,"rental_uris":{"android":"levelo://app?vid=04f8d329-ad72-437f-869b-499e14f5d9b5","ios":"levelo://app?vid=04f8d329-ad72-437f-869b-499e14f5d9b5"},"vehicle_type_id":"4","last_reported":1737216530,"current_range_meters":800,"station_id":"ce4bhq92rcd13ifvqhkg","pricing_plan_id":"cebpf4jnsgd1na2vs0mg"},{"bike_id":"64f2b0a8-e077-4e6c-ad0f-5abffbef97df","system_id":"levelo_inurba_marseille","lat":43.29271,"lon":5.36857,"is_reserved":false,"is_disabled":false,"rental_uris":{"android":"levelo://app?vid=64f2b0a8-e077-4e6c-ad0f-5abffbef97df","ios":"levelo://app?vid=64f2b0a8-e077-4e6c-ad0f-5abffbef97df"},"vehicle_type_id":"4","last_reported":1737216530,"current_range_meters":33200,"station_id":"ce4bhbp2rcd13ifvqesg","pricing_plan_id":"cebpf4jnsgd1na2vs0mg"},{"bike_id":"7cc242e1-7f17-4cf2-9331-aced2dbbb559","system_id":"levelo_inurba_marseille","lat":43.2737,"lon":5.3626,"is_reserved":false,"is_disabled":false,"rental_uris":{"android":"levelo://app?vid=7cc242e1-7f17-4cf2-9331-aced2dbbb559","ios":"levelo://app?vid=7cc242e1-7f17-4cf2-9331-aced2dbbb559"},"vehicle_type_id":"4","last_reported":1737216530,"current_range_meters":39200,"station_id":"ce4bhbh2rcd13ifvqeo0","pricing_plan_id":"cebpf4jnsgd1na2vs0mg"},{"bike_id":"0905ad9c-c394-41d5-8071-fc00f49a86ca","system_id":"levelo_inurba_marseille","lat":43.29174,"lon":5.35821,"is_reserved":false,"is_disabled":false,"rental_uris":{"android":"levelo://app?vid=0905ad9c-c394-41d5-8071-fc00f49a86ca","ios":"levelo://app?vid=0905ad9c-c394-41d5-8071-fc00f49a86ca"},"vehicle_type_id":"4","last_reported":1737216530,"current_range_meters":6800,"station_id":"ce4bhb12rcd13ifvqel0","pricing_plan_id":"cebpf4jnsgd1na2vs0mg"},{"bike_id":"b8a98315-53d6-4d29-a63e-bfe82e188f71","system_id":"levelo_inurba_marseille","lat":43.29365,"lon":5.37855,"is_reserved":false,"is_disabled":false,"rental_uris":{"android":"levelo://app?vid=b8a98315-53d6-4d29-a63e-bfe82e188f71","ios":"levelo://app?vid=b8a98315-53d6-4d29-a63e-bfe82e188f71"},"vehicle_type_id":"4","last_reported":1737216530,"current_range_meters":24400,"station_id":"ce4bgjh2rcd13ifvqbf0","pricing_plan_id":"cebpf4jnsgd1na2vs0mg"},{"bike_id":"99ac30b0-ce3a-4623-9d88-de8074bf502d","system_id":"levelo_inurba_marseille","lat":43.30308,"lon":5.36875,"is_reserved":false,"is_disabled":false,"rental_uris":{"android":"levelo://app?vid=99ac30b0-ce3a-4623-9d88-de8074bf502d","ios":"levelo://app?vid=99ac30b0-ce3a-4623-9d88-de8074bf502d"},"vehicle_type_id":"4","last_reported":1737216530,"current_range_meters":38800,"station_id":"ce4bgqh2rcd13ifvqc5g","pricing_plan_id":"cebpf4jnsgd1na2vs0mg"},{"bike_id":"8a608384-ab5c-4a21-8dfe-369c1a566b2b","system_id":"levelo_inurba_marseille","lat":43.28458,"lon":5.35897,"is_reserved":false,"is_disabled":false,"rental_uris":{"android":"levelo://app?vid=8a608384-ab5c-4a21-8dfe-369c1a566b2b","ios":"levelo://app?vid=8a608384-ab5c-4a21-8dfe-369c1a566b2b"},"vehicle_type_id":"4","last_reported":1737216530,"current_range_meters":30800,"station_id":"ce4bhah2rcd13ifvqei0","pricing_plan_id":"cebpf4jnsgd1na2vs0mg"},{"bike_id":"ab3eb66a-6f45-4f19-a921-88a31e1d4dd1","system_id":"levelo_inurba_marseille","lat":43.28417,"lon":5.34985,"is_reserved":false,"is_disabled":false,"rental_uris":{"android":"levelo://app?vid=ab3eb66a-6f45-4f19-a921-88a31e1d4dd1","ios":"levelo://app?vid=ab3eb66a-6f45-4f19-a921-88a31e1d4dd1"},"vehicle_type_id":"4","last_reported":1737216530,"current_range_meters":38800,"station_id":"ce4bhbh2rcd13ifvqepg","pricing_plan_id":"cebpf4jnsgd1na2vs0mg"},{"bike_id":"ca8aa51d-4833-4c77-8009-59b7c07323a3","system_id":"levelo_inurba_marseille","lat":43.32349,"lon":5.36761,"is_reserved":false,"is_disabled":false,"rental_uris":{"android":"levelo://app?vid=ca8aa51d-4833-4c77-8009-59b7c07323a3","ios":"levelo://app?vid=ca8aa51d-4833-4c77-8009-59b7c07323a3"},"vehicle_type_id":"4","last_reported":1737216530,"current_range_meters":9600,"station_id":"ce4bhsh2rcd13ifvqi2g","pricing_plan_id":"cebpf4jnsgd1na2vs0mg"},{"bike_id":"831a965d-7c8c-4252-8bd2-577b336f8919","system_id":"levelo_inurba_marseille","lat":43.2817,"lon":5.42634,"is_reserved":false,"is_disabled":false,"rental_uris":{"android":"levelo://app?vid=831a965d-7c8c-4252-8bd2-577b336f8919","ios":"levelo://app?vid=831a965d-7c8c-4252-8bd2-577b336f8919"},"vehicle_type_id":"4","last_reported":1737216530,"current_range_meters":21600,"station_id":"ce4bhnh2rcd13ifvqgug","pricing_plan_id":"cebpf4jnsgd1na2vs0mg"},{"bike_id":"83b66815-9e69-4f46-bab2-4a39d74af732","system_id":"levelo_inurba_marseille","lat":43.31224,"lon":5.36868,"is_reserved":false,"is_disabled":false,"rental_uris":{"android":"levelo://app?vid=83b66815-9e69-4f46-bab2-4a39d74af732","ios":"levelo://app?vid=83b66815-9e69-4f46-bab2-4a39d74af732"},"vehicle_type_id":"4","last_reported":1737216530,"current_range_meters":16000,"station_id":"ce4bgl92rcd13ifvqbq0","pricing_plan_id":"cebpf4jnsgd1na2vs0mg"},{"bike_id":"55847cbb-c352-42ac-b7f1-e1e854520824","system_id":"levelo_inurba_marseille","lat":43.26975,"lon":5.38689,"is_reserved":false,"is_disabled":false,"rental_uris":{"android":"levelo://app?vid=55847cbb-c352-42ac-b7f1-e1e854520824","ios":"levelo://app?vid=55847cbb-c352-42ac-b7f1-e1e854520824"},"vehicle_type_id":"4","last_reported":1737216530,"current_range_meters":22000,"station_id":"ce4bhh92rcd13ifvqfh0","pricing_plan_id":"cebpf4jnsgd1na2vs0mg"},{"bike_id":"26ae9990-e6e9-4aaf-b5d4-910b746c86bf","system_id":"levelo_inurba_marseille","lat":43.26551,"lon":5.37296,"is_reserved":false,"is_disabled":false,"rental_uris":{"android":"levelo://app?vid=26ae9990-e6e9-4aaf-b5d4-910b746c86bf","ios":"levelo://app?vid=26ae9990-e6e9-4aaf-b5d4-910b746c86bf"},"vehicle_type_id":"4","last_reported":1737216530,"current_range_meters":10800,"station_id":"ce4bhg12rcd13ifvqf70","pricing_plan_id":"cebpf4jnsgd1na2vs0mg"},{"bike_id":"845e546d-c311-4279-98ea-4d86cfd64139","system_id":"levelo_inurba_marseille","lat":43.29014,"lon":5.39968,"is_reserved":false,"is_disabled":false,"rental_uris":{"android":"levelo://app?vid=845e546d-c311-4279-98ea-4d86cfd64139","ios":"levelo://app?vid=845e546d-c311-4279-98ea-4d86cfd64139"},"vehicle_type_id":"4","last_reported":1737216530,"current_range_meters":22400,"station_id":"ce4bh392rcd13ifvqdm0","pricing_plan_id":"cebpf4jnsgd1na2vs0mg"},{"bike_id":"70c24921-dd69-4638-810c-b7f8cf584516","system_id":"levelo_inurba_marseille","lat":43.24104,"lon":5.37765,"is_reserved":false,"is_disabled":false,"rental_uris":{"android":"levelo://app?vid=70c24921-dd69-4638-810c-b7f8cf584516","ios":"levelo://app?vid=70c24921-dd69-4638-810c-b7f8cf584516"},"vehicle_type_id":"4","last_reported":1737216530,"current_range_meters":38800,"station_id":"ce4bhnp2rcd13ifvqgvg","pricing_plan_id":"cebpf4jnsgd1na2vs0mg"},{"bike_id":"50f9b14e-56ea-495a-af38-786fb7d70a12","system_id":"levelo_inurba_marseille","lat":43.23193,"lon":5.35555,"is_reserved":false,"is_disabled":false,"rental_uris":{"android":"levelo://app?vid=50f9b14e-56ea-495a-af38-786fb7d70a12","ios":"levelo://app?vid=50f9b14e-56ea-495a-af38-786fb7d70a12"},"vehicle_type_id":"4","last_reported":1737216530,"current_range_meters":36800,"station_id":"ce4bhu92rcd13ifvqi70","pricing_plan_id":"cebpf4jnsgd1na2vs0mg"},{"bike_id":"1a0b8875-7ba7-4b98-b1b9-61bff1b5b224","system_id":"levelo_inurba_marseille","lat":43.30588,"lon":5.39352,"is_reserved":false,"is_disabled":false,"rental_uris":{"android":"levelo://app?vid=1a0b8875-7ba7-4b98-b1b9-61bff1b5b224","ios":"levelo://app?vid=1a0b8875-7ba7-4b98-b1b9-61bff1b5b224"},"vehicle_type_id":"4","last_reported":1737216530,"current_range_meters":8800,"station_id":"ce4bh0p2rcd13ifvqd80","pricing_plan_id":"cebpf4jnsgd1na2vs0mg"},{"bike_id":"80a39041-a206-44ff-ae9e-ff36ed48f496","system_id":"levelo_inurba_marseille","lat":43.29266,"lon":5.38452,"is_reserved":false,"is_disabled":false,"rental_uris":{"android":"levelo://app?vid=80a39041-a206-44ff-ae9e-ff36ed48f496","ios":"levelo://app?vid=80a39041-a206-44ff-ae9e-ff36ed48f496"},"vehicle_type_id":"4","last_reported":1737216530,"current_range_meters":12400,"station_id":"ce4bh692rcd13ifvqea0","pricing_plan_id":"cebpf4jnsgd1na2vs0mg"},{"bike_id":"4104cbba-088f-4383-b2a0-261d17699731","system_id":"levelo_inurba_marseille","lat":43.23969,"lon":5.36629,"is_reserved":false,"is_disabled":true,"rental_uris":{"android":"levelo://app?vid=4104cbba-088f-4383-b2a0-261d17699731","ios":"levelo://app?vid=4104cbba-088f-4383-b2a0-261d17699731"},"vehicle_type_id":"4","last_reported":1737216530,"current_range_meters":1200,"station_id":"ce4bhi12rcd13ifvqfp0","pricing_plan_id":"cebpf4jnsgd1na2vs0mg"},{"bike_id":"616f06f9-7be6-4b8d-9f4b-237d76b666fd","system_id":"levelo_inurba_marseille","lat":43.23192,"lon":5.35546,"is_reserved":false,"is_disabled":false,"rental_uris":{"android":"levelo://app?vid=616f06f9-7be6-4b8d-9f4b-237d76b666fd","ios":"levelo://app?vid=616f06f9-7be6-4b8d-9f4b-237d76b666fd"},"vehicle_type_id":"4","last_reported":1737216530,"current_range_meters":9600,"station_id":"ce4bhu92rcd13ifvqi70","pricing_plan_id":"cebpf4jnsgd1na2vs0mg"},{"bike_id":"0aacbbb4-b4df-4112-9f3e-9c8b0c3a36b2","system_id":"levelo_inurba_marseille","lat":43.24392,"lon":5.37048,"is_reserved":false,"is_disabled":false,"rental_uris":{"android":"levelo://app?vid=0aacbbb4-b4df-4112-9f3e-9c8b0c3a36b2","ios":"levelo://app?vid=0aacbbb4-b4df-4112-9f3e-9c8b0c3a36b2"},"vehicle_type_id":"4","last_reported":1737216530,"current_range_meters":38800,"station_id":"ce4bhhh2rcd13ifvqfk0","pricing_plan_id":"cebpf4jnsgd1na2vs0mg"},{"bike_id":"84ef9472-69d1-4fed-b8a0-db64a30dae16","system_id":"levelo_inurba_marseille","lat":43.27197,"lon":5.39178,"is_reserved":false,"is_disabled":true,"rental_uris":{"android":"levelo://app?vid=84ef9472-69d1-4fed-b8a0-db64a30dae16","ios":"levelo://app?vid=84ef9472-69d1-4fed-b8a0-db64a30dae16"},"vehicle_type_id":"4","last_reported":1737216530,"current_range_meters":400,"station_id":"ce4bhhp2rcd13ifvqfm0","pricing_plan_id":"cebpf4jnsgd1na2vs0mg"},{"bike_id":"a99105b1-e755-4492-8395-b4b4a603c90a","system_id":"levelo_inurba_marseille","lat":43.2318,"lon":5.39993,"is_reserved":false,"is_disabled":false,"rental_uris":{"android":"levelo://app?vid=a99105b1-e755-4492-8395-b4b4a603c90a","ios":"levelo://app?vid=a99105b1-e755-4492-8395-b4b4a603c90a"},"vehicle_type_id":"4","last_reported":1737216530,"current_range_meters":36800,"station_id":"ce4bhn12rcd13ifvqgqg","pricing_plan_id":"cebpf4jnsgd1na2vs0mg"},{"bike_id":"2ad52ef0-8080-4104-a5d3-4ad6b83e9c6d","system_id":"levelo_inurba_marseille","lat":43.29514,"lon":5.39045,"is_reserved":false,"is_disabled":true,"rental_uris":{"android":"levelo://app?vid=2ad52ef0-8080-4104-a5d3-4ad6b83e9c6d","ios":"levelo://app?vid=2ad52ef0-8080-4104-a5d3-4ad6b83e9c6d"},"vehicle_type_id":"4","last_reported":1737216530,"current_range_meters":4000,"station_id":"ce4bh3p2rcd13ifvqdp0","pricing_plan_id":"cebpf4jnsgd1na2vs0mg"},{"bike_id":"30e3f870-838d-4cff-8812-f6acf6e88b21","system_id":"levelo_inurba_marseille","lat":43.29003,"lon":5.35617,"is_reserved":false,"is_disabled":false,"rental_uris":{"android":"levelo://app?vid=30e3f870-838d-4cff-8812-f6acf6e88b21","ios":"levelo://app?vid=30e3f870-838d-4cff-8812-f6acf6e88b21"},"vehicle_type_id":"4","last_reported":1737216530,"current_range_meters":38800,"station_id":"ce4bhb92rcd13ifvqen0","pricing_plan_id":"cebpf4jnsgd1na2vs0mg"},{"bike_id":"357eaeda-fef2-41f2-9ad0-621ae2cc5c09","system_id":"levelo_inurba_marseille","lat":43.33768,"lon":5.37496,"is_reserved":false,"is_disabled":false,"rental_uris":{"android":"levelo://app?vid=357eaeda-fef2-41f2-9ad0-621ae2cc5c09","ios":"levelo://app?vid=357eaeda-fef2-41f2-9ad0-621ae2cc5c09"},"vehicle_type_id":"4","last_reported":1737216530,"current_range_meters":30800,"station_id":"","pricing_plan_id":"cebpf4jnsgd1na2vs0mg"},{"bike_id":"24747ef3-c3b1-4bc4-b21e-7db78697d06a","system_id":"levelo_inurba_marseille","lat":43.30092,"lon":5.3908,"is_reserved":false,"is_disabled":false,"rental_uris":{"android":"levelo://app?vid=24747ef3-c3b1-4bc4-b21e-7db78697d06a","ios":"levelo://app?vid=24747ef3-c3b1-4bc4-b21e-7db78697d06a"},"vehicle_type_id":"4","last_reported":1737216530,"current_range_meters":34000,"station_id":"ce4bh192rcd13ifvqdb0","pricing_plan_id":"cebpf4jnsgd1na2vs0mg"},{"bike_id":"d7ccff50-4c6b-4e48-9048-c8014541aaa1","system_id":"levelo_inurba_marseille","lat":43.29563,"lon":5.37524,"is_reserved":false,"is_disabled":false,"rental_uris":{"android":"levelo://app?vid=d7ccff50-4c6b-4e48-9048-c8014541aaa1","ios":"levelo://app?vid=d7ccff50-4c6b-4e48-9048-c8014541aaa1"},"vehicle_type_id":"4","last_reported":1737216530,"current_range_meters":38800,"station_id":"ce4bgh92rcd13ifvqb50","pricing_plan_id":"cebpf4jnsgd1na2vs0mg"},{"bike_id":"8e07cfb3-ad4f-40d1-9549-92d06ed6acd1","system_id":"levelo_inurba_marseille","lat":43.27215,"lon":5.39099,"is_reserved":false,"is_disabled":true,"rental_uris":{"android":"levelo://app?vid=8e07cfb3-ad4f-40d1-9549-92d06ed6acd1","ios":"levelo://app?vid=8e07cfb3-ad4f-40d1-9549-92d06ed6acd1"},"vehicle_type_id":"4","last_reported":1737216530,"current_range_meters":2000,"station_id":"ce4bhlh2rcd13ifvqgig","pricing_plan_id":"cebpf4jnsgd1na2vs0mg"},{"bike_id":"140fc8cf-4281-44e3-bae8-ed54dc40a31c","system_id":"levelo_inurba_marseille","lat":43.25935,"lon":5.40896,"is_reserved":false,"is_disabled":false,"rental_uris":{"android":"levelo://app?vid=140fc8cf-4281-44e3-bae8-ed54dc40a31c","ios":"levelo://app?vid=140fc8cf-4281-44e3-bae8-ed54dc40a31c"},"vehicle_type_id":"4","last_reported":1737216530,"current_range_meters":30400,"station_id":"ce4bhm92rcd13ifvqglg","pricing_plan_id":"cebpf4jnsgd1na2vs0mg"},{"bike_id":"ed1e2eed-bfc5-4a80-a8ba-212656959b49","system_id":"levelo_inurba_marseille","lat":43.29006,"lon":5.35614,"is_reserved":false,"is_disabled":false,"rental_uris":{"android":"levelo://app?vid=ed1e2eed-bfc5-4a80-a8ba-212656959b49","ios":"levelo://app?vid=ed1e2eed-bfc5-4a80-a8ba-212656959b49"},"vehicle_type_id":"4","last_reported":1737216530,"current_range_meters":12000,"station_id":"ce4bhb92rcd13ifvqen0","pricing_plan_id":"cebpf4jnsgd1na2vs0mg"},{"bike_id":"01a07bd9-36a1-4c19-a88b-7c9e3a6ee490","system_id":"levelo_inurba_marseille","lat":43.2509,"lon":5.39514,"is_reserved":false,"is_disabled":false,"rental_uris":{"android":"levelo://app?vid=01a07bd9-36a1-4c19-a88b-7c9e3a6ee490","ios":"levelo://app?vid=01a07bd9-36a1-4c19-a88b-7c9e3a6ee490"},"vehicle_type_id":"4","last_reported":1737216530,"current_range_meters":36400,"station_id":"ce4bhm12rcd13ifvqgkg","pricing_plan_id":"cebpf4jnsgd1na2vs0mg"},{"bike_id":"b0b5b450-5055-4cf9-9abc-490d41233b4e","system_id":"levelo_inurba_marseille","lat":43.28721,"lon":5.37931,"is_reserved":false,"is_disabled":false,"rental_uris":{"android":"levelo://app?vid=b0b5b450-5055-4cf9-9abc-490d41233b4e","ios":"levelo://app?vid=b0b5b450-5055-4cf9-9abc-490d41233b4e"},"vehicle_type_id":"4","last_reported":1737216530,"current_range_meters":22400,"station_id":"ce4bh9p2rcd13ifvqec0","pricing_plan_id":"cebpf4jnsgd1na2vs0mg"},{"bike_id":"a4c28b39-7e08-45fb-a019-33050ce8916a","system_id":"levelo_inurba_marseille","lat":43.31362,"lon":5.38493,"is_reserved":false,"is_disabled":false,"rental_uris":{"android":"levelo://app?vid=a4c28b39-7e08-45fb-a019-33050ce8916a","ios":"levelo://app?vid=a4c28b39-7e08-45fb-a019-33050ce8916a"},"vehicle_type_id":"4","last_reported":1737216530,"current_range_meters":39200,"station_id":"ce4bgt92rcd13ifvqcf0","pricing_plan_id":"cebpf4jnsgd1na2vs0mg"},{"bike_id":"24d3b331-52fa-4564-a98e-732c1dea4a32","system_id":"levelo_inurba_marseille","lat":43.27492,"lon":5.42456,"is_reserved":false,"is_disabled":true,"rental_uris":{"android":"levelo://app?vid=24d3b331-52fa-4564-a98e-732c1dea4a32","ios":"levelo://app?vid=24d3b331-52fa-4564-a98e-732c1dea4a32"},"vehicle_type_id":"4","last_reported":1737216530,"current_range_meters":0,"station_id":"ce4bhn92rcd13ifvqgrg","pricing_plan_id":"cebpf4jnsgd1na2vs0mg"},{"bike_id":"9be957d2-26d1-49a4-9f85-b06ee3432064","system_id":"levelo_inurba_marseille","lat":43.33731,"lon":5.39196,"is_reserved":false,"is_disabled":false,"rental_uris":{"android":"levelo://app?vid=9be957d2-26d1-49a4-9f85-b06ee3432064","ios":"levelo://app?vid=9be957d2-26d1-49a4-9f85-b06ee3432064"},"vehicle_type_id":"4","last_reported":1737216530,"current_range_meters":26000,"station_id":"ce4bhr92rcd13ifvqhsg","pricing_plan_id":"cebpf4jnsgd1na2vs0mg"},{"bike_id":"e025884c-603b-4643-b2aa-ef72fc58627b","system_id":"levelo_inurba_marseille","lat":43.26572,"lon":5.3904,"is_reserved":false,"is_disabled":false,"rental_uris":{"android":"levelo://app?vid=e025884c-603b-4643-b2aa-ef72fc58627b","ios":"levelo://app?vid=e025884c-603b-4643-b2aa-ef72fc58627b"},"vehicle_type_id":"4","last_reported":1737216530,"current_range_meters":33200,"station_id":"ce4bhe12rcd13ifvqf30","pricing_plan_id":"cebpf4jnsgd1na2vs0mg"},{"bike_id":"fd153fd4-8c71-4200-95f4-e02852c298c7","system_id":"levelo_inurba_marseille","lat":43.25084,"lon":5.39513,"is_reserved":false,"is_disabled":false,"rental_uris":{"android":"levelo://app?vid=fd153fd4-8c71-4200-95f4-e02852c298c7","ios":"levelo://app?vid=fd153fd4-8c71-4200-95f4-e02852c298c7"},"vehicle_type_id":"4","last_reported":1737216530,"current_range_meters":35600,"station_id":"ce4bhm12rcd13ifvqgkg","pricing_plan_id":"cebpf4jnsgd1na2vs0mg"},{"bike_id":"c82084a9-11ec-406b-a53a-7e844ce9a671","system_id":"levelo_inurba_marseille","lat":43.28347,"lon":5.38116,"is_reserved":false,"is_disabled":false,"rental_uris":{"android":"levelo://app?vid=c82084a9-11ec-406b-a53a-7e844ce9a671","ios":"levelo://app?vid=c82084a9-11ec-406b-a53a-7e844ce9a671"},"vehicle_type_id":"4","last_reported":1737216530,"current_range_meters":4800,"station_id":"ce4bh412rcd13ifvqdr0","pricing_plan_id":"cebpf4jnsgd1na2vs0mg"},{"bike_id":"368049df-8704-4e1c-8fc6-bb3700bb5bf1","system_id":"levelo_inurba_marseille","lat":43.30203,"lon":5.39463,"is_reserved":false,"is_disabled":false,"rental_uris":{"android":"levelo://app?vid=368049df-8704-4e1c-8fc6-bb3700bb5bf1","ios":"levelo://app?vid=368049df-8704-4e1c-8fc6-bb3700bb5bf1"},"vehicle_type_id":"4","last_reported":1737216530,"current_range_meters":35200,"station_id":"ce4bh0p2rcd13ifvqd70","pricing_plan_id":"cebpf4jnsgd1na2vs0mg"},{"bike_id":"4e694139-1843-4921-9cbb-249a69c8d879","system_id":"levelo_inurba_marseille","lat":43.31118,"lon":5.37773,"is_reserved":false,"is_disabled":false,"rental_uris":{"android":"levelo://app?vid=4e694139-1843-4921-9cbb-249a69c8d879","ios":"levelo://app?vid=4e694139-1843-4921-9cbb-249a69c8d879"},"vehicle_type_id":"4","last_reported":1737216530,"current_range_meters":38000,"station_id":"ce4bgt92rcd13ifvqcg0","pricing_plan_id":"cebpf4jnsgd1na2vs0mg"},{"bike_id":"4489757e-df01-42da-be3a-27402f07b76a","system_id":"levelo_inurba_marseille","lat":43.31112,"lon":5.42413,"is_reserved":false,"is_disabled":false,"rental_uris":{"android":"levelo://app?vid=4489757e-df01-42da-be3a-27402f07b76a","ios":"levelo://app?vid=4489757e-df01-42da-be3a-27402f07b76a"},"vehicle_type_id":"4","last_reported":1737216530,"current_range_meters":38000,"station_id":"ce4bhp92rcd13ifvqhag","pricing_plan_id":"cebpf4jnsgd1na2vs0mg"},{"bike_id":"a6b63e6f-4a60-439e-ba64-5d892f1cbe6d","system_id":"levelo_inurba_marseille","lat":43.30302,"lon":5.39214,"is_reserved":false,"is_disabled":true,"rental_uris":{"android":"levelo://app?vid=a6b63e6f-4a60-439e-ba64-5d892f1cbe6d","ios":"levelo://app?vid=a6b63e6f-4a60-439e-ba64-5d892f1cbe6d"},"vehicle_type_id":"4","last_reported":1737216530,"current_range_meters":1200,"station_id":"ce4bgkh2rcd13ifvqbk0","pricing_plan_id":"cebpf4jnsgd1na2vs0mg"},{"bike_id":"36418dab-97b7-422d-b5dd-e7aa5d253817","system_id":"levelo_inurba_marseille","lat":43.28407,"lon":5.37505,"is_reserved":false,"is_disabled":false,"rental_uris":{"android":"levelo://app?vid=36418dab-97b7-422d-b5dd-e7aa5d253817","ios":"levelo://app?vid=36418dab-97b7-422d-b5dd-e7aa5d253817"},"vehicle_type_id":"4","last_reported":1737216530,"current_range_meters":22800,"station_id":"ce4bh412rcd13ifvqds0","pricing_plan_id":"cebpf4jnsgd1na2vs0mg"},{"bike_id":"41e66b43-81c2-4cc4-b4fc-989eb06aea62","system_id":"levelo_inurba_marseille","lat":43.25126,"lon":5.40316,"is_reserved":false,"is_disabled":false,"rental_uris":{"android":"levelo://app?vid=41e66b43-81c2-4cc4-b4fc-989eb06aea62","ios":"levelo://app?vid=41e66b43-81c2-4cc4-b4fc-989eb06aea62"},"vehicle_type_id":"4","last_reported":1737216530,"current_range_meters":17600,"station_id":"ce4bhlh2rcd13ifvqgig","pricing_plan_id":"cebpf4jnsgd1na2vs0mg"},{"bike_id":"aaf9b19d-0d21-4f60-bd85-a79491ea0c6f","system_id":"levelo_inurba_marseille","lat":43.26208,"lon":5.37435,"is_reserved":false,"is_disabled":false,"rental_uris":{"android":"levelo://app?vid=aaf9b19d-0d21-4f60-bd85-a79491ea0c6f","ios":"levelo://app?vid=aaf9b19d-0d21-4f60-bd85-a79491ea0c6f"},"vehicle_type_id":"4","last_reported":1737216530,"current_range_meters":36000,"station_id":"ce4bhgp2rcd13ifvqfc0","pricing_plan_id":"cebpf4jnsgd1na2vs0mg"},{"bike_id":"9d6171b4-ccb5-4187-ae27-0f2c56854258","system_id":"levelo_inurba_marseille","lat":43.2894,"lon":5.3663,"is_reserved":false,"is_disabled":true,"rental_uris":{"android":"levelo://app?vid=9d6171b4-ccb5-4187-ae27-0f2c56854258","ios":"levelo://app?vid=9d6171b4-ccb5-4187-ae27-0f2c56854258"},"vehicle_type_id":"4","last_reported":1737216530,"current_range_meters":0,"station_id":"ce4bhap2rcd13ifvqek0","pricing_plan_id":"cebpf4jnsgd1na2vs0mg"},{"bike_id":"d29beac8-a618-4bab-b648-f7daf71dd18c","system_id":"levelo_inurba_marseille","lat":43.26729,"lon":5.38239,"is_reserved":false,"is_disabled":false,"rental_uris":{"android":"levelo://app?vid=d29beac8-a618-4bab-b648-f7daf71dd18c","ios":"levelo://app?vid=d29beac8-a618-4bab-b648-f7daf71dd18c"},"vehicle_type_id":"4","last_reported":1737216530,"current_range_meters":19200,"station_id":"ce4bhg92rcd13ifvqf90","pricing_plan_id":"cebpf4jnsgd1na2vs0mg"},{"bike_id":"13d3fd97-e21c-4164-8b58-6e6c0cfe1ec1","system_id":"levelo_inurba_marseille","lat":43.28035,"lon":5.36954,"is_reserved":false,"is_disabled":false,"rental_uris":{"android":"levelo://app?vid=13d3fd97-e21c-4164-8b58-6e6c0cfe1ec1","ios":"levelo://app?vid=13d3fd97-e21c-4164-8b58-6e6c0cfe1ec1"},"vehicle_type_id":"4","last_reported":1737216530,"current_range_meters":24000,"station_id":"ce4bha12rcd13ifvqef0","pricing_plan_id":"cebpf4jnsgd1na2vs0mg"},{"bike_id":"fae143cc-e0b7-42e0-ac41-6327643321d0","system_id":"levelo_inurba_marseille","lat":43.25823,"lon":5.39438,"is_reserved":false,"is_disabled":false,"rental_uris":{"android":"levelo://app?vid=fae143cc-e0b7-42e0-ac41-6327643321d0","ios":"levelo://app?vid=fae143cc-e0b7-42e0-ac41-6327643321d0"},"vehicle_type_id":"4","last_reported":1737216530,"current_range_meters":31200,"station_id":"ce4bhip2rcd13ifvqft0","pricing_plan_id":"cebpf4jnsgd1na2vs0mg"},{"bike_id":"78a60470-e644-4eca-bf1f-8be83cbe177b","system_id":"levelo_inurba_marseille","lat":43.30137,"lon":5.37424,"is_reserved":false,"is_disabled":false,"rental_uris":{"android":"levelo://app?vid=78a60470-e644-4eca-bf1f-8be83cbe177b","ios":"levelo://app?vid=78a60470-e644-4eca-bf1f-8be83cbe177b"},"vehicle_type_id":"4","last_reported":1737216530,"current_range_meters":32800,"station_id":"ce4bgs92rcd13ifvqcc0","pricing_plan_id":"cebpf4jnsgd1na2vs0mg"},{"bike_id":"f4a4a406-b0a5-42fc-9236-32e93ac6f6b2","system_id":"levelo_inurba_marseille","lat":43.231526,"lon":5.437055,"is_reserved":false,"is_disabled":true,"rental_uris":{"android":"levelo://app?vid=f4a4a406-b0a5-42fc-9236-32e93ac6f6b2","ios":"levelo://app?vid=f4a4a406-b0a5-42fc-9236-32e93ac6f6b2"},"vehicle_type_id":"4","last_reported":1737216530,"current_range_meters":28800,"station_id":"ce4bhmp2rcd13ifvqgog","pricing_plan_id":"cebpf4jnsgd1na2vs0mg"},{"bike_id":"0a07a54b-ebec-426a-a4da-317b251731b2","system_id":"levelo_inurba_marseille","lat":43.29736,"lon":5.37684,"is_reserved":false,"is_disabled":false,"rental_uris":{"android":"levelo://app?vid=0a07a54b-ebec-426a-a4da-317b251731b2","ios":"levelo://app?vid=0a07a54b-ebec-426a-a4da-317b251731b2"},"vehicle_type_id":"4","last_reported":1737216530,"current_range_meters":39200,"station_id":"ce4bgkh2rcd13ifvqbl0","pricing_plan_id":"cebpf4jnsgd1na2vs0mg"},{"bike_id":"077540a1-c9f6-4ba4-8e6a-2c229443eadf","system_id":"levelo_inurba_marseille","lat":43.30597,"lon":5.39352,"is_reserved":false,"is_disabled":false,"rental_uris":{"android":"levelo://app?vid=077540a1-c9f6-4ba4-8e6a-2c229443eadf","ios":"levelo://app?vid=077540a1-c9f6-4ba4-8e6a-2c229443eadf"},"vehicle_type_id":"4","last_reported":1737216530,"current_range_meters":30000,"station_id":"ce4bh0p2rcd13ifvqd80","pricing_plan_id":"cebpf4jnsgd1na2vs0mg"},{"bike_id":"eb1cec4e-de34-44f0-8dd6-fe884cd6df57","system_id":"levelo_inurba_marseille","lat":43.28932,"lon":5.36643,"is_reserved":false,"is_disabled":false,"rental_uris":{"android":"levelo://app?vid=eb1cec4e-de34-44f0-8dd6-fe884cd6df57","ios":"levelo://app?vid=eb1cec4e-de34-44f0-8dd6-fe884cd6df57"},"vehicle_type_id":"4","last_reported":1737216530,"current_range_meters":30400,"station_id":"ce4bhap2rcd13ifvqek0","pricing_plan_id":"cebpf4jnsgd1na2vs0mg"},{"bike_id":"e3d78a43-5d22-471a-86d0-2a6b52ac3559","system_id":"levelo_inurba_marseille","lat":43.23968,"lon":5.36629,"is_reserved":false,"is_disabled":false,"rental_uris":{"android":"levelo://app?vid=e3d78a43-5d22-471a-86d0-2a6b52ac3559","ios":"levelo://app?vid=e3d78a43-5d22-471a-86d0-2a6b52ac3559"},"vehicle_type_id":"4","last_reported":1737216530,"current_range_meters":24800,"station_id":"ce4bhi12rcd13ifvqfp0","pricing_plan_id":"cebpf4jnsgd1na2vs0mg"},{"bike_id":"0a58b258-c50a-43fe-85f5-6c6c83d82dbc","system_id":"levelo_inurba_marseille","lat":43.29362,"lon":5.40819,"is_reserved":false,"is_disabled":false,"rental_uris":{"android":"levelo://app?vid=0a58b258-c50a-43fe-85f5-6c6c83d82dbc","ios":"levelo://app?vid=0a58b258-c50a-43fe-85f5-6c6c83d82dbc"},"vehicle_type_id":"4","last_reported":1737216530,"current_range_meters":27600,"station_id":"ce4bh112rcd13ifvqd90","pricing_plan_id":"cebpf4jnsgd1na2vs0mg"},{"bike_id":"f5832b77-1b11-4bed-866a-5fe73e065be2","system_id":"levelo_inurba_marseille","lat":43.29912,"lon":5.37472,"is_reserved":false,"is_disabled":false,"rental_uris":{"android":"levelo://app?vid=f5832b77-1b11-4bed-866a-5fe73e065be2","ios":"levelo://app?vid=f5832b77-1b11-4bed-866a-5fe73e065be2"},"vehicle_type_id":"4","last_reported":1737216530,"current_range_meters":38800,"station_id":"ce4bgjh2rcd13ifvqbg0","pricing_plan_id":"cebpf4jnsgd1na2vs0mg"},{"bike_id":"92466719-3cd7-45e1-a99f-e3314a012c35","system_id":"levelo_inurba_marseille","lat":43.29836,"lon":5.3626,"is_reserved":false,"is_disabled":false,"rental_uris":{"android":"levelo://app?vid=92466719-3cd7-45e1-a99f-e3314a012c35","ios":"levelo://app?vid=92466719-3cd7-45e1-a99f-e3314a012c35"},"vehicle_type_id":"4","last_reported":1737216530,"current_range_meters":38800,"station_id":"ce4bgpp2rcd13ifvqc3g","pricing_plan_id":"cebpf4jnsgd1na2vs0mg"},{"bike_id":"897b5451-91a4-4507-b30e-ad2e4e884264","system_id":"levelo_inurba_marseille","lat":43.26722,"lon":5.38238,"is_reserved":false,"is_disabled":false,"rental_uris":{"android":"levelo://app?vid=897b5451-91a4-4507-b30e-ad2e4e884264","ios":"levelo://app?vid=897b5451-91a4-4507-b30e-ad2e4e884264"},"vehicle_type_id":"4","last_reported":1737216530,"current_range_meters":6000,"station_id":"","pricing_plan_id":"cebpf4jnsgd1na2vs0mg"},{"bike_id":"67c549d5-ce81-408a-a146-d43915340e7f","system_id":"levelo_inurba_marseille","lat":43.32053,"lon":5.41555,"is_reserved":false,"is_disabled":false,"rental_uris":{"android":"levelo://app?vid=67c549d5-ce81-408a-a146-d43915340e7f","ios":"levelo://app?vid=67c549d5-ce81-408a-a146-d43915340e7f"},"vehicle_type_id":"4","last_reported":1737216530,"current_range_meters":36800,"station_id":"ce4bhq92rcd13ifvqhkg","pricing_plan_id":"cebpf4jnsgd1na2vs0mg"},{"bike_id":"b58dcef5-cab9-4732-933d-c18fb8a74b04","system_id":"levelo_inurba_marseille","lat":43.23142,"lon":5.4372,"is_reserved":false,"is_disabled":true,"rental_uris":{"android":"levelo://app?vid=b58dcef5-cab9-4732-933d-c18fb8a74b04","ios":"levelo://app?vid=b58dcef5-cab9-4732-933d-c18fb8a74b04"},"vehicle_type_id":"4","last_reported":1737216530,"current_range_meters":0,"station_id":"ce4bhmp2rcd13ifvqgog","pricing_plan_id":"cebpf4jnsgd1na2vs0mg"},{"bike_id":"234d1550-b7dd-465b-9578-32049a642f2b","system_id":"levelo_inurba_marseille","lat":43.29948,"lon":5.41323,"is_reserved":false,"is_disabled":false,"rental_uris":{"android":"levelo://app?vid=234d1550-b7dd-465b-9578-32049a642f2b","ios":"levelo://app?vid=234d1550-b7dd-465b-9578-32049a642f2b"},"vehicle_type_id":"4","last_reported":1737216530,"current_range_meters":38400,"station_id":"ce4bhp12rcd13ifvqh9g","pricing_plan_id":"cebpf4jnsgd1na2vs0mg"},{"bike_id":"f830584b-11c9-443e-b2c2-445ac10ef463","system_id":"levelo_inurba_marseille","lat":43.30181,"lon":5.36622,"is_reserved":false,"is_disabled":false,"rental_uris":{"android":"levelo://app?vid=f830584b-11c9-443e-b2c2-445ac10ef463","ios":"levelo://app?vid=f830584b-11c9-443e-b2c2-445ac10ef463"},"vehicle_type_id":"4","last_reported":1737216530,"current_range_meters":35200,"station_id":"ce4bgrh2rcd13ifvqc8g","pricing_plan_id":"cebpf4jnsgd1na2vs0mg"},{"bike_id":"37feb261-44b2-4b27-b3ae-078664007b08","system_id":"levelo_inurba_marseille","lat":43.32473,"lon":5.36573,"is_reserved":false,"is_disabled":false,"rental_uris":{"android":"levelo://app?vid=37feb261-44b2-4b27-b3ae-078664007b08","ios":"levelo://app?vid=37feb261-44b2-4b27-b3ae-078664007b08"},"vehicle_type_id":"4","last_reported":1737216530,"current_range_meters":6000,"station_id":"ce4bhs12rcd13ifvqhvg","pricing_plan_id":"cebpf4jnsgd1na2vs0mg"},{"bike_id":"96960263-8122-4b3a-9f60-4d15c809c06f","system_id":"levelo_inurba_marseille","lat":43.26064,"lon":5.39392,"is_reserved":false,"is_disabled":false,"rental_uris":{"android":"levelo://app?vid=96960263-8122-4b3a-9f60-4d15c809c06f","ios":"levelo://app?vid=96960263-8122-4b3a-9f60-4d15c809c06f"},"vehicle_type_id":"4","last_reported":1737216530,"current_range_meters":11200,"station_id":"ce4bhh92rcd13ifvqfj0","pricing_plan_id":"cebpf4jnsgd1na2vs0mg"},{"bike_id":"fc54ee42-8880-45c9-863a-3f31c4ebc8ea","system_id":"levelo_inurba_marseille","lat":43.28074,"lon":5.3966,"is_reserved":false,"is_disabled":false,"rental_uris":{"android":"levelo://app?vid=fc54ee42-8880-45c9-863a-3f31c4ebc8ea","ios":"levelo://app?vid=fc54ee42-8880-45c9-863a-3f31c4ebc8ea"},"vehicle_type_id":"4","last_reported":1737216530,"current_range_meters":32000,"station_id":"ce4bho12rcd13ifvqh2g","pricing_plan_id":"cebpf4jnsgd1na2vs0mg"},{"bike_id":"dbd9bc13-3352-4f53-9c3b-33d77a717d33","system_id":"levelo_inurba_marseille","lat":43.300911,"lon":5.37043,"is_reserved":false,"is_disabled":false,"rental_uris":{"android":"levelo://app?vid=dbd9bc13-3352-4f53-9c3b-33d77a717d33","ios":"levelo://app?vid=dbd9bc13-3352-4f53-9c3b-33d77a717d33"},"vehicle_type_id":"4","last_reported":1737216530,"current_range_meters":26000,"station_id":"","pricing_plan_id":"cebpf4jnsgd1na2vs0mg"},{"bike_id":"56b8e9bc-f750-4815-bc98-9098414d16db","system_id":"levelo_inurba_marseille","lat":43.23201,"lon":5.3556,"is_reserved":false,"is_disabled":true,"rental_uris":{"android":"levelo://app?vid=56b8e9bc-f750-4815-bc98-9098414d16db","ios":"levelo://app?vid=56b8e9bc-f750-4815-bc98-9098414d16db"},"vehicle_type_id":"4","last_reported":1737216530,"current_range_meters":0,"station_id":"ce4bhu92rcd13ifvqi70","pricing_plan_id":"cebpf4jnsgd1na2vs0mg"},{"bike_id":"0e91b70c-1e42-4d65-a90a-72cbd40954b0","system_id":"levelo_inurba_marseille","lat":43.32374,"lon":5.36787,"is_reserved":false,"is_disabled":false,"rental_uris":{"android":"levelo://app?vid=0e91b70c-1e42-4d65-a90a-72cbd40954b0","ios":"levelo://app?vid=0e91b70c-1e42-4d65-a90a-72cbd40954b0"},"vehicle_type_id":"4","last_reported":1737216530,"current_range_meters":10000,"station_id":"ce4bhsh2rcd13ifvqi2g","pricing_plan_id":"cebpf4jnsgd1na2vs0mg"},{"bike_id":"891b3542-75d5-4041-866e-0048bd43d23e","system_id":"levelo_inurba_marseille","lat":43.29845,"lon":5.36268,"is_reserved":false,"is_disabled":false,"rental_uris":{"android":"levelo://app?vid=891b3542-75d5-4041-866e-0048bd43d23e","ios":"levelo://app?vid=891b3542-75d5-4041-866e-0048bd43d23e"},"vehicle_type_id":"4","last_reported":1737216530,"current_range_meters":9600,"station_id":"ce4bgpp2rcd13ifvqc3g","pricing_plan_id":"cebpf4jnsgd1na2vs0mg"},{"bike_id":"94cff67e-afe8-4ae9-96cd-7512ea5de8ea","system_id":"levelo_inurba_marseille","lat":43.29617,"lon":5.37154,"is_reserved":false,"is_disabled":false,"rental_uris":{"android":"levelo://app?vid=94cff67e-afe8-4ae9-96cd-7512ea5de8ea","ios":"levelo://app?vid=94cff67e-afe8-4ae9-96cd-7512ea5de8ea"},"vehicle_type_id":"4","last_reported":1737216530,"current_range_meters":14800,"station_id":"ce4bgnh2rcd13ifvqc0g","pricing_plan_id":"cebpf4jnsgd1na2vs0mg"},{"bike_id":"94c50d48-4bdf-4cc3-8480-21ed5fa48e03","system_id":"levelo_inurba_marseille","lat":43.29728,"lon":5.37664,"is_reserved":false,"is_disabled":false,"rental_uris":{"android":"levelo://app?vid=94c50d48-4bdf-4cc3-8480-21ed5fa48e03","ios":"levelo://app?vid=94c50d48-4bdf-4cc3-8480-21ed5fa48e03"},"vehicle_type_id":"4","last_reported":1737216530,"current_range_meters":39200,"station_id":"ce4bgkh2rcd13ifvqbl0","pricing_plan_id":"cebpf4jnsgd1na2vs0mg"},{"bike_id":"22465212-93af-4e0b-b803-6ee82bba56d5","system_id":"levelo_inurba_marseille","lat":43.33759,"lon":5.3748,"is_reserved":false,"is_disabled":false,"rental_uris":{"android":"levelo://app?vid=22465212-93af-4e0b-b803-6ee82bba56d5","ios":"levelo://app?vid=22465212-93af-4e0b-b803-6ee82bba56d5"},"vehicle_type_id":"4","last_reported":1737216530,"current_range_meters":32400,"station_id":"","pricing_plan_id":"cebpf4jnsgd1na2vs0mg"},{"bike_id":"275aed3e-104b-4ec9-ace4-af91fc180de6","system_id":"levelo_inurba_marseille","lat":43.31107,"lon":5.42418,"is_reserved":false,"is_disabled":false,"rental_uris":{"android":"levelo://app?vid=275aed3e-104b-4ec9-ace4-af91fc180de6","ios":"levelo://app?vid=275aed3e-104b-4ec9-ace4-af91fc180de6"},"vehicle_type_id":"4","last_reported":1737216530,"current_range_meters":38800,"station_id":"ce4bhp92rcd13ifvqhag","pricing_plan_id":"cebpf4jnsgd1na2vs0mg"},{"bike_id":"2669dc48-d52c-4df4-a185-3258641e3a0a","system_id":"levelo_inurba_marseille","lat":43.27952,"lon":5.387,"is_reserved":false,"is_disabled":true,"rental_uris":{"android":"levelo://app?vid=2669dc48-d52c-4df4-a185-3258641e3a0a","ios":"levelo://app?vid=2669dc48-d52c-4df4-a185-3258641e3a0a"},"vehicle_type_id":"4","last_reported":1737216530,"current_range_meters":0,"station_id":"ce4bhg12rcd13ifvqf80","pricing_plan_id":"cebpf4jnsgd1na2vs0mg"},{"bike_id":"ffd9c16c-c92b-4652-b727-1630838115ea","system_id":"levelo_inurba_marseille","lat":43.26032,"lon":5.37545,"is_reserved":false,"is_disabled":false,"rental_uris":{"android":"levelo://app?vid=ffd9c16c-c92b-4652-b727-1630838115ea","ios":"levelo://app?vid=ffd9c16c-c92b-4652-b727-1630838115ea"},"vehicle_type_id":"4","last_reported":1737216530,"current_range_meters":17200,"station_id":"ce4bhgh2rcd13ifvqfa0","pricing_plan_id":"cebpf4jnsgd1na2vs0mg"},{"bike_id":"e6784763-6624-421f-988e-e0d895e9bf5d","system_id":"levelo_inurba_marseille","lat":43.31756,"lon":5.39012,"is_reserved":false,"is_disabled":false,"rental_uris":{"android":"levelo://app?vid=e6784763-6624-421f-988e-e0d895e9bf5d","ios":"levelo://app?vid=e6784763-6624-421f-988e-e0d895e9bf5d"},"vehicle_type_id":"4","last_reported":1737216530,"current_range_meters":39200,"station_id":"ce4bhqp2rcd13ifvqhng","pricing_plan_id":"cebpf4jnsgd1na2vs0mg"},{"bike_id":"86b1129b-34c7-4cb1-acb7-46aa8942c62c","system_id":"levelo_inurba_marseille","lat":43.23145,"lon":5.43733,"is_reserved":false,"is_disabled":true,"rental_uris":{"android":"levelo://app?vid=86b1129b-34c7-4cb1-acb7-46aa8942c62c","ios":"levelo://app?vid=86b1129b-34c7-4cb1-acb7-46aa8942c62c"},"vehicle_type_id":"4","last_reported":1737216530,"current_range_meters":0,"station_id":"ce4bhmp2rcd13ifvqgog","pricing_plan_id":"cebpf4jnsgd1na2vs0mg"},{"bike_id":"590f7295-8479-41c9-a1a1-d371a87a5aab","system_id":"levelo_inurba_marseille","lat":43.26213,"lon":5.37444,"is_reserved":false,"is_disabled":false,"rental_uris":{"android":"levelo://app?vid=590f7295-8479-41c9-a1a1-d371a87a5aab","ios":"levelo://app?vid=590f7295-8479-41c9-a1a1-d371a87a5aab"},"vehicle_type_id":"4","last_reported":1737216530,"current_range_meters":4800,"station_id":"ce4bhgp2rcd13ifvqfc0","pricing_plan_id":"cebpf4jnsgd1na2vs0mg"},{"bike_id":"1a542887-37a3-4c8f-8915-7ef75cba03da","system_id":"levelo_inurba_marseille","lat":43.3095,"lon":5.39048,"is_reserved":false,"is_disabled":false,"rental_uris":{"android":"levelo://app?vid=1a542887-37a3-4c8f-8915-7ef75cba03da","ios":"levelo://app?vid=1a542887-37a3-4c8f-8915-7ef75cba03da"},"vehicle_type_id":"4","last_reported":1737216530,"current_range_meters":36400,"station_id":"ce4bgup2rcd13ifvqco0","pricing_plan_id":"cebpf4jnsgd1na2vs0mg"},{"bike_id":"3a1a84fc-62f5-4b66-bed9-55b1589ce2e2","system_id":"levelo_inurba_marseille","lat":43.27962,"lon":5.38729,"is_reserved":false,"is_disabled":false,"rental_uris":{"android":"levelo://app?vid=3a1a84fc-62f5-4b66-bed9-55b1589ce2e2","ios":"levelo://app?vid=3a1a84fc-62f5-4b66-bed9-55b1589ce2e2"},"vehicle_type_id":"4","last_reported":1737216530,"current_range_meters":10000,"station_id":"ce4bhg12rcd13ifvqf80","pricing_plan_id":"cebpf4jnsgd1na2vs0mg"},{"bike_id":"b663f53e-1e42-4f0c-a05f-fde242cb0184","system_id":"levelo_inurba_marseille","lat":43.28614,"lon":5.35108,"is_reserved":false,"is_disabled":false,"rental_uris":{"android":"levelo://app?vid=b663f53e-1e42-4f0c-a05f-fde242cb0184","ios":"levelo://app?vid=b663f53e-1e42-4f0c-a05f-fde242cb0184"},"vehicle_type_id":"4","last_reported":1737216530,"current_range_meters":24800,"station_id":"ce4bhch2rcd13ifvqeug","pricing_plan_id":"cebpf4jnsgd1na2vs0mg"},{"bike_id":"9f73ce2d-07ce-4a15-a690-69371255c2f4","system_id":"levelo_inurba_marseille","lat":43.2985,"lon":5.36279,"is_reserved":false,"is_disabled":false,"rental_uris":{"android":"levelo://app?vid=9f73ce2d-07ce-4a15-a690-69371255c2f4","ios":"levelo://app?vid=9f73ce2d-07ce-4a15-a690-69371255c2f4"},"vehicle_type_id":"4","last_reported":1737216530,"current_range_meters":12400,"station_id":"ce4bgpp2rcd13ifvqc3g","pricing_plan_id":"cebpf4jnsgd1na2vs0mg"},{"bike_id":"c6f874ed-7baa-4ffa-b8dc-93b47368c64c","system_id":"levelo_inurba_marseille","lat":43.27378,"lon":5.36253,"is_reserved":false,"is_disabled":false,"rental_uris":{"android":"levelo://app?vid=c6f874ed-7baa-4ffa-b8dc-93b47368c64c","ios":"levelo://app?vid=c6f874ed-7baa-4ffa-b8dc-93b47368c64c"},"vehicle_type_id":"4","last_reported":1737216530,"current_range_meters":36800,"station_id":"ce4bhbh2rcd13ifvqeo0","pricing_plan_id":"cebpf4jnsgd1na2vs0mg"},{"bike_id":"82eafdac-bd81-479d-a7b0-05db8ca76c26","system_id":"levelo_inurba_marseille","lat":43.25832,"lon":5.39414,"is_reserved":false,"is_disabled":true,"rental_uris":{"android":"levelo://app?vid=82eafdac-bd81-479d-a7b0-05db8ca76c26","ios":"levelo://app?vid=82eafdac-bd81-479d-a7b0-05db8ca76c26"},"vehicle_type_id":"4","last_reported":1737216530,"current_range_meters":0,"station_id":"ce4bhip2rcd13ifvqft0","pricing_plan_id":"cebpf4jnsgd1na2vs0mg"},{"bike_id":"b7bcbd2a-3d45-4104-a573-c7f4fb9913af","system_id":"levelo_inurba_marseille","lat":43.27057,"lon":5.42267,"is_reserved":false,"is_disabled":false,"rental_uris":{"android":"levelo://app?vid=b7bcbd2a-3d45-4104-a573-c7f4fb9913af","ios":"levelo://app?vid=b7bcbd2a-3d45-4104-a573-c7f4fb9913af"},"vehicle_type_id":"4","last_reported":1737216530,"current_range_meters":7200,"station_id":"ce4bhk92rcd13ifvqgb0","pricing_plan_id":"cebpf4jnsgd1na2vs0mg"},{"bike_id":"35deb437-7ef2-4ee7-9ea5-27ce0001ca7b","system_id":"levelo_inurba_marseille","lat":43.26053,"lon":5.39394,"is_reserved":false,"is_disabled":false,"rental_uris":{"android":"levelo://app?vid=35deb437-7ef2-4ee7-9ea5-27ce0001ca7b","ios":"levelo://app?vid=35deb437-7ef2-4ee7-9ea5-27ce0001ca7b"},"vehicle_type_id":"4","last_reported":1737216530,"current_range_meters":37600,"station_id":"ce4bhh92rcd13ifvqfj0","pricing_plan_id":"cebpf4jnsgd1na2vs0mg"},{"bike_id":"8bb2951f-4df4-43e6-8c27-d7111bae0ccf","system_id":"levelo_inurba_marseille","lat":43.29956,"lon":5.36569,"is_reserved":false,"is_disabled":false,"rental_uris":{"android":"levelo://app?vid=8bb2951f-4df4-43e6-8c27-d7111bae0ccf","ios":"levelo://app?vid=8bb2951f-4df4-43e6-8c27-d7111bae0ccf"},"vehicle_type_id":"4","last_reported":1737216530,"current_range_meters":38800,"station_id":"ce4bgm92rcd13ifvqbr0","pricing_plan_id":"cebpf4jnsgd1na2vs0mg"},{"bike_id":"a072b78c-2700-44c6-9219-503477bf1536","system_id":"levelo_inurba_marseille","lat":43.26196,"lon":5.37457,"is_reserved":false,"is_disabled":false,"rental_uris":{"android":"levelo://app?vid=a072b78c-2700-44c6-9219-503477bf1536","ios":"levelo://app?vid=a072b78c-2700-44c6-9219-503477bf1536"},"vehicle_type_id":"4","last_reported":1737216530,"current_range_meters":28400,"station_id":"ce4bhgp2rcd13ifvqfc0","pricing_plan_id":"cebpf4jnsgd1na2vs0mg"},{"bike_id":"f2390374-e060-4fe1-bcfa-cb2711193e58","system_id":"levelo_inurba_marseille","lat":43.25085,"lon":5.39508,"is_reserved":false,"is_disabled":false,"rental_uris":{"android":"levelo://app?vid=f2390374-e060-4fe1-bcfa-cb2711193e58","ios":"levelo://app?vid=f2390374-e060-4fe1-bcfa-cb2711193e58"},"vehicle_type_id":"4","last_reported":1737216530,"current_range_meters":9600,"station_id":"ce4bhm12rcd13ifvqgkg","pricing_plan_id":"cebpf4jnsgd1na2vs0mg"},{"bike_id":"8caece16-a274-4801-83ed-17227752ce06","system_id":"levelo_inurba_marseille","lat":43.2313,"lon":5.43723,"is_reserved":false,"is_disabled":false,"rental_uris":{"android":"levelo://app?vid=8caece16-a274-4801-83ed-17227752ce06","ios":"levelo://app?vid=8caece16-a274-4801-83ed-17227752ce06"},"vehicle_type_id":"4","last_reported":1737216530,"current_range_meters":15200,"station_id":"ce4bhmp2rcd13ifvqgog","pricing_plan_id":"cebpf4jnsgd1na2vs0mg"},{"bike_id":"d6161db6-0288-4eaf-b39b-605e25ca46ff","system_id":"levelo_inurba_marseille","lat":43.27425,"lon":5.39408,"is_reserved":false,"is_disabled":true,"rental_uris":{"android":"levelo://app?vid=d6161db6-0288-4eaf-b39b-605e25ca46ff","ios":"levelo://app?vid=d6161db6-0288-4eaf-b39b-605e25ca46ff"},"vehicle_type_id":"4","last_reported":1737216530,"current_range_meters":0,"station_id":"ce4bhdp2rcd13ifvqf20","pricing_plan_id":"cebpf4jnsgd1na2vs0mg"},{"bike_id":"aa46790d-0450-4918-bc1d-99d07bd2f297","system_id":"levelo_inurba_marseille","lat":43.27425,"lon":5.39416,"is_reserved":false,"is_disabled":false,"rental_uris":{"android":"levelo://app?vid=aa46790d-0450-4918-bc1d-99d07bd2f297","ios":"levelo://app?vid=aa46790d-0450-4918-bc1d-99d07bd2f297"},"vehicle_type_id":"4","last_reported":1737216530,"current_range_meters":38800,"station_id":"ce4bhdp2rcd13ifvqf20","pricing_plan_id":"cebpf4jnsgd1na2vs0mg"},{"bike_id":"2a6c8aef-7633-4410-aa65-ead7161fa29b","system_id":"levelo_inurba_marseille","lat":43.31211,"lon":5.3686,"is_reserved":false,"is_disabled":false,"rental_uris":{"android":"levelo://app?vid=2a6c8aef-7633-4410-aa65-ead7161fa29b","ios":"levelo://app?vid=2a6c8aef-7633-4410-aa65-ead7161fa29b"},"vehicle_type_id":"4","last_reported":1737216530,"current_range_meters":37600,"station_id":"ce4bgl92rcd13ifvqbq0","pricing_plan_id":"cebpf4jnsgd1na2vs0mg"},{"bike_id":"5b745590-bd48-427d-a1e1-d3bf0f6e19f8","system_id":"levelo_inurba_marseille","lat":43.32368,"lon":5.36777,"is_reserved":false,"is_disabled":false,"rental_uris":{"android":"levelo://app?vid=5b745590-bd48-427d-a1e1-d3bf0f6e19f8","ios":"levelo://app?vid=5b745590-bd48-427d-a1e1-d3bf0f6e19f8"},"vehicle_type_id":"4","last_reported":1737216530,"current_range_meters":11200,"station_id":"ce4bhsh2rcd13ifvqi2g","pricing_plan_id":"cebpf4jnsgd1na2vs0mg"},{"bike_id":"19842dcc-d522-4697-9c1c-8c5555390c23","system_id":"levelo_inurba_marseille","lat":43.26557,"lon":5.37307,"is_reserved":false,"is_disabled":false,"rental_uris":{"android":"levelo://app?vid=19842dcc-d522-4697-9c1c-8c5555390c23","ios":"levelo://app?vid=19842dcc-d522-4697-9c1c-8c5555390c23"},"vehicle_type_id":"4","last_reported":1737216530,"current_range_meters":38800,"station_id":"ce4bhg12rcd13ifvqf70","pricing_plan_id":"cebpf4jnsgd1na2vs0mg"},{"bike_id":"a95248e8-7ba2-479e-9b5c-9fb4d8e98c2b","system_id":"levelo_inurba_marseille","lat":43.28102,"lon":5.42185,"is_reserved":false,"is_disabled":true,"rental_uris":{"android":"levelo://app?vid=a95248e8-7ba2-479e-9b5c-9fb4d8e98c2b","ios":"levelo://app?vid=a95248e8-7ba2-479e-9b5c-9fb4d8e98c2b"},"vehicle_type_id":"4","last_reported":1737216530,"current_range_meters":0,"station_id":"","pricing_plan_id":"cebpf4jnsgd1na2vs0mg"},{"bike_id":"246f2aa1-d855-40ee-b8e2-0e541013d632","system_id":"levelo_inurba_marseille","lat":43.27828,"lon":5.40694,"is_reserved":false,"is_disabled":true,"rental_uris":{"android":"levelo://app?vid=246f2aa1-d855-40ee-b8e2-0e541013d632","ios":"levelo://app?vid=246f2aa1-d855-40ee-b8e2-0e541013d632"},"vehicle_type_id":"4","last_reported":1737216530,"current_range_meters":0,"station_id":"ce4bhnh2rcd13ifvqgtg","pricing_plan_id":"cebpf4jnsgd1na2vs0mg"},{"bike_id":"87cefc3a-e36a-4030-9c3f-9fc87455f3e3","system_id":"levelo_inurba_marseille","lat":43.27375,"lon":5.362525,"is_reserved":false,"is_disabled":false,"rental_uris":{"android":"levelo://app?vid=87cefc3a-e36a-4030-9c3f-9fc87455f3e3","ios":"levelo://app?vid=87cefc3a-e36a-4030-9c3f-9fc87455f3e3"},"vehicle_type_id":"4","last_reported":1737216530,"current_range_meters":38800,"station_id":"ce4bhbh2rcd13ifvqeo0","pricing_plan_id":"cebpf4jnsgd1na2vs0mg"},{"bike_id":"4db7b340-d87a-4262-81e5-e4a87955466a","system_id":"levelo_inurba_marseille","lat":43.29848,"lon":5.362635,"is_reserved":false,"is_disabled":false,"rental_uris":{"android":"levelo://app?vid=4db7b340-d87a-4262-81e5-e4a87955466a","ios":"levelo://app?vid=4db7b340-d87a-4262-81e5-e4a87955466a"},"vehicle_type_id":"4","last_reported":1737216530,"current_range_meters":38400,"station_id":"ce4bgpp2rcd13ifvqc3g","pricing_plan_id":"cebpf4jnsgd1na2vs0mg"},{"bike_id":"e4b67e29-1aeb-4d72-9c96-fdd0079090dc","system_id":"levelo_inurba_marseille","lat":43.27424,"lon":5.39418,"is_reserved":false,"is_disabled":false,"rental_uris":{"android":"levelo://app?vid=e4b67e29-1aeb-4d72-9c96-fdd0079090dc","ios":"levelo://app?vid=e4b67e29-1aeb-4d72-9c96-fdd0079090dc"},"vehicle_type_id":"4","last_reported":1737216530,"current_range_meters":39200,"station_id":"ce4bhdp2rcd13ifvqf20","pricing_plan_id":"cebpf4jnsgd1na2vs0mg"},{"bike_id":"8494f01d-6f97-4ae6-a516-bdb7ba1e69c7","system_id":"levelo_inurba_marseille","lat":43.30579,"lon":5.37211,"is_reserved":false,"is_disabled":false,"rental_uris":{"android":"levelo://app?vid=8494f01d-6f97-4ae6-a516-bdb7ba1e69c7","ios":"levelo://app?vid=8494f01d-6f97-4ae6-a516-bdb7ba1e69c7"},"vehicle_type_id":"4","last_reported":1737216530,"current_range_meters":38800,"station_id":"ce4bgqh2rcd13ifvqc4g","pricing_plan_id":"cebpf4jnsgd1na2vs0mg"},{"bike_id":"2189f33e-4cfd-4f76-9d91-913095d551c4","system_id":"levelo_inurba_marseille","lat":43.30349,"lon":5.39094,"is_reserved":false,"is_disabled":true,"rental_uris":{"android":"levelo://app?vid=2189f33e-4cfd-4f76-9d91-913095d551c4","ios":"levelo://app?vid=2189f33e-4cfd-4f76-9d91-913095d551c4"},"vehicle_type_id":"4","last_reported":1737216530,"current_range_meters":0,"station_id":"","pricing_plan_id":"cebpf4jnsgd1na2vs0mg"},{"bike_id":"b8b6207c-a93c-4e8f-92ac-72c6af966877","system_id":"levelo_inurba_marseille","lat":43.23194,"lon":5.35556,"is_reserved":false,"is_disabled":false,"rental_uris":{"android":"levelo://app?vid=b8b6207c-a93c-4e8f-92ac-72c6af966877","ios":"levelo://app?vid=b8b6207c-a93c-4e8f-92ac-72c6af966877"},"vehicle_type_id":"4","last_reported":1737216530,"current_range_meters":6000,"station_id":"ce4bhu92rcd13ifvqi70","pricing_plan_id":"cebpf4jnsgd1na2vs0mg"},{"bike_id":"17c7b9e1-ab22-4527-876f-37ecce330109","system_id":"levelo_inurba_marseille","lat":43.31519,"lon":5.38037,"is_reserved":false,"is_disabled":false,"rental_uris":{"android":"levelo://app?vid=17c7b9e1-ab22-4527-876f-37ecce330109","ios":"levelo://app?vid=17c7b9e1-ab22-4527-876f-37ecce330109"},"vehicle_type_id":"4","last_reported":1737216530,"current_range_meters":9600,"station_id":"ce4bhsp2rcd13ifvqi50","pricing_plan_id":"cebpf4jnsgd1na2vs0mg"},{"bike_id":"7383474c-b45a-4438-837c-99d7ae866fe7","system_id":"levelo_inurba_marseille","lat":43.26047,"lon":5.39394,"is_reserved":false,"is_disabled":false,"rental_uris":{"android":"levelo://app?vid=7383474c-b45a-4438-837c-99d7ae866fe7","ios":"levelo://app?vid=7383474c-b45a-4438-837c-99d7ae866fe7"},"vehicle_type_id":"4","last_reported":1737216530,"current_range_meters":38000,"station_id":"ce4bhh92rcd13ifvqfj0","pricing_plan_id":"cebpf4jnsgd1na2vs0mg"},{"bike_id":"1a89b7c8-399f-4f53-a050-e14bde5e3f72","system_id":"levelo_inurba_marseille","lat":43.27998,"lon":5.40019,"is_reserved":false,"is_disabled":false,"rental_uris":{"android":"levelo://app?vid=1a89b7c8-399f-4f53-a050-e14bde5e3f72","ios":"levelo://app?vid=1a89b7c8-399f-4f53-a050-e14bde5e3f72"},"vehicle_type_id":"4","last_reported":1737216530,"current_range_meters":28000,"station_id":"ce4bho92rcd13ifvqh4g","pricing_plan_id":"cebpf4jnsgd1na2vs0mg"},{"bike_id":"6124fd30-0b48-4b7d-a626-d2e9484396f9","system_id":"levelo_inurba_marseille","lat":43.29629,"lon":5.40594,"is_reserved":false,"is_disabled":false,"rental_uris":{"android":"levelo://app?vid=6124fd30-0b48-4b7d-a626-d2e9484396f9","ios":"levelo://app?vid=6124fd30-0b48-4b7d-a626-d2e9484396f9"},"vehicle_type_id":"4","last_reported":1737216530,"current_range_meters":22000,"station_id":"ce4bh0h2rcd13ifvqd60","pricing_plan_id":"cebpf4jnsgd1na2vs0mg"},{"bike_id":"8b1f0ac4-5aaa-417f-8be3-59bde0ab19f9","system_id":"levelo_inurba_marseille","lat":43.28458,"lon":5.35892,"is_reserved":false,"is_disabled":false,"rental_uris":{"android":"levelo://app?vid=8b1f0ac4-5aaa-417f-8be3-59bde0ab19f9","ios":"levelo://app?vid=8b1f0ac4-5aaa-417f-8be3-59bde0ab19f9"},"vehicle_type_id":"4","last_reported":1737216530,"current_range_meters":4400,"station_id":"ce4bhah2rcd13ifvqei0","pricing_plan_id":"cebpf4jnsgd1na2vs0mg"},{"bike_id":"0d5bf58b-8962-4322-87c4-754920ec04ac","system_id":"levelo_inurba_marseille","lat":43.31185,"lon":5.38705,"is_reserved":false,"is_disabled":true,"rental_uris":{"android":"levelo://app?vid=0d5bf58b-8962-4322-87c4-754920ec04ac","ios":"levelo://app?vid=0d5bf58b-8962-4322-87c4-754920ec04ac"},"vehicle_type_id":"4","last_reported":1737216530,"current_range_meters":36400,"station_id":"ce4bgv12rcd13ifvqcp0","pricing_plan_id":"cebpf4jnsgd1na2vs0mg"},{"bike_id":"c92cbb9f-5a8c-4f30-b00a-221ba31b944d","system_id":"levelo_inurba_marseille","lat":43.28425,"lon":5.34993,"is_reserved":false,"is_disabled":false,"rental_uris":{"android":"levelo://app?vid=c92cbb9f-5a8c-4f30-b00a-221ba31b944d","ios":"levelo://app?vid=c92cbb9f-5a8c-4f30-b00a-221ba31b944d"},"vehicle_type_id":"4","last_reported":1737216530,"current_range_meters":36000,"station_id":"ce4bhbh2rcd13ifvqepg","pricing_plan_id":"cebpf4jnsgd1na2vs0mg"},{"bike_id":"672191b5-8a58-4245-b999-dbe5af98ffd8","system_id":"levelo_inurba_marseille","lat":43.30299,"lon":5.36885,"is_reserved":false,"is_disabled":false,"rental_uris":{"android":"levelo://app?vid=672191b5-8a58-4245-b999-dbe5af98ffd8","ios":"levelo://app?vid=672191b5-8a58-4245-b999-dbe5af98ffd8"},"vehicle_type_id":"4","last_reported":1737216530,"current_range_meters":28000,"station_id":"ce4bgqh2rcd13ifvqc5g","pricing_plan_id":"cebpf4jnsgd1na2vs0mg"},{"bike_id":"3faafd8a-dbfc-4e29-9e08-12f5271bd548","system_id":"levelo_inurba_marseille","lat":43.32472,"lon":5.36575,"is_reserved":false,"is_disabled":false,"rental_uris":{"android":"levelo://app?vid=3faafd8a-dbfc-4e29-9e08-12f5271bd548","ios":"levelo://app?vid=3faafd8a-dbfc-4e29-9e08-12f5271bd548"},"vehicle_type_id":"4","last_reported":1737216530,"current_range_meters":32800,"station_id":"ce4bhs12rcd13ifvqhvg","pricing_plan_id":"cebpf4jnsgd1na2vs0mg"},{"bike_id":"fe90f7a6-3920-456a-9451-50d213b7000f","system_id":"levelo_inurba_marseille","lat":43.28484,"lon":5.38429,"is_reserved":false,"is_disabled":true,"rental_uris":{"android":"levelo://app?vid=fe90f7a6-3920-456a-9451-50d213b7000f","ios":"levelo://app?vid=fe90f7a6-3920-456a-9451-50d213b7000f"},"vehicle_type_id":"4","last_reported":1737216530,"current_range_meters":36400,"station_id":"ce4bh512rcd13ifvqe3g","pricing_plan_id":"cebpf4jnsgd1na2vs0mg"},{"bike_id":"d68d4c6c-ace6-47ca-a78f-51f9adc5b848","system_id":"levelo_inurba_marseille","lat":43.26215,"lon":5.40451,"is_reserved":false,"is_disabled":false,"rental_uris":{"android":"levelo://app?vid=d68d4c6c-ace6-47ca-a78f-51f9adc5b848","ios":"levelo://app?vid=d68d4c6c-ace6-47ca-a78f-51f9adc5b848"},"vehicle_type_id":"4","last_reported":1737216530,"current_range_meters":8800,"station_id":"","pricing_plan_id":"cebpf4jnsgd1na2vs0mg"},{"bike_id":"7d96fda9-32b2-47ca-99af-a25a955f7a77","system_id":"levelo_inurba_marseille","lat":43.26057,"lon":5.394,"is_reserved":false,"is_disabled":false,"rental_uris":{"android":"levelo://app?vid=7d96fda9-32b2-47ca-99af-a25a955f7a77","ios":"levelo://app?vid=7d96fda9-32b2-47ca-99af-a25a955f7a77"},"vehicle_type_id":"4","last_reported":1737216530,"current_range_meters":36400,"station_id":"ce4bhh92rcd13ifvqfj0","pricing_plan_id":"cebpf4jnsgd1na2vs0mg"},{"bike_id":"30c55592-5c2d-4766-9ae9-6f1e5192194b","system_id":"levelo_inurba_marseille","lat":43.30788,"lon":5.37655,"is_reserved":false,"is_disabled":false,"rental_uris":{"android":"levelo://app?vid=30c55592-5c2d-4766-9ae9-6f1e5192194b","ios":"levelo://app?vid=30c55592-5c2d-4766-9ae9-6f1e5192194b"},"vehicle_type_id":"4","last_reported":1737216530,"current_range_meters":38800,"station_id":"ce4bgv92rcd13ifvqcq0","pricing_plan_id":"cebpf4jnsgd1na2vs0mg"},{"bike_id":"5e821cdd-a81d-4cfa-a0f7-21030f704904","system_id":"levelo_inurba_marseille","lat":43.29264,"lon":5.36845,"is_reserved":false,"is_disabled":true,"rental_uris":{"android":"levelo://app?vid=5e821cdd-a81d-4cfa-a0f7-21030f704904","ios":"levelo://app?vid=5e821cdd-a81d-4cfa-a0f7-21030f704904"},"vehicle_type_id":"4","last_reported":1737216530,"current_range_meters":1600,"station_id":"ce4bhbp2rcd13ifvqesg","pricing_plan_id":"cebpf4jnsgd1na2vs0mg"},{"bike_id":"b205d6b8-894d-4fbe-b662-7e7cffdad903","system_id":"levelo_inurba_marseille","lat":43.30545,"lon":5.36526,"is_reserved":false,"is_disabled":false,"rental_uris":{"android":"levelo://app?vid=b205d6b8-894d-4fbe-b662-7e7cffdad903","ios":"levelo://app?vid=b205d6b8-894d-4fbe-b662-7e7cffdad903"},"vehicle_type_id":"4","last_reported":1737216530,"current_range_meters":38000,"station_id":"ce4bgs12rcd13ifvqcag","pricing_plan_id":"cebpf4jnsgd1na2vs0mg"},{"bike_id":"a9a0e60f-8e94-490a-988c-5a9cfc45d626","system_id":"levelo_inurba_marseille","lat":43.24174,"lon":5.36395,"is_reserved":false,"is_disabled":false,"rental_uris":{"android":"levelo://app?vid=a9a0e60f-8e94-490a-988c-5a9cfc45d626","ios":"levelo://app?vid=a9a0e60f-8e94-490a-988c-5a9cfc45d626"},"vehicle_type_id":"4","last_reported":1737216530,"current_range_meters":10000,"station_id":"cpo36qri1sfpv3e86is0","pricing_plan_id":"cebpf4jnsgd1na2vs0mg"},{"bike_id":"42353c82-bdaf-4489-8377-88f4f1f0b554","system_id":"levelo_inurba_marseille","lat":43.287184,"lon":5.379299,"is_reserved":false,"is_disabled":false,"rental_uris":{"android":"levelo://app?vid=42353c82-bdaf-4489-8377-88f4f1f0b554","ios":"levelo://app?vid=42353c82-bdaf-4489-8377-88f4f1f0b554"},"vehicle_type_id":"4","last_reported":1737216530,"current_range_meters":20800,"station_id":"ce4bhb12rcd13ifvqel0","pricing_plan_id":"cebpf4jnsgd1na2vs0mg"},{"bike_id":"76dbf6ef-b4a8-4cef-8918-462b67116819","system_id":"levelo_inurba_marseille","lat":43.32293,"lon":5.38275,"is_reserved":false,"is_disabled":false,"rental_uris":{"android":"levelo://app?vid=76dbf6ef-b4a8-4cef-8918-462b67116819","ios":"levelo://app?vid=76dbf6ef-b4a8-4cef-8918-462b67116819"},"vehicle_type_id":"4","last_reported":1737216530,"current_range_meters":6000,"station_id":"ce4bhr12rcd13ifvqhqg","pricing_plan_id":"cebpf4jnsgd1na2vs0mg"},{"bike_id":"670ccd3a-4687-4b7a-98a3-5e94c19c58f1","system_id":"levelo_inurba_marseille","lat":43.24655,"lon":5.38904,"is_reserved":false,"is_disabled":false,"rental_uris":{"android":"levelo://app?vid=670ccd3a-4687-4b7a-98a3-5e94c19c58f1","ios":"levelo://app?vid=670ccd3a-4687-4b7a-98a3-5e94c19c58f1"},"vehicle_type_id":"4","last_reported":1737216530,"current_range_meters":38800,"station_id":"ce4bhg12rcd13ifvqf60","pricing_plan_id":"cebpf4jnsgd1na2vs0mg"},{"bike_id":"b8ecdf80-528e-4687-b68f-9f21ac8ed1b9","system_id":"levelo_inurba_marseille","lat":43.23194,"lon":5.35553,"is_reserved":false,"is_disabled":false,"rental_uris":{"android":"levelo://app?vid=b8ecdf80-528e-4687-b68f-9f21ac8ed1b9","ios":"levelo://app?vid=b8ecdf80-528e-4687-b68f-9f21ac8ed1b9"},"vehicle_type_id":"4","last_reported":1737216530,"current_range_meters":22400,"station_id":"ce4bhu92rcd13ifvqi70","pricing_plan_id":"cebpf4jnsgd1na2vs0mg"},{"bike_id":"380aaf76-d91d-4dfe-8371-252d4636319e","system_id":"levelo_inurba_marseille","lat":43.289452,"lon":5.396182,"is_reserved":false,"is_disabled":false,"rental_uris":{"android":"levelo://app?vid=380aaf76-d91d-4dfe-8371-252d4636319e","ios":"levelo://app?vid=380aaf76-d91d-4dfe-8371-252d4636319e"},"vehicle_type_id":"4","last_reported":1737216530,"current_range_meters":18000,"station_id":"ce4bh3h2rcd13ifvqdn0","pricing_plan_id":"cebpf4jnsgd1na2vs0mg"},{"bike_id":"ae62cb5f-9c8f-486f-8fa5-9455a08b6dee","system_id":"levelo_inurba_marseille","lat":43.3171,"lon":5.43708,"is_reserved":false,"is_disabled":false,"rental_uris":{"android":"levelo://app?vid=ae62cb5f-9c8f-486f-8fa5-9455a08b6dee","ios":"levelo://app?vid=ae62cb5f-9c8f-486f-8fa5-9455a08b6dee"},"vehicle_type_id":"4","last_reported":1737216530,"current_range_meters":22800,"station_id":"ce4bhp92rcd13ifvqhcg","pricing_plan_id":"cebpf4jnsgd1na2vs0mg"},{"bike_id":"f5863b18-13a1-4c6e-92de-5668ea912ad3","system_id":"levelo_inurba_marseille","lat":43.26215,"lon":5.4044,"is_reserved":false,"is_disabled":true,"rental_uris":{"android":"levelo://app?vid=f5863b18-13a1-4c6e-92de-5668ea912ad3","ios":"levelo://app?vid=f5863b18-13a1-4c6e-92de-5668ea912ad3"},"vehicle_type_id":"4","last_reported":1737216530,"current_range_meters":0,"station_id":"","pricing_plan_id":"cebpf4jnsgd1na2vs0mg"},{"bike_id":"6f690c6e-afc4-4438-9ddc-a2d6085c0838","system_id":"levelo_inurba_marseille","lat":43.26683,"lon":5.38266,"is_reserved":false,"is_disabled":false,"rental_uris":{"android":"levelo://app?vid=6f690c6e-afc4-4438-9ddc-a2d6085c0838","ios":"levelo://app?vid=6f690c6e-afc4-4438-9ddc-a2d6085c0838"},"vehicle_type_id":"4","last_reported":1737216530,"current_range_meters":28400,"station_id":"ce4bhg92rcd13ifvqf90","pricing_plan_id":"cebpf4jnsgd1na2vs0mg"},{"bike_id":"47b935dd-f1c3-4468-9bb1-4f34f7095ca1","system_id":"levelo_inurba_marseille","lat":43.27378,"lon":5.36253,"is_reserved":false,"is_disabled":true,"rental_uris":{"android":"levelo://app?vid=47b935dd-f1c3-4468-9bb1-4f34f7095ca1","ios":"levelo://app?vid=47b935dd-f1c3-4468-9bb1-4f34f7095ca1"},"vehicle_type_id":"4","last_reported":1737216530,"current_range_meters":1600,"station_id":"ce4bhbh2rcd13ifvqeo0","pricing_plan_id":"cebpf4jnsgd1na2vs0mg"},{"bike_id":"3c24a366-6593-41fd-aac3-5456277a8515","system_id":"levelo_inurba_marseille","lat":43.3015,"lon":5.38084,"is_reserved":false,"is_disabled":false,"rental_uris":{"android":"levelo://app?vid=3c24a366-6593-41fd-aac3-5456277a8515","ios":"levelo://app?vid=3c24a366-6593-41fd-aac3-5456277a8515"},"vehicle_type_id":"4","last_reported":1737216530,"current_range_meters":5600,"station_id":"ce4bgjp2rcd13ifvqbh0","pricing_plan_id":"cebpf4jnsgd1na2vs0mg"},{"bike_id":"ff799074-43a9-452a-9fe7-07dd0bd1c3b5","system_id":"levelo_inurba_marseille","lat":43.2621,"lon":5.37443,"is_reserved":false,"is_disabled":false,"rental_uris":{"android":"levelo://app?vid=ff799074-43a9-452a-9fe7-07dd0bd1c3b5","ios":"levelo://app?vid=ff799074-43a9-452a-9fe7-07dd0bd1c3b5"},"vehicle_type_id":"4","last_reported":1737216530,"current_range_meters":3600,"station_id":"ce4bhgp2rcd13ifvqfc0","pricing_plan_id":"cebpf4jnsgd1na2vs0mg"},{"bike_id":"46686b70-f375-4947-b209-2f4548c2edcf","system_id":"levelo_inurba_marseille","lat":43.288765,"lon":5.394524,"is_reserved":false,"is_disabled":true,"rental_uris":{"android":"levelo://app?vid=46686b70-f375-4947-b209-2f4548c2edcf","ios":"levelo://app?vid=46686b70-f375-4947-b209-2f4548c2edcf"},"vehicle_type_id":"4","last_reported":1737216530,"current_range_meters":0,"station_id":"","pricing_plan_id":"cebpf4jnsgd1na2vs0mg"},{"bike_id":"e075f46e-3ea1-4f74-ba07-2c2ac06390d7","system_id":"levelo_inurba_marseille","lat":43.29912,"lon":5.3748,"is_reserved":false,"is_disabled":false,"rental_uris":{"android":"levelo://app?vid=e075f46e-3ea1-4f74-ba07-2c2ac06390d7","ios":"levelo://app?vid=e075f46e-3ea1-4f74-ba07-2c2ac06390d7"},"vehicle_type_id":"4","last_reported":1737216530,"current_range_meters":36000,"station_id":"ce4bgjh2rcd13ifvqbg0","pricing_plan_id":"cebpf4jnsgd1na2vs0mg"},{"bike_id":"cf798369-c278-4282-9a3c-5e6608aef886","system_id":"levelo_inurba_marseille","lat":43.28631,"lon":5.35106,"is_reserved":false,"is_disabled":false,"rental_uris":{"android":"levelo://app?vid=cf798369-c278-4282-9a3c-5e6608aef886","ios":"levelo://app?vid=cf798369-c278-4282-9a3c-5e6608aef886"},"vehicle_type_id":"4","last_reported":1737216530,"current_range_meters":6000,"station_id":"ce4bhch2rcd13ifvqeug","pricing_plan_id":"cebpf4jnsgd1na2vs0mg"},{"bike_id":"a502fac6-fc2c-47d3-b5a0-b0b0d12c1a71","system_id":"levelo_inurba_marseille","lat":43.30803,"lon":5.3815,"is_reserved":false,"is_disabled":true,"rental_uris":{"android":"levelo://app?vid=a502fac6-fc2c-47d3-b5a0-b0b0d12c1a71","ios":"levelo://app?vid=a502fac6-fc2c-47d3-b5a0-b0b0d12c1a71"},"vehicle_type_id":"4","last_reported":1737216530,"current_range_meters":6000,"station_id":"ce4bgt12rcd13ifvqce0","pricing_plan_id":"cebpf4jnsgd1na2vs0mg"},{"bike_id":"683d0ccb-dbf2-4818-92a9-2410829c3baf","system_id":"levelo_inurba_marseille","lat":43.26682,"lon":5.38271,"is_reserved":false,"is_disabled":false,"rental_uris":{"android":"levelo://app?vid=683d0ccb-dbf2-4818-92a9-2410829c3baf","ios":"levelo://app?vid=683d0ccb-dbf2-4818-92a9-2410829c3baf"},"vehicle_type_id":"4","last_reported":1737216530,"current_range_meters":38800,"station_id":"ce4bhg92rcd13ifvqf90","pricing_plan_id":"cebpf4jnsgd1na2vs0mg"},{"bike_id":"aee77450-e637-4195-bb0f-578307372c59","system_id":"levelo_inurba_marseille","lat":43.2989,"lon":5.43671,"is_reserved":false,"is_disabled":false,"rental_uris":{"android":"levelo://app?vid=aee77450-e637-4195-bb0f-578307372c59","ios":"levelo://app?vid=aee77450-e637-4195-bb0f-578307372c59"},"vehicle_type_id":"4","last_reported":1737216530,"current_range_meters":37600,"station_id":"ce4bhpp2rcd13ifvqhfg","pricing_plan_id":"cebpf4jnsgd1na2vs0mg"},{"bike_id":"6870a9e0-7988-452a-a0a6-84e136278682","system_id":"levelo_inurba_marseille","lat":43.26555,"lon":5.37292,"is_reserved":false,"is_disabled":false,"rental_uris":{"android":"levelo://app?vid=6870a9e0-7988-452a-a0a6-84e136278682","ios":"levelo://app?vid=6870a9e0-7988-452a-a0a6-84e136278682"},"vehicle_type_id":"4","last_reported":1737216530,"current_range_meters":36800,"station_id":"ce4bhg12rcd13ifvqf70","pricing_plan_id":"cebpf4jnsgd1na2vs0mg"},{"bike_id":"1e537b32-bc35-4597-af4f-cc9ba8c53f36","system_id":"levelo_inurba_marseille","lat":43.31528,"lon":5.37281,"is_reserved":false,"is_disabled":false,"rental_uris":{"android":"levelo://app?vid=1e537b32-bc35-4597-af4f-cc9ba8c53f36","ios":"levelo://app?vid=1e537b32-bc35-4597-af4f-cc9ba8c53f36"},"vehicle_type_id":"4","last_reported":1737216530,"current_range_meters":39200,"station_id":"ce4bgt12rcd13ifvqcd0","pricing_plan_id":"cebpf4jnsgd1na2vs0mg"},{"bike_id":"d1d630df-c8e5-4660-8552-fb3c8dba2c28","system_id":"levelo_inurba_marseille","lat":43.26554,"lon":5.37334,"is_reserved":false,"is_disabled":false,"rental_uris":{"android":"levelo://app?vid=d1d630df-c8e5-4660-8552-fb3c8dba2c28","ios":"levelo://app?vid=d1d630df-c8e5-4660-8552-fb3c8dba2c28"},"vehicle_type_id":"4","last_reported":1737216530,"current_range_meters":26800,"station_id":"ce4bhg12rcd13ifvqf70","pricing_plan_id":"cebpf4jnsgd1na2vs0mg"},{"bike_id":"e31d012e-4369-4701-ad53-d8ebb9c08fe6","system_id":"levelo_inurba_marseille","lat":43.265735,"lon":5.390276,"is_reserved":false,"is_disabled":false,"rental_uris":{"android":"levelo://app?vid=e31d012e-4369-4701-ad53-d8ebb9c08fe6","ios":"levelo://app?vid=e31d012e-4369-4701-ad53-d8ebb9c08fe6"},"vehicle_type_id":"4","last_reported":1737216530,"current_range_meters":11600,"station_id":"ce4bhe12rcd13ifvqf30","pricing_plan_id":"cebpf4jnsgd1na2vs0mg"},{"bike_id":"fd256c9d-a3d5-4578-8058-29d9c0c9757c","system_id":"levelo_inurba_marseille","lat":43.27671,"lon":5.38896,"is_reserved":false,"is_disabled":false,"rental_uris":{"android":"levelo://app?vid=fd256c9d-a3d5-4578-8058-29d9c0c9757c","ios":"levelo://app?vid=fd256c9d-a3d5-4578-8058-29d9c0c9757c"},"vehicle_type_id":"4","last_reported":1737216530,"current_range_meters":34000,"station_id":"ce4bhi12rcd13ifvqfo0","pricing_plan_id":"cebpf4jnsgd1na2vs0mg"},{"bike_id":"89e5abf9-db11-4176-8d87-4ded95733757","system_id":"levelo_inurba_marseille","lat":43.30464,"lon":5.37908,"is_reserved":false,"is_disabled":false,"rental_uris":{"android":"levelo://app?vid=89e5abf9-db11-4176-8d87-4ded95733757","ios":"levelo://app?vid=89e5abf9-db11-4176-8d87-4ded95733757"},"vehicle_type_id":"4","last_reported":1737216530,"current_range_meters":14400,"station_id":"ce4bgup2rcd13ifvqcn0","pricing_plan_id":"cebpf4jnsgd1na2vs0mg"},{"bike_id":"ee76e385-dc29-4ac5-8128-a5afbe69cc79","system_id":"levelo_inurba_marseille","lat":43.25083,"lon":5.39502,"is_reserved":false,"is_disabled":false,"rental_uris":{"android":"levelo://app?vid=ee76e385-dc29-4ac5-8128-a5afbe69cc79","ios":"levelo://app?vid=ee76e385-dc29-4ac5-8128-a5afbe69cc79"},"vehicle_type_id":"4","last_reported":1737216530,"current_range_meters":39200,"station_id":"ce4bhm12rcd13ifvqgkg","pricing_plan_id":"cebpf4jnsgd1na2vs0mg"},{"bike_id":"c73224c5-8662-473f-8844-f010af6d2952","system_id":"levelo_inurba_marseille","lat":43.2721,"lon":5.40991,"is_reserved":false,"is_disabled":true,"rental_uris":{"android":"levelo://app?vid=c73224c5-8662-473f-8844-f010af6d2952","ios":"levelo://app?vid=c73224c5-8662-473f-8844-f010af6d2952"},"vehicle_type_id":"4","last_reported":1737216530,"current_range_meters":23200,"station_id":"ce4bhl12rcd13ifvqgf0","pricing_plan_id":"cebpf4jnsgd1na2vs0mg"},{"bike_id":"02a74a6f-d2f4-4568-b9be-93e63cdbccb2","system_id":"levelo_inurba_marseille","lat":43.28718,"lon":5.36096,"is_reserved":false,"is_disabled":false,"rental_uris":{"android":"levelo://app?vid=02a74a6f-d2f4-4568-b9be-93e63cdbccb2","ios":"levelo://app?vid=02a74a6f-d2f4-4568-b9be-93e63cdbccb2"},"vehicle_type_id":"4","last_reported":1737216530,"current_range_meters":38400,"station_id":"cki0cbj6b192h4jlfktg","pricing_plan_id":"cebpf4jnsgd1na2vs0mg"},{"bike_id":"95b517d0-9dcf-47f9-8053-773bec6e6a69","system_id":"levelo_inurba_marseille","lat":43.26666,"lon":5.3953,"is_reserved":false,"is_disabled":false,"rental_uris":{"android":"levelo://app?vid=95b517d0-9dcf-47f9-8053-773bec6e6a69","ios":"levelo://app?vid=95b517d0-9dcf-47f9-8053-773bec6e6a69"},"vehicle_type_id":"4","last_reported":1737216530,"current_range_meters":16800,"station_id":"","pricing_plan_id":"cebpf4jnsgd1na2vs0mg"},{"bike_id":"aee46743-f0f7-4648-88e1-fa3d3a7aa9c0","system_id":"levelo_inurba_marseille","lat":43.25073,"lon":5.39515,"is_reserved":false,"is_disabled":false,"rental_uris":{"android":"levelo://app?vid=aee46743-f0f7-4648-88e1-fa3d3a7aa9c0","ios":"levelo://app?vid=aee46743-f0f7-4648-88e1-fa3d3a7aa9c0"},"vehicle_type_id":"4","last_reported":1737216530,"current_range_meters":24000,"station_id":"ce4bhm12rcd13ifvqgkg","pricing_plan_id":"cebpf4jnsgd1na2vs0mg"},{"bike_id":"426c6dbb-f325-4738-906d-29242f82afb0","system_id":"levelo_inurba_marseille","lat":43.31334,"lon":5.36704,"is_reserved":false,"is_disabled":false,"rental_uris":{"android":"levelo://app?vid=426c6dbb-f325-4738-906d-29242f82afb0","ios":"levelo://app?vid=426c6dbb-f325-4738-906d-29242f82afb0"},"vehicle_type_id":"4","last_reported":1737216530,"current_range_meters":38800,"station_id":"ce4bgr92rcd13ifvqc6g","pricing_plan_id":"cebpf4jnsgd1na2vs0mg"},{"bike_id":"d73221fa-0d49-4908-b48e-2d64b0061f04","system_id":"levelo_inurba_marseille","lat":43.31994,"lon":5.38154,"is_reserved":false,"is_disabled":false,"rental_uris":{"android":"levelo://app?vid=d73221fa-0d49-4908-b48e-2d64b0061f04","ios":"levelo://app?vid=d73221fa-0d49-4908-b48e-2d64b0061f04"},"vehicle_type_id":"4","last_reported":1737216530,"current_range_meters":39200,"station_id":"ce4bhr12rcd13ifvqhpg","pricing_plan_id":"cebpf4jnsgd1na2vs0mg"},{"bike_id":"702d477f-58b0-4e53-9e19-be7bbb68bee3","system_id":"levelo_inurba_marseille","lat":43.29461,"lon":5.38584,"is_reserved":false,"is_disabled":true,"rental_uris":{"android":"levelo://app?vid=702d477f-58b0-4e53-9e19-be7bbb68bee3","ios":"levelo://app?vid=702d477f-58b0-4e53-9e19-be7bbb68bee3"},"vehicle_type_id":"4","last_reported":1737216530,"current_range_meters":0,"station_id":"","pricing_plan_id":"cebpf4jnsgd1na2vs0mg"},{"bike_id":"4b5769e0-eaaf-49d6-b036-992bb26577c1","system_id":"levelo_inurba_marseille","lat":43.28941,"lon":5.36638,"is_reserved":false,"is_disabled":true,"rental_uris":{"android":"levelo://app?vid=4b5769e0-eaaf-49d6-b036-992bb26577c1","ios":"levelo://app?vid=4b5769e0-eaaf-49d6-b036-992bb26577c1"},"vehicle_type_id":"4","last_reported":1737216530,"current_range_meters":800,"station_id":"ce4bhap2rcd13ifvqek0","pricing_plan_id":"cebpf4jnsgd1na2vs0mg"},{"bike_id":"527c23cf-e193-4b3b-b4e9-bc9d0d5bc833","system_id":"levelo_inurba_marseille","lat":43.27336,"lon":5.39103,"is_reserved":false,"is_disabled":false,"rental_uris":{"android":"levelo://app?vid=527c23cf-e193-4b3b-b4e9-bc9d0d5bc833","ios":"levelo://app?vid=527c23cf-e193-4b3b-b4e9-bc9d0d5bc833"},"vehicle_type_id":"4","last_reported":1737216530,"current_range_meters":10000,"station_id":"ce4bhgp2rcd13ifvqfe0","pricing_plan_id":"cebpf4jnsgd1na2vs0mg"},{"bike_id":"6d5abdb3-80a9-40bc-8a67-036502aae1a8","system_id":"levelo_inurba_marseille","lat":43.28153,"lon":5.42641,"is_reserved":false,"is_disabled":true,"rental_uris":{"android":"levelo://app?vid=6d5abdb3-80a9-40bc-8a67-036502aae1a8","ios":"levelo://app?vid=6d5abdb3-80a9-40bc-8a67-036502aae1a8"},"vehicle_type_id":"4","last_reported":1737216530,"current_range_meters":800,"station_id":"ce4bhnh2rcd13ifvqgug","pricing_plan_id":"cebpf4jnsgd1na2vs0mg"},{"bike_id":"e3028238-fdb3-478c-9bcb-a1379b183c9f","system_id":"levelo_inurba_marseille","lat":43.27945,"lon":5.41046,"is_reserved":false,"is_disabled":false,"rental_uris":{"android":"levelo://app?vid=e3028238-fdb3-478c-9bcb-a1379b183c9f","ios":"levelo://app?vid=e3028238-fdb3-478c-9bcb-a1379b183c9f"},"vehicle_type_id":"4","last_reported":1737216530,"current_range_meters":20400,"station_id":"ce4bhnp2rcd13ifvqh0g","pricing_plan_id":"cebpf4jnsgd1na2vs0mg"},{"bike_id":"996ec3a4-8974-4f4a-ba5b-530ee24dd9db","system_id":"levelo_inurba_marseille","lat":43.27625,"lon":5.36105,"is_reserved":false,"is_disabled":false,"rental_uris":{"android":"levelo://app?vid=996ec3a4-8974-4f4a-ba5b-530ee24dd9db","ios":"levelo://app?vid=996ec3a4-8974-4f4a-ba5b-530ee24dd9db"},"vehicle_type_id":"4","last_reported":1737216530,"current_range_meters":21600,"station_id":"ce4bgj92rcd13ifvqbe0","pricing_plan_id":"cebpf4jnsgd1na2vs0mg"},{"bike_id":"28b14b09-f0da-44a4-850f-2ead80ad7537","system_id":"levelo_inurba_marseille","lat":43.29863,"lon":5.36255,"is_reserved":false,"is_disabled":false,"rental_uris":{"android":"levelo://app?vid=28b14b09-f0da-44a4-850f-2ead80ad7537","ios":"levelo://app?vid=28b14b09-f0da-44a4-850f-2ead80ad7537"},"vehicle_type_id":"4","last_reported":1737216530,"current_range_meters":33200,"station_id":"ce4bgpp2rcd13ifvqc3g","pricing_plan_id":"cebpf4jnsgd1na2vs0mg"},{"bike_id":"5d3759a5-566a-4fe6-8b09-64eec7fe187d","system_id":"levelo_inurba_marseille","lat":43.30877,"lon":5.39658,"is_reserved":false,"is_disabled":false,"rental_uris":{"android":"levelo://app?vid=5d3759a5-566a-4fe6-8b09-64eec7fe187d","ios":"levelo://app?vid=5d3759a5-566a-4fe6-8b09-64eec7fe187d"},"vehicle_type_id":"4","last_reported":1737216530,"current_range_meters":30000,"station_id":"ce4bh012rcd13ifvqcv0","pricing_plan_id":"cebpf4jnsgd1na2vs0mg"},{"bike_id":"82f8c609-f6ad-4a2a-b796-e258179f4505","system_id":"levelo_inurba_marseille","lat":43.24659,"lon":5.38892,"is_reserved":false,"is_disabled":false,"rental_uris":{"android":"levelo://app?vid=82f8c609-f6ad-4a2a-b796-e258179f4505","ios":"levelo://app?vid=82f8c609-f6ad-4a2a-b796-e258179f4505"},"vehicle_type_id":"4","last_reported":1737216530,"current_range_meters":38800,"station_id":"ce4bhg12rcd13ifvqf60","pricing_plan_id":"cebpf4jnsgd1na2vs0mg"},{"bike_id":"994036af-157a-4481-b51c-d39eb0fced08","system_id":"levelo_inurba_marseille","lat":43.31358,"lon":5.36698,"is_reserved":false,"is_disabled":false,"rental_uris":{"android":"levelo://app?vid=994036af-157a-4481-b51c-d39eb0fced08","ios":"levelo://app?vid=994036af-157a-4481-b51c-d39eb0fced08"},"vehicle_type_id":"4","last_reported":1737216530,"current_range_meters":38800,"station_id":"ce4bgr92rcd13ifvqc6g","pricing_plan_id":"cebpf4jnsgd1na2vs0mg"},{"bike_id":"a0238efb-ba0a-49d1-9b38-db4e728d95b8","system_id":"levelo_inurba_marseille","lat":43.29244,"lon":5.36078,"is_reserved":false,"is_disabled":false,"rental_uris":{"android":"levelo://app?vid=a0238efb-ba0a-49d1-9b38-db4e728d95b8","ios":"levelo://app?vid=a0238efb-ba0a-49d1-9b38-db4e728d95b8"},"vehicle_type_id":"4","last_reported":1737216530,"current_range_meters":36400,"station_id":"ce4bhbh2rcd13ifvqeqg","pricing_plan_id":"cebpf4jnsgd1na2vs0mg"},{"bike_id":"c839a300-4a99-4bfb-886a-a9bab65ea7d3","system_id":"levelo_inurba_marseille","lat":43.31485,"lon":5.37304,"is_reserved":false,"is_disabled":false,"rental_uris":{"android":"levelo://app?vid=c839a300-4a99-4bfb-886a-a9bab65ea7d3","ios":"levelo://app?vid=c839a300-4a99-4bfb-886a-a9bab65ea7d3"},"vehicle_type_id":"4","last_reported":1737216530,"current_range_meters":36000,"station_id":"ce4bgt12rcd13ifvqcd0","pricing_plan_id":"cebpf4jnsgd1na2vs0mg"},{"bike_id":"2f9c1e26-d444-4f69-bb6a-b0b7dbe69217","system_id":"levelo_inurba_marseille","lat":43.29853,"lon":5.36276,"is_reserved":false,"is_disabled":false,"rental_uris":{"android":"levelo://app?vid=2f9c1e26-d444-4f69-bb6a-b0b7dbe69217","ios":"levelo://app?vid=2f9c1e26-d444-4f69-bb6a-b0b7dbe69217"},"vehicle_type_id":"4","last_reported":1737216530,"current_range_meters":18000,"station_id":"ce4bgpp2rcd13ifvqc3g","pricing_plan_id":"cebpf4jnsgd1na2vs0mg"},{"bike_id":"becad89d-aa88-42de-9ee6-eef2ad271b1d","system_id":"levelo_inurba_marseille","lat":43.2925,"lon":5.40906,"is_reserved":false,"is_disabled":true,"rental_uris":{"android":"levelo://app?vid=becad89d-aa88-42de-9ee6-eef2ad271b1d","ios":"levelo://app?vid=becad89d-aa88-42de-9ee6-eef2ad271b1d"},"vehicle_type_id":"4","last_reported":1737216530,"current_range_meters":1200,"station_id":"ce4bh192rcd13ifvqdc0","pricing_plan_id":"cebpf4jnsgd1na2vs0mg"},{"bike_id":"8d987bf3-c459-477e-abc7-01229b4a4253","system_id":"levelo_inurba_marseille","lat":43.29512,"lon":5.39391,"is_reserved":false,"is_disabled":true,"rental_uris":{"android":"levelo://app?vid=8d987bf3-c459-477e-abc7-01229b4a4253","ios":"levelo://app?vid=8d987bf3-c459-477e-abc7-01229b4a4253"},"vehicle_type_id":"4","last_reported":1737216530,"current_range_meters":1200,"station_id":"ce4bh292rcd13ifvqdf0","pricing_plan_id":"cebpf4jnsgd1na2vs0mg"},{"bike_id":"21f0324f-d946-420a-ab18-c5b85b0712de","system_id":"levelo_inurba_marseille","lat":43.29596,"lon":5.38103,"is_reserved":false,"is_disabled":false,"rental_uris":{"android":"levelo://app?vid=21f0324f-d946-420a-ab18-c5b85b0712de","ios":"levelo://app?vid=21f0324f-d946-420a-ab18-c5b85b0712de"},"vehicle_type_id":"4","last_reported":1737216530,"current_range_meters":16800,"station_id":"ce4bgl12rcd13ifvqbo0","pricing_plan_id":"cebpf4jnsgd1na2vs0mg"},{"bike_id":"97ac0bce-dfd4-46d8-8f28-f74917e09572","system_id":"levelo_inurba_marseille","lat":43.28411,"lon":5.37511,"is_reserved":false,"is_disabled":false,"rental_uris":{"android":"levelo://app?vid=97ac0bce-dfd4-46d8-8f28-f74917e09572","ios":"levelo://app?vid=97ac0bce-dfd4-46d8-8f28-f74917e09572"},"vehicle_type_id":"4","last_reported":1737216530,"current_range_meters":24000,"station_id":"ce4bh412rcd13ifvqds0","pricing_plan_id":"cebpf4jnsgd1na2vs0mg"},{"bike_id":"ba8011c8-d295-4c91-ac21-fab02c4fbcbb","system_id":"levelo_inurba_marseille","lat":43.31373,"lon":5.36692,"is_reserved":false,"is_disabled":false,"rental_uris":{"android":"levelo://app?vid=ba8011c8-d295-4c91-ac21-fab02c4fbcbb","ios":"levelo://app?vid=ba8011c8-d295-4c91-ac21-fab02c4fbcbb"},"vehicle_type_id":"4","last_reported":1737216530,"current_range_meters":39200,"station_id":"ce4bgr92rcd13ifvqc6g","pricing_plan_id":"cebpf4jnsgd1na2vs0mg"},{"bike_id":"88064214-d0c5-4ef4-aab9-c787c6710af7","system_id":"levelo_inurba_marseille","lat":43.25719,"lon":5.41114,"is_reserved":false,"is_disabled":false,"rental_uris":{"android":"levelo://app?vid=88064214-d0c5-4ef4-aab9-c787c6710af7","ios":"levelo://app?vid=88064214-d0c5-4ef4-aab9-c787c6710af7"},"vehicle_type_id":"4","last_reported":1737216530,"current_range_meters":30000,"station_id":"ce4bhkp2rcd13ifvqgd0","pricing_plan_id":"cebpf4jnsgd1na2vs0mg"},{"bike_id":"3fd85093-11e6-42cd-abf5-44f154e5f369","system_id":"levelo_inurba_marseille","lat":43.29575,"lon":5.36744,"is_reserved":false,"is_disabled":false,"rental_uris":{"android":"levelo://app?vid=3fd85093-11e6-42cd-abf5-44f154e5f369","ios":"levelo://app?vid=3fd85093-11e6-42cd-abf5-44f154e5f369"},"vehicle_type_id":"4","last_reported":1737216530,"current_range_meters":39200,"station_id":"ce4bgph2rcd13ifvqc2g","pricing_plan_id":"cebpf4jnsgd1na2vs0mg"},{"bike_id":"21886e53-9fb5-4553-ada9-d470678f0a97","system_id":"levelo_inurba_marseille","lat":43.33717,"lon":5.3918,"is_reserved":false,"is_disabled":true,"rental_uris":{"android":"levelo://app?vid=21886e53-9fb5-4553-ada9-d470678f0a97","ios":"levelo://app?vid=21886e53-9fb5-4553-ada9-d470678f0a97"},"vehicle_type_id":"4","last_reported":1737216530,"current_range_meters":0,"station_id":"ce4bhr92rcd13ifvqhsg","pricing_plan_id":"cebpf4jnsgd1na2vs0mg"},{"bike_id":"42ed8c7e-f59b-4395-9c44-1927a471d6cc","system_id":"levelo_inurba_marseille","lat":43.30314,"lon":5.36895,"is_reserved":false,"is_disabled":false,"rental_uris":{"android":"levelo://app?vid=42ed8c7e-f59b-4395-9c44-1927a471d6cc","ios":"levelo://app?vid=42ed8c7e-f59b-4395-9c44-1927a471d6cc"},"vehicle_type_id":"4","last_reported":1737216530,"current_range_meters":32400,"station_id":"ce4bgqh2rcd13ifvqc5g","pricing_plan_id":"cebpf4jnsgd1na2vs0mg"},{"bike_id":"49e13855-c63f-4a61-b00f-d1ced7bb7c6b","system_id":"levelo_inurba_marseille","lat":43.31493,"lon":5.37301,"is_reserved":false,"is_disabled":false,"rental_uris":{"android":"levelo://app?vid=49e13855-c63f-4a61-b00f-d1ced7bb7c6b","ios":"levelo://app?vid=49e13855-c63f-4a61-b00f-d1ced7bb7c6b"},"vehicle_type_id":"4","last_reported":1737216530,"current_range_meters":37600,"station_id":"ce4bgt12rcd13ifvqcd0","pricing_plan_id":"cebpf4jnsgd1na2vs0mg"},{"bike_id":"b657d5b0-c1d5-40a6-a89a-715e7a6fd0ae","system_id":"levelo_inurba_marseille","lat":43.30164,"lon":5.38081,"is_reserved":false,"is_disabled":false,"rental_uris":{"android":"levelo://app?vid=b657d5b0-c1d5-40a6-a89a-715e7a6fd0ae","ios":"levelo://app?vid=b657d5b0-c1d5-40a6-a89a-715e7a6fd0ae"},"vehicle_type_id":"4","last_reported":1737216530,"current_range_meters":32800,"station_id":"ce4bgjp2rcd13ifvqbh0","pricing_plan_id":"cebpf4jnsgd1na2vs0mg"},{"bike_id":"6cb800bc-931e-45e0-925b-5e4a08783811","system_id":"levelo_inurba_marseille","lat":43.30528,"lon":5.36707,"is_reserved":false,"is_disabled":false,"rental_uris":{"android":"levelo://app?vid=6cb800bc-931e-45e0-925b-5e4a08783811","ios":"levelo://app?vid=6cb800bc-931e-45e0-925b-5e4a08783811"},