{"last_updated":1726906259,"ttl":30,"version":"2.2","data":{"bikes":[{"bike_id":"0bbee90f-8502-443f-ba84-24be626a4a28","system_id":"levelo_inurba_marseille","lat":43.28147,"lon":5.42648,"is_reserved":false,"is_disabled":false,"rental_uris":{"android":"levelo://app?vid=0bbee90f-8502-443f-ba84-24be626a4a28","ios":"levelo://app?vid=0bbee90f-8502-443f-ba84-24be626a4a28"},"vehicle_type_id":"4","last_reported":1726906259,"current_range_meters":19200,"station_id":"ce4bhnh2rcd13ifvqgug","pricing_plan_id":"cebpf4jnsgd1na2vs0mg"},{"bike_id":"49179981-9681-4c43-86b6-a87d0ab4704f","system_id":"levelo_inurba_marseille","lat":43.27986,"lon":5.40038,"is_reserved":false,"is_disabled":false,"rental_uris":{"android":"levelo://app?vid=49179981-9681-4c43-86b6-a87d0ab4704f","ios":"levelo://app?vid=49179981-9681-4c43-86b6-a87d0ab4704f"},"vehicle_type_id":"4","last_reported":1726906259,"current_range_meters":33600,"station_id":"ce4bho92rcd13ifvqh4g","pricing_plan_id":"cebpf4jnsgd1na2vs0mg"},{"bike_id":"c39e6c5f-c85b-4e66-a113-8b66e7e02132","system_id":"levelo_inurba_marseille","lat":43.24391,"lon":5.37063,"is_reserved":false,"is_disabled":false,"rental_uris":{"android":"levelo://app?vid=c39e6c5f-c85b-4e66-a113-8b66e7e02132","ios":"levelo://app?vid=c39e6c5f-c85b-4e66-a113-8b66e7e02132"},"vehicle_type_id":"4","last_reported":1726906259,"current_range_meters":32400,"station_id":"ce4bhhh2rcd13ifvqfk0","pricing_plan_id":"cebpf4jnsgd1na2vs0mg"},{"bike_id":"5fd38519-98f4-4f00-93ed-1daeb76c790e","system_id":"levelo_inurba_marseille","lat":43.27493,"lon":5.42449,"is_reserved":false,"is_disabled":false,"rental_uris":{"android":"levelo://app?vid=5fd38519-98f4-4f00-93ed-1daeb76c790e","ios":"levelo://app?vid=5fd38519-98f4-4f00-93ed-1daeb76c790e"},"vehicle_type_id":"4","last_reported":1726906259,"current_range_meters":22400,"station_id":"ce4bhn92rcd13ifvqgrg","pricing_plan_id":"cebpf4jnsgd1na2vs0mg"},{"bike_id":"8266021d-2594-45f8-989f-eb797477d1db","system_id":"levelo_inurba_marseille","lat":43.29016,"lon":5.35616,"is_reserved":false,"is_disabled":false,"rental_uris":{"android":"levelo://app?vid=8266021d-2594-45f8-989f-eb797477d1db","ios":"levelo://app?vid=8266021d-2594-45f8-989f-eb797477d1db"},"vehicle_type_id":"4","last_reported":1726906259,"current_range_meters":12000,"station_id":"ce4bhb92rcd13ifvqen0","pricing_plan_id":"cebpf4jnsgd1na2vs0mg"},{"bike_id":"c943e2f3-933e-4efb-97de-45246d483f08","system_id":"levelo_inurba_marseille","lat":43.2656,"lon":5.3729,"is_reserved":false,"is_disabled":false,"rental_uris":{"android":"levelo://app?vid=c943e2f3-933e-4efb-97de-45246d483f08","ios":"levelo://app?vid=c943e2f3-933e-4efb-97de-45246d483f08"},"vehicle_type_id":"4","last_reported":1726906259,"current_range_meters":8000,"station_id":"ce4bhg12rcd13ifvqf70","pricing_plan_id":"cebpf4jnsgd1na2vs0mg"},{"bike_id":"c80ed0b2-5a0a-41b2-80b6-6ee9abf92ddc","system_id":"levelo_inurba_marseille","lat":43.28411,"lon":5.34986,"is_reserved":false,"is_disabled":false,"rental_uris":{"android":"levelo://app?vid=c80ed0b2-5a0a-41b2-80b6-6ee9abf92ddc","ios":"levelo://app?vid=c80ed0b2-5a0a-41b2-80b6-6ee9abf92ddc"},"vehicle_type_id":"4","last_reported":1726906259,"current_range_meters":38800,"station_id":"ce4bhbh2rcd13ifvqepg","pricing_plan_id":"cebpf4jnsgd1na2vs0mg"},{"bike_id":"caeb01e1-f6ca-4785-8d66-d5a031a43aa7","system_id":"levelo_inurba_marseille","lat":43.25097,"lon":5.39517,"is_reserved":false,"is_disabled":false,"rental_uris":{"android":"levelo://app?vid=caeb01e1-f6ca-4785-8d66-d5a031a43aa7","ios":"levelo://app?vid=caeb01e1-f6ca-4785-8d66-d5a031a43aa7"},"vehicle_type_id":"4","last_reported":1726906259,"current_range_meters":32400,"station_id":"ce4bhm12rcd13ifvqgkg","pricing_plan_id":"cebpf4jnsgd1na2vs0mg"},{"bike_id":"f6ef3552-3f9a-4d61-acb2-a4d0e1d60976","system_id":"levelo_inurba_marseille","lat":43.30934,"lon":5.40146,"is_reserved":false,"is_disabled":false,"rental_uris":{"android":"levelo://app?vid=f6ef3552-3f9a-4d61-acb2-a4d0e1d60976","ios":"levelo://app?vid=f6ef3552-3f9a-4d61-acb2-a4d0e1d60976"},"vehicle_type_id":"4","last_reported":1726906259,"current_range_meters":18000,"station_id":"ce4bgvp2rcd13ifvqct0","pricing_plan_id":"cebpf4jnsgd1na2vs0mg"},{"bike_id":"e6cc81cc-c8e9-490e-8988-0482ffb7c86d","system_id":"levelo_inurba_marseille","lat":43.2971,"lon":5.3771,"is_reserved":false,"is_disabled":false,"rental_uris":{"android":"levelo://app?vid=e6cc81cc-c8e9-490e-8988-0482ffb7c86d","ios":"levelo://app?vid=e6cc81cc-c8e9-490e-8988-0482ffb7c86d"},"vehicle_type_id":"4","last_reported":1726906259,"current_range_meters":38800,"station_id":"ce4bgkh2rcd13ifvqbl0","pricing_plan_id":"cebpf4jnsgd1na2vs0mg"},{"bike_id":"c7578a98-3e33-46e3-8817-30f14b194cac","system_id":"levelo_inurba_marseille","lat":43.27496,"lon":5.42447,"is_reserved":false,"is_disabled":false,"rental_uris":{"android":"levelo://app?vid=c7578a98-3e33-46e3-8817-30f14b194cac","ios":"levelo://app?vid=c7578a98-3e33-46e3-8817-30f14b194cac"},"vehicle_type_id":"4","last_reported":1726906259,"current_range_meters":14800,"station_id":"ce4bhn92rcd13ifvqgrg","pricing_plan_id":"cebpf4jnsgd1na2vs0mg"},{"bike_id":"d5b34c29-6747-4ecc-bc18-eb30b3479286","system_id":"levelo_inurba_marseille","lat":43.3016,"lon":5.38074,"is_reserved":false,"is_disabled":false,"rental_uris":{"android":"levelo://app?vid=d5b34c29-6747-4ecc-bc18-eb30b3479286","ios":"levelo://app?vid=d5b34c29-6747-4ecc-bc18-eb30b3479286"},"vehicle_type_id":"4","last_reported":1726906259,"current_range_meters":36000,"station_id":"ce4bgjp2rcd13ifvqbh0","pricing_plan_id":"cebpf4jnsgd1na2vs0mg"},{"bike_id":"987d3f73-44e5-4b49-84e9-87bcfffeb69c","system_id":"levelo_inurba_marseille","lat":43.25732,"lon":5.41104,"is_reserved":false,"is_disabled":false,"rental_uris":{"android":"levelo://app?vid=987d3f73-44e5-4b49-84e9-87bcfffeb69c","ios":"levelo://app?vid=987d3f73-44e5-4b49-84e9-87bcfffeb69c"},"vehicle_type_id":"4","last_reported":1726906259,"current_range_meters":37600,"station_id":"ce4bhkp2rcd13ifvqgd0","pricing_plan_id":"cebpf4jnsgd1na2vs0mg"},{"bike_id":"dea2f20c-0dcc-4d43-8eb6-2e63814cb6ee","system_id":"levelo_inurba_marseille","lat":43.301291,"lon":5.398439,"is_reserved":false,"is_disabled":false,"rental_uris":{"android":"levelo://app?vid=dea2f20c-0dcc-4d43-8eb6-2e63814cb6ee","ios":"levelo://app?vid=dea2f20c-0dcc-4d43-8eb6-2e63814cb6ee"},"vehicle_type_id":"4","last_reported":1726906259,"current_range_meters":33200,"station_id":"ce4bh0h2rcd13ifvqd40","pricing_plan_id":"cebpf4jnsgd1na2vs0mg"},{"bike_id":"5f3f2703-e50a-4bcd-94e9-7b782bdf49ca","system_id":"levelo_inurba_marseille","lat":43.25939,"lon":5.40894,"is_reserved":false,"is_disabled":false,"rental_uris":{"android":"levelo://app?vid=5f3f2703-e50a-4bcd-94e9-7b782bdf49ca","ios":"levelo://app?vid=5f3f2703-e50a-4bcd-94e9-7b782bdf49ca"},"vehicle_type_id":"4","last_reported":1726906259,"current_range_meters":37600,"station_id":"ce4bhm92rcd13ifvqglg","pricing_plan_id":"cebpf4jnsgd1na2vs0mg"},{"bike_id":"952727d5-10c0-49c8-a6ee-a4efa34b8c23","system_id":"levelo_inurba_marseille","lat":43.23972,"lon":5.36666,"is_reserved":false,"is_disabled":false,"rental_uris":{"android":"levelo://app?vid=952727d5-10c0-49c8-a6ee-a4efa34b8c23","ios":"levelo://app?vid=952727d5-10c0-49c8-a6ee-a4efa34b8c23"},"vehicle_type_id":"4","last_reported":1726906259,"current_range_meters":39200,"station_id":"ce4bhi12rcd13ifvqfp0","pricing_plan_id":"cebpf4jnsgd1na2vs0mg"},{"bike_id":"3489af68-93dd-4870-9fcf-c42fd1b99ab3","system_id":"levelo_inurba_marseille","lat":43.290375,"lon":5.375594,"is_reserved":false,"is_disabled":false,"rental_uris":{"android":"levelo://app?vid=3489af68-93dd-4870-9fcf-c42fd1b99ab3","ios":"levelo://app?vid=3489af68-93dd-4870-9fcf-c42fd1b99ab3"},"vehicle_type_id":"4","last_reported":1726906259,"current_range_meters":20400,"station_id":"ce4bh692rcd13ifvqe90","pricing_plan_id":"cebpf4jnsgd1na2vs0mg"},{"bike_id":"c615a26e-e225-43ca-9cd4-17e66362f8c7","system_id":"levelo_inurba_marseille","lat":43.29965,"lon":5.41315,"is_reserved":false,"is_disabled":false,"rental_uris":{"android":"levelo://app?vid=c615a26e-e225-43ca-9cd4-17e66362f8c7","ios":"levelo://app?vid=c615a26e-e225-43ca-9cd4-17e66362f8c7"},"vehicle_type_id":"4","last_reported":1726906259,"current_range_meters":38800,"station_id":"ce4bhp12rcd13ifvqh9g","pricing_plan_id":"cebpf4jnsgd1na2vs0mg"},{"bike_id":"df5e993e-296b-4f33-baf5-eb5fbb9ac75e","system_id":"levelo_inurba_marseille","lat":43.30422,"lon":5.4128,"is_reserved":false,"is_disabled":false,"rental_uris":{"android":"levelo://app?vid=df5e993e-296b-4f33-baf5-eb5fbb9ac75e","ios":"levelo://app?vid=df5e993e-296b-4f33-baf5-eb5fbb9ac75e"},"vehicle_type_id":"4","last_reported":1726906259,"current_range_meters":38000,"station_id":"ce4bhop2rcd13ifvqh8g","pricing_plan_id":"cebpf4jnsgd1na2vs0mg"},{"bike_id":"e22352b5-e9a0-4afb-bba7-1fffc50d9e43","system_id":"levelo_inurba_marseille","lat":43.23067,"lon":5.35487,"is_reserved":false,"is_disabled":false,"rental_uris":{"android":"levelo://app?vid=e22352b5-e9a0-4afb-bba7-1fffc50d9e43","ios":"levelo://app?vid=e22352b5-e9a0-4afb-bba7-1fffc50d9e43"},"vehicle_type_id":"4","last_reported":1726906259,"current_range_meters":8400,"station_id":"cpo3342slgdg3j2ifvpg","pricing_plan_id":"cebpf4jnsgd1na2vs0mg"},{"bike_id":"2d889fd7-cf97-48ae-b622-41b1e0bdce76","system_id":"levelo_inurba_marseille","lat":43.27569,"lon":5.3842,"is_reserved":false,"is_disabled":false,"rental_uris":{"android":"levelo://app?vid=2d889fd7-cf97-48ae-b622-41b1e0bdce76","ios":"levelo://app?vid=2d889fd7-cf97-48ae-b622-41b1e0bdce76"},"vehicle_type_id":"4","last_reported":1726906259,"current_range_meters":26800,"station_id":"ce4bhh92rcd13ifvqfi0","pricing_plan_id":"cebpf4jnsgd1na2vs0mg"},{"bike_id":"787888e2-6206-46d5-a768-f37fbf332ec0","system_id":"levelo_inurba_marseille","lat":43.25114,"lon":5.40303,"is_reserved":false,"is_disabled":false,"rental_uris":{"android":"levelo://app?vid=787888e2-6206-46d5-a768-f37fbf332ec0","ios":"levelo://app?vid=787888e2-6206-46d5-a768-f37fbf332ec0"},"vehicle_type_id":"4","last_reported":1726906259,"current_range_meters":27600,"station_id":"ce4bhlh2rcd13ifvqgig","pricing_plan_id":"cebpf4jnsgd1na2vs0mg"},{"bike_id":"3cea86a1-9a58-478d-b244-957f4139aef0","system_id":"levelo_inurba_marseille","lat":43.33603,"lon":5.41028,"is_reserved":false,"is_disabled":false,"rental_uris":{"android":"levelo://app?vid=3cea86a1-9a58-478d-b244-957f4139aef0","ios":"levelo://app?vid=3cea86a1-9a58-478d-b244-957f4139aef0"},"vehicle_type_id":"4","last_reported":1726906259,"current_range_meters":39200,"station_id":"ce4bhqh2rcd13ifvqhmg","pricing_plan_id":"cebpf4jnsgd1na2vs0mg"},{"bike_id":"54a2a03f-cd61-40cb-bd92-208020fe9f63","system_id":"levelo_inurba_marseille","lat":43.26679,"lon":5.38269,"is_reserved":false,"is_disabled":false,"rental_uris":{"android":"levelo://app?vid=54a2a03f-cd61-40cb-bd92-208020fe9f63","ios":"levelo://app?vid=54a2a03f-cd61-40cb-bd92-208020fe9f63"},"vehicle_type_id":"4","last_reported":1726906259,"current_range_meters":2000,"station_id":"ce4bhg92rcd13ifvqf90","pricing_plan_id":"cebpf4jnsgd1na2vs0mg"},{"bike_id":"7a9d9acf-ffb9-4ba8-a339-281db3c869d2","system_id":"levelo_inurba_marseille","lat":43.26568,"lon":5.39025,"is_reserved":false,"is_disabled":false,"rental_uris":{"android":"levelo://app?vid=7a9d9acf-ffb9-4ba8-a339-281db3c869d2","ios":"levelo://app?vid=7a9d9acf-ffb9-4ba8-a339-281db3c869d2"},"vehicle_type_id":"4","last_reported":1726906259,"current_range_meters":28800,"station_id":"ce4bhe12rcd13ifvqf30","pricing_plan_id":"cebpf4jnsgd1na2vs0mg"},{"bike_id":"375e717a-6fb5-4af9-babc-dc456df036e8","system_id":"levelo_inurba_marseille","lat":43.29214,"lon":5.36065,"is_reserved":false,"is_disabled":false,"rental_uris":{"android":"levelo://app?vid=375e717a-6fb5-4af9-babc-dc456df036e8","ios":"levelo://app?vid=375e717a-6fb5-4af9-babc-dc456df036e8"},"vehicle_type_id":"4","last_reported":1726906259,"current_range_meters":35200,"station_id":"ce4bhbh2rcd13ifvqeqg","pricing_plan_id":"cebpf4jnsgd1na2vs0mg"},{"bike_id":"83e5d7e1-b7a2-47dc-871d-a20fbcd4f395","system_id":"levelo_inurba_marseille","lat":43.26567,"lon":5.39007,"is_reserved":false,"is_disabled":false,"rental_uris":{"android":"levelo://app?vid=83e5d7e1-b7a2-47dc-871d-a20fbcd4f395","ios":"levelo://app?vid=83e5d7e1-b7a2-47dc-871d-a20fbcd4f395"},"vehicle_type_id":"4","last_reported":1726906259,"current_range_meters":32800,"station_id":"ce4bhe12rcd13ifvqf30","pricing_plan_id":"cebpf4jnsgd1na2vs0mg"},{"bike_id":"548ff5e8-4be6-4fa2-b210-beb1ef8053de","system_id":"levelo_inurba_marseille","lat":43.29578,"lon":5.36742,"is_reserved":false,"is_disabled":false,"rental_uris":{"android":"levelo://app?vid=548ff5e8-4be6-4fa2-b210-beb1ef8053de","ios":"levelo://app?vid=548ff5e8-4be6-4fa2-b210-beb1ef8053de"},"vehicle_type_id":"4","last_reported":1726906259,"current_range_meters":17600,"station_id":"ce4bgph2rcd13ifvqc2g","pricing_plan_id":"cebpf4jnsgd1na2vs0mg"},{"bike_id":"fa520986-39e7-4e30-bd0c-782c813be45b","system_id":"levelo_inurba_marseille","lat":43.30464,"lon":5.37891,"is_reserved":false,"is_disabled":false,"rental_uris":{"android":"levelo://app?vid=fa520986-39e7-4e30-bd0c-782c813be45b","ios":"levelo://app?vid=fa520986-39e7-4e30-bd0c-782c813be45b"},"vehicle_type_id":"4","last_reported":1726906259,"current_range_meters":37600,"station_id":"ce4bgup2rcd13ifvqcn0","pricing_plan_id":"cebpf4jnsgd1na2vs0mg"},{"bike_id":"9ca8b5df-7819-442b-83e6-2ef3e3c04cd8","system_id":"levelo_inurba_marseille","lat":43.2439,"lon":5.37055,"is_reserved":false,"is_disabled":false,"rental_uris":{"android":"levelo://app?vid=9ca8b5df-7819-442b-83e6-2ef3e3c04cd8","ios":"levelo://app?vid=9ca8b5df-7819-442b-83e6-2ef3e3c04cd8"},"vehicle_type_id":"4","last_reported":1726906259,"current_range_meters":24800,"station_id":"ce4bhhh2rcd13ifvqfk0","pricing_plan_id":"cebpf4jnsgd1na2vs0mg"},{"bike_id":"ee7da271-2586-49b9-8b27-7c1d2ffc4c67","system_id":"levelo_inurba_marseille","lat":43.25117,"lon":5.40331,"is_reserved":false,"is_disabled":false,"rental_uris":{"android":"levelo://app?vid=ee7da271-2586-49b9-8b27-7c1d2ffc4c67","ios":"levelo://app?vid=ee7da271-2586-49b9-8b27-7c1d2ffc4c67"},"vehicle_type_id":"4","last_reported":1726906259,"current_range_meters":29600,"station_id":"ce4bhlh2rcd13ifvqgig","pricing_plan_id":"cebpf4jnsgd1na2vs0mg"},{"bike_id":"0c6905e4-d65a-4dc5-bfdb-f965ddc13c5d","system_id":"levelo_inurba_marseille","lat":43.301453,"lon":5.374277,"is_reserved":false,"is_disabled":false,"rental_uris":{"android":"levelo://app?vid=0c6905e4-d65a-4dc5-bfdb-f965ddc13c5d","ios":"levelo://app?vid=0c6905e4-d65a-4dc5-bfdb-f965ddc13c5d"},"vehicle_type_id":"4","last_reported":1726906259,"current_range_meters":38000,"station_id":"ce4bgs92rcd13ifvqcc0","pricing_plan_id":"cebpf4jnsgd1na2vs0mg"},{"bike_id":"1656e8dc-88ab-4a3c-b94c-0768e4c1ddf1","system_id":"levelo_inurba_marseille","lat":43.26683,"lon":5.38274,"is_reserved":false,"is_disabled":false,"rental_uris":{"android":"levelo://app?vid=1656e8dc-88ab-4a3c-b94c-0768e4c1ddf1","ios":"levelo://app?vid=1656e8dc-88ab-4a3c-b94c-0768e4c1ddf1"},"vehicle_type_id":"4","last_reported":1726906259,"current_range_meters":18800,"station_id":"ce4bhg92rcd13ifvqf90","pricing_plan_id":"cebpf4jnsgd1na2vs0mg"},{"bike_id":"9f3abbd1-86cc-47c8-95de-8dd0cd07bcd7","system_id":"levelo_inurba_marseille","lat":43.3055,"lon":5.36531,"is_reserved":false,"is_disabled":false,"rental_uris":{"android":"levelo://app?vid=9f3abbd1-86cc-47c8-95de-8dd0cd07bcd7","ios":"levelo://app?vid=9f3abbd1-86cc-47c8-95de-8dd0cd07bcd7"},"vehicle_type_id":"4","last_reported":1726906259,"current_range_meters":30400,"station_id":"ce4bgs12rcd13ifvqcag","pricing_plan_id":"cebpf4jnsgd1na2vs0mg"},{"bike_id":"248d15db-0bdd-4ea1-b88c-229ae48018b8","system_id":"levelo_inurba_marseille","lat":43.29219,"lon":5.3608,"is_reserved":false,"is_disabled":false,"rental_uris":{"android":"levelo://app?vid=248d15db-0bdd-4ea1-b88c-229ae48018b8","ios":"levelo://app?vid=248d15db-0bdd-4ea1-b88c-229ae48018b8"},"vehicle_type_id":"4","last_reported":1726906259,"current_range_meters":38800,"station_id":"ce4bhbh2rcd13ifvqeqg","pricing_plan_id":"cebpf4jnsgd1na2vs0mg"},{"bike_id":"4054ff49-dc3a-424d-9e09-451ef9607aae","system_id":"levelo_inurba_marseille","lat":43.2937,"lon":5.40864,"is_reserved":false,"is_disabled":false,"rental_uris":{"android":"levelo://app?vid=4054ff49-dc3a-424d-9e09-451ef9607aae","ios":"levelo://app?vid=4054ff49-dc3a-424d-9e09-451ef9607aae"},"vehicle_type_id":"4","last_reported":1726906259,"current_range_meters":4000,"station_id":"","pricing_plan_id":"cebpf4jnsgd1na2vs0mg"},{"bike_id":"a27412c9-5e49-4456-97b6-053338e73f16","system_id":"levelo_inurba_marseille","lat":43.296689,"lon":5.362877,"is_reserved":false,"is_disabled":false,"rental_uris":{"android":"levelo://app?vid=a27412c9-5e49-4456-97b6-053338e73f16","ios":"levelo://app?vid=a27412c9-5e49-4456-97b6-053338e73f16"},"vehicle_type_id":"4","last_reported":1726906259,"current_range_meters":32800,"station_id":"ce4bgpp2rcd13ifvqc3g","pricing_plan_id":"cebpf4jnsgd1na2vs0mg"},{"bike_id":"4f19a2ba-c9d2-4efa-af2a-c262004be529","system_id":"levelo_inurba_marseille","lat":43.29802,"lon":5.3711,"is_reserved":false,"is_disabled":false,"rental_uris":{"android":"levelo://app?vid=4f19a2ba-c9d2-4efa-af2a-c262004be529","ios":"levelo://app?vid=4f19a2ba-c9d2-4efa-af2a-c262004be529"},"vehicle_type_id":"4","last_reported":1726906259,"current_range_meters":18000,"station_id":"ce4bgop2rcd13ifvqc1g","pricing_plan_id":"cebpf4jnsgd1na2vs0mg"},{"bike_id":"dd5edf83-5ffa-41fb-8ad5-c5e8205679aa","system_id":"levelo_inurba_marseille","lat":43.337444,"lon":5.374475,"is_reserved":false,"is_disabled":false,"rental_uris":{"android":"levelo://app?vid=dd5edf83-5ffa-41fb-8ad5-c5e8205679aa","ios":"levelo://app?vid=dd5edf83-5ffa-41fb-8ad5-c5e8205679aa"},"vehicle_type_id":"4","last_reported":1726906259,"current_range_meters":16000,"station_id":"ce4bh0h2rcd13ifvqd50","pricing_plan_id":"cebpf4jnsgd1na2vs0mg"},{"bike_id":"f2fdefcd-a050-4065-a802-75d2680309bd","system_id":"levelo_inurba_marseille","lat":43.23187,"lon":5.39986,"is_reserved":false,"is_disabled":false,"rental_uris":{"android":"levelo://app?vid=f2fdefcd-a050-4065-a802-75d2680309bd","ios":"levelo://app?vid=f2fdefcd-a050-4065-a802-75d2680309bd"},"vehicle_type_id":"4","last_reported":1726906259,"current_range_meters":23200,"station_id":"ce4bhn12rcd13ifvqgqg","pricing_plan_id":"cebpf4jnsgd1na2vs0mg"},{"bike_id":"d759cd27-19d6-4723-8a3e-9e97e64e68d1","system_id":"levelo_inurba_marseille","lat":43.33748,"lon":5.3745,"is_reserved":false,"is_disabled":false,"rental_uris":{"android":"levelo://app?vid=d759cd27-19d6-4723-8a3e-9e97e64e68d1","ios":"levelo://app?vid=d759cd27-19d6-4723-8a3e-9e97e64e68d1"},"vehicle_type_id":"4","last_reported":1726906259,"current_range_meters":38800,"station_id":"","pricing_plan_id":"cebpf4jnsgd1na2vs0mg"},{"bike_id":"9e59b77a-0ad3-4e15-b84f-739c8dfaffc3","system_id":"levelo_inurba_marseille","lat":43.31754,"lon":5.39017,"is_reserved":false,"is_disabled":false,"rental_uris":{"android":"levelo://app?vid=9e59b77a-0ad3-4e15-b84f-739c8dfaffc3","ios":"levelo://app?vid=9e59b77a-0ad3-4e15-b84f-739c8dfaffc3"},"vehicle_type_id":"4","last_reported":1726906259,"current_range_meters":36800,"station_id":"ce4bhqp2rcd13ifvqhng","pricing_plan_id":"cebpf4jnsgd1na2vs0mg"},{"bike_id":"9c475e48-ca4b-4f72-bb2f-5680bf828304","system_id":"levelo_inurba_marseille","lat":43.24809,"lon":5.37457,"is_reserved":false,"is_disabled":false,"rental_uris":{"android":"levelo://app?vid=9c475e48-ca4b-4f72-bb2f-5680bf828304","ios":"levelo://app?vid=9c475e48-ca4b-4f72-bb2f-5680bf828304"},"vehicle_type_id":"4","last_reported":1726906259,"current_range_meters":20000,"station_id":"ce4bhgh2rcd13ifvqfb0","pricing_plan_id":"cebpf4jnsgd1na2vs0mg"},{"bike_id":"2a7db943-6265-4479-9604-043d344eb7a6","system_id":"levelo_inurba_marseille","lat":43.30296,"lon":5.38384,"is_reserved":false,"is_disabled":false,"rental_uris":{"android":"levelo://app?vid=2a7db943-6265-4479-9604-043d344eb7a6","ios":"levelo://app?vid=2a7db943-6265-4479-9604-043d344eb7a6"},"vehicle_type_id":"4","last_reported":1726906259,"current_range_meters":24400,"station_id":"","pricing_plan_id":"cebpf4jnsgd1na2vs0mg"},{"bike_id":"ba9fd23e-e8af-47ba-9ee1-69acdbae2956","system_id":"levelo_inurba_marseille","lat":43.30784,"lon":5.3767,"is_reserved":false,"is_disabled":false,"rental_uris":{"android":"levelo://app?vid=ba9fd23e-e8af-47ba-9ee1-69acdbae2956","ios":"levelo://app?vid=ba9fd23e-e8af-47ba-9ee1-69acdbae2956"},"vehicle_type_id":"4","last_reported":1726906259,"current_range_meters":37600,"station_id":"ce4bgv92rcd13ifvqcq0","pricing_plan_id":"cebpf4jnsgd1na2vs0mg"},{"bike_id":"b00c7d75-a17e-496a-9df8-d1534ff39245","system_id":"levelo_inurba_marseille","lat":43.27664,"lon":5.38872,"is_reserved":false,"is_disabled":false,"rental_uris":{"android":"levelo://app?vid=b00c7d75-a17e-496a-9df8-d1534ff39245","ios":"levelo://app?vid=b00c7d75-a17e-496a-9df8-d1534ff39245"},"vehicle_type_id":"4","last_reported":1726906259,"current_range_meters":36000,"station_id":"ce4bhi12rcd13ifvqfo0","pricing_plan_id":"cebpf4jnsgd1na2vs0mg"},{"bike_id":"1ac0a20c-401d-4777-af73-d334affd0e09","system_id":"levelo_inurba_marseille","lat":43.25091,"lon":5.39516,"is_reserved":false,"is_disabled":false,"rental_uris":{"android":"levelo://app?vid=1ac0a20c-401d-4777-af73-d334affd0e09","ios":"levelo://app?vid=1ac0a20c-401d-4777-af73-d334affd0e09"},"vehicle_type_id":"4","last_reported":1726906259,"current_range_meters":38400,"station_id":"ce4bhm12rcd13ifvqgkg","pricing_plan_id":"cebpf4jnsgd1na2vs0mg"},{"bike_id":"b8afe22f-c0f3-483c-bb5f-6071483e5e25","system_id":"levelo_inurba_marseille","lat":43.25944,"lon":5.40896,"is_reserved":false,"is_disabled":false,"rental_uris":{"android":"levelo://app?vid=b8afe22f-c0f3-483c-bb5f-6071483e5e25","ios":"levelo://app?vid=b8afe22f-c0f3-483c-bb5f-6071483e5e25"},"vehicle_type_id":"4","last_reported":1726906259,"current_range_meters":30800,"station_id":"ce4bhm92rcd13ifvqglg","pricing_plan_id":"cebpf4jnsgd1na2vs0mg"},{"bike_id":"db8f2356-1071-4e8e-9473-f7c779818ee6","system_id":"levelo_inurba_marseille","lat":43.29207,"lon":5.35802,"is_reserved":false,"is_disabled":false,"rental_uris":{"android":"levelo://app?vid=db8f2356-1071-4e8e-9473-f7c779818ee6","ios":"levelo://app?vid=db8f2356-1071-4e8e-9473-f7c779818ee6"},"vehicle_type_id":"4","last_reported":1726906259,"current_range_meters":20800,"station_id":"ce4bhb12rcd13ifvqel0","pricing_plan_id":"cebpf4jnsgd1na2vs0mg"},{"bike_id":"b8c4fb30-143a-40da-a94d-ac106aff7dd4","system_id":"levelo_inurba_marseille","lat":43.31276,"lon":5.40161,"is_reserved":false,"is_disabled":false,"rental_uris":{"android":"levelo://app?vid=b8c4fb30-143a-40da-a94d-ac106aff7dd4","ios":"levelo://app?vid=b8c4fb30-143a-40da-a94d-ac106aff7dd4"},"vehicle_type_id":"4","last_reported":1726906259,"current_range_meters":4800,"station_id":"ce4bh092rcd13ifvqd30","pricing_plan_id":"cebpf4jnsgd1na2vs0mg"},{"bike_id":"edfb1ff5-b81b-4225-8da9-100a9115b1e3","system_id":"levelo_inurba_marseille","lat":43.29735,"lon":5.36561,"is_reserved":false,"is_disabled":false,"rental_uris":{"android":"levelo://app?vid=edfb1ff5-b81b-4225-8da9-100a9115b1e3","ios":"levelo://app?vid=edfb1ff5-b81b-4225-8da9-100a9115b1e3"},"vehicle_type_id":"4","last_reported":1726906259,"current_range_meters":9200,"station_id":"","pricing_plan_id":"cebpf4jnsgd1na2vs0mg"},{"bike_id":"c567b115-06f0-4f94-8c6f-7125093b8598","system_id":"levelo_inurba_marseille","lat":43.27177,"lon":5.40998,"is_reserved":false,"is_disabled":false,"rental_uris":{"android":"levelo://app?vid=c567b115-06f0-4f94-8c6f-7125093b8598","ios":"levelo://app?vid=c567b115-06f0-4f94-8c6f-7125093b8598"},"vehicle_type_id":"4","last_reported":1726906259,"current_range_meters":34000,"station_id":"ce4bhl12rcd13ifvqgf0","pricing_plan_id":"cebpf4jnsgd1na2vs0mg"},{"bike_id":"0df805ca-5348-4169-979d-f0b036f1fe02","system_id":"levelo_inurba_marseille","lat":43.31997,"lon":5.38149,"is_reserved":false,"is_disabled":false,"rental_uris":{"android":"levelo://app?vid=0df805ca-5348-4169-979d-f0b036f1fe02","ios":"levelo://app?vid=0df805ca-5348-4169-979d-f0b036f1fe02"},"vehicle_type_id":"4","last_reported":1726906259,"current_range_meters":18000,"station_id":"ce4bhr12rcd13ifvqhpg","pricing_plan_id":"cebpf4jnsgd1na2vs0mg"},{"bike_id":"27fad83b-8937-4d87-8cb4-6f9d3e3a2e0e","system_id":"levelo_inurba_marseille","lat":43.284393,"lon":5.375109,"is_reserved":false,"is_disabled":false,"rental_uris":{"android":"levelo://app?vid=27fad83b-8937-4d87-8cb4-6f9d3e3a2e0e","ios":"levelo://app?vid=27fad83b-8937-4d87-8cb4-6f9d3e3a2e0e"},"vehicle_type_id":"4","last_reported":1726906259,"current_range_meters":37600,"station_id":"ce4bha92rcd13ifvqeg0","pricing_plan_id":"cebpf4jnsgd1na2vs0mg"},{"bike_id":"9618a837-e110-434e-8dfb-8d546f014248","system_id":"levelo_inurba_marseille","lat":43.30091,"lon":5.37989,"is_reserved":false,"is_disabled":false,"rental_uris":{"android":"levelo://app?vid=9618a837-e110-434e-8dfb-8d546f014248","ios":"levelo://app?vid=9618a837-e110-434e-8dfb-8d546f014248"},"vehicle_type_id":"4","last_reported":1726906259,"current_range_meters":16400,"station_id":"","pricing_plan_id":"cebpf4jnsgd1na2vs0mg"},{"bike_id":"a46f474a-57e8-44f2-96d1-7f0a8dde5b54","system_id":"levelo_inurba_marseille","lat":43.24075,"lon":5.37759,"is_reserved":false,"is_disabled":false,"rental_uris":{"android":"levelo://app?vid=a46f474a-57e8-44f2-96d1-7f0a8dde5b54","ios":"levelo://app?vid=a46f474a-57e8-44f2-96d1-7f0a8dde5b54"},"vehicle_type_id":"4","last_reported":1726906259,"current_range_meters":36400,"station_id":"ce4bhnp2rcd13ifvqgvg","pricing_plan_id":"cebpf4jnsgd1na2vs0mg"},{"bike_id":"a0bf7713-c0be-4861-9ca3-127524a31ea4","system_id":"levelo_inurba_marseille","lat":43.29005,"lon":5.35609,"is_reserved":false,"is_disabled":false,"rental_uris":{"android":"levelo://app?vid=a0bf7713-c0be-4861-9ca3-127524a31ea4","ios":"levelo://app?vid=a0bf7713-c0be-4861-9ca3-127524a31ea4"},"vehicle_type_id":"4","last_reported":1726906259,"current_range_meters":28400,"station_id":"ce4bhb92rcd13ifvqen0","pricing_plan_id":"cebpf4jnsgd1na2vs0mg"},{"bike_id":"98976a28-447b-4140-9f23-d9c8550f3b55","system_id":"levelo_inurba_marseille","lat":43.2606,"lon":5.39398,"is_reserved":false,"is_disabled":false,"rental_uris":{"android":"levelo://app?vid=98976a28-447b-4140-9f23-d9c8550f3b55","ios":"levelo://app?vid=98976a28-447b-4140-9f23-d9c8550f3b55"},"vehicle_type_id":"4","last_reported":1726906259,"current_range_meters":36800,"station_id":"ce4bhh92rcd13ifvqfj0","pricing_plan_id":"cebpf4jnsgd1na2vs0mg"},{"bike_id":"cbcf8a9d-aedd-4d1a-82d6-8cba3de7881d","system_id":"levelo_inurba_marseille","lat":43.28617,"lon":5.35097,"is_reserved":false,"is_disabled":false,"rental_uris":{"android":"levelo://app?vid=cbcf8a9d-aedd-4d1a-82d6-8cba3de7881d","ios":"levelo://app?vid=cbcf8a9d-aedd-4d1a-82d6-8cba3de7881d"},"vehicle_type_id":"4","last_reported":1726906259,"current_range_meters":18800,"station_id":"ce4bhch2rcd13ifvqeug","pricing_plan_id":"cebpf4jnsgd1na2vs0mg"},{"bike_id":"e4cd288b-58e9-4c73-81ff-0e54d332441e","system_id":"levelo_inurba_marseille","lat":43.29582,"lon":5.36737,"is_reserved":false,"is_disabled":false,"rental_uris":{"android":"levelo://app?vid=e4cd288b-58e9-4c73-81ff-0e54d332441e","ios":"levelo://app?vid=e4cd288b-58e9-4c73-81ff-0e54d332441e"},"vehicle_type_id":"4","last_reported":1726906259,"current_range_meters":24000,"station_id":"ce4bgph2rcd13ifvqc2g","pricing_plan_id":"cebpf4jnsgd1na2vs0mg"},{"bike_id":"72964c67-6aed-4707-911d-186df8a12b64","system_id":"levelo_inurba_marseille","lat":43.32334,"lon":5.40622,"is_reserved":false,"is_disabled":false,"rental_uris":{"android":"levelo://app?vid=72964c67-6aed-4707-911d-186df8a12b64","ios":"levelo://app?vid=72964c67-6aed-4707-911d-186df8a12b64"},"vehicle_type_id":"4","last_reported":1726906259,"current_range_meters":40000,"station_id":"ce4bhq92rcd13ifvqhjg","pricing_plan_id":"cebpf4jnsgd1na2vs0mg"},{"bike_id":"fcc48f54-1045-436f-a93b-7a8cb9f3ed2a","system_id":"levelo_inurba_marseille","lat":43.26201,"lon":5.37934,"is_reserved":false,"is_disabled":false,"rental_uris":{"android":"levelo://app?vid=fcc48f54-1045-436f-a93b-7a8cb9f3ed2a","ios":"levelo://app?vid=fcc48f54-1045-436f-a93b-7a8cb9f3ed2a"},"vehicle_type_id":"4","last_reported":1726906259,"current_range_meters":12400,"station_id":"ce4bhjp2rcd13ifvqg90","pricing_plan_id":"cebpf4jnsgd1na2vs0mg"},{"bike_id":"b4d8cc2f-08fa-447c-98aa-3fb508700768","system_id":"levelo_inurba_marseille","lat":43.28973,"lon":5.3579,"is_reserved":false,"is_disabled":false,"rental_uris":{"android":"levelo://app?vid=b4d8cc2f-08fa-447c-98aa-3fb508700768","ios":"levelo://app?vid=b4d8cc2f-08fa-447c-98aa-3fb508700768"},"vehicle_type_id":"4","last_reported":1726906259,"current_range_meters":4000,"station_id":"","pricing_plan_id":"cebpf4jnsgd1na2vs0mg"},{"bike_id":"a1110c0e-ff10-4328-aae2-5b52cd8cd3a7","system_id":"levelo_inurba_marseille","lat":43.28491,"lon":5.38577,"is_reserved":false,"is_disabled":false,"rental_uris":{"android":"levelo://app?vid=a1110c0e-ff10-4328-aae2-5b52cd8cd3a7","ios":"levelo://app?vid=a1110c0e-ff10-4328-aae2-5b52cd8cd3a7"},"vehicle_type_id":"4","last_reported":1726906259,"current_range_meters":26800,"station_id":"ce4bh8p2rcd13ifvqeb0","pricing_plan_id":"cebpf4jnsgd1na2vs0mg"},{"bike_id":"f21eab61-d138-4b2f-83ff-2d501b8fe47e","system_id":"levelo_inurba_marseille","lat":43.275,"lon":5.42448,"is_reserved":false,"is_disabled":false,"rental_uris":{"android":"levelo://app?vid=f21eab61-d138-4b2f-83ff-2d501b8fe47e","ios":"levelo://app?vid=f21eab61-d138-4b2f-83ff-2d501b8fe47e"},"vehicle_type_id":"4","last_reported":1726906259,"current_range_meters":38800,"station_id":"ce4bhn92rcd13ifvqgrg","pricing_plan_id":"cebpf4jnsgd1na2vs0mg"},{"bike_id":"922d4b04-eec2-4ce5-ab91-75e6f5446751","system_id":"levelo_inurba_marseille","lat":43.29523,"lon":5.3749,"is_reserved":false,"is_disabled":false,"rental_uris":{"android":"levelo://app?vid=922d4b04-eec2-4ce5-ab91-75e6f5446751","ios":"levelo://app?vid=922d4b04-eec2-4ce5-ab91-75e6f5446751"},"vehicle_type_id":"4","last_reported":1726906259,"current_range_meters":25200,"station_id":"ce4bgkp2rcd13ifvqbmg","pricing_plan_id":"cebpf4jnsgd1na2vs0mg"},{"bike_id":"56acf405-8a38-44b1-92cd-b90e5c6ff518","system_id":"levelo_inurba_marseille","lat":43.26568,"lon":5.39008,"is_reserved":false,"is_disabled":false,"rental_uris":{"android":"levelo://app?vid=56acf405-8a38-44b1-92cd-b90e5c6ff518","ios":"levelo://app?vid=56acf405-8a38-44b1-92cd-b90e5c6ff518"},"vehicle_type_id":"4","last_reported":1726906259,"current_range_meters":27600,"station_id":"ce4bhe12rcd13ifvqf30","pricing_plan_id":"cebpf4jnsgd1na2vs0mg"},{"bike_id":"bcd9d067-b093-4910-baae-4106d4c6d258","system_id":"levelo_inurba_marseille","lat":43.29219,"lon":5.36054,"is_reserved":false,"is_disabled":false,"rental_uris":{"android":"levelo://app?vid=bcd9d067-b093-4910-baae-4106d4c6d258","ios":"levelo://app?vid=bcd9d067-b093-4910-baae-4106d4c6d258"},"vehicle_type_id":"4","last_reported":1726906259,"current_range_meters":37600,"station_id":"ce4bhbh2rcd13ifvqeqg","pricing_plan_id":"cebpf4jnsgd1na2vs0mg"},{"bike_id":"ae736cb6-c25f-4200-a574-819f5c7f8fb4","system_id":"levelo_inurba_marseille","lat":43.24167,"lon":5.36393,"is_reserved":false,"is_disabled":false,"rental_uris":{"android":"levelo://app?vid=ae736cb6-c25f-4200-a574-819f5c7f8fb4","ios":"levelo://app?vid=ae736cb6-c25f-4200-a574-819f5c7f8fb4"},"vehicle_type_id":"4","last_reported":1726906259,"current_range_meters":34000,"station_id":"cpo36qri1sfpv3e86is0","pricing_plan_id":"cebpf4jnsgd1na2vs0mg"},{"bike_id":"14099110-df15-40a7-983d-f162b75ec6d5","system_id":"levelo_inurba_marseille","lat":43.27301,"lon":5.390665,"is_reserved":false,"is_disabled":false,"rental_uris":{"android":"levelo://app?vid=14099110-df15-40a7-983d-f162b75ec6d5","ios":"levelo://app?vid=14099110-df15-40a7-983d-f162b75ec6d5"},"vehicle_type_id":"4","last_reported":1726906259,"current_range_meters":28000,"station_id":"ce4bhgp2rcd13ifvqfe0","pricing_plan_id":"cebpf4jnsgd1na2vs0mg"},{"bike_id":"e8a4595d-e2bf-41af-b96f-116732d8621d","system_id":"levelo_inurba_marseille","lat":43.29254,"lon":5.40912,"is_reserved":false,"is_disabled":false,"rental_uris":{"android":"levelo://app?vid=e8a4595d-e2bf-41af-b96f-116732d8621d","ios":"levelo://app?vid=e8a4595d-e2bf-41af-b96f-116732d8621d"},"vehicle_type_id":"4","last_reported":1726906259,"current_range_meters":38800,"station_id":"ce4bh192rcd13ifvqdc0","pricing_plan_id":"cebpf4jnsgd1na2vs0mg"},{"bike_id":"f7ad2e7a-a575-4361-994a-0ff95a85d018","system_id":"levelo_inurba_marseille","lat":43.3065,"lon":5.37188,"is_reserved":false,"is_disabled":false,"rental_uris":{"android":"levelo://app?vid=f7ad2e7a-a575-4361-994a-0ff95a85d018","ios":"levelo://app?vid=f7ad2e7a-a575-4361-994a-0ff95a85d018"},"vehicle_type_id":"4","last_reported":1726906259,"current_range_meters":3600,"station_id":"","pricing_plan_id":"cebpf4jnsgd1na2vs0mg"},{"bike_id":"6dc6f439-d4f1-41c9-b6a4-732401976389","system_id":"levelo_inurba_marseille","lat":43.26685,"lon":5.38264,"is_reserved":false,"is_disabled":false,"rental_uris":{"android":"levelo://app?vid=6dc6f439-d4f1-41c9-b6a4-732401976389","ios":"levelo://app?vid=6dc6f439-d4f1-41c9-b6a4-732401976389"},"vehicle_type_id":"4","last_reported":1726906259,"current_range_meters":38800,"station_id":"ce4bhg92rcd13ifvqf90","pricing_plan_id":"cebpf4jnsgd1na2vs0mg"},{"bike_id":"b5ba6754-8523-46dd-a9aa-c920819a2baa","system_id":"levelo_inurba_marseille","lat":43.30667,"lon":5.40092,"is_reserved":false,"is_disabled":false,"rental_uris":{"android":"levelo://app?vid=b5ba6754-8523-46dd-a9aa-c920819a2baa","ios":"levelo://app?vid=b5ba6754-8523-46dd-a9aa-c920819a2baa"},"vehicle_type_id":"4","last_reported":1726906259,"current_range_meters":7200,"station_id":"ce4bh112rcd13ifvqda0","pricing_plan_id":"cebpf4jnsgd1na2vs0mg"},{"bike_id":"42a7f9a8-b4f9-4fcc-a024-8ed62b462e1c","system_id":"levelo_inurba_marseille","lat":43.27997,"lon":5.4166,"is_reserved":false,"is_disabled":false,"rental_uris":{"android":"levelo://app?vid=42a7f9a8-b4f9-4fcc-a024-8ed62b462e1c","ios":"levelo://app?vid=42a7f9a8-b4f9-4fcc-a024-8ed62b462e1c"},"vehicle_type_id":"4","last_reported":1726906259,"current_range_meters":20000,"station_id":"ce4bho12rcd13ifvqh1g","pricing_plan_id":"cebpf4jnsgd1na2vs0mg"},{"bike_id":"c839c5b6-c700-4148-9427-6f6c3691baa7","system_id":"levelo_inurba_marseille","lat":43.23964,"lon":5.36637,"is_reserved":false,"is_disabled":false,"rental_uris":{"android":"levelo://app?vid=c839c5b6-c700-4148-9427-6f6c3691baa7","ios":"levelo://app?vid=c839c5b6-c700-4148-9427-6f6c3691baa7"},"vehicle_type_id":"4","last_reported":1726906259,"current_range_meters":26800,"station_id":"ce4bhi12rcd13ifvqfp0","pricing_plan_id":"cebpf4jnsgd1na2vs0mg"},{"bike_id":"c9b9448d-7245-4e49-9fd2-1d792b73fb71","system_id":"levelo_inurba_marseille","lat":43.28532,"lon":5.38398,"is_reserved":false,"is_disabled":false,"rental_uris":{"android":"levelo://app?vid=c9b9448d-7245-4e49-9fd2-1d792b73fb71","ios":"levelo://app?vid=c9b9448d-7245-4e49-9fd2-1d792b73fb71"},"vehicle_type_id":"4","last_reported":1726906259,"current_range_meters":24000,"station_id":"","pricing_plan_id":"cebpf4jnsgd1na2vs0mg"},{"bike_id":"89527d3c-c5fa-43bc-b8f8-9cf84c40c556","system_id":"levelo_inurba_marseille","lat":43.299723,"lon":5.384822,"is_reserved":false,"is_disabled":false,"rental_uris":{"android":"levelo://app?vid=89527d3c-c5fa-43bc-b8f8-9cf84c40c556","ios":"levelo://app?vid=89527d3c-c5fa-43bc-b8f8-9cf84c40c556"},"vehicle_type_id":"4","last_reported":1726906259,"current_range_meters":22400,"station_id":"ce4bgvp2rcd13ifvqct0","pricing_plan_id":"cebpf4jnsgd1na2vs0mg"},{"bike_id":"5840a821-7b4a-4179-8856-92a74917e83c","system_id":"levelo_inurba_marseille","lat":43.25005,"lon":5.38922,"is_reserved":false,"is_disabled":false,"rental_uris":{"android":"levelo://app?vid=5840a821-7b4a-4179-8856-92a74917e83c","ios":"levelo://app?vid=5840a821-7b4a-4179-8856-92a74917e83c"},"vehicle_type_id":"4","last_reported":1726906259,"current_range_meters":38800,"station_id":"ce4bhgp2rcd13ifvqfd0","pricing_plan_id":"cebpf4jnsgd1na2vs0mg"},{"bike_id":"5419b1bf-d37c-4076-a34c-52ede101758e","system_id":"levelo_inurba_marseille","lat":43.337444,"lon":5.374475,"is_reserved":false,"is_disabled":false,"rental_uris":{"android":"levelo://app?vid=5419b1bf-d37c-4076-a34c-52ede101758e","ios":"levelo://app?vid=5419b1bf-d37c-4076-a34c-52ede101758e"},"vehicle_type_id":"4","last_reported":1726906259,"current_range_meters":33600,"station_id":"","pricing_plan_id":"cebpf4jnsgd1na2vs0mg"},{"bike_id":"a378ccf1-2819-4560-a593-3bced24425cf","system_id":"levelo_inurba_marseille","lat":43.32062,"lon":5.41559,"is_reserved":false,"is_disabled":false,"rental_uris":{"android":"levelo://app?vid=a378ccf1-2819-4560-a593-3bced24425cf","ios":"levelo://app?vid=a378ccf1-2819-4560-a593-3bced24425cf"},"vehicle_type_id":"4","last_reported":1726906259,"current_range_meters":38000,"station_id":"ce4bhq92rcd13ifvqhkg","pricing_plan_id":"cebpf4jnsgd1na2vs0mg"},{"bike_id":"55677341-2cba-41a2-861f-7b165b732782","system_id":"levelo_inurba_marseille","lat":43.29231,"lon":5.36067,"is_reserved":false,"is_disabled":false,"rental_uris":{"android":"levelo://app?vid=55677341-2cba-41a2-861f-7b165b732782","ios":"levelo://app?vid=55677341-2cba-41a2-861f-7b165b732782"},"vehicle_type_id":"4","last_reported":1726906259,"current_range_meters":38000,"station_id":"ce4bhbh2rcd13ifvqeqg","pricing_plan_id":"cebpf4jnsgd1na2vs0mg"},{"bike_id":"4eef0d21-d850-40fa-a5d8-1d28e2cbd99e","system_id":"levelo_inurba_marseille","lat":43.23962,"lon":5.36638,"is_reserved":false,"is_disabled":false,"rental_uris":{"android":"levelo://app?vid=4eef0d21-d850-40fa-a5d8-1d28e2cbd99e","ios":"levelo://app?vid=4eef0d21-d850-40fa-a5d8-1d28e2cbd99e"},"vehicle_type_id":"4","last_reported":1726906259,"current_range_meters":33200,"station_id":"ce4bhi12rcd13ifvqfp0","pricing_plan_id":"cebpf4jnsgd1na2vs0mg"},{"bike_id":"f55d82a5-a2f1-4a59-a6a0-790c179f4953","system_id":"levelo_inurba_marseille","lat":43.29893,"lon":5.43665,"is_reserved":false,"is_disabled":false,"rental_uris":{"android":"levelo://app?vid=f55d82a5-a2f1-4a59-a6a0-790c179f4953","ios":"levelo://app?vid=f55d82a5-a2f1-4a59-a6a0-790c179f4953"},"vehicle_type_id":"4","last_reported":1726906259,"current_range_meters":38000,"station_id":"ce4bhpp2rcd13ifvqhfg","pricing_plan_id":"cebpf4jnsgd1na2vs0mg"},{"bike_id":"9b96507b-7c55-4807-aecf-319f52047c00","system_id":"levelo_inurba_marseille","lat":43.26196,"lon":5.37445,"is_reserved":false,"is_disabled":false,"rental_uris":{"android":"levelo://app?vid=9b96507b-7c55-4807-aecf-319f52047c00","ios":"levelo://app?vid=9b96507b-7c55-4807-aecf-319f52047c00"},"vehicle_type_id":"4","last_reported":1726906259,"current_range_meters":27200,"station_id":"ce4bhgp2rcd13ifvqfc0","pricing_plan_id":"cebpf4jnsgd1na2vs0mg"},{"bike_id":"a020a923-89fb-4175-829b-bdb01d885f9c","system_id":"levelo_inurba_marseille","lat":43.2307,"lon":5.35505,"is_reserved":false,"is_disabled":false,"rental_uris":{"android":"levelo://app?vid=a020a923-89fb-4175-829b-bdb01d885f9c","ios":"levelo://app?vid=a020a923-89fb-4175-829b-bdb01d885f9c"},"vehicle_type_id":"4","last_reported":1726906259,"current_range_meters":28800,"station_id":"cpo3342slgdg3j2ifvpg","pricing_plan_id":"cebpf4jnsgd1na2vs0mg"},{"bike_id":"a9603a9a-3575-4d61-8297-7e9985c61899","system_id":"levelo_inurba_marseille","lat":43.3081,"lon":5.38152,"is_reserved":false,"is_disabled":false,"rental_uris":{"android":"levelo://app?vid=a9603a9a-3575-4d61-8297-7e9985c61899","ios":"levelo://app?vid=a9603a9a-3575-4d61-8297-7e9985c61899"},"vehicle_type_id":"4","last_reported":1726906259,"current_range_meters":3600,"station_id":"ce4bgt12rcd13ifvqce0","pricing_plan_id":"cebpf4jnsgd1na2vs0mg"},{"bike_id":"42e17fab-c938-475b-b106-da7eaf0d52d9","system_id":"levelo_inurba_marseille","lat":43.26556,"lon":5.37283,"is_reserved":false,"is_disabled":false,"rental_uris":{"android":"levelo://app?vid=42e17fab-c938-475b-b106-da7eaf0d52d9","ios":"levelo://app?vid=42e17fab-c938-475b-b106-da7eaf0d52d9"},"vehicle_type_id":"4","last_reported":1726906259,"current_range_meters":30000,"station_id":"ce4bhg12rcd13ifvqf70","pricing_plan_id":"cebpf4jnsgd1na2vs0mg"},{"bike_id":"ad936cc3-b1e2-4a45-816c-ea480f89da29","system_id":"levelo_inurba_marseille","lat":43.29305,"lon":5.37472,"is_reserved":false,"is_disabled":false,"rental_uris":{"android":"levelo://app?vid=ad936cc3-b1e2-4a45-816c-ea480f89da29","ios":"levelo://app?vid=ad936cc3-b1e2-4a45-816c-ea480f89da29"},"vehicle_type_id":"4","last_reported":1726906259,"current_range_meters":38800,"station_id":"ce4bgi12rcd13ifvqb70","pricing_plan_id":"cebpf4jnsgd1na2vs0mg"},{"bike_id":"f07c738f-64b7-4b12-9acd-387f3c4d2596","system_id":"levelo_inurba_marseille","lat":43.27212,"lon":5.39182,"is_reserved":false,"is_disabled":false,"rental_uris":{"android":"levelo://app?vid=f07c738f-64b7-4b12-9acd-387f3c4d2596","ios":"levelo://app?vid=f07c738f-64b7-4b12-9acd-387f3c4d2596"},"vehicle_type_id":"4","last_reported":1726906259,"current_range_meters":38800,"station_id":"ce4bhhp2rcd13ifvqfm0","pricing_plan_id":"cebpf4jnsgd1na2vs0mg"},{"bike_id":"6e2fd8fb-799c-468d-a60b-38d2bf81aa37","system_id":"levelo_inurba_marseille","lat":43.23955,"lon":5.36629,"is_reserved":false,"is_disabled":false,"rental_uris":{"android":"levelo://app?vid=6e2fd8fb-799c-468d-a60b-38d2bf81aa37","ios":"levelo://app?vid=6e2fd8fb-799c-468d-a60b-38d2bf81aa37"},"vehicle_type_id":"4","last_reported":1726906259,"current_range_meters":3600,"station_id":"ce4bhi12rcd13ifvqfp0","pricing_plan_id":"cebpf4jnsgd1na2vs0mg"},{"bike_id":"fb730c85-cef2-43fb-877c-de273059500e","system_id":"levelo_inurba_marseille","lat":43.31757,"lon":5.39009,"is_reserved":false,"is_disabled":false,"rental_uris":{"android":"levelo://app?vid=fb730c85-cef2-43fb-877c-de273059500e","ios":"levelo://app?vid=fb730c85-cef2-43fb-877c-de273059500e"},"vehicle_type_id":"4","last_reported":1726906259,"current_range_meters":30000,"station_id":"ce4bhqp2rcd13ifvqhng","pricing_plan_id":"cebpf4jnsgd1na2vs0mg"},{"bike_id":"8de964f3-991f-47cb-98ab-ed6130191177","system_id":"levelo_inurba_marseille","lat":43.24385,"lon":5.37052,"is_reserved":false,"is_disabled":false,"rental_uris":{"android":"levelo://app?vid=8de964f3-991f-47cb-98ab-ed6130191177","ios":"levelo://app?vid=8de964f3-991f-47cb-98ab-ed6130191177"},"vehicle_type_id":"4","last_reported":1726906259,"current_range_meters":37600,"station_id":"ce4bhhh2rcd13ifvqfk0","pricing_plan_id":"cebpf4jnsgd1na2vs0mg"},{"bike_id":"7d10632b-8e37-4561-a106-828e73bfa5ec","system_id":"levelo_inurba_marseille","lat":43.25504,"lon":5.37648,"is_reserved":false,"is_disabled":false,"rental_uris":{"android":"levelo://app?vid=7d10632b-8e37-4561-a106-828e73bfa5ec","ios":"levelo://app?vid=7d10632b-8e37-4561-a106-828e73bfa5ec"},"vehicle_type_id":"4","last_reported":1726906259,"current_range_meters":34800,"station_id":"ce4bhh12rcd13ifvqff0","pricing_plan_id":"cebpf4jnsgd1na2vs0mg"},{"bike_id":"a4ed3c22-3b98-4c3c-851f-ab6c74690dde","system_id":"levelo_inurba_marseille","lat":43.25506,"lon":5.37648,"is_reserved":false,"is_disabled":false,"rental_uris":{"android":"levelo://app?vid=a4ed3c22-3b98-4c3c-851f-ab6c74690dde","ios":"levelo://app?vid=a4ed3c22-3b98-4c3c-851f-ab6c74690dde"},"vehicle_type_id":"4","last_reported":1726906259,"current_range_meters":36800,"station_id":"ce4bhh12rcd13ifvqff0","pricing_plan_id":"cebpf4jnsgd1na2vs0mg"},{"bike_id":"2b9037e6-c457-49bd-96ba-d4428882aa58","system_id":"levelo_inurba_marseille","lat":43.26492,"lon":5.39557,"is_reserved":false,"is_disabled":false,"rental_uris":{"android":"levelo://app?vid=2b9037e6-c457-49bd-96ba-d4428882aa58","ios":"levelo://app?vid=2b9037e6-c457-49bd-96ba-d4428882aa58"},"vehicle_type_id":"4","last_reported":1726906259,"current_range_meters":38800,"station_id":"ce4bhi12rcd13ifvqfq0","pricing_plan_id":"cebpf4jnsgd1na2vs0mg"},{"bike_id":"40b30bf1-df0a-47fd-bf93-8f163c982ffe","system_id":"levelo_inurba_marseille","lat":43.32292,"lon":5.38277,"is_reserved":false,"is_disabled":false,"rental_uris":{"android":"levelo://app?vid=40b30bf1-df0a-47fd-bf93-8f163c982ffe","ios":"levelo://app?vid=40b30bf1-df0a-47fd-bf93-8f163c982ffe"},"vehicle_type_id":"4","last_reported":1726906259,"current_range_meters":37600,"station_id":"ce4bhr12rcd13ifvqhqg","pricing_plan_id":"cebpf4jnsgd1na2vs0mg"},{"bike_id":"00096040-b30d-4a0e-a841-0f94a73c9bf8","system_id":"levelo_inurba_marseille","lat":43.28697,"lon":5.37382,"is_reserved":false,"is_disabled":false,"rental_uris":{"android":"levelo://app?vid=00096040-b30d-4a0e-a841-0f94a73c9bf8","ios":"levelo://app?vid=00096040-b30d-4a0e-a841-0f94a73c9bf8"},"vehicle_type_id":"4","last_reported":1726906259,"current_range_meters":8400,"station_id":"ce4bh3p2rcd13ifvqdq0","pricing_plan_id":"cebpf4jnsgd1na2vs0mg"},{"bike_id":"1c1694a5-d9ea-4aac-a459-dcbc1bc0201e","system_id":"levelo_inurba_marseille","lat":43.28947,"lon":5.36407,"is_reserved":false,"is_disabled":false,"rental_uris":{"android":"levelo://app?vid=1c1694a5-d9ea-4aac-a459-dcbc1bc0201e","ios":"levelo://app?vid=1c1694a5-d9ea-4aac-a459-dcbc1bc0201e"},"vehicle_type_id":"4","last_reported":1726906259,"current_range_meters":36800,"station_id":"ce4bhc92rcd13ifvqetg","pricing_plan_id":"cebpf4jnsgd1na2vs0mg"},{"bike_id":"df9b1c9e-0ed6-4804-941c-22e2aebb94dd","system_id":"levelo_inurba_marseille","lat":43.23153,"lon":5.43713,"is_reserved":false,"is_disabled":false,"rental_uris":{"android":"levelo://app?vid=df9b1c9e-0ed6-4804-941c-22e2aebb94dd","ios":"levelo://app?vid=df9b1c9e-0ed6-4804-941c-22e2aebb94dd"},"vehicle_type_id":"4","last_reported":1726906259,"current_range_meters":38800,"station_id":"ce4bhmp2rcd13ifvqgog","pricing_plan_id":"cebpf4jnsgd1na2vs0mg"},{"bike_id":"546ee6bf-55f8-4946-bcee-e7096c9be4b7","system_id":"levelo_inurba_marseille","lat":43.24395,"lon":5.3706,"is_reserved":false,"is_disabled":false,"rental_uris":{"android":"levelo://app?vid=546ee6bf-55f8-4946-bcee-e7096c9be4b7","ios":"levelo://app?vid=546ee6bf-55f8-4946-bcee-e7096c9be4b7"},"vehicle_type_id":"4","last_reported":1726906259,"current_range_meters":26800,"station_id":"ce4bhhh2rcd13ifvqfk0","pricing_plan_id":"cebpf4jnsgd1na2vs0mg"},{"bike_id":"e487b570-ae0a-441e-8d21-21f51ea56705","system_id":"levelo_inurba_marseille","lat":43.33605,"lon":5.4103,"is_reserved":false,"is_disabled":false,"rental_uris":{"android":"levelo://app?vid=e487b570-ae0a-441e-8d21-21f51ea56705","ios":"levelo://app?vid=e487b570-ae0a-441e-8d21-21f51ea56705"},"vehicle_type_id":"4","last_reported":1726906259,"current_range_meters":39200,"station_id":"ce4bhqh2rcd13ifvqhmg","pricing_plan_id":"cebpf4jnsgd1na2vs0mg"},{"bike_id":"2633e599-bd28-40d3-b331-ac739c663b27","system_id":"levelo_inurba_marseille","lat":43.32486,"lon":5.3657,"is_reserved":false,"is_disabled":false,"rental_uris":{"android":"levelo://app?vid=2633e599-bd28-40d3-b331-ac739c663b27","ios":"levelo://app?vid=2633e599-bd28-40d3-b331-ac739c663b27"},"vehicle_type_id":"4","last_reported":1726906259,"current_range_meters":17200,"station_id":"ce4bhs12rcd13ifvqhvg","pricing_plan_id":"cebpf4jnsgd1na2vs0mg"},{"bike_id":"f77468d5-e3ed-40d1-a2e0-8c2afa8d3ebc","system_id":"levelo_inurba_marseille","lat":43.30145,"lon":5.380838,"is_reserved":false,"is_disabled":false,"rental_uris":{"android":"levelo://app?vid=f77468d5-e3ed-40d1-a2e0-8c2afa8d3ebc","ios":"levelo://app?vid=f77468d5-e3ed-40d1-a2e0-8c2afa8d3ebc"},"vehicle_type_id":"4","last_reported":1726906259,"current_range_meters":8400,"station_id":"ce4bgkp2rcd13ifvqbmg","pricing_plan_id":"cebpf4jnsgd1na2vs0mg"},{"bike_id":"40b4c6d2-1591-4c31-ba7e-28d863ceb674","system_id":"levelo_inurba_marseille","lat":43.308,"lon":5.38148,"is_reserved":false,"is_disabled":false,"rental_uris":{"android":"levelo://app?vid=40b4c6d2-1591-4c31-ba7e-28d863ceb674","ios":"levelo://app?vid=40b4c6d2-1591-4c31-ba7e-28d863ceb674"},"vehicle_type_id":"4","last_reported":1726906259,"current_range_meters":32400,"station_id":"ce4bgt12rcd13ifvqce0","pricing_plan_id":"cebpf4jnsgd1na2vs0mg"},{"bike_id":"4c1dec89-8af3-48ba-9392-8ce53e8e66e3","system_id":"levelo_inurba_marseille","lat":43.29515,"lon":5.37502,"is_reserved":false,"is_disabled":false,"rental_uris":{"android":"levelo://app?vid=4c1dec89-8af3-48ba-9392-8ce53e8e66e3","ios":"levelo://app?vid=4c1dec89-8af3-48ba-9392-8ce53e8e66e3"},"vehicle_type_id":"4","last_reported":1726906259,"current_range_meters":36000,"station_id":"ce4bgkp2rcd13ifvqbmg","pricing_plan_id":"cebpf4jnsgd1na2vs0mg"},{"bike_id":"6860e9db-5d98-45b4-aae5-0f2e9c653968","system_id":"levelo_inurba_marseille","lat":43.2894,"lon":5.3664,"is_reserved":false,"is_disabled":false,"rental_uris":{"android":"levelo://app?vid=6860e9db-5d98-45b4-aae5-0f2e9c653968","ios":"levelo://app?vid=6860e9db-5d98-45b4-aae5-0f2e9c653968"},"vehicle_type_id":"4","last_reported":1726906259,"current_range_meters":38800,"station_id":"ce4bhap2rcd13ifvqek0","pricing_plan_id":"cebpf4jnsgd1na2vs0mg"},{"bike_id":"ec55276f-77cb-4620-963f-fef2e0e52774","system_id":"levelo_inurba_marseille","lat":43.27907,"lon":5.38017,"is_reserved":false,"is_disabled":false,"rental_uris":{"android":"levelo://app?vid=ec55276f-77cb-4620-963f-fef2e0e52774","ios":"levelo://app?vid=ec55276f-77cb-4620-963f-fef2e0e52774"},"vehicle_type_id":"4","last_reported":1726906259,"current_range_meters":32400,"station_id":"ce4bhf92rcd13ifvqf50","pricing_plan_id":"cebpf4jnsgd1na2vs0mg"},{"bike_id":"c5b37c58-6711-4edc-99d7-547d6f2294d4","system_id":"levelo_inurba_marseille","lat":43.312714,"lon":5.401742,"is_reserved":false,"is_disabled":false,"rental_uris":{"android":"levelo://app?vid=c5b37c58-6711-4edc-99d7-547d6f2294d4","ios":"levelo://app?vid=c5b37c58-6711-4edc-99d7-547d6f2294d4"},"vehicle_type_id":"4","last_reported":1726906259,"current_range_meters":24400,"station_id":"ce4bgup2rcd13ifvqcn0","pricing_plan_id":"cebpf4jnsgd1na2vs0mg"},{"bike_id":"604c9531-be4f-4974-bfe2-bd7828d7386f","system_id":"levelo_inurba_marseille","lat":43.299,"lon":5.43674,"is_reserved":false,"is_disabled":false,"rental_uris":{"android":"levelo://app?vid=604c9531-be4f-4974-bfe2-bd7828d7386f","ios":"levelo://app?vid=604c9531-be4f-4974-bfe2-bd7828d7386f"},"vehicle_type_id":"4","last_reported":1726906259,"current_range_meters":24800,"station_id":"ce4bhpp2rcd13ifvqhfg","pricing_plan_id":"cebpf4jnsgd1na2vs0mg"},{"bike_id":"a3921e5f-c3d3-40b9-818e-835cc0a51250","system_id":"levelo_inurba_marseille","lat":43.30152,"lon":5.38076,"is_reserved":false,"is_disabled":false,"rental_uris":{"android":"levelo://app?vid=a3921e5f-c3d3-40b9-818e-835cc0a51250","ios":"levelo://app?vid=a3921e5f-c3d3-40b9-818e-835cc0a51250"},"vehicle_type_id":"4","last_reported":1726906259,"current_range_meters":33600,"station_id":"ce4bgjp2rcd13ifvqbh0","pricing_plan_id":"cebpf4jnsgd1na2vs0mg"},{"bike_id":"217ef1e6-255c-4998-83d2-821ac1a80098","system_id":"levelo_inurba_marseille","lat":43.272003,"lon":5.391822,"is_reserved":false,"is_disabled":false,"rental_uris":{"android":"levelo://app?vid=217ef1e6-255c-4998-83d2-821ac1a80098","ios":"levelo://app?vid=217ef1e6-255c-4998-83d2-821ac1a80098"},"vehicle_type_id":"4","last_reported":1726906259,"current_range_meters":4800,"station_id":"ce4bhhp2rcd13ifvqfm0","pricing_plan_id":"cebpf4jnsgd1na2vs0mg"},{"bike_id":"ac06cbe3-c5d5-4918-8fc0-6bf0136274b7","system_id":"levelo_inurba_marseille","lat":43.27496,"lon":5.4245,"is_reserved":false,"is_disabled":false,"rental_uris":{"android":"levelo://app?vid=ac06cbe3-c5d5-4918-8fc0-6bf0136274b7","ios":"levelo://app?vid=ac06cbe3-c5d5-4918-8fc0-6bf0136274b7"},"vehicle_type_id":"4","last_reported":1726906259,"current_range_meters":22800,"station_id":"ce4bhn92rcd13ifvqgrg","pricing_plan_id":"cebpf4jnsgd1na2vs0mg"},{"bike_id":"10b5f711-bd58-456b-b8a4-8ef82ac4bd60","system_id":"levelo_inurba_marseille","lat":43.29931,"lon":5.36546,"is_reserved":false,"is_disabled":false,"rental_uris":{"android":"levelo://app?vid=10b5f711-bd58-456b-b8a4-8ef82ac4bd60","ios":"levelo://app?vid=10b5f711-bd58-456b-b8a4-8ef82ac4bd60"},"vehicle_type_id":"4","last_reported":1726906259,"current_range_meters":22400,"station_id":"ce4bgm92rcd13ifvqbr0","pricing_plan_id":"cebpf4jnsgd1na2vs0mg"},{"bike_id":"50a407c1-22a7-475d-b040-e06e3d3dd289","system_id":"levelo_inurba_marseille","lat":43.29514,"lon":5.37498,"is_reserved":false,"is_disabled":false,"rental_uris":{"android":"levelo://app?vid=50a407c1-22a7-475d-b040-e06e3d3dd289","ios":"levelo://app?vid=50a407c1-22a7-475d-b040-e06e3d3dd289"},"vehicle_type_id":"4","last_reported":1726906259,"current_range_meters":35600,"station_id":"ce4bgkp2rcd13ifvqbmg","pricing_plan_id":"cebpf4jnsgd1na2vs0mg"},{"bike_id":"e342b90c-5848-4336-97a0-9fa180c077f1","system_id":"levelo_inurba_marseille","lat":43.31074,"lon":5.383422,"is_reserved":false,"is_disabled":false,"rental_uris":{"android":"levelo://app?vid=e342b90c-5848-4336-97a0-9fa180c077f1","ios":"levelo://app?vid=e342b90c-5848-4336-97a0-9fa180c077f1"},"vehicle_type_id":"4","last_reported":1726906259,"current_range_meters":22800,"station_id":"ce4bgv92rcd13ifvqcr0","pricing_plan_id":"cebpf4jnsgd1na2vs0mg"},{"bike_id":"a09b131e-b0a8-4938-a802-317747afbde1","system_id":"levelo_inurba_marseille","lat":43.2997,"lon":5.36938,"is_reserved":false,"is_disabled":false,"rental_uris":{"android":"levelo://app?vid=a09b131e-b0a8-4938-a802-317747afbde1","ios":"levelo://app?vid=a09b131e-b0a8-4938-a802-317747afbde1"},"vehicle_type_id":"4","last_reported":1726906259,"current_range_meters":2800,"station_id":"","pricing_plan_id":"cebpf4jnsgd1na2vs0mg"},{"bike_id":"28c8281e-e5bc-4ed3-94a5-f0ec62d95659","system_id":"levelo_inurba_marseille","lat":43.250787,"lon":5.395096,"is_reserved":false,"is_disabled":false,"rental_uris":{"android":"levelo://app?vid=28c8281e-e5bc-4ed3-94a5-f0ec62d95659","ios":"levelo://app?vid=28c8281e-e5bc-4ed3-94a5-f0ec62d95659"},"vehicle_type_id":"4","last_reported":1726906259,"current_range_meters":38000,"station_id":"ce4bhm12rcd13ifvqgkg","pricing_plan_id":"cebpf4jnsgd1na2vs0mg"},{"bike_id":"542e2c69-6cd2-413d-9cfd-2c5f9a60a140","system_id":"levelo_inurba_marseille","lat":43.24076,"lon":5.37756,"is_reserved":false,"is_disabled":false,"rental_uris":{"android":"levelo://app?vid=542e2c69-6cd2-413d-9cfd-2c5f9a60a140","ios":"levelo://app?vid=542e2c69-6cd2-413d-9cfd-2c5f9a60a140"},"vehicle_type_id":"4","last_reported":1726906259,"current_range_meters":8800,"station_id":"ce4bhnp2rcd13ifvqgvg","pricing_plan_id":"cebpf4jnsgd1na2vs0mg"},{"bike_id":"f9c9be8e-ea20-4727-9516-26ff2df08de7","system_id":"levelo_inurba_marseille","lat":43.29954,"lon":5.4135,"is_reserved":false,"is_disabled":false,"rental_uris":{"android":"levelo://app?vid=f9c9be8e-ea20-4727-9516-26ff2df08de7","ios":"levelo://app?vid=f9c9be8e-ea20-4727-9516-26ff2df08de7"},"vehicle_type_id":"4","last_reported":1726906259,"current_range_meters":38800,"station_id":"ce4bhp12rcd13ifvqh9g","pricing_plan_id":"cebpf4jnsgd1na2vs0mg"},{"bike_id":"9f6005d7-f3e3-4b48-8453-508214e050bc","system_id":"levelo_inurba_marseille","lat":43.25495,"lon":5.37648,"is_reserved":false,"is_disabled":false,"rental_uris":{"android":"levelo://app?vid=9f6005d7-f3e3-4b48-8453-508214e050bc","ios":"levelo://app?vid=9f6005d7-f3e3-4b48-8453-508214e050bc"},"vehicle_type_id":"4","last_reported":1726906259,"current_range_meters":38400,"station_id":"ce4bhh12rcd13ifvqff0","pricing_plan_id":"cebpf4jnsgd1na2vs0mg"},{"bike_id":"8273c267-5219-4186-8f32-c3e55203a7ac","system_id":"levelo_inurba_marseille","lat":43.23971,"lon":5.39709,"is_reserved":false,"is_disabled":false,"rental_uris":{"android":"levelo://app?vid=8273c267-5219-4186-8f32-c3e55203a7ac","ios":"levelo://app?vid=8273c267-5219-4186-8f32-c3e55203a7ac"},"vehicle_type_id":"4","last_reported":1726906259,"current_range_meters":6000,"station_id":"","pricing_plan_id":"cebpf4jnsgd1na2vs0mg"},{"bike_id":"9c92648a-f006-4167-bb4c-b3ce8835b4ad","system_id":"levelo_inurba_marseille","lat":43.31713,"lon":5.43706,"is_reserved":false,"is_disabled":false,"rental_uris":{"android":"levelo://app?vid=9c92648a-f006-4167-bb4c-b3ce8835b4ad","ios":"levelo://app?vid=9c92648a-f006-4167-bb4c-b3ce8835b4ad"},"vehicle_type_id":"4","last_reported":1726906259,"current_range_meters":38400,"station_id":"ce4bhp92rcd13ifvqhcg","pricing_plan_id":"cebpf4jnsgd1na2vs0mg"},{"bike_id":"0758898b-c621-4049-b058-e9cd0ceaa979","system_id":"levelo_inurba_marseille","lat":43.30466,"lon":5.37896,"is_reserved":false,"is_disabled":false,"rental_uris":{"android":"levelo://app?vid=0758898b-c621-4049-b058-e9cd0ceaa979","ios":"levelo://app?vid=0758898b-c621-4049-b058-e9cd0ceaa979"},"vehicle_type_id":"4","last_reported":1726906259,"current_range_meters":34800,"station_id":"ce4bgup2rcd13ifvqcn0","pricing_plan_id":"cebpf4jnsgd1na2vs0mg"},{"bike_id":"fe61791c-21d9-4b25-a0b8-c74c8e3b9350","system_id":"levelo_inurba_marseille","lat":43.22933,"lon":5.35377,"is_reserved":false,"is_disabled":false,"rental_uris":{"android":"levelo://app?vid=fe61791c-21d9-4b25-a0b8-c74c8e3b9350","ios":"levelo://app?vid=fe61791c-21d9-4b25-a0b8-c74c8e3b9350"},"vehicle_type_id":"4","last_reported":1726906259,"current_range_meters":30400,"station_id":"cpo3532slgdg3j2ikp40","pricing_plan_id":"cebpf4jnsgd1na2vs0mg"},{"bike_id":"b299246a-62f3-46c4-8f62-da9b0aecadbd","system_id":"levelo_inurba_marseille","lat":43.26484,"lon":5.39564,"is_reserved":false,"is_disabled":false,"rental_uris":{"android":"levelo://app?vid=b299246a-62f3-46c4-8f62-da9b0aecadbd","ios":"levelo://app?vid=b299246a-62f3-46c4-8f62-da9b0aecadbd"},"vehicle_type_id":"4","last_reported":1726906259,"current_range_meters":37600,"station_id":"ce4bhi12rcd13ifvqfq0","pricing_plan_id":"cebpf4jnsgd1na2vs0mg"},{"bike_id":"87d8bf2c-d1f7-4f52-bf68-384092e34fcb","system_id":"levelo_inurba_marseille","lat":43.28615,"lon":5.35102,"is_reserved":false,"is_disabled":false,"rental_uris":{"android":"levelo://app?vid=87d8bf2c-d1f7-4f52-bf68-384092e34fcb","ios":"levelo://app?vid=87d8bf2c-d1f7-4f52-bf68-384092e34fcb"},"vehicle_type_id":"4","last_reported":1726906259,"current_range_meters":35200,"station_id":"ce4bhch2rcd13ifvqeug","pricing_plan_id":"cebpf4jnsgd1na2vs0mg"},{"bike_id":"d092ea46-5081-444c-9ab4-9000c6f4b483","system_id":"levelo_inurba_marseille","lat":43.29841,"lon":5.36271,"is_reserved":false,"is_disabled":false,"rental_uris":{"android":"levelo://app?vid=d092ea46-5081-444c-9ab4-9000c6f4b483","ios":"levelo://app?vid=d092ea46-5081-444c-9ab4-9000c6f4b483"},"vehicle_type_id":"4","last_reported":1726906259,"current_range_meters":36800,"station_id":"ce4bgpp2rcd13ifvqc3g","pricing_plan_id":"cebpf4jnsgd1na2vs0mg"},{"bike_id":"42fac7e5-89b5-43a0-86e0-6d691ed14493","system_id":"levelo_inurba_marseille","lat":43.31278,"lon":5.4017,"is_reserved":false,"is_disabled":false,"rental_uris":{"android":"levelo://app?vid=42fac7e5-89b5-43a0-86e0-6d691ed14493","ios":"levelo://app?vid=42fac7e5-89b5-43a0-86e0-6d691ed14493"},"vehicle_type_id":"4","last_reported":1726906259,"current_range_meters":27200,"station_id":"ce4bh092rcd13ifvqd30","pricing_plan_id":"cebpf4jnsgd1na2vs0mg"},{"bike_id":"5c3ab3ff-b3a8-4b03-ac72-d1c8a4f76c80","system_id":"levelo_inurba_marseille","lat":43.29222,"lon":5.3606,"is_reserved":false,"is_disabled":false,"rental_uris":{"android":"levelo://app?vid=5c3ab3ff-b3a8-4b03-ac72-d1c8a4f76c80","ios":"levelo://app?vid=5c3ab3ff-b3a8-4b03-ac72-d1c8a4f76c80"},"vehicle_type_id":"4","last_reported":1726906259,"current_range_meters":35600,"station_id":"ce4bhbh2rcd13ifvqeqg","pricing_plan_id":"cebpf4jnsgd1na2vs0mg"},{"bike_id":"5238de28-68cc-4678-b3eb-12d25b25d46c","system_id":"levelo_inurba_marseille","lat":43.295624,"lon":5.375303,"is_reserved":false,"is_disabled":false,"rental_uris":{"android":"levelo://app?vid=5238de28-68cc-4678-b3eb-12d25b25d46c","ios":"levelo://app?vid=5238de28-68cc-4678-b3eb-12d25b25d46c"},"vehicle_type_id":"4","last_reported":1726906259,"current_range_meters":38800,"station_id":"ce4bgh92rcd13ifvqb50","pricing_plan_id":"cebpf4jnsgd1na2vs0mg"},{"bike_id":"7db34aab-bb83-4943-a5a0-93955f52a4ec","system_id":"levelo_inurba_marseille","lat":43.33726,"lon":5.3918,"is_reserved":false,"is_disabled":false,"rental_uris":{"android":"levelo://app?vid=7db34aab-bb83-4943-a5a0-93955f52a4ec","ios":"levelo://app?vid=7db34aab-bb83-4943-a5a0-93955f52a4ec"},"vehicle_type_id":"4","last_reported":1726906259,"current_range_meters":38400,"station_id":"ce4bhr92rcd13ifvqhsg","pricing_plan_id":"cebpf4jnsgd1na2vs0mg"},{"bike_id":"72ee1fe2-89d3-4476-87e9-927df34521d8","system_id":"levelo_inurba_marseille","lat":43.2827,"lon":5.35078,"is_reserved":false,"is_disabled":false,"rental_uris":{"android":"levelo://app?vid=72ee1fe2-89d3-4476-87e9-927df34521d8","ios":"levelo://app?vid=72ee1fe2-89d3-4476-87e9-927df34521d8"},"vehicle_type_id":"4","last_reported":1726906259,"current_range_meters":29600,"station_id":"ce4bhbp2rcd13ifvqerg","pricing_plan_id":"cebpf4jnsgd1na2vs0mg"},{"bike_id":"0ba70152-1a56-4c2c-8b41-f47f60240ef8","system_id":"levelo_inurba_marseille","lat":43.25727,"lon":5.41112,"is_reserved":false,"is_disabled":false,"rental_uris":{"android":"levelo://app?vid=0ba70152-1a56-4c2c-8b41-f47f60240ef8","ios":"levelo://app?vid=0ba70152-1a56-4c2c-8b41-f47f60240ef8"},"vehicle_type_id":"4","last_reported":1726906259,"current_range_meters":35200,"station_id":"ce4bhkp2rcd13ifvqgd0","pricing_plan_id":"cebpf4jnsgd1na2vs0mg"},{"bike_id":"7b7cf89d-5325-4d4a-8061-5cf0c5bab16f","system_id":"levelo_inurba_marseille","lat":43.26192,"lon":5.37451,"is_reserved":false,"is_disabled":false,"rental_uris":{"android":"levelo://app?vid=7b7cf89d-5325-4d4a-8061-5cf0c5bab16f","ios":"levelo://app?vid=7b7cf89d-5325-4d4a-8061-5cf0c5bab16f"},"vehicle_type_id":"4","last_reported":1726906259,"current_range_meters":30800,"station_id":"","pricing_plan_id":"cebpf4jnsgd1na2vs0mg"},{"bike_id":"1664f6af-33fb-4d17-9ca0-454228e1aa6d","system_id":"levelo_inurba_marseille","lat":43.315048,"lon":5.373013,"is_reserved":false,"is_disabled":false,"rental_uris":{"android":"levelo://app?vid=1664f6af-33fb-4d17-9ca0-454228e1aa6d","ios":"levelo://app?vid=1664f6af-33fb-4d17-9ca0-454228e1aa6d"},"vehicle_type_id":"4","last_reported":1726906259,"current_range_meters":36000,"station_id":"ce4bgt12rcd13ifvqcd0","pricing_plan_id":"cebpf4jnsgd1na2vs0mg"},{"bike_id":"fe02eabb-a2b4-4ea9-918d-8498504a82a3","system_id":"levelo_inurba_marseille","lat":43.26193,"lon":5.37445,"is_reserved":false,"is_disabled":false,"rental_uris":{"android":"levelo://app?vid=fe02eabb-a2b4-4ea9-918d-8498504a82a3","ios":"levelo://app?vid=fe02eabb-a2b4-4ea9-918d-8498504a82a3"},"vehicle_type_id":"4","last_reported":1726906259,"current_range_meters":14800,"station_id":"ce4bhgp2rcd13ifvqfc0","pricing_plan_id":"cebpf4jnsgd1na2vs0mg"},{"bike_id":"23e5fcf4-4fac-4b05-9a6c-be73f5a6d743","system_id":"levelo_inurba_marseille","lat":43.28149,"lon":5.42676,"is_reserved":false,"is_disabled":false,"rental_uris":{"android":"levelo://app?vid=23e5fcf4-4fac-4b05-9a6c-be73f5a6d743","ios":"levelo://app?vid=23e5fcf4-4fac-4b05-9a6c-be73f5a6d743"},"vehicle_type_id":"4","last_reported":1726906259,"current_range_meters":19200,"station_id":"ce4bhnh2rcd13ifvqgug","pricing_plan_id":"cebpf4jnsgd1na2vs0mg"},{"bike_id":"9455a10c-c08f-4c95-bb85-e08f847ecbc5","system_id":"levelo_inurba_marseille","lat":43.24079,"lon":5.3775,"is_reserved":false,"is_disabled":false,"rental_uris":{"android":"levelo://app?vid=9455a10c-c08f-4c95-bb85-e08f847ecbc5","ios":"levelo://app?vid=9455a10c-c08f-4c95-bb85-e08f847ecbc5"},"vehicle_type_id":"4","last_reported":1726906259,"current_range_meters":8800,"station_id":"ce4bhnp2rcd13ifvqgvg","pricing_plan_id":"cebpf4jnsgd1na2vs0mg"},{"bike_id":"bddff95a-19c2-4fd3-bdbe-da5d658cfae4","system_id":"levelo_inurba_marseille","lat":43.24999,"lon":5.3893,"is_reserved":false,"is_disabled":false,"rental_uris":{"android":"levelo://app?vid=bddff95a-19c2-4fd3-bdbe-da5d658cfae4","ios":"levelo://app?vid=bddff95a-19c2-4fd3-bdbe-da5d658cfae4"},"vehicle_type_id":"4","last_reported":1726906259,"current_range_meters":25200,"station_id":"ce4bhgp2rcd13ifvqfd0","pricing_plan_id":"cebpf4jnsgd1na2vs0mg"},{"bike_id":"146ac5f2-7c1e-46d5-9347-54e9005d3585","system_id":"levelo_inurba_marseille","lat":43.26947,"lon":5.40248,"is_reserved":false,"is_disabled":false,"rental_uris":{"android":"levelo://app?vid=146ac5f2-7c1e-46d5-9347-54e9005d3585","ios":"levelo://app?vid=146ac5f2-7c1e-46d5-9347-54e9005d3585"},"vehicle_type_id":"4","last_reported":1726906259,"current_range_meters":38800,"station_id":"cjm6bp8fraef2m0cb0m0","pricing_plan_id":"cebpf4jnsgd1na2vs0mg"},{"bike_id":"7b9dd459-340b-4978-bfb0-6c163a5263e8","system_id":"levelo_inurba_marseille","lat":43.23191,"lon":5.35536,"is_reserved":false,"is_disabled":false,"rental_uris":{"android":"levelo://app?vid=7b9dd459-340b-4978-bfb0-6c163a5263e8","ios":"levelo://app?vid=7b9dd459-340b-4978-bfb0-6c163a5263e8"},"vehicle_type_id":"4","last_reported":1726906259,"current_range_meters":38800,"station_id":"ce4bhu92rcd13ifvqi70","pricing_plan_id":"cebpf4jnsgd1na2vs0mg"},{"bike_id":"0b34c002-1469-4f0b-b54e-0134780c2840","system_id":"levelo_inurba_marseille","lat":43.28934,"lon":5.3664,"is_reserved":false,"is_disabled":false,"rental_uris":{"android":"levelo://app?vid=0b34c002-1469-4f0b-b54e-0134780c2840","ios":"levelo://app?vid=0b34c002-1469-4f0b-b54e-0134780c2840"},"vehicle_type_id":"4","last_reported":1726906259,"current_range_meters":28400,"station_id":"ce4bhap2rcd13ifvqek0","pricing_plan_id":"cebpf4jnsgd1na2vs0mg"},{"bike_id":"14af6286-56f0-4221-b0cf-f9a5d206a408","system_id":"levelo_inurba_marseille","lat":43.31072,"lon":5.38349,"is_reserved":false,"is_disabled":false,"rental_uris":{"android":"levelo://app?vid=14af6286-56f0-4221-b0cf-f9a5d206a408","ios":"levelo://app?vid=14af6286-56f0-4221-b0cf-f9a5d206a408"},"vehicle_type_id":"4","last_reported":1726906259,"current_range_meters":38000,"station_id":"ce4bgv92rcd13ifvqcr0","pricing_plan_id":"cebpf4jnsgd1na2vs0mg"},{"bike_id":"1409bd11-b908-4cb6-af30-4e2a4dd422cd","system_id":"levelo_inurba_marseille","lat":43.30474,"lon":5.37903,"is_reserved":false,"is_disabled":false,"rental_uris":{"android":"levelo://app?vid=1409bd11-b908-4cb6-af30-4e2a4dd422cd","ios":"levelo://app?vid=1409bd11-b908-4cb6-af30-4e2a4dd422cd"},"vehicle_type_id":"4","last_reported":1726906259,"current_range_meters":38800,"station_id":"ce4bgup2rcd13ifvqcn0","pricing_plan_id":"cebpf4jnsgd1na2vs0mg"},{"bike_id":"655232e5-dd47-4aeb-b051-4bd3e3ea8975","system_id":"levelo_inurba_marseille","lat":43.25725,"lon":5.41115,"is_reserved":false,"is_disabled":false,"rental_uris":{"android":"levelo://app?vid=655232e5-dd47-4aeb-b051-4bd3e3ea8975","ios":"levelo://app?vid=655232e5-dd47-4aeb-b051-4bd3e3ea8975"},"vehicle_type_id":"4","last_reported":1726906259,"current_range_meters":38800,"station_id":"ce4bhkp2rcd13ifvqgd0","pricing_plan_id":"cebpf4jnsgd1na2vs0mg"},{"bike_id":"3740c6df-06cd-419b-9ae6-b8d9e5eff548","system_id":"levelo_inurba_marseille","lat":43.2753,"lon":5.40935,"is_reserved":false,"is_disabled":false,"rental_uris":{"android":"levelo://app?vid=3740c6df-06cd-419b-9ae6-b8d9e5eff548","ios":"levelo://app?vid=3740c6df-06cd-419b-9ae6-b8d9e5eff548"},"vehicle_type_id":"4","last_reported":1726906259,"current_range_meters":18800,"station_id":"","pricing_plan_id":"cebpf4jnsgd1na2vs0mg"},{"bike_id":"663fe0ef-43bf-4b6b-9105-239442a173f7","system_id":"levelo_inurba_marseille","lat":43.29756,"lon":5.40158,"is_reserved":false,"is_disabled":false,"rental_uris":{"android":"levelo://app?vid=663fe0ef-43bf-4b6b-9105-239442a173f7","ios":"levelo://app?vid=663fe0ef-43bf-4b6b-9105-239442a173f7"},"vehicle_type_id":"4","last_reported":1726906259,"current_range_meters":10800,"station_id":"","pricing_plan_id":"cebpf4jnsgd1na2vs0mg"},{"bike_id":"fb8d5711-d1cf-489c-836c-1bc6f5c3b747","system_id":"levelo_inurba_marseille","lat":43.23157,"lon":5.43707,"is_reserved":false,"is_disabled":false,"rental_uris":{"android":"levelo://app?vid=fb8d5711-d1cf-489c-836c-1bc6f5c3b747","ios":"levelo://app?vid=fb8d5711-d1cf-489c-836c-1bc6f5c3b747"},"vehicle_type_id":"4","last_reported":1726906259,"current_range_meters":38800,"station_id":"ce4bhmp2rcd13ifvqgog","pricing_plan_id":"cebpf4jnsgd1na2vs0mg"},{"bike_id":"101a5fe6-15d3-437c-957b-711d2d82c189","system_id":"levelo_inurba_marseille","lat":43.28262,"lon":5.35068,"is_reserved":false,"is_disabled":false,"rental_uris":{"android":"levelo://app?vid=101a5fe6-15d3-437c-957b-711d2d82c189","ios":"levelo://app?vid=101a5fe6-15d3-437c-957b-711d2d82c189"},"vehicle_type_id":"4","last_reported":1726906259,"current_range_meters":33200,"station_id":"ce4bhbp2rcd13ifvqerg","pricing_plan_id":"cebpf4jnsgd1na2vs0mg"},{"bike_id":"c6a5b1c0-1ce2-46f3-8262-a62ae2cf80bf","system_id":"levelo_inurba_marseille","lat":43.32661,"lon":5.40987,"is_reserved":false,"is_disabled":false,"rental_uris":{"android":"levelo://app?vid=c6a5b1c0-1ce2-46f3-8262-a62ae2cf80bf","ios":"levelo://app?vid=c6a5b1c0-1ce2-46f3-8262-a62ae2cf80bf"},"vehicle_type_id":"4","last_reported":1726906259,"current_range_meters":37600,"station_id":"ce4bhpp2rcd13ifvqhgg","pricing_plan_id":"cebpf4jnsgd1na2vs0mg"},{"bike_id":"51f5754a-5fa4-496b-92aa-8db5fb5c04c9","system_id":"levelo_inurba_marseille","lat":43.32341,"lon":5.40617,"is_reserved":false,"is_disabled":false,"rental_uris":{"android":"levelo://app?vid=51f5754a-5fa4-496b-92aa-8db5fb5c04c9","ios":"levelo://app?vid=51f5754a-5fa4-496b-92aa-8db5fb5c04c9"},"vehicle_type_id":"4","last_reported":1726906259,"current_range_meters":40000,"station_id":"ce4bhq92rcd13ifvqhjg","pricing_plan_id":"cebpf4jnsgd1na2vs0mg"},{"bike_id":"d050b7b6-47ad-4582-9d90-edb6ebf2db9c","system_id":"levelo_inurba_marseille","lat":43.28027,"lon":5.36946,"is_reserved":false,"is_disabled":false,"rental_uris":{"android":"levelo://app?vid=d050b7b6-47ad-4582-9d90-edb6ebf2db9c","ios":"levelo://app?vid=d050b7b6-47ad-4582-9d90-edb6ebf2db9c"},"vehicle_type_id":"4","last_reported":1726906259,"current_range_meters":23200,"station_id":"ce4bha12rcd13ifvqef0","pricing_plan_id":"cebpf4jnsgd1na2vs0mg"},{"bike_id":"d72dfef6-bb52-4972-854c-dcb40f1f3942","system_id":"levelo_inurba_marseille","lat":43.337444,"lon":5.374475,"is_reserved":false,"is_disabled":false,"rental_uris":{"android":"levelo://app?vid=d72dfef6-bb52-4972-854c-dcb40f1f3942","ios":"levelo://app?vid=d72dfef6-bb52-4972-854c-dcb40f1f3942"},"vehicle_type_id":"4","last_reported":1726906259,"current_range_meters":30400,"station_id":"ce4bh0h2rcd13ifvqd50","pricing_plan_id":"cebpf4jnsgd1na2vs0mg"},{"bike_id":"36804418-55ab-48a2-8e52-fdbd55d4360a","system_id":"levelo_inurba_marseille","lat":43.25116,"lon":5.40332,"is_reserved":false,"is_disabled":false,"rental_uris":{"android":"levelo://app?vid=36804418-55ab-48a2-8e52-fdbd55d4360a","ios":"levelo://app?vid=36804418-55ab-48a2-8e52-fdbd55d4360a"},"vehicle_type_id":"4","last_reported":1726906259,"current_range_meters":26000,"station_id":"ce4bhlh2rcd13ifvqgig","pricing_plan_id":"cebpf4jnsgd1na2vs0mg"},{"bike_id":"56786159-db32-49d6-8b82-854f54eb6840","system_id":"levelo_inurba_marseille","lat":43.293518,"lon":5.37827,"is_reserved":false,"is_disabled":false,"rental_uris":{"android":"levelo://app?vid=56786159-db32-49d6-8b82-854f54eb6840","ios":"levelo://app?vid=56786159-db32-49d6-8b82-854f54eb6840"},"vehicle_type_id":"4","last_reported":1726906259,"current_range_meters":13600,"station_id":"ce4bgjh2rcd13ifvqbf0","pricing_plan_id":"cebpf4jnsgd1na2vs0mg"},{"bike_id":"60460f01-4fc1-4471-a1cc-fd64c0c52430","system_id":"levelo_inurba_marseille","lat":43.31332,"lon":5.39703,"is_reserved":false,"is_disabled":false,"rental_uris":{"android":"levelo://app?vid=60460f01-4fc1-4471-a1cc-fd64c0c52430","ios":"levelo://app?vid=60460f01-4fc1-4471-a1cc-fd64c0c52430"},"vehicle_type_id":"4","last_reported":1726906259,"current_range_meters":38800,"station_id":"ce4bgvp2rcd13ifvqcu0","pricing_plan_id":"cebpf4jnsgd1na2vs0mg"},{"bike_id":"183eb22f-76d4-4d15-9b3f-4751c806e2b1","system_id":"levelo_inurba_marseille","lat":43.30153,"lon":5.38071,"is_reserved":false,"is_disabled":false,"rental_uris":{"android":"levelo://app?vid=183eb22f-76d4-4d15-9b3f-4751c806e2b1","ios":"levelo://app?vid=183eb22f-76d4-4d15-9b3f-4751c806e2b1"},"vehicle_type_id":"4","last_reported":1726906259,"current_range_meters":35600,"station_id":"ce4bgjp2rcd13ifvqbh0","pricing_plan_id":"cebpf4jnsgd1na2vs0mg"},{"bike_id":"51386b7c-1be8-44ac-9509-9e2b8db5ebd6","system_id":"levelo_inurba_marseille","lat":43.30798,"lon":5.43527,"is_reserved":false,"is_disabled":false,"rental_uris":{"android":"levelo://app?vid=51386b7c-1be8-44ac-9509-9e2b8db5ebd6","ios":"levelo://app?vid=51386b7c-1be8-44ac-9509-9e2b8db5ebd6"},"vehicle_type_id":"4","last_reported":1726906259,"current_range_meters":38800,"station_id":"ce4bhph2rcd13ifvqheg","pricing_plan_id":"cebpf4jnsgd1na2vs0mg"},{"bike_id":"9ec67a72-4b27-4726-b5bc-30782f712c4d","system_id":"levelo_inurba_marseille","lat":43.337444,"lon":5.374475,"is_reserved":false,"is_disabled":false,"rental_uris":{"android":"levelo://app?vid=9ec67a72-4b27-4726-b5bc-30782f712c4d","ios":"levelo://app?vid=9ec67a72-4b27-4726-b5bc-30782f712c4d"},"vehicle_type_id":"4","last_reported":1726906259,"current_range_meters":38400,"station_id":"","pricing_plan_id":"cebpf4jnsgd1na2vs0mg"},{"bike_id":"26dc596b-6f80-4a18-acc0-2be2c8ca11c0","system_id":"levelo_inurba_marseille","lat":43.27215,"lon":5.39182,"is_reserved":false,"is_disabled":false,"rental_uris":{"android":"levelo://app?vid=26dc596b-6f80-4a18-acc0-2be2c8ca11c0","ios":"levelo://app?vid=26dc596b-6f80-4a18-acc0-2be2c8ca11c0"},"vehicle_type_id":"4","last_reported":1726906259,"current_range_meters":38400,"station_id":"ce4bhhp2rcd13ifvqfm0","pricing_plan_id":"cebpf4jnsgd1na2vs0mg"},{"bike_id":"d65cbc32-3a83-4b2e-90d3-f60b7e66b84a","system_id":"levelo_inurba_marseille","lat":43.29562,"lon":5.42293,"is_reserved":false,"is_disabled":false,"rental_uris":{"android":"levelo://app?vid=d65cbc32-3a83-4b2e-90d3-f60b7e66b84a","ios":"levelo://app?vid=d65cbc32-3a83-4b2e-90d3-f60b7e66b84a"},"vehicle_type_id":"4","last_reported":1726906259,"current_range_meters":38000,"station_id":"ce4bhph2rcd13ifvqhdg","pricing_plan_id":"cebpf4jnsgd1na2vs0mg"},{"bike_id":"0c02a2b9-88be-44b2-9d10-e7455afde120","system_id":"levelo_inurba_marseille","lat":43.29614,"lon":5.37726,"is_reserved":false,"is_disabled":false,"rental_uris":{"android":"levelo://app?vid=0c02a2b9-88be-44b2-9d10-e7455afde120","ios":"levelo://app?vid=0c02a2b9-88be-44b2-9d10-e7455afde120"},"vehicle_type_id":"4","last_reported":1726906259,"current_range_meters":4400,"station_id":"ce4bgi92rcd13ifvqb90","pricing_plan_id":"cebpf4jnsgd1na2vs0mg"},{"bike_id":"fe2152b2-64c2-4bf3-b365-7a173e5e6939","system_id":"levelo_inurba_marseille","lat":43.29579,"lon":5.37514,"is_reserved":false,"is_disabled":false,"rental_uris":{"android":"levelo://app?vid=fe2152b2-64c2-4bf3-b365-7a173e5e6939","ios":"levelo://app?vid=fe2152b2-64c2-4bf3-b365-7a173e5e6939"},"vehicle_type_id":"4","last_reported":1726906259,"current_range_meters":38400,"station_id":"ce4bgh92rcd13ifvqb50","pricing_plan_id":"cebpf4jnsgd1na2vs0mg"},{"bike_id":"48a551fb-2db6-4046-ae28-b022de91d86e","system_id":"levelo_inurba_marseille","lat":43.29514,"lon":5.37486,"is_reserved":false,"is_disabled":false,"rental_uris":{"android":"levelo://app?vid=48a551fb-2db6-4046-ae28-b022de91d86e","ios":"levelo://app?vid=48a551fb-2db6-4046-ae28-b022de91d86e"},"vehicle_type_id":"4","last_reported":1726906259,"current_range_meters":38800,"station_id":"ce4bgkp2rcd13ifvqbmg","pricing_plan_id":"cebpf4jnsgd1na2vs0mg"},{"bike_id":"3261e81d-6f13-45a4-ba96-33ed382e28e0","system_id":"levelo_inurba_marseille","lat":43.2808,"lon":5.3965,"is_reserved":false,"is_disabled":false,"rental_uris":{"android":"levelo://app?vid=3261e81d-6f13-45a4-ba96-33ed382e28e0","ios":"levelo://app?vid=3261e81d-6f13-45a4-ba96-33ed382e28e0"},"vehicle_type_id":"4","last_reported":1726906259,"current_range_meters":38400,"station_id":"ce4bho12rcd13ifvqh2g","pricing_plan_id":"cebpf4jnsgd1na2vs0mg"},{"bike_id":"1e1c92ea-4100-48a4-80e0-a529141b8530","system_id":"levelo_inurba_marseille","lat":43.30663,"lon":5.40088,"is_reserved":false,"is_disabled":false,"rental_uris":{"android":"levelo://app?vid=1e1c92ea-4100-48a4-80e0-a529141b8530","ios":"levelo://app?vid=1e1c92ea-4100-48a4-80e0-a529141b8530"},"vehicle_type_id":"4","last_reported":1726906259,"current_range_meters":24000,"station_id":"ce4bh112rcd13ifvqda0","pricing_plan_id":"cebpf4jnsgd1na2vs0mg"},{"bike_id":"81437a93-aba3-423a-96ab-d420c4e83f71","system_id":"levelo_inurba_marseille","lat":43.31761,"lon":5.39012,"is_reserved":false,"is_disabled":false,"rental_uris":{"android":"levelo://app?vid=81437a93-aba3-423a-96ab-d420c4e83f71","ios":"levelo://app?vid=81437a93-aba3-423a-96ab-d420c4e83f71"},"vehicle_type_id":"4","last_reported":1726906259,"current_range_meters":22800,"station_id":"ce4bhqp2rcd13ifvqhng","pricing_plan_id":"cebpf4jnsgd1na2vs0mg"},{"bike_id":"8af8c321-de1a-48b7-85ee-6b8f84590c25","system_id":"levelo_inurba_marseille","lat":43.27186,"lon":5.40996,"is_reserved":false,"is_disabled":false,"rental_uris":{"android":"levelo://app?vid=8af8c321-de1a-48b7-85ee-6b8f84590c25","ios":"levelo://app?vid=8af8c321-de1a-48b7-85ee-6b8f84590c25"},"vehicle_type_id":"4","last_reported":1726906259,"current_range_meters":36800,"station_id":"ce4bhl12rcd13ifvqgf0","pricing_plan_id":"cebpf4jnsgd1na2vs0mg"},{"bike_id":"4cdb29a3-250a-4b85-b491-3b54906467b8","system_id":"levelo_inurba_marseille","lat":43.31757,"lon":5.39033,"is_reserved":false,"is_disabled":false,"rental_uris":{"android":"levelo://app?vid=4cdb29a3-250a-4b85-b491-3b54906467b8","ios":"levelo://app?vid=4cdb29a3-250a-4b85-b491-3b54906467b8"},"vehicle_type_id":"4","last_reported":1726906259,"current_range_meters":20400,"station_id":"ce4bhqp2rcd13ifvqhng","pricing_plan_id":"cebpf4jnsgd1na2vs0mg"},{"bike_id":"7c41281a-b5c2-4204-8c8a-e7cda1244ca8","system_id":"levelo_inurba_marseille","lat":43.2871,"lon":5.37943,"is_reserved":false,"is_disabled":false,"rental_uris":{"android":"levelo://app?vid=7c41281a-b5c2-4204-8c8a-e7cda1244ca8","ios":"levelo://app?vid=7c41281a-b5c2-4204-8c8a-e7cda1244ca8"},"vehicle_type_id":"4","last_reported":1726906259,"current_range_meters":36800,"station_id":"ce4bh9p2rcd13ifvqec0","pricing_plan_id":"cebpf4jnsgd1na2vs0mg"},{"bike_id":"8360ed6d-2fc9-4744-b621-c76e82cc3b28","system_id":"levelo_inurba_marseille","lat":43.2985,"lon":5.36287,"is_reserved":false,"is_disabled":false,"rental_uris":{"android":"levelo://app?vid=8360ed6d-2fc9-4744-b621-c76e82cc3b28","ios":"levelo://app?vid=8360ed6d-2fc9-4744-b621-c76e82cc3b28"},"vehicle_type_id":"4","last_reported":1726906259,"current_range_meters":12800,"station_id":"ce4bgpp2rcd13ifvqc3g","pricing_plan_id":"cebpf4jnsgd1na2vs0mg"},{"bike_id":"4f6cd953-65f5-4d4f-a052-70118d864e1d","system_id":"levelo_inurba_marseille","lat":43.29897,"lon":5.43671,"is_reserved":false,"is_disabled":false,"rental_uris":{"android":"levelo://app?vid=4f6cd953-65f5-4d4f-a052-70118d864e1d","ios":"levelo://app?vid=4f6cd953-65f5-4d4f-a052-70118d864e1d"},"vehicle_type_id":"4","last_reported":1726906259,"current_range_meters":9200,"station_id":"ce4bhpp2rcd13ifvqhfg","pricing_plan_id":"cebpf4jnsgd1na2vs0mg"},{"bike_id":"ade059c3-fdac-479f-aaf2-ec3ec14f57c1","system_id":"levelo_inurba_marseille","lat":43.31895,"lon":5.40735,"is_reserved":false,"is_disabled":false,"rental_uris":{"android":"levelo://app?vid=ade059c3-fdac-479f-aaf2-ec3ec14f57c1","ios":"levelo://app?vid=ade059c3-fdac-479f-aaf2-ec3ec14f57c1"},"vehicle_type_id":"4","last_reported":1726906259,"current_range_meters":12400,"station_id":"ce4bhq12rcd13ifvqhig","pricing_plan_id":"cebpf4jnsgd1na2vs0mg"},{"bike_id":"0d7ab889-fb15-4fff-a20b-d1ee587fade7","system_id":"levelo_inurba_marseille","lat":43.267731,"lon":5.38413,"is_reserved":false,"is_disabled":false,"rental_uris":{"android":"levelo://app?vid=0d7ab889-fb15-4fff-a20b-d1ee587fade7","ios":"levelo://app?vid=0d7ab889-fb15-4fff-a20b-d1ee587fade7"},"vehicle_type_id":"4","last_reported":1726906259,"current_range_meters":22400,"station_id":"ce4bhmp2rcd13ifvqgog","pricing_plan_id":"cebpf4jnsgd1na2vs0mg"},{"bike_id":"b77e7349-7681-4fe6-8776-a07294d279bc","system_id":"levelo_inurba_marseille","lat":43.2931,"lon":5.37473,"is_reserved":false,"is_disabled":false,"rental_uris":{"android":"levelo://app?vid=b77e7349-7681-4fe6-8776-a07294d279bc","ios":"levelo://app?vid=b77e7349-7681-4fe6-8776-a07294d279bc"},"vehicle_type_id":"4","last_reported":1726906259,"current_range_meters":24000,"station_id":"ce4bgi12rcd13ifvqb70","pricing_plan_id":"cebpf4jnsgd1na2vs0mg"},{"bike_id":"74f5db66-e90d-4e66-a035-6694bec9e5e6","system_id":"levelo_inurba_marseille","lat":43.299774,"lon":5.372114,"is_reserved":false,"is_disabled":false,"rental_uris":{"android":"levelo://app?vid=74f5db66-e90d-4e66-a035-6694bec9e5e6","ios":"levelo://app?vid=74f5db66-e90d-4e66-a035-6694bec9e5e6"},"vehicle_type_id":"4","last_reported":1726906259,"current_range_meters":18000,"station_id":"ce4bgr92rcd13ifvqc7g","pricing_plan_id":"cebpf4jnsgd1na2vs0mg"},{"bike_id":"54c9d1f1-f9fb-4d4e-8185-6fb646890270","system_id":"levelo_inurba_marseille","lat":43.31287,"lon":5.40168,"is_reserved":false,"is_disabled":false,"rental_uris":{"android":"levelo://app?vid=54c9d1f1-f9fb-4d4e-8185-6fb646890270","ios":"levelo://app?vid=54c9d1f1-f9fb-4d4e-8185-6fb646890270"},"vehicle_type_id":"4","last_reported":1726906259,"current_range_meters":8400,"station_id":"ce4bh092rcd13ifvqd30","pricing_plan_id":"cebpf4jnsgd1na2vs0mg"},{"bike_id":"c919cd9a-c9fb-4572-ac0c-97f80a66c128","system_id":"levelo_inurba_marseille","lat":43.22928,"lon":5.35376,"is_reserved":false,"is_disabled":false,"rental_uris":{"android":"levelo://app?vid=c919cd9a-c9fb-4572-ac0c-97f80a66c128","ios":"levelo://app?vid=c919cd9a-c9fb-4572-ac0c-97f80a66c128"},"vehicle_type_id":"4","last_reported":1726906259,"current_range_meters":7200,"station_id":"cpo3532slgdg3j2ikp40","pricing_plan_id":"cebpf4jnsgd1na2vs0mg"},{"bike_id":"10586633-f8c9-4011-b51d-09db926cfda0","system_id":"levelo_inurba_marseille","lat":43.31125,"lon":5.37769,"is_reserved":false,"is_disabled":false,"rental_uris":{"android":"levelo://app?vid=10586633-f8c9-4011-b51d-09db926cfda0","ios":"levelo://app?vid=10586633-f8c9-4011-b51d-09db926cfda0"},"vehicle_type_id":"4","last_reported":1726906259,"current_range_meters":26800,"station_id":"ce4bgt92rcd13ifvqcg0","pricing_plan_id":"cebpf4jnsgd1na2vs0mg"},{"bike_id":"2e0ad234-46bd-4aa7-aed9-b44f50fc5c66","system_id":"levelo_inurba_marseille","lat":43.28084,"lon":5.39654,"is_reserved":false,"is_disabled":false,"rental_uris":{"android":"levelo://app?vid=2e0ad234-46bd-4aa7-aed9-b44f50fc5c66","ios":"levelo://app?vid=2e0ad234-46bd-4aa7-aed9-b44f50fc5c66"},"vehicle_type_id":"4","last_reported":1726906259,"current_range_meters":38800,"station_id":"ce4bho12rcd13ifvqh2g","pricing_plan_id":"cebpf4jnsgd1na2vs0mg"},{"bike_id":"284f3c47-c269-4f04-a9b8-bd27a8c13c07","system_id":"levelo_inurba_marseille","lat":43.265062,"lon":5.395378,"is_reserved":false,"is_disabled":false,"rental_uris":{"android":"levelo://app?vid=284f3c47-c269-4f04-a9b8-bd27a8c13c07","ios":"levelo://app?vid=284f3c47-c269-4f04-a9b8-bd27a8c13c07"},"vehicle_type_id":"4","last_reported":1726906259,"current_range_meters":38400,"station_id":"ce4bhi12rcd13ifvqfq0","pricing_plan_id":"cebpf4jnsgd1na2vs0mg"},{"bike_id":"eecbe099-2cdf-4018-8898-2dd34a0362d6","system_id":"levelo_inurba_marseille","lat":43.25112,"lon":5.40338,"is_reserved":false,"is_disabled":false,"rental_uris":{"android":"levelo://app?vid=eecbe099-2cdf-4018-8898-2dd34a0362d6","ios":"levelo://app?vid=eecbe099-2cdf-4018-8898-2dd34a0362d6"},"vehicle_type_id":"4","last_reported":1726906259,"current_range_meters":24400,"station_id":"ce4bhlh2rcd13ifvqgig","pricing_plan_id":"cebpf4jnsgd1na2vs0mg"},{"bike_id":"5a2da216-d42c-41d5-b580-09904f3a8906","system_id":"levelo_inurba_marseille","lat":43.24075,"lon":5.37761,"is_reserved":false,"is_disabled":false,"rental_uris":{"android":"levelo://app?vid=5a2da216-d42c-41d5-b580-09904f3a8906","ios":"levelo://app?vid=5a2da216-d42c-41d5-b580-09904f3a8906"},"vehicle_type_id":"4","last_reported":1726906259,"current_range_meters":28000,"station_id":"ce4bhnp2rcd13ifvqgvg","pricing_plan_id":"cebpf4jnsgd1na2vs0mg"},{"bike_id":"ce38387f-a874-4c18-89e8-601b2a49e470","system_id":"levelo_inurba_marseille","lat":43.29221,"lon":5.36056,"is_reserved":false,"is_disabled":false,"rental_uris":{"android":"levelo://app?vid=ce38387f-a874-4c18-89e8-601b2a49e470","ios":"levelo://app?vid=ce38387f-a874-4c18-89e8-601b2a49e470"},"vehicle_type_id":"4","last_reported":1726906259,"current_range_meters":30400,"station_id":"ce4bhbh2rcd13ifvqeqg","pricing_plan_id":"cebpf4jnsgd1na2vs0mg"},{"bike_id":"58014cc6-4f39-4119-a8a0-cdc0e2507820","system_id":"levelo_inurba_marseille","lat":43.32285,"lon":5.38276,"is_reserved":false,"is_disabled":false,"rental_uris":{"android":"levelo://app?vid=58014cc6-4f39-4119-a8a0-cdc0e2507820","ios":"levelo://app?vid=58014cc6-4f39-4119-a8a0-cdc0e2507820"},"vehicle_type_id":"4","last_reported":1726906259,"current_range_meters":39200,"station_id":"ce4bhr12rcd13ifvqhqg","pricing_plan_id":"cebpf4jnsgd1na2vs0mg"},{"bike_id":"99eeafe6-366f-429a-b8f8-8a504a89203b","system_id":"levelo_inurba_marseille","lat":43.28502,"lon":5.35596,"is_reserved":false,"is_disabled":false,"rental_uris":{"android":"levelo://app?vid=99eeafe6-366f-429a-b8f8-8a504a89203b","ios":"levelo://app?vid=99eeafe6-366f-429a-b8f8-8a504a89203b"},"vehicle_type_id":"4","last_reported":1726906259,"current_range_meters":33600,"station_id":"","pricing_plan_id":"cebpf4jnsgd1na2vs0mg"},{"bike_id":"b97de2b8-887f-4dfc-af33-0557b49fea4f","system_id":"levelo_inurba_marseille","lat":43.273207,"lon":5.390657,"is_reserved":false,"is_disabled":false,"rental_uris":{"android":"levelo://app?vid=b97de2b8-887f-4dfc-af33-0557b49fea4f","ios":"levelo://app?vid=b97de2b8-887f-4dfc-af33-0557b49fea4f"},"vehicle_type_id":"4","last_reported":1726906259,"current_range_meters":14000,"station_id":"ce4bhgp2rcd13ifvqfe0","pricing_plan_id":"cebpf4jnsgd1na2vs0mg"},{"bike_id":"29058ff5-4d24-4c57-9c80-3c616b905bac","system_id":"levelo_inurba_marseille","lat":43.29547,"lon":5.42282,"is_reserved":false,"is_disabled":false,"rental_uris":{"android":"levelo://app?vid=29058ff5-4d24-4c57-9c80-3c616b905bac","ios":"levelo://app?vid=29058ff5-4d24-4c57-9c80-3c616b905bac"},"vehicle_type_id":"4","last_reported":1726906259,"current_range_meters":38000,"station_id":"ce4bhph2rcd13ifvqhdg","pricing_plan_id":"cebpf4jnsgd1na2vs0mg"},{"bike_id":"e126a63b-7f82-43ed-ba09-1eb7c90a032e","system_id":"levelo_inurba_marseille","lat":43.308319,"lon":5.377285,"is_reserved":false,"is_disabled":false,"rental_uris":{"android":"levelo://app?vid=e126a63b-7f82-43ed-ba09-1eb7c90a032e","ios":"levelo://app?vid=e126a63b-7f82-43ed-ba09-1eb7c90a032e"},"vehicle_type_id":"4","last_reported":1726906259,"current_range_meters":6000,"station_id":"ce4bgth2rcd13ifvqch0","pricing_plan_id":"cebpf4jnsgd1na2vs0mg"},{"bike_id":"80856595-8b07-44f9-aa42-567fa33e85a0","system_id":"levelo_inurba_marseille","lat":43.26675,"lon":5.38262,"is_reserved":false,"is_disabled":false,"rental_uris":{"android":"levelo://app?vid=80856595-8b07-44f9-aa42-567fa33e85a0","ios":"levelo://app?vid=80856595-8b07-44f9-aa42-567fa33e85a0"},"vehicle_type_id":"4","last_reported":1726906259,"current_range_meters":28000,"station_id":"ce4bhg92rcd13ifvqf90","pricing_plan_id":"cebpf4jnsgd1na2vs0mg"},{"bike_id":"a689988e-b999-48c3-9d40-21418840ab09","system_id":"levelo_inurba_marseille","lat":43.30156,"lon":5.38079,"is_reserved":false,"is_disabled":false,"rental_uris":{"android":"levelo://app?vid=a689988e-b999-48c3-9d40-21418840ab09","ios":"levelo://app?vid=a689988e-b999-48c3-9d40-21418840ab09"},"vehicle_type_id":"4","last_reported":1726906259,"current_range_meters":15200,"station_id":"ce4bgjp2rcd13ifvqbh0","pricing_plan_id":"cebpf4jnsgd1na2vs0mg"},{"bike_id":"18fcd249-4b06-4cb6-8f92-c844ac6bb288","system_id":"levelo_inurba_marseille","lat":43.29969,"lon":5.38483,"is_reserved":false,"is_disabled":false,"rental_uris":{"android":"levelo://app?vid=18fcd249-4b06-4cb6-8f92-c844ac6bb288","ios":"levelo://app?vid=18fcd249-4b06-4cb6-8f92-c844ac6bb288"},"vehicle_type_id":"4","last_reported":1726906259,"current_range_meters":28400,"station_id":"ce4bgj92rcd13ifvqbd0","pricing_plan_id":"cebpf4jnsgd1na2vs0mg"},{"bike_id":"135a9a01-ae33-4dc2-882a-5fa02e4d035c","system_id":"levelo_inurba_marseille","lat":43.31186,"lon":5.38709,"is_reserved":false,"is_disabled":false,"rental_uris":{"android":"levelo://app?vid=135a9a01-ae33-4dc2-882a-5fa02e4d035c","ios":"levelo://app?vid=135a9a01-ae33-4dc2-882a-5fa02e4d035c"},"vehicle_type_id":"4","last_reported":1726906259,"current_range_meters":38800,"station_id":"ce4bgv12rcd13ifvqcp0","pricing_plan_id":"cebpf4jnsgd1na2vs0mg"},{"bike_id":"bce83964-771d-421d-a795-c2b376c5b9dc","system_id":"levelo_inurba_marseille","lat":43.23197,"lon":5.35548,"is_reserved":false,"is_disabled":false,"rental_uris":{"android":"levelo://app?vid=bce83964-771d-421d-a795-c2b376c5b9dc","ios":"levelo://app?vid=bce83964-771d-421d-a795-c2b376c5b9dc"},"vehicle_type_id":"4","last_reported":1726906259,"current_range_meters":18000,"station_id":"ce4bhu92rcd13ifvqi70","pricing_plan_id":"cebpf4jnsgd1na2vs0mg"},{"bike_id":"81d081ea-4f37-4403-b166-ff001ed56875","system_id":"levelo_inurba_marseille","lat":43.30591,"lon":5.39363,"is_reserved":false,"is_disabled":false,"rental_uris":{"android":"levelo://app?vid=81d081ea-4f37-4403-b166-ff001ed56875","ios":"levelo://app?vid=81d081ea-4f37-4403-b166-ff001ed56875"},"vehicle_type_id":"4","last_reported":1726906259,"current_range_meters":20800,"station_id":"ce4bh0p2rcd13ifvqd80","pricing_plan_id":"cebpf4jnsgd1na2vs0mg"},{"bike_id":"5c4bffed-0019-4b39-a45e-d1fccf257ffb","system_id":"levelo_inurba_marseille","lat":43.31332,"lon":5.39694,"is_reserved":false,"is_disabled":false,"rental_uris":{"android":"levelo://app?vid=5c4bffed-0019-4b39-a45e-d1fccf257ffb","ios":"levelo://app?vid=5c4bffed-0019-4b39-a45e-d1fccf257ffb"},"vehicle_type_id":"4","last_reported":1726906259,"current_range_meters":27600,"station_id":"ce4bgvp2rcd13ifvqcu0","pricing_plan_id":"cebpf4jnsgd1na2vs0mg"},{"bike_id":"f90a267b-7bda-4dfc-a104-d10e13a82276","system_id":"levelo_inurba_marseille","lat":43.24078,"lon":5.37759,"is_reserved":false,"is_disabled":false,"rental_uris":{"android":"levelo://app?vid=f90a267b-7bda-4dfc-a104-d10e13a82276","ios":"levelo://app?vid=f90a267b-7bda-4dfc-a104-d10e13a82276"},"vehicle_type_id":"4","last_reported":1726906259,"current_range_meters":3200,"station_id":"ce4bhnp2rcd13ifvqgvg","pricing_plan_id":"cebpf4jnsgd1na2vs0mg"},{"bike_id":"0624697d-8c65-41da-843d-cfd7c86a55ee","system_id":"levelo_inurba_marseille","lat":43.29168,"lon":5.37161,"is_reserved":false,"is_disabled":false,"rental_uris":{"android":"levelo://app?vid=0624697d-8c65-41da-843d-cfd7c86a55ee","ios":"levelo://app?vid=0624697d-8c65-41da-843d-cfd7c86a55ee"},"vehicle_type_id":"4","last_reported":1726906259,"current_range_meters":9200,"station_id":"ce4bha92rcd13ifvqeh0","pricing_plan_id":"cebpf4jnsgd1na2vs0mg"},{"bike_id":"8837e3d5-2135-40ea-bd27-d3bae066d215","system_id":"levelo_inurba_marseille","lat":43.30606,"lon":5.37227,"is_reserved":false,"is_disabled":false,"rental_uris":{"android":"levelo://app?vid=8837e3d5-2135-40ea-bd27-d3bae066d215","ios":"levelo://app?vid=8837e3d5-2135-40ea-bd27-d3bae066d215"},"vehicle_type_id":"4","last_reported":1726906259,"current_range_meters":30800,"station_id":"ce4bgqh2rcd13ifvqc4g","pricing_plan_id":"cebpf4jnsgd1na2vs0mg"},{"bike_id":"9418d43d-dce8-4f9a-89f8-74e31cd7355a","system_id":"levelo_inurba_marseille","lat":43.30328,"lon":5.40444,"is_reserved":false,"is_disabled":false,"rental_uris":{"android":"levelo://app?vid=9418d43d-dce8-4f9a-89f8-74e31cd7355a","ios":"levelo://app?vid=9418d43d-dce8-4f9a-89f8-74e31cd7355a"},"vehicle_type_id":"4","last_reported":1726906259,"current_range_meters":24400,"station_id":"ce4bh012rcd13ifvqd10","pricing_plan_id":"cebpf4jnsgd1na2vs0mg"},{"bike_id":"ef24a03b-af1b-4494-b785-6b93b60fc9d5","system_id":"levelo_inurba_marseille","lat":43.292694,"lon":5.368441,"is_reserved":false,"is_disabled":false,"rental_uris":{"android":"levelo://app?vid=ef24a03b-af1b-4494-b785-6b93b60fc9d5","ios":"levelo://app?vid=ef24a03b-af1b-4494-b785-6b93b60fc9d5"},"vehicle_type_id":"4","last_reported":1726906259,"current_range_meters":32000,"station_id":"ce4bhbp2rcd13ifvqesg","pricing_plan_id":"cebpf4jnsgd1na2vs0mg"},{"bike_id":"b0c41c06-23d3-4984-b17a-0e1992e02282","system_id":"levelo_inurba_marseille","lat":43.29384,"lon":5.37842,"is_reserved":false,"is_disabled":false,"rental_uris":{"android":"levelo://app?vid=b0c41c06-23d3-4984-b17a-0e1992e02282","ios":"levelo://app?vid=b0c41c06-23d3-4984-b17a-0e1992e02282"},"vehicle_type_id":"4","last_reported":1726906259,"current_range_meters":22000,"station_id":"ce4bgjh2rcd13ifvqbf0","pricing_plan_id":"cebpf4jnsgd1na2vs0mg"},{"bike_id":"ff9eb000-6cfa-4b63-8837-fa22fd27f8bf","system_id":"levelo_inurba_marseille","lat":43.25111,"lon":5.40324,"is_reserved":false,"is_disabled":false,"rental_uris":{"android":"levelo://app?vid=ff9eb000-6cfa-4b63-8837-fa22fd27f8bf","ios":"levelo://app?vid=ff9eb000-6cfa-4b63-8837-fa22fd27f8bf"},"vehicle_type_id":"4","last_reported":1726906259,"current_range_meters":38800,"station_id":"ce4bhlh2rcd13ifvqgig","pricing_plan_id":"cebpf4jnsgd1na2vs0mg"},{"bike_id":"1fde404c-9cf2-4958-aae0-8663260fee10","system_id":"levelo_inurba_marseille","lat":43.33609,"lon":5.41015,"is_reserved":false,"is_disabled":false,"rental_uris":{"android":"levelo://app?vid=1fde404c-9cf2-4958-aae0-8663260fee10","ios":"levelo://app?vid=1fde404c-9cf2-4958-aae0-8663260fee10"},"vehicle_type_id":"4","last_reported":1726906259,"current_range_meters":38800,"station_id":"ce4bhqh2rcd13ifvqhmg","pricing_plan_id":"cebpf4jnsgd1na2vs0mg"},{"bike_id":"773ede1d-a43a-4288-ba6f-24b7c3d922dc","system_id":"levelo_inurba_marseille","lat":43.28619,"lon":5.35103,"is_reserved":false,"is_disabled":false,"rental_uris":{"android":"levelo://app?vid=773ede1d-a43a-4288-ba6f-24b7c3d922dc","ios":"levelo://app?vid=773ede1d-a43a-4288-ba6f-24b7c3d922dc"},"vehicle_type_id":"4","last_reported":1726906259,"current_range_meters":18000,"station_id":"ce4bhch2rcd13ifvqeug","pricing_plan_id":"cebpf4jnsgd1na2vs0mg"},{"bike_id":"daaaabac-b1a7-43ef-88cf-69ae19cb8f65","system_id":"levelo_inurba_marseille","lat":43.30151,"lon":5.38073,"is_reserved":false,"is_disabled":false,"rental_uris":{"android":"levelo://app?vid=daaaabac-b1a7-43ef-88cf-69ae19cb8f65","ios":"levelo://app?vid=daaaabac-b1a7-43ef-88cf-69ae19cb8f65"},"vehicle_type_id":"4","last_reported":1726906259,"current_range_meters":20800,"station_id":"ce4bgjp2rcd13ifvqbh0","pricing_plan_id":"cebpf4jnsgd1na2vs0mg"},{"bike_id":"9409eb56-e002-4986-b690-d4464056aefa","system_id":"levelo_inurba_marseille","lat":43.27308,"lon":5.39091,"is_reserved":false,"is_disabled":false,"rental_uris":{"android":"levelo://app?vid=9409eb56-e002-4986-b690-d4464056aefa","ios":"levelo://app?vid=9409eb56-e002-4986-b690-d4464056aefa"},"vehicle_type_id":"4","last_reported":1726906259,"current_range_meters":6800,"station_id":"ce4bhgp2rcd13ifvqfe0","pricing_plan_id":"cebpf4jnsgd1na2vs0mg"},{"bike_id":"80b6baeb-ba54-4307-a6e1-6281926ae38c","system_id":"levelo_inurba_marseille","lat":43.23188,"lon":5.39977,"is_reserved":false,"is_disabled":false,"rental_uris":{"android":"levelo://app?vid=80b6baeb-ba54-4307-a6e1-6281926ae38c","ios":"levelo://app?vid=80b6baeb-ba54-4307-a6e1-6281926ae38c"},"vehicle_type_id":"4","last_reported":1726906259,"current_range_meters":37600,"station_id":"ce4bhn12rcd13ifvqgqg","pricing_plan_id":"cebpf4jnsgd1na2vs0mg"},{"bike_id":"069afc52-8f6f-4831-97f2-74d021a9a11b","system_id":"levelo_inurba_marseille","lat":43.24808,"lon":5.37457,"is_reserved":false,"is_disabled":false,"rental_uris":{"android":"levelo://app?vid=069afc52-8f6f-4831-97f2-74d021a9a11b","ios":"levelo://app?vid=069afc52-8f6f-4831-97f2-74d021a9a11b"},"vehicle_type_id":"4","last_reported":1726906259,"current_range_meters":32000,"station_id":"ce4bhgh2rcd13ifvqfb0","pricing_plan_id":"cebpf4jnsgd1na2vs0mg"},{"bike_id":"fa2e946d-01fe-4bb4-a2b0-55af60a0bcec","system_id":"levelo_inurba_marseille","lat":43.33728,"lon":5.39181,"is_reserved":false,"is_disabled":false,"rental_uris":{"android":"levelo://app?vid=fa2e946d-01fe-4bb4-a2b0-55af60a0bcec","ios":"levelo://app?vid=fa2e946d-01fe-4bb4-a2b0-55af60a0bcec"},"vehicle_type_id":"4","last_reported":1726906259,"current_range_meters":38000,"station_id":"ce4bhr92rcd13ifvqhsg","pricing_plan_id":"cebpf4jnsgd1na2vs0mg"},{"bike_id":"ee615e7a-964d-4640-bac8-7221d523fdb3","system_id":"levelo_inurba_marseille","lat":43.24649,"lon":5.38889,"is_reserved":false,"is_disabled":false,"rental_uris":{"android":"levelo://app?vid=ee615e7a-964d-4640-bac8-7221d523fdb3","ios":"levelo://app?vid=ee615e7a-964d-4640-bac8-7221d523fdb3"},"vehicle_type_id":"4","last_reported":1726906259,"current_range_meters":38400,"station_id":"ce4bhg12rcd13ifvqf60","pricing_plan_id":"cebpf4jnsgd1na2vs0mg"},{"bike_id":"96f9a91d-428e-493e-b8c0-fcd22d3c14f4","system_id":"levelo_inurba_marseille","lat":43.2319,"lon":5.39985,"is_reserved":false,"is_disabled":false,"rental_uris":{"android":"levelo://app?vid=96f9a91d-428e-493e-b8c0-fcd22d3c14f4","ios":"levelo://app?vid=96f9a91d-428e-493e-b8c0-fcd22d3c14f4"},"vehicle_type_id":"4","last_reported":1726906259,"current_range_meters":38800,"station_id":"ce4bhn12rcd13ifvqgqg","pricing_plan_id":"cebpf4jnsgd1na2vs0mg"},{"bike_id":"6b92d5db-9190-4131-a58b-f1428871f0a3","system_id":"levelo_inurba_marseille","lat":43.2705,"lon":5.40266,"is_reserved":false,"is_disabled":false,"rental_uris":{"android":"levelo://app?vid=6b92d5db-9190-4131-a58b-f1428871f0a3","ios":"levelo://app?vid=6b92d5db-9190-4131-a58b-f1428871f0a3"},"vehicle_type_id":"4","last_reported":1726906259,"current_range_meters":30400,"station_id":"ce4bhk92rcd13ifvqgc0","pricing_plan_id":"cebpf4jnsgd1na2vs0mg"},{"bike_id":"b9b686a7-3257-4d0b-8a82-75ee0d22ab68","system_id":"levelo_inurba_marseille","lat":43.29583,"lon":5.36738,"is_reserved":false,"is_disabled":false,"rental_uris":{"android":"levelo://app?vid=b9b686a7-3257-4d0b-8a82-75ee0d22ab68","ios":"levelo://app?vid=b9b686a7-3257-4d0b-8a82-75ee0d22ab68"},"vehicle_type_id":"4","last_reported":1726906259,"current_range_meters":38800,"station_id":"ce4bgph2rcd13ifvqc2g","pricing_plan_id":"cebpf4jnsgd1na2vs0mg"},{"bike_id":"965a7b23-19df-4560-a17b-e6207e7337c6","system_id":"levelo_inurba_marseille","lat":43.26195,"lon":5.37446,"is_reserved":false,"is_disabled":false,"rental_uris":{"android":"levelo://app?vid=965a7b23-19df-4560-a17b-e6207e7337c6","ios":"levelo://app?vid=965a7b23-19df-4560-a17b-e6207e7337c6"},"vehicle_type_id":"4","last_reported":1726906259,"current_range_meters":30800,"station_id":"ce4bhgp2rcd13ifvqfc0","pricing_plan_id":"cebpf4jnsgd1na2vs0mg"},{"bike_id":"bb7fb1ad-b430-47e9-a8c4-e3b892842699","system_id":"levelo_inurba_marseille","lat":43.31116,"lon":5.37771,"is_reserved":false,"is_disabled":false,"rental_uris":{"android":"levelo://app?vid=bb7fb1ad-b430-47e9-a8c4-e3b892842699","ios":"levelo://app?vid=bb7fb1ad-b430-47e9-a8c4-e3b892842699"},"vehicle_type_id":"4","last_reported":1726906259,"current_range_meters":3200,"station_id":"ce4bgt92rcd13ifvqcg0","pricing_plan_id":"cebpf4jnsgd1na2vs0mg"},{"bike_id":"8a82df45-865b-4da1-95c1-9fdaeebf84f9","system_id":"levelo_inurba_marseille","lat":43.31697,"lon":5.40453,"is_reserved":false,"is_disabled":false,"rental_uris":{"android":"levelo://app?vid=8a82df45-865b-4da1-95c1-9fdaeebf84f9","ios":"levelo://app?vid=8a82df45-865b-4da1-95c1-9fdaeebf84f9"},"vehicle_type_id":"4","last_reported":1726906259,"current_range_meters":38800,"station_id":"ce4bh012rcd13ifvqd00","pricing_plan_id":"cebpf4jnsgd1na2vs0mg"},{"bike_id":"46f2c198-0e86-4df1-8630-6bd6d789cf86","system_id":"levelo_inurba_marseille","lat":43.31327,"lon":5.39694,"is_reserved":false,"is_disabled":false,"rental_uris":{"android":"levelo://app?vid=46f2c198-0e86-4df1-8630-6bd6d789cf86","ios":"levelo://app?vid=46f2c198-0e86-4df1-8630-6bd6d789cf86"},"vehicle_type_id":"4","last_reported":1726906259,"current_range_meters":38000,"station_id":"ce4bgvp2rcd13ifvqcu0","pricing_plan_id":"cebpf4jnsgd1na2vs0mg"},