{"last_updated":1741007943,"ttl":60,"version":"2.2","data":{"bikes":[{"bike_id":"aeeee3d6-2a6c-447c-95cf-ebd2f064d0e5","system_id":"levelo_inurba_marseille","lat":43.28463,"lon":5.38406,"is_reserved":false,"is_disabled":false,"rental_uris":{"android":"levelo://app?vid=aeeee3d6-2a6c-447c-95cf-ebd2f064d0e5","ios":"levelo://app?vid=aeeee3d6-2a6c-447c-95cf-ebd2f064d0e5"},"vehicle_type_id":"4","last_reported":1741007943,"current_range_meters":2800,"station_id":"ce4bh512rcd13ifvqe3g","pricing_plan_id":"cebpf4jnsgd1na2vs0mg"},{"bike_id":"044c6927-2cce-4f72-874b-0ec861249b91","system_id":"levelo_inurba_marseille","lat":43.258248,"lon":5.394363,"is_reserved":false,"is_disabled":false,"rental_uris":{"android":"levelo://app?vid=044c6927-2cce-4f72-874b-0ec861249b91","ios":"levelo://app?vid=044c6927-2cce-4f72-874b-0ec861249b91"},"vehicle_type_id":"4","last_reported":1741007943,"current_range_meters":3200,"station_id":"ce4bhip2rcd13ifvqft0","pricing_plan_id":"cebpf4jnsgd1na2vs0mg"},{"bike_id":"7ae7f010-309a-4180-bf20-25b6decbfaf9","system_id":"levelo_inurba_marseille","lat":43.32104,"lon":5.36765,"is_reserved":false,"is_disabled":false,"rental_uris":{"android":"levelo://app?vid=7ae7f010-309a-4180-bf20-25b6decbfaf9","ios":"levelo://app?vid=7ae7f010-309a-4180-bf20-25b6decbfaf9"},"vehicle_type_id":"4","last_reported":1741007943,"current_range_meters":3200,"station_id":"ce4bhrh2rcd13ifvqhug","pricing_plan_id":"cebpf4jnsgd1na2vs0mg"},{"bike_id":"fe2a57d1-8f14-4d92-90fc-50e4ac16c0d8","system_id":"levelo_inurba_marseille","lat":43.31275,"lon":5.40148,"is_reserved":false,"is_disabled":true,"rental_uris":{"android":"levelo://app?vid=fe2a57d1-8f14-4d92-90fc-50e4ac16c0d8","ios":"levelo://app?vid=fe2a57d1-8f14-4d92-90fc-50e4ac16c0d8"},"vehicle_type_id":"4","last_reported":1741007943,"current_range_meters":3600,"station_id":"ce4bh092rcd13ifvqd30","pricing_plan_id":"cebpf4jnsgd1na2vs0mg"},{"bike_id":"179310c8-4d94-4485-893f-1304ea1aaeda","system_id":"levelo_inurba_marseille","lat":43.30421,"lon":5.41291,"is_reserved":false,"is_disabled":false,"rental_uris":{"android":"levelo://app?vid=179310c8-4d94-4485-893f-1304ea1aaeda","ios":"levelo://app?vid=179310c8-4d94-4485-893f-1304ea1aaeda"},"vehicle_type_id":"4","last_reported":1741007943,"current_range_meters":3600,"station_id":"ce4bhop2rcd13ifvqh8g","pricing_plan_id":"cebpf4jnsgd1na2vs0mg"},{"bike_id":"4495035b-ed8f-413c-a671-44bea6f4d1c8","system_id":"levelo_inurba_marseille","lat":43.27493,"lon":5.42457,"is_reserved":false,"is_disabled":true,"rental_uris":{"android":"levelo://app?vid=4495035b-ed8f-413c-a671-44bea6f4d1c8","ios":"levelo://app?vid=4495035b-ed8f-413c-a671-44bea6f4d1c8"},"vehicle_type_id":"4","last_reported":1741007943,"current_range_meters":4000,"station_id":"ce4bhn92rcd13ifvqgrg","pricing_plan_id":"cebpf4jnsgd1na2vs0mg"},{"bike_id":"d100ddaf-7fdd-4b1a-aaf9-dfed2ce5123a","system_id":"levelo_inurba_marseille","lat":43.25818,"lon":5.3942,"is_reserved":false,"is_disabled":false,"rental_uris":{"android":"levelo://app?vid=d100ddaf-7fdd-4b1a-aaf9-dfed2ce5123a","ios":"levelo://app?vid=d100ddaf-7fdd-4b1a-aaf9-dfed2ce5123a"},"vehicle_type_id":"4","last_reported":1741007943,"current_range_meters":4000,"station_id":"ce4bhip2rcd13ifvqft0","pricing_plan_id":"cebpf4jnsgd1na2vs0mg"},{"bike_id":"f7aa181e-74a6-4fc5-b12e-24eac62067b3","system_id":"levelo_inurba_marseille","lat":43.31349,"lon":5.36694,"is_reserved":false,"is_disabled":false,"rental_uris":{"android":"levelo://app?vid=f7aa181e-74a6-4fc5-b12e-24eac62067b3","ios":"levelo://app?vid=f7aa181e-74a6-4fc5-b12e-24eac62067b3"},"vehicle_type_id":"4","last_reported":1741007943,"current_range_meters":4400,"station_id":"ce4bgr92rcd13ifvqc6g","pricing_plan_id":"cebpf4jnsgd1na2vs0mg"},{"bike_id":"7c26cd75-d05f-4b15-8acb-250da6eb8daf","system_id":"levelo_inurba_marseille","lat":43.30793,"lon":5.3677,"is_reserved":false,"is_disabled":false,"rental_uris":{"android":"levelo://app?vid=7c26cd75-d05f-4b15-8acb-250da6eb8daf","ios":"levelo://app?vid=7c26cd75-d05f-4b15-8acb-250da6eb8daf"},"vehicle_type_id":"4","last_reported":1741007943,"current_range_meters":4400,"station_id":"","pricing_plan_id":"cebpf4jnsgd1na2vs0mg"},{"bike_id":"9b747e7b-7320-46bd-827d-bd3f45644e59","system_id":"levelo_inurba_marseille","lat":43.31685,"lon":5.40472,"is_reserved":false,"is_disabled":false,"rental_uris":{"android":"levelo://app?vid=9b747e7b-7320-46bd-827d-bd3f45644e59","ios":"levelo://app?vid=9b747e7b-7320-46bd-827d-bd3f45644e59"},"vehicle_type_id":"4","last_reported":1741007943,"current_range_meters":4800,"station_id":"ce4bh012rcd13ifvqd00","pricing_plan_id":"cebpf4jnsgd1na2vs0mg"},{"bike_id":"e45eb5f7-4337-4c7a-b9d8-b92ca3bf4b1c","system_id":"levelo_inurba_marseille","lat":43.31705,"lon":5.40451,"is_reserved":false,"is_disabled":false,"rental_uris":{"android":"levelo://app?vid=e45eb5f7-4337-4c7a-b9d8-b92ca3bf4b1c","ios":"levelo://app?vid=e45eb5f7-4337-4c7a-b9d8-b92ca3bf4b1c"},"vehicle_type_id":"4","last_reported":1741007943,"current_range_meters":4800,"station_id":"ce4bh012rcd13ifvqd00","pricing_plan_id":"cebpf4jnsgd1na2vs0mg"},{"bike_id":"acc0a1d6-cbbf-4dac-86eb-21479649051a","system_id":"levelo_inurba_marseille","lat":43.29575,"lon":5.375076,"is_reserved":false,"is_disabled":true,"rental_uris":{"android":"levelo://app?vid=acc0a1d6-cbbf-4dac-86eb-21479649051a","ios":"levelo://app?vid=acc0a1d6-cbbf-4dac-86eb-21479649051a"},"vehicle_type_id":"4","last_reported":1741007943,"current_range_meters":5600,"station_id":"ce4bgh92rcd13ifvqb50","pricing_plan_id":"cebpf4jnsgd1na2vs0mg"},{"bike_id":"3dc7f799-bc46-44e7-bbb5-ad1a0666e85d","system_id":"levelo_inurba_marseille","lat":43.29202,"lon":5.40889,"is_reserved":false,"is_disabled":false,"rental_uris":{"android":"levelo://app?vid=3dc7f799-bc46-44e7-bbb5-ad1a0666e85d","ios":"levelo://app?vid=3dc7f799-bc46-44e7-bbb5-ad1a0666e85d"},"vehicle_type_id":"4","last_reported":1741007943,"current_range_meters":5600,"station_id":"","pricing_plan_id":"cebpf4jnsgd1na2vs0mg"},{"bike_id":"25c11f9a-33de-42ce-a830-c8cdfa3a8474","system_id":"levelo_inurba_marseille","lat":43.28347,"lon":5.38108,"is_reserved":false,"is_disabled":false,"rental_uris":{"android":"levelo://app?vid=25c11f9a-33de-42ce-a830-c8cdfa3a8474","ios":"levelo://app?vid=25c11f9a-33de-42ce-a830-c8cdfa3a8474"},"vehicle_type_id":"4","last_reported":1741007943,"current_range_meters":5600,"station_id":"ce4bh412rcd13ifvqdr0","pricing_plan_id":"cebpf4jnsgd1na2vs0mg"},{"bike_id":"51da148d-156f-4c37-a526-22dad9efe32a","system_id":"levelo_inurba_marseille","lat":43.24051,"lon":5.37758,"is_reserved":false,"is_disabled":false,"rental_uris":{"android":"levelo://app?vid=51da148d-156f-4c37-a526-22dad9efe32a","ios":"levelo://app?vid=51da148d-156f-4c37-a526-22dad9efe32a"},"vehicle_type_id":"4","last_reported":1741007943,"current_range_meters":5600,"station_id":"ce4bhnp2rcd13ifvqgvg","pricing_plan_id":"cebpf4jnsgd1na2vs0mg"},{"bike_id":"7294fa1b-6789-4d34-92da-72d6801cf1aa","system_id":"levelo_inurba_marseille","lat":43.32735,"lon":5.36262,"is_reserved":false,"is_disabled":false,"rental_uris":{"android":"levelo://app?vid=7294fa1b-6789-4d34-92da-72d6801cf1aa","ios":"levelo://app?vid=7294fa1b-6789-4d34-92da-72d6801cf1aa"},"vehicle_type_id":"4","last_reported":1741007943,"current_range_meters":5600,"station_id":"","pricing_plan_id":"cebpf4jnsgd1na2vs0mg"},{"bike_id":"e8dcdfcf-4b4e-432e-9d2f-475e8cd4b0ac","system_id":"levelo_inurba_marseille","lat":43.24173,"lon":5.3639,"is_reserved":false,"is_disabled":false,"rental_uris":{"android":"levelo://app?vid=e8dcdfcf-4b4e-432e-9d2f-475e8cd4b0ac","ios":"levelo://app?vid=e8dcdfcf-4b4e-432e-9d2f-475e8cd4b0ac"},"vehicle_type_id":"4","last_reported":1741007943,"current_range_meters":6000,"station_id":"cpo36qri1sfpv3e86is0","pricing_plan_id":"cebpf4jnsgd1na2vs0mg"},{"bike_id":"a18ffe74-1127-4098-a163-eae9cefa6324","system_id":"levelo_inurba_marseille","lat":43.2797,"lon":5.38736,"is_reserved":false,"is_disabled":false,"rental_uris":{"android":"levelo://app?vid=a18ffe74-1127-4098-a163-eae9cefa6324","ios":"levelo://app?vid=a18ffe74-1127-4098-a163-eae9cefa6324"},"vehicle_type_id":"4","last_reported":1741007943,"current_range_meters":6000,"station_id":"ce4bhg12rcd13ifvqf80","pricing_plan_id":"cebpf4jnsgd1na2vs0mg"},{"bike_id":"8c1b0d3a-0735-43a8-8599-93d987472669","system_id":"levelo_inurba_marseille","lat":43.31753,"lon":5.39017,"is_reserved":false,"is_disabled":false,"rental_uris":{"android":"levelo://app?vid=8c1b0d3a-0735-43a8-8599-93d987472669","ios":"levelo://app?vid=8c1b0d3a-0735-43a8-8599-93d987472669"},"vehicle_type_id":"4","last_reported":1741007943,"current_range_meters":5600,"station_id":"ce4bhqp2rcd13ifvqhng","pricing_plan_id":"cebpf4jnsgd1na2vs0mg"},{"bike_id":"97463e24-59a7-4937-ad9f-f602b5feb163","system_id":"levelo_inurba_marseille","lat":43.28617,"lon":5.3511,"is_reserved":false,"is_disabled":false,"rental_uris":{"android":"levelo://app?vid=97463e24-59a7-4937-ad9f-f602b5feb163","ios":"levelo://app?vid=97463e24-59a7-4937-ad9f-f602b5feb163"},"vehicle_type_id":"4","last_reported":1741007943,"current_range_meters":6000,"station_id":"ce4bhch2rcd13ifvqeug","pricing_plan_id":"cebpf4jnsgd1na2vs0mg"},{"bike_id":"819b6dbb-b2d0-4794-a7c8-79db64d34490","system_id":"levelo_inurba_marseille","lat":43.27693,"lon":5.38901,"is_reserved":false,"is_disabled":false,"rental_uris":{"android":"levelo://app?vid=819b6dbb-b2d0-4794-a7c8-79db64d34490","ios":"levelo://app?vid=819b6dbb-b2d0-4794-a7c8-79db64d34490"},"vehicle_type_id":"4","last_reported":1741007943,"current_range_meters":6400,"station_id":"ce4bhi12rcd13ifvqfo0","pricing_plan_id":"cebpf4jnsgd1na2vs0mg"},{"bike_id":"8a3d5b40-eb12-47f6-995f-1d20a56234be","system_id":"levelo_inurba_marseille","lat":43.30553,"lon":5.36558,"is_reserved":false,"is_disabled":false,"rental_uris":{"android":"levelo://app?vid=8a3d5b40-eb12-47f6-995f-1d20a56234be","ios":"levelo://app?vid=8a3d5b40-eb12-47f6-995f-1d20a56234be"},"vehicle_type_id":"4","last_reported":1741007943,"current_range_meters":6400,"station_id":"ce4bgs12rcd13ifvqcag","pricing_plan_id":"cebpf4jnsgd1na2vs0mg"},{"bike_id":"26dbc20e-0d4f-408e-97a7-913a403a3a92","system_id":"levelo_inurba_marseille","lat":43.25724,"lon":5.41108,"is_reserved":false,"is_disabled":false,"rental_uris":{"android":"levelo://app?vid=26dbc20e-0d4f-408e-97a7-913a403a3a92","ios":"levelo://app?vid=26dbc20e-0d4f-408e-97a7-913a403a3a92"},"vehicle_type_id":"4","last_reported":1741007943,"current_range_meters":6400,"station_id":"ce4bhkp2rcd13ifvqgd0","pricing_plan_id":"cebpf4jnsgd1na2vs0mg"},{"bike_id":"b79e9a12-491e-4c25-a97c-2e5befd48ff8","system_id":"levelo_inurba_marseille","lat":43.27918,"lon":5.39578,"is_reserved":false,"is_disabled":false,"rental_uris":{"android":"levelo://app?vid=b79e9a12-491e-4c25-a97c-2e5befd48ff8","ios":"levelo://app?vid=b79e9a12-491e-4c25-a97c-2e5befd48ff8"},"vehicle_type_id":"4","last_reported":1741007943,"current_range_meters":6400,"station_id":"ce4bhf92rcd13ifvqf40","pricing_plan_id":"cebpf4jnsgd1na2vs0mg"},{"bike_id":"785c3166-cd02-4b23-92a6-0d62d363785d","system_id":"levelo_inurba_marseille","lat":43.31982,"lon":5.38169,"is_reserved":false,"is_disabled":false,"rental_uris":{"android":"levelo://app?vid=785c3166-cd02-4b23-92a6-0d62d363785d","ios":"levelo://app?vid=785c3166-cd02-4b23-92a6-0d62d363785d"},"vehicle_type_id":"4","last_reported":1741007943,"current_range_meters":6400,"station_id":"ce4bhr12rcd13ifvqhpg","pricing_plan_id":"cebpf4jnsgd1na2vs0mg"},{"bike_id":"8daa01ca-6ffc-478e-a215-1b46b7198c15","system_id":"levelo_inurba_marseille","lat":43.24077,"lon":5.37738,"is_reserved":false,"is_disabled":false,"rental_uris":{"android":"levelo://app?vid=8daa01ca-6ffc-478e-a215-1b46b7198c15","ios":"levelo://app?vid=8daa01ca-6ffc-478e-a215-1b46b7198c15"},"vehicle_type_id":"4","last_reported":1741007943,"current_range_meters":6800,"station_id":"ce4bhnp2rcd13ifvqgvg","pricing_plan_id":"cebpf4jnsgd1na2vs0mg"},{"bike_id":"f4c7dd89-b40a-4625-a20e-daa4d466227e","system_id":"levelo_inurba_marseille","lat":43.24068,"lon":5.37737,"is_reserved":false,"is_disabled":false,"rental_uris":{"android":"levelo://app?vid=f4c7dd89-b40a-4625-a20e-daa4d466227e","ios":"levelo://app?vid=f4c7dd89-b40a-4625-a20e-daa4d466227e"},"vehicle_type_id":"4","last_reported":1741007943,"current_range_meters":6800,"station_id":"ce4bhnp2rcd13ifvqgvg","pricing_plan_id":"cebpf4jnsgd1na2vs0mg"},{"bike_id":"218ed5ac-6703-4318-89bd-789d1d2d1841","system_id":"levelo_inurba_marseille","lat":43.27995,"lon":5.40011,"is_reserved":false,"is_disabled":false,"rental_uris":{"android":"levelo://app?vid=218ed5ac-6703-4318-89bd-789d1d2d1841","ios":"levelo://app?vid=218ed5ac-6703-4318-89bd-789d1d2d1841"},"vehicle_type_id":"4","last_reported":1741007943,"current_range_meters":6800,"station_id":"ce4bho92rcd13ifvqh4g","pricing_plan_id":"cebpf4jnsgd1na2vs0mg"},{"bike_id":"9bc3267e-dc24-4fde-93f4-1f0645f1ed22","system_id":"levelo_inurba_marseille","lat":43.30886,"lon":5.37195,"is_reserved":false,"is_disabled":false,"rental_uris":{"android":"levelo://app?vid=9bc3267e-dc24-4fde-93f4-1f0645f1ed22","ios":"levelo://app?vid=9bc3267e-dc24-4fde-93f4-1f0645f1ed22"},"vehicle_type_id":"4","last_reported":1741007943,"current_range_meters":6800,"station_id":"ce4bguh2rcd13ifvqckg","pricing_plan_id":"cebpf4jnsgd1na2vs0mg"},{"bike_id":"ce4026f1-4ad4-4bd2-b171-8829b57aa4f1","system_id":"levelo_inurba_marseille","lat":43.30097,"lon":5.36396,"is_reserved":false,"is_disabled":false,"rental_uris":{"android":"levelo://app?vid=ce4026f1-4ad4-4bd2-b171-8829b57aa4f1","ios":"levelo://app?vid=ce4026f1-4ad4-4bd2-b171-8829b57aa4f1"},"vehicle_type_id":"4","last_reported":1741007943,"current_range_meters":6800,"station_id":"ce4bgnh2rcd13ifvqc0g","pricing_plan_id":"cebpf4jnsgd1na2vs0mg"},{"bike_id":"8883cbf1-731f-4910-bd62-23e25b38666e","system_id":"levelo_inurba_marseille","lat":43.2316,"lon":5.43696,"is_reserved":false,"is_disabled":true,"rental_uris":{"android":"levelo://app?vid=8883cbf1-731f-4910-bd62-23e25b38666e","ios":"levelo://app?vid=8883cbf1-731f-4910-bd62-23e25b38666e"},"vehicle_type_id":"4","last_reported":1741007943,"current_range_meters":6800,"station_id":"ce4bhmp2rcd13ifvqgog","pricing_plan_id":"cebpf4jnsgd1na2vs0mg"},{"bike_id":"5c8b5a6c-0c8f-4be7-9cdc-0fd649eedd34","system_id":"levelo_inurba_marseille","lat":43.23156,"lon":5.4371,"is_reserved":false,"is_disabled":false,"rental_uris":{"android":"levelo://app?vid=5c8b5a6c-0c8f-4be7-9cdc-0fd649eedd34","ios":"levelo://app?vid=5c8b5a6c-0c8f-4be7-9cdc-0fd649eedd34"},"vehicle_type_id":"4","last_reported":1741007943,"current_range_meters":7200,"station_id":"ce4bhmp2rcd13ifvqgog","pricing_plan_id":"cebpf4jnsgd1na2vs0mg"},{"bike_id":"4adb6282-5525-4265-b332-f0effff22887","system_id":"levelo_inurba_marseille","lat":43.2595,"lon":5.40897,"is_reserved":false,"is_disabled":false,"rental_uris":{"android":"levelo://app?vid=4adb6282-5525-4265-b332-f0effff22887","ios":"levelo://app?vid=4adb6282-5525-4265-b332-f0effff22887"},"vehicle_type_id":"4","last_reported":1741007943,"current_range_meters":7200,"station_id":"ce4bhm92rcd13ifvqglg","pricing_plan_id":"cebpf4jnsgd1na2vs0mg"},{"bike_id":"a005d4a9-8416-4b1f-bbe7-9791f67f92d2","system_id":"levelo_inurba_marseille","lat":43.28414,"lon":5.34978,"is_reserved":false,"is_disabled":false,"rental_uris":{"android":"levelo://app?vid=a005d4a9-8416-4b1f-bbe7-9791f67f92d2","ios":"levelo://app?vid=a005d4a9-8416-4b1f-bbe7-9791f67f92d2"},"vehicle_type_id":"4","last_reported":1741007943,"current_range_meters":7200,"station_id":"ce4bhbh2rcd13ifvqepg","pricing_plan_id":"cebpf4jnsgd1na2vs0mg"},{"bike_id":"f5f445fc-f079-40c7-bc8a-369ffc64541a","system_id":"levelo_inurba_marseille","lat":43.26554,"lon":5.38977,"is_reserved":false,"is_disabled":false,"rental_uris":{"android":"levelo://app?vid=f5f445fc-f079-40c7-bc8a-369ffc64541a","ios":"levelo://app?vid=f5f445fc-f079-40c7-bc8a-369ffc64541a"},"vehicle_type_id":"4","last_reported":1741007943,"current_range_meters":7200,"station_id":"ce4bhe12rcd13ifvqf30","pricing_plan_id":"cebpf4jnsgd1na2vs0mg"},{"bike_id":"25eb343a-fbd9-441a-8834-980069854a8b","system_id":"levelo_inurba_marseille","lat":43.244,"lon":5.37049,"is_reserved":false,"is_disabled":false,"rental_uris":{"android":"levelo://app?vid=25eb343a-fbd9-441a-8834-980069854a8b","ios":"levelo://app?vid=25eb343a-fbd9-441a-8834-980069854a8b"},"vehicle_type_id":"4","last_reported":1741007943,"current_range_meters":7200,"station_id":"ce4bhhh2rcd13ifvqfk0","pricing_plan_id":"cebpf4jnsgd1na2vs0mg"},{"bike_id":"9522ef6b-12d5-4fb7-ad55-ff710da190cb","system_id":"levelo_inurba_marseille","lat":43.28935,"lon":5.36636,"is_reserved":false,"is_disabled":false,"rental_uris":{"android":"levelo://app?vid=9522ef6b-12d5-4fb7-ad55-ff710da190cb","ios":"levelo://app?vid=9522ef6b-12d5-4fb7-ad55-ff710da190cb"},"vehicle_type_id":"4","last_reported":1741007943,"current_range_meters":7200,"station_id":"ce4bhap2rcd13ifvqek0","pricing_plan_id":"cebpf4jnsgd1na2vs0mg"},{"bike_id":"81e75a7d-0d2c-4e50-af53-c3213910a14f","system_id":"levelo_inurba_marseille","lat":43.2767,"lon":5.38918,"is_reserved":false,"is_disabled":false,"rental_uris":{"android":"levelo://app?vid=81e75a7d-0d2c-4e50-af53-c3213910a14f","ios":"levelo://app?vid=81e75a7d-0d2c-4e50-af53-c3213910a14f"},"vehicle_type_id":"4","last_reported":1741007943,"current_range_meters":8000,"station_id":"ce4bhi12rcd13ifvqfo0","pricing_plan_id":"cebpf4jnsgd1na2vs0mg"},{"bike_id":"07f2e212-3905-4d9d-b8e8-75cfe1837b05","system_id":"levelo_inurba_marseille","lat":43.27984,"lon":5.38674,"is_reserved":false,"is_disabled":false,"rental_uris":{"android":"levelo://app?vid=07f2e212-3905-4d9d-b8e8-75cfe1837b05","ios":"levelo://app?vid=07f2e212-3905-4d9d-b8e8-75cfe1837b05"},"vehicle_type_id":"4","last_reported":1741007943,"current_range_meters":8000,"station_id":"ce4bhg12rcd13ifvqf80","pricing_plan_id":"cebpf4jnsgd1na2vs0mg"},{"bike_id":"0c14b321-4d75-4c6e-a748-2a5e5c90e9a7","system_id":"levelo_inurba_marseille","lat":43.29579,"lon":5.36741,"is_reserved":false,"is_disabled":false,"rental_uris":{"android":"levelo://app?vid=0c14b321-4d75-4c6e-a748-2a5e5c90e9a7","ios":"levelo://app?vid=0c14b321-4d75-4c6e-a748-2a5e5c90e9a7"},"vehicle_type_id":"4","last_reported":1741007943,"current_range_meters":8000,"station_id":"ce4bgph2rcd13ifvqc2g","pricing_plan_id":"cebpf4jnsgd1na2vs0mg"},{"bike_id":"6496907b-d4d5-4880-9aa3-fc3a9bc77e8a","system_id":"levelo_inurba_marseille","lat":43.281,"lon":5.37822,"is_reserved":false,"is_disabled":false,"rental_uris":{"android":"levelo://app?vid=6496907b-d4d5-4880-9aa3-fc3a9bc77e8a","ios":"levelo://app?vid=6496907b-d4d5-4880-9aa3-fc3a9bc77e8a"},"vehicle_type_id":"4","last_reported":1741007943,"current_range_meters":8000,"station_id":"ce4bha12rcd13ifvqee0","pricing_plan_id":"cebpf4jnsgd1na2vs0mg"},{"bike_id":"e2f8993b-c738-4706-9ce6-5800bd6ffa22","system_id":"levelo_inurba_marseille","lat":43.2455,"lon":5.39515,"is_reserved":false,"is_disabled":false,"rental_uris":{"android":"levelo://app?vid=e2f8993b-c738-4706-9ce6-5800bd6ffa22","ios":"levelo://app?vid=e2f8993b-c738-4706-9ce6-5800bd6ffa22"},"vehicle_type_id":"4","last_reported":1741007943,"current_range_meters":8000,"station_id":"ce4bhlp2rcd13ifvqgjg","pricing_plan_id":"cebpf4jnsgd1na2vs0mg"},{"bike_id":"96825478-5d07-4d4d-87d9-2b762c7d51be","system_id":"levelo_inurba_marseille","lat":43.27964,"lon":5.38734,"is_reserved":false,"is_disabled":false,"rental_uris":{"android":"levelo://app?vid=96825478-5d07-4d4d-87d9-2b762c7d51be","ios":"levelo://app?vid=96825478-5d07-4d4d-87d9-2b762c7d51be"},"vehicle_type_id":"4","last_reported":1741007943,"current_range_meters":8000,"station_id":"ce4bhg12rcd13ifvqf80","pricing_plan_id":"cebpf4jnsgd1na2vs0mg"},{"bike_id":"a00d07f9-31d2-4a8d-b4d8-0444819c818f","system_id":"levelo_inurba_marseille","lat":43.24084,"lon":5.3775,"is_reserved":false,"is_disabled":false,"rental_uris":{"android":"levelo://app?vid=a00d07f9-31d2-4a8d-b4d8-0444819c818f","ios":"levelo://app?vid=a00d07f9-31d2-4a8d-b4d8-0444819c818f"},"vehicle_type_id":"4","last_reported":1741007943,"current_range_meters":8000,"station_id":"ce4bhnp2rcd13ifvqgvg","pricing_plan_id":"cebpf4jnsgd1na2vs0mg"},{"bike_id":"5cd0c11b-f9d6-428f-9f34-0abc9c264bfe","system_id":"levelo_inurba_marseille","lat":43.27997,"lon":5.41662,"is_reserved":false,"is_disabled":false,"rental_uris":{"android":"levelo://app?vid=5cd0c11b-f9d6-428f-9f34-0abc9c264bfe","ios":"levelo://app?vid=5cd0c11b-f9d6-428f-9f34-0abc9c264bfe"},"vehicle_type_id":"4","last_reported":1741007943,"current_range_meters":8000,"station_id":"ce4bho12rcd13ifvqh1g","pricing_plan_id":"cebpf4jnsgd1na2vs0mg"},{"bike_id":"930c6040-432d-45cd-843d-a0fafcbf7eca","system_id":"levelo_inurba_marseille","lat":43.33609,"lon":5.41029,"is_reserved":false,"is_disabled":false,"rental_uris":{"android":"levelo://app?vid=930c6040-432d-45cd-843d-a0fafcbf7eca","ios":"levelo://app?vid=930c6040-432d-45cd-843d-a0fafcbf7eca"},"vehicle_type_id":"4","last_reported":1741007943,"current_range_meters":8000,"station_id":"ce4bhqh2rcd13ifvqhmg","pricing_plan_id":"cebpf4jnsgd1na2vs0mg"},{"bike_id":"4c938809-e067-4149-90d9-948cba972e61","system_id":"levelo_inurba_marseille","lat":43.29628,"lon":5.37175,"is_reserved":false,"is_disabled":false,"rental_uris":{"android":"levelo://app?vid=4c938809-e067-4149-90d9-948cba972e61","ios":"levelo://app?vid=4c938809-e067-4149-90d9-948cba972e61"},"vehicle_type_id":"4","last_reported":1741007943,"current_range_meters":8000,"station_id":"ce4bgnh2rcd13ifvqc0g","pricing_plan_id":"cebpf4jnsgd1na2vs0mg"},{"bike_id":"db7eb58c-06eb-48bc-a48e-2a4f7d7213f3","system_id":"levelo_inurba_marseille","lat":43.2875,"lon":5.389663,"is_reserved":false,"is_disabled":false,"rental_uris":{"android":"levelo://app?vid=db7eb58c-06eb-48bc-a48e-2a4f7d7213f3","ios":"levelo://app?vid=db7eb58c-06eb-48bc-a48e-2a4f7d7213f3"},"vehicle_type_id":"4","last_reported":1741007943,"current_range_meters":8000,"station_id":"ce4bh0h2rcd13ifvqd50","pricing_plan_id":"cebpf4jnsgd1na2vs0mg"},{"bike_id":"e3784f16-57ff-40bd-82c4-b883b42caaff","system_id":"levelo_inurba_marseille","lat":43.24665,"lon":5.38166,"is_reserved":false,"is_disabled":false,"rental_uris":{"android":"levelo://app?vid=e3784f16-57ff-40bd-82c4-b883b42caaff","ios":"levelo://app?vid=e3784f16-57ff-40bd-82c4-b883b42caaff"},"vehicle_type_id":"4","last_reported":1741007943,"current_range_meters":8400,"station_id":"ce4bhih2rcd13ifvqfr0","pricing_plan_id":"cebpf4jnsgd1na2vs0mg"},{"bike_id":"bed6cdb7-0b7d-4f35-827e-40a00535ccf7","system_id":"levelo_inurba_marseille","lat":43.2407,"lon":5.37757,"is_reserved":false,"is_disabled":false,"rental_uris":{"android":"levelo://app?vid=bed6cdb7-0b7d-4f35-827e-40a00535ccf7","ios":"levelo://app?vid=bed6cdb7-0b7d-4f35-827e-40a00535ccf7"},"vehicle_type_id":"4","last_reported":1741007943,"current_range_meters":8400,"station_id":"ce4bhnp2rcd13ifvqgvg","pricing_plan_id":"cebpf4jnsgd1na2vs0mg"},{"bike_id":"20a380d4-7471-46e1-b0a2-51edcb9a5ae0","system_id":"levelo_inurba_marseille","lat":43.2657,"lon":5.39039,"is_reserved":false,"is_disabled":false,"rental_uris":{"android":"levelo://app?vid=20a380d4-7471-46e1-b0a2-51edcb9a5ae0","ios":"levelo://app?vid=20a380d4-7471-46e1-b0a2-51edcb9a5ae0"},"vehicle_type_id":"4","last_reported":1741007943,"current_range_meters":8400,"station_id":"ce4bhe12rcd13ifvqf30","pricing_plan_id":"cebpf4jnsgd1na2vs0mg"},{"bike_id":"62cb9369-fe1d-4e5e-a7a6-fc6667af0d21","system_id":"levelo_inurba_marseille","lat":43.28106,"lon":5.37831,"is_reserved":false,"is_disabled":false,"rental_uris":{"android":"levelo://app?vid=62cb9369-fe1d-4e5e-a7a6-fc6667af0d21","ios":"levelo://app?vid=62cb9369-fe1d-4e5e-a7a6-fc6667af0d21"},"vehicle_type_id":"4","last_reported":1741007943,"current_range_meters":8400,"station_id":"ce4bha12rcd13ifvqee0","pricing_plan_id":"cebpf4jnsgd1na2vs0mg"},{"bike_id":"9f2f0fee-89b0-47d1-a572-c74294899106","system_id":"levelo_inurba_marseille","lat":43.24079,"lon":5.3775,"is_reserved":false,"is_disabled":false,"rental_uris":{"android":"levelo://app?vid=9f2f0fee-89b0-47d1-a572-c74294899106","ios":"levelo://app?vid=9f2f0fee-89b0-47d1-a572-c74294899106"},"vehicle_type_id":"4","last_reported":1741007943,"current_range_meters":8400,"station_id":"ce4bhnp2rcd13ifvqgvg","pricing_plan_id":"cebpf4jnsgd1na2vs0mg"},{"bike_id":"8fa4365e-b7e4-4900-8889-1714380302ed","system_id":"levelo_inurba_marseille","lat":43.27807,"lon":5.407091,"is_reserved":false,"is_disabled":false,"rental_uris":{"android":"levelo://app?vid=8fa4365e-b7e4-4900-8889-1714380302ed","ios":"levelo://app?vid=8fa4365e-b7e4-4900-8889-1714380302ed"},"vehicle_type_id":"4","last_reported":1741007943,"current_range_meters":8800,"station_id":"ce4bhnh2rcd13ifvqgtg","pricing_plan_id":"cebpf4jnsgd1na2vs0mg"},{"bike_id":"b3d7cfd3-0f01-4cb5-a5dd-efabf43204dd","system_id":"levelo_inurba_marseille","lat":43.29874,"lon":5.39743,"is_reserved":false,"is_disabled":false,"rental_uris":{"android":"levelo://app?vid=b3d7cfd3-0f01-4cb5-a5dd-efabf43204dd","ios":"levelo://app?vid=b3d7cfd3-0f01-4cb5-a5dd-efabf43204dd"},"vehicle_type_id":"4","last_reported":1741007943,"current_range_meters":8800,"station_id":"ce4bh0h2rcd13ifvqd50","pricing_plan_id":"cebpf4jnsgd1na2vs0mg"},{"bike_id":"0d8b6d6a-d506-4526-98e0-bf4b846eee50","system_id":"levelo_inurba_marseille","lat":43.28481,"lon":5.38392,"is_reserved":false,"is_disabled":false,"rental_uris":{"android":"levelo://app?vid=0d8b6d6a-d506-4526-98e0-bf4b846eee50","ios":"levelo://app?vid=0d8b6d6a-d506-4526-98e0-bf4b846eee50"},"vehicle_type_id":"4","last_reported":1741007943,"current_range_meters":8800,"station_id":"ce4bh512rcd13ifvqe3g","pricing_plan_id":"cebpf4jnsgd1na2vs0mg"},{"bike_id":"7cf1fd01-db90-4679-a6bb-9832c62fcefa","system_id":"levelo_inurba_marseille","lat":43.26059,"lon":5.39391,"is_reserved":false,"is_disabled":false,"rental_uris":{"android":"levelo://app?vid=7cf1fd01-db90-4679-a6bb-9832c62fcefa","ios":"levelo://app?vid=7cf1fd01-db90-4679-a6bb-9832c62fcefa"},"vehicle_type_id":"4","last_reported":1741007943,"current_range_meters":8800,"station_id":"ce4bhh92rcd13ifvqfj0","pricing_plan_id":"cebpf4jnsgd1na2vs0mg"},{"bike_id":"403aebdd-e473-47c3-976a-b0f7f414f63a","system_id":"levelo_inurba_marseille","lat":43.28275,"lon":5.35067,"is_reserved":false,"is_disabled":false,"rental_uris":{"android":"levelo://app?vid=403aebdd-e473-47c3-976a-b0f7f414f63a","ios":"levelo://app?vid=403aebdd-e473-47c3-976a-b0f7f414f63a"},"vehicle_type_id":"4","last_reported":1741007943,"current_range_meters":8800,"station_id":"ce4bhbp2rcd13ifvqerg","pricing_plan_id":"cebpf4jnsgd1na2vs0mg"},{"bike_id":"f3e9d379-d7be-4309-8564-ea085fcf0eb6","system_id":"levelo_inurba_marseille","lat":43.28266,"lon":5.35065,"is_reserved":false,"is_disabled":false,"rental_uris":{"android":"levelo://app?vid=f3e9d379-d7be-4309-8564-ea085fcf0eb6","ios":"levelo://app?vid=f3e9d379-d7be-4309-8564-ea085fcf0eb6"},"vehicle_type_id":"4","last_reported":1741007943,"current_range_meters":8400,"station_id":"ce4bhbp2rcd13ifvqerg","pricing_plan_id":"cebpf4jnsgd1na2vs0mg"},{"bike_id":"5da70b26-5045-4fcf-85cf-7f68a925e135","system_id":"levelo_inurba_marseille","lat":43.28001,"lon":5.41665,"is_reserved":false,"is_disabled":false,"rental_uris":{"android":"levelo://app?vid=5da70b26-5045-4fcf-85cf-7f68a925e135","ios":"levelo://app?vid=5da70b26-5045-4fcf-85cf-7f68a925e135"},"vehicle_type_id":"4","last_reported":1741007943,"current_range_meters":8800,"station_id":"ce4bho12rcd13ifvqh1g","pricing_plan_id":"cebpf4jnsgd1na2vs0mg"},{"bike_id":"0fca0d86-539a-4bbc-822f-78228a99a620","system_id":"levelo_inurba_marseille","lat":43.33032,"lon":5.39016,"is_reserved":false,"is_disabled":true,"rental_uris":{"android":"levelo://app?vid=0fca0d86-539a-4bbc-822f-78228a99a620","ios":"levelo://app?vid=0fca0d86-539a-4bbc-822f-78228a99a620"},"vehicle_type_id":"4","last_reported":1741007943,"current_range_meters":8800,"station_id":"ce4bhr92rcd13ifvqhrg","pricing_plan_id":"cebpf4jnsgd1na2vs0mg"},{"bike_id":"a8c1aea9-e89b-4c4f-9a4f-1da2fe974ed5","system_id":"levelo_inurba_marseille","lat":43.28045,"lon":5.36602,"is_reserved":false,"is_disabled":false,"rental_uris":{"android":"levelo://app?vid=a8c1aea9-e89b-4c4f-9a4f-1da2fe974ed5","ios":"levelo://app?vid=a8c1aea9-e89b-4c4f-9a4f-1da2fe974ed5"},"vehicle_type_id":"4","last_reported":1741007943,"current_range_meters":8800,"station_id":"","pricing_plan_id":"cebpf4jnsgd1na2vs0mg"},{"bike_id":"1808ccc6-d295-4f5e-beb6-1400f13c98a2","system_id":"levelo_inurba_marseille","lat":43.28147,"lon":5.42648,"is_reserved":false,"is_disabled":false,"rental_uris":{"android":"levelo://app?vid=1808ccc6-d295-4f5e-beb6-1400f13c98a2","ios":"levelo://app?vid=1808ccc6-d295-4f5e-beb6-1400f13c98a2"},"vehicle_type_id":"4","last_reported":1741007943,"current_range_meters":9200,"station_id":"ce4bhnh2rcd13ifvqgug","pricing_plan_id":"cebpf4jnsgd1na2vs0mg"},{"bike_id":"f79bbb56-6628-4421-8f06-62f2d1467284","system_id":"levelo_inurba_marseille","lat":43.24996,"lon":5.38987,"is_reserved":false,"is_disabled":false,"rental_uris":{"android":"levelo://app?vid=f79bbb56-6628-4421-8f06-62f2d1467284","ios":"levelo://app?vid=f79bbb56-6628-4421-8f06-62f2d1467284"},"vehicle_type_id":"4","last_reported":1741007943,"current_range_meters":9200,"station_id":"","pricing_plan_id":"cebpf4jnsgd1na2vs0mg"},{"bike_id":"0594f139-e507-4242-b4d2-1eccd19079ba","system_id":"levelo_inurba_marseille","lat":43.29622,"lon":5.37151,"is_reserved":false,"is_disabled":false,"rental_uris":{"android":"levelo://app?vid=0594f139-e507-4242-b4d2-1eccd19079ba","ios":"levelo://app?vid=0594f139-e507-4242-b4d2-1eccd19079ba"},"vehicle_type_id":"4","last_reported":1741007943,"current_range_meters":9200,"station_id":"ce4bgnh2rcd13ifvqc0g","pricing_plan_id":"cebpf4jnsgd1na2vs0mg"},{"bike_id":"fd32c1c7-6ec8-489e-8d74-a0f7dd65b30c","system_id":"levelo_inurba_marseille","lat":43.23133,"lon":5.4373,"is_reserved":false,"is_disabled":false,"rental_uris":{"android":"levelo://app?vid=fd32c1c7-6ec8-489e-8d74-a0f7dd65b30c","ios":"levelo://app?vid=fd32c1c7-6ec8-489e-8d74-a0f7dd65b30c"},"vehicle_type_id":"4","last_reported":1741007943,"current_range_meters":9200,"station_id":"ce4bhmp2rcd13ifvqgog","pricing_plan_id":"cebpf4jnsgd1na2vs0mg"},{"bike_id":"2826b172-6eb3-4cfa-b97a-bffa76e9c9ac","system_id":"levelo_inurba_marseille","lat":43.28613,"lon":5.35111,"is_reserved":false,"is_disabled":false,"rental_uris":{"android":"levelo://app?vid=2826b172-6eb3-4cfa-b97a-bffa76e9c9ac","ios":"levelo://app?vid=2826b172-6eb3-4cfa-b97a-bffa76e9c9ac"},"vehicle_type_id":"4","last_reported":1741007943,"current_range_meters":9600,"station_id":"ce4bhch2rcd13ifvqeug","pricing_plan_id":"cebpf4jnsgd1na2vs0mg"},{"bike_id":"618df4b6-8fd4-4ef1-b13a-45a74fe4b862","system_id":"levelo_inurba_marseille","lat":43.24073,"lon":5.37742,"is_reserved":false,"is_disabled":false,"rental_uris":{"android":"levelo://app?vid=618df4b6-8fd4-4ef1-b13a-45a74fe4b862","ios":"levelo://app?vid=618df4b6-8fd4-4ef1-b13a-45a74fe4b862"},"vehicle_type_id":"4","last_reported":1741007943,"current_range_meters":9600,"station_id":"ce4bhnp2rcd13ifvqgvg","pricing_plan_id":"cebpf4jnsgd1na2vs0mg"},{"bike_id":"e7fa1d08-d036-4166-a2b8-505da2d9a188","system_id":"levelo_inurba_marseille","lat":43.29274,"lon":5.40126,"is_reserved":false,"is_disabled":false,"rental_uris":{"android":"levelo://app?vid=e7fa1d08-d036-4166-a2b8-505da2d9a188","ios":"levelo://app?vid=e7fa1d08-d036-4166-a2b8-505da2d9a188"},"vehicle_type_id":"4","last_reported":1741007943,"current_range_meters":9600,"station_id":"ce4bh312rcd13ifvqdk0","pricing_plan_id":"cebpf4jnsgd1na2vs0mg"},{"bike_id":"a2cf33ae-b1c9-4e00-8411-7c156cd68836","system_id":"levelo_inurba_marseille","lat":43.28264,"lon":5.35078,"is_reserved":false,"is_disabled":false,"rental_uris":{"android":"levelo://app?vid=a2cf33ae-b1c9-4e00-8411-7c156cd68836","ios":"levelo://app?vid=a2cf33ae-b1c9-4e00-8411-7c156cd68836"},"vehicle_type_id":"4","last_reported":1741007943,"current_range_meters":9200,"station_id":"ce4bhbp2rcd13ifvqerg","pricing_plan_id":"cebpf4jnsgd1na2vs0mg"},{"bike_id":"eb0244f3-e4bf-4408-a10a-3d9b0bd124b7","system_id":"levelo_inurba_marseille","lat":43.24679,"lon":5.38138,"is_reserved":false,"is_disabled":false,"rental_uris":{"android":"levelo://app?vid=eb0244f3-e4bf-4408-a10a-3d9b0bd124b7","ios":"levelo://app?vid=eb0244f3-e4bf-4408-a10a-3d9b0bd124b7"},"vehicle_type_id":"4","last_reported":1741007943,"current_range_meters":9600,"station_id":"ce4bhih2rcd13ifvqfr0","pricing_plan_id":"cebpf4jnsgd1na2vs0mg"},{"bike_id":"d52c774d-8b41-4bc2-90cd-3de09cb0a100","system_id":"levelo_inurba_marseille","lat":43.24156,"lon":5.36435,"is_reserved":false,"is_disabled":false,"rental_uris":{"android":"levelo://app?vid=d52c774d-8b41-4bc2-90cd-3de09cb0a100","ios":"levelo://app?vid=d52c774d-8b41-4bc2-90cd-3de09cb0a100"},"vehicle_type_id":"4","last_reported":1741007943,"current_range_meters":10800,"station_id":"cpo36qri1sfpv3e86is0","pricing_plan_id":"cebpf4jnsgd1na2vs0mg"},{"bike_id":"a9b562fc-6d96-4c06-a149-e6b9630324d5","system_id":"levelo_inurba_marseille","lat":43.23058,"lon":5.355,"is_reserved":false,"is_disabled":false,"rental_uris":{"android":"levelo://app?vid=a9b562fc-6d96-4c06-a149-e6b9630324d5","ios":"levelo://app?vid=a9b562fc-6d96-4c06-a149-e6b9630324d5"},"vehicle_type_id":"4","last_reported":1741007943,"current_range_meters":10000,"station_id":"cpo3342slgdg3j2ifvpg","pricing_plan_id":"cebpf4jnsgd1na2vs0mg"},{"bike_id":"6500699d-c4d0-43e8-8973-0f682c36684d","system_id":"levelo_inurba_marseille","lat":43.23183,"lon":5.43703,"is_reserved":false,"is_disabled":false,"rental_uris":{"android":"levelo://app?vid=6500699d-c4d0-43e8-8973-0f682c36684d","ios":"levelo://app?vid=6500699d-c4d0-43e8-8973-0f682c36684d"},"vehicle_type_id":"4","last_reported":1741007943,"current_range_meters":10000,"station_id":"ce4bhmp2rcd13ifvqgog","pricing_plan_id":"cebpf4jnsgd1na2vs0mg"},{"bike_id":"d932bbea-358e-459b-9177-1fe9ce632c3a","system_id":"levelo_inurba_marseille","lat":43.29256,"lon":5.40902,"is_reserved":false,"is_disabled":false,"rental_uris":{"android":"levelo://app?vid=d932bbea-358e-459b-9177-1fe9ce632c3a","ios":"levelo://app?vid=d932bbea-358e-459b-9177-1fe9ce632c3a"},"vehicle_type_id":"4","last_reported":1741007943,"current_range_meters":10000,"station_id":"ce4bh192rcd13ifvqdc0","pricing_plan_id":"cebpf4jnsgd1na2vs0mg"},{"bike_id":"97877b57-7853-4a58-b0b1-6aa4af1e67fa","system_id":"levelo_inurba_marseille","lat":43.30529,"lon":5.36554,"is_reserved":false,"is_disabled":false,"rental_uris":{"android":"levelo://app?vid=97877b57-7853-4a58-b0b1-6aa4af1e67fa","ios":"levelo://app?vid=97877b57-7853-4a58-b0b1-6aa4af1e67fa"},"vehicle_type_id":"4","last_reported":1741007943,"current_range_meters":10000,"station_id":"ce4bgs12rcd13ifvqcag","pricing_plan_id":"cebpf4jnsgd1na2vs0mg"},{"bike_id":"1f443740-8946-4d48-9b52-4b4a108aa5f0","system_id":"levelo_inurba_marseille","lat":43.25954,"lon":5.40892,"is_reserved":false,"is_disabled":false,"rental_uris":{"android":"levelo://app?vid=1f443740-8946-4d48-9b52-4b4a108aa5f0","ios":"levelo://app?vid=1f443740-8946-4d48-9b52-4b4a108aa5f0"},"vehicle_type_id":"4","last_reported":1741007943,"current_range_meters":10000,"station_id":"ce4bhm92rcd13ifvqglg","pricing_plan_id":"cebpf4jnsgd1na2vs0mg"},{"bike_id":"c8c30254-af6a-4a88-b0b6-9a3a52022bea","system_id":"levelo_inurba_marseille","lat":43.32448,"lon":5.42683,"is_reserved":false,"is_disabled":false,"rental_uris":{"android":"levelo://app?vid=c8c30254-af6a-4a88-b0b6-9a3a52022bea","ios":"levelo://app?vid=c8c30254-af6a-4a88-b0b6-9a3a52022bea"},"vehicle_type_id":"4","last_reported":1741007943,"current_range_meters":10800,"station_id":"","pricing_plan_id":"cebpf4jnsgd1na2vs0mg"},{"bike_id":"b0b9f422-d52f-4168-bc65-01f07a1994f8","system_id":"levelo_inurba_marseille","lat":43.25119,"lon":5.40312,"is_reserved":false,"is_disabled":false,"rental_uris":{"android":"levelo://app?vid=b0b9f422-d52f-4168-bc65-01f07a1994f8","ios":"levelo://app?vid=b0b9f422-d52f-4168-bc65-01f07a1994f8"},"vehicle_type_id":"4","last_reported":1741007943,"current_range_meters":10000,"station_id":"ce4bhlh2rcd13ifvqgig","pricing_plan_id":"cebpf4jnsgd1na2vs0mg"},{"bike_id":"8223b746-587e-4861-b0af-1323fd0537ef","system_id":"levelo_inurba_marseille","lat":43.23157,"lon":5.43724,"is_reserved":false,"is_disabled":false,"rental_uris":{"android":"levelo://app?vid=8223b746-587e-4861-b0af-1323fd0537ef","ios":"levelo://app?vid=8223b746-587e-4861-b0af-1323fd0537ef"},"vehicle_type_id":"4","last_reported":1741007943,"current_range_meters":10800,"station_id":"ce4bhmp2rcd13ifvqgog","pricing_plan_id":"cebpf4jnsgd1na2vs0mg"},{"bike_id":"8ab0ef86-e8f0-4653-a983-d820c9bb5f3f","system_id":"levelo_inurba_marseille","lat":43.28072,"lon":5.39659,"is_reserved":false,"is_disabled":false,"rental_uris":{"android":"levelo://app?vid=8ab0ef86-e8f0-4653-a983-d820c9bb5f3f","ios":"levelo://app?vid=8ab0ef86-e8f0-4653-a983-d820c9bb5f3f"},"vehicle_type_id":"4","last_reported":1741007943,"current_range_meters":10800,"station_id":"ce4bho12rcd13ifvqh2g","pricing_plan_id":"cebpf4jnsgd1na2vs0mg"},{"bike_id":"8ade5181-cd88-4ece-8534-46a6372826ef","system_id":"levelo_inurba_marseille","lat":43.27695,"lon":5.41537,"is_reserved":false,"is_disabled":false,"rental_uris":{"android":"levelo://app?vid=8ade5181-cd88-4ece-8534-46a6372826ef","ios":"levelo://app?vid=8ade5181-cd88-4ece-8534-46a6372826ef"},"vehicle_type_id":"4","last_reported":1741007943,"current_range_meters":10800,"station_id":"","pricing_plan_id":"cebpf4jnsgd1na2vs0mg"},{"bike_id":"100fcaf6-edb5-4701-9431-b8defb642405","system_id":"levelo_inurba_marseille","lat":43.243934,"lon":5.370532,"is_reserved":false,"is_disabled":false,"rental_uris":{"android":"levelo://app?vid=100fcaf6-edb5-4701-9431-b8defb642405","ios":"levelo://app?vid=100fcaf6-edb5-4701-9431-b8defb642405"},"vehicle_type_id":"4","last_reported":1741007943,"current_range_meters":10800,"station_id":"ce4bhhh2rcd13ifvqfk0","pricing_plan_id":"cebpf4jnsgd1na2vs0mg"},{"bike_id":"22f4ae67-a547-46cc-9e2f-ac043e2026af","system_id":"levelo_inurba_marseille","lat":43.27071,"lon":5.42276,"is_reserved":false,"is_disabled":false,"rental_uris":{"android":"levelo://app?vid=22f4ae67-a547-46cc-9e2f-ac043e2026af","ios":"levelo://app?vid=22f4ae67-a547-46cc-9e2f-ac043e2026af"},"vehicle_type_id":"4","last_reported":1741007943,"current_range_meters":10800,"station_id":"ce4bhk92rcd13ifvqgb0","pricing_plan_id":"cebpf4jnsgd1na2vs0mg"},{"bike_id":"c11fdd45-99e0-4676-8c8e-e8f9d1bb40b5","system_id":"levelo_inurba_marseille","lat":43.27938,"lon":5.41044,"is_reserved":false,"is_disabled":false,"rental_uris":{"android":"levelo://app?vid=c11fdd45-99e0-4676-8c8e-e8f9d1bb40b5","ios":"levelo://app?vid=c11fdd45-99e0-4676-8c8e-e8f9d1bb40b5"},"vehicle_type_id":"4","last_reported":1741007943,"current_range_meters":11200,"station_id":"ce4bhnp2rcd13ifvqh0g","pricing_plan_id":"cebpf4jnsgd1na2vs0mg"},{"bike_id":"71cd5d9d-c4a9-4d7f-b25c-bd7ceef0b27e","system_id":"levelo_inurba_marseille","lat":43.31271,"lon":5.37749,"is_reserved":false,"is_disabled":false,"rental_uris":{"android":"levelo://app?vid=71cd5d9d-c4a9-4d7f-b25c-bd7ceef0b27e","ios":"levelo://app?vid=71cd5d9d-c4a9-4d7f-b25c-bd7ceef0b27e"},"vehicle_type_id":"4","last_reported":1741007943,"current_range_meters":11200,"station_id":"","pricing_plan_id":"cebpf4jnsgd1na2vs0mg"},{"bike_id":"6edca879-4e02-414d-be09-8ae2508a940a","system_id":"levelo_inurba_marseille","lat":43.25494,"lon":5.3765,"is_reserved":false,"is_disabled":false,"rental_uris":{"android":"levelo://app?vid=6edca879-4e02-414d-be09-8ae2508a940a","ios":"levelo://app?vid=6edca879-4e02-414d-be09-8ae2508a940a"},"vehicle_type_id":"4","last_reported":1741007943,"current_range_meters":10800,"station_id":"ce4bhh12rcd13ifvqff0","pricing_plan_id":"cebpf4jnsgd1na2vs0mg"},{"bike_id":"4bb610aa-2eca-44f3-81e4-a05489104028","system_id":"levelo_inurba_marseille","lat":43.248174,"lon":5.375077,"is_reserved":false,"is_disabled":false,"rental_uris":{"android":"levelo://app?vid=4bb610aa-2eca-44f3-81e4-a05489104028","ios":"levelo://app?vid=4bb610aa-2eca-44f3-81e4-a05489104028"},"vehicle_type_id":"4","last_reported":1741007943,"current_range_meters":11600,"station_id":"ce4bhgh2rcd13ifvqfb0","pricing_plan_id":"cebpf4jnsgd1na2vs0mg"},{"bike_id":"d6dcf2df-22f4-4acc-bb5a-fc34fb6762ee","system_id":"levelo_inurba_marseille","lat":43.24823,"lon":5.37462,"is_reserved":false,"is_disabled":false,"rental_uris":{"android":"levelo://app?vid=d6dcf2df-22f4-4acc-bb5a-fc34fb6762ee","ios":"levelo://app?vid=d6dcf2df-22f4-4acc-bb5a-fc34fb6762ee"},"vehicle_type_id":"4","last_reported":1741007943,"current_range_meters":11200,"station_id":"ce4bhgh2rcd13ifvqfb0","pricing_plan_id":"cebpf4jnsgd1na2vs0mg"},{"bike_id":"e41e0bb8-6c1c-4ce2-b18d-069e130ca183","system_id":"levelo_inurba_marseille","lat":43.2306,"lon":5.3549,"is_reserved":false,"is_disabled":false,"rental_uris":{"android":"levelo://app?vid=e41e0bb8-6c1c-4ce2-b18d-069e130ca183","ios":"levelo://app?vid=e41e0bb8-6c1c-4ce2-b18d-069e130ca183"},"vehicle_type_id":"4","last_reported":1741007943,"current_range_meters":11200,"station_id":"cpo3342slgdg3j2ifvpg","pricing_plan_id":"cebpf4jnsgd1na2vs0mg"},{"bike_id":"cf14d8f9-4ebe-4df6-9a79-4848e458b42c","system_id":"levelo_inurba_marseille","lat":43.24077,"lon":5.37759,"is_reserved":false,"is_disabled":false,"rental_uris":{"android":"levelo://app?vid=cf14d8f9-4ebe-4df6-9a79-4848e458b42c","ios":"levelo://app?vid=cf14d8f9-4ebe-4df6-9a79-4848e458b42c"},"vehicle_type_id":"4","last_reported":1741007943,"current_range_meters":11600,"station_id":"ce4bhnp2rcd13ifvqgvg","pricing_plan_id":"cebpf4jnsgd1na2vs0mg"},{"bike_id":"6b3f8fde-8769-450d-8eb7-534d75b0896f","system_id":"levelo_inurba_marseille","lat":43.29035,"lon":5.37564,"is_reserved":false,"is_disabled":false,"rental_uris":{"android":"levelo://app?vid=6b3f8fde-8769-450d-8eb7-534d75b0896f","ios":"levelo://app?vid=6b3f8fde-8769-450d-8eb7-534d75b0896f"},"vehicle_type_id":"4","last_reported":1741007943,"current_range_meters":11600,"station_id":"ce4bh692rcd13ifvqe90","pricing_plan_id":"cebpf4jnsgd1na2vs0mg"},{"bike_id":"caedf473-9313-4874-87c8-230b4a1efdb8","system_id":"levelo_inurba_marseille","lat":43.32484,"lon":5.36552,"is_reserved":false,"is_disabled":false,"rental_uris":{"android":"levelo://app?vid=caedf473-9313-4874-87c8-230b4a1efdb8","ios":"levelo://app?vid=caedf473-9313-4874-87c8-230b4a1efdb8"},"vehicle_type_id":"4","last_reported":1741007943,"current_range_meters":11600,"station_id":"ce4bhs12rcd13ifvqhvg","pricing_plan_id":"cebpf4jnsgd1na2vs0mg"},{"bike_id":"b014fbaa-3a70-4bd8-84eb-43d5c894c0ea","system_id":"levelo_inurba_marseille","lat":43.31261,"lon":5.36756,"is_reserved":false,"is_disabled":false,"rental_uris":{"android":"levelo://app?vid=b014fbaa-3a70-4bd8-84eb-43d5c894c0ea","ios":"levelo://app?vid=b014fbaa-3a70-4bd8-84eb-43d5c894c0ea"},"vehicle_type_id":"4","last_reported":1741007943,"current_range_meters":11600,"station_id":"","pricing_plan_id":"cebpf4jnsgd1na2vs0mg"},{"bike_id":"4a59fb1c-279f-4978-a293-1c8b74be48f9","system_id":"levelo_inurba_marseille","lat":43.2992,"lon":5.37443,"is_reserved":false,"is_disabled":false,"rental_uris":{"android":"levelo://app?vid=4a59fb1c-279f-4978-a293-1c8b74be48f9","ios":"levelo://app?vid=4a59fb1c-279f-4978-a293-1c8b74be48f9"},"vehicle_type_id":"4","last_reported":1741007943,"current_range_meters":11600,"station_id":"ce4bgjh2rcd13ifvqbg0","pricing_plan_id":"cebpf4jnsgd1na2vs0mg"},{"bike_id":"09f9869f-64fa-4320-b939-e9efbb24fa6d","system_id":"levelo_inurba_marseille","lat":43.32108,"lon":5.36778,"is_reserved":false,"is_disabled":false,"rental_uris":{"android":"levelo://app?vid=09f9869f-64fa-4320-b939-e9efbb24fa6d","ios":"levelo://app?vid=09f9869f-64fa-4320-b939-e9efbb24fa6d"},"vehicle_type_id":"4","last_reported":1741007943,"current_range_meters":12000,"station_id":"ce4bhrh2rcd13ifvqhug","pricing_plan_id":"cebpf4jnsgd1na2vs0mg"},{"bike_id":"9c993c86-a9f0-4902-a13c-b29b3742eac6","system_id":"levelo_inurba_marseille","lat":43.24802,"lon":5.37457,"is_reserved":false,"is_disabled":false,"rental_uris":{"android":"levelo://app?vid=9c993c86-a9f0-4902-a13c-b29b3742eac6","ios":"levelo://app?vid=9c993c86-a9f0-4902-a13c-b29b3742eac6"},"vehicle_type_id":"4","last_reported":1741007943,"current_range_meters":12000,"station_id":"ce4bhgh2rcd13ifvqfb0","pricing_plan_id":"cebpf4jnsgd1na2vs0mg"},{"bike_id":"6108b07c-5696-4ee8-b4a6-0e7261048f8b","system_id":"levelo_inurba_marseille","lat":43.29555,"lon":5.42289,"is_reserved":false,"is_disabled":false,"rental_uris":{"android":"levelo://app?vid=6108b07c-5696-4ee8-b4a6-0e7261048f8b","ios":"levelo://app?vid=6108b07c-5696-4ee8-b4a6-0e7261048f8b"},"vehicle_type_id":"4","last_reported":1741007943,"current_range_meters":12000,"station_id":"ce4bhph2rcd13ifvqhdg","pricing_plan_id":"cebpf4jnsgd1na2vs0mg"},{"bike_id":"c8ce68ea-f67a-46a6-a9c9-c7c4878bad16","system_id":"levelo_inurba_marseille","lat":43.27485,"lon":5.42453,"is_reserved":false,"is_disabled":false,"rental_uris":{"android":"levelo://app?vid=c8ce68ea-f67a-46a6-a9c9-c7c4878bad16","ios":"levelo://app?vid=c8ce68ea-f67a-46a6-a9c9-c7c4878bad16"},"vehicle_type_id":"4","last_reported":1741007943,"current_range_meters":12000,"station_id":"ce4bhn92rcd13ifvqgrg","pricing_plan_id":"cebpf4jnsgd1na2vs0mg"},{"bike_id":"442e17cf-9700-477c-a555-09fc8cf0081c","system_id":"levelo_inurba_marseille","lat":43.28463,"lon":5.35876,"is_reserved":false,"is_disabled":false,"rental_uris":{"android":"levelo://app?vid=442e17cf-9700-477c-a555-09fc8cf0081c","ios":"levelo://app?vid=442e17cf-9700-477c-a555-09fc8cf0081c"},"vehicle_type_id":"4","last_reported":1741007943,"current_range_meters":12000,"station_id":"ce4bhah2rcd13ifvqei0","pricing_plan_id":"cebpf4jnsgd1na2vs0mg"},{"bike_id":"61d6efa7-4506-4922-814b-a518ef959c2b","system_id":"levelo_inurba_marseille","lat":43.26702,"lon":5.38245,"is_reserved":false,"is_disabled":false,"rental_uris":{"android":"levelo://app?vid=61d6efa7-4506-4922-814b-a518ef959c2b","ios":"levelo://app?vid=61d6efa7-4506-4922-814b-a518ef959c2b"},"vehicle_type_id":"4","last_reported":1741007943,"current_range_meters":12000,"station_id":"ce4bhg92rcd13ifvqf90","pricing_plan_id":"cebpf4jnsgd1na2vs0mg"},{"bike_id":"b4b7d7c4-ff36-4440-ab32-e15d5d7a0b40","system_id":"levelo_inurba_marseille","lat":43.29982,"lon":5.37193,"is_reserved":false,"is_disabled":false,"rental_uris":{"android":"levelo://app?vid=b4b7d7c4-ff36-4440-ab32-e15d5d7a0b40","ios":"levelo://app?vid=b4b7d7c4-ff36-4440-ab32-e15d5d7a0b40"},"vehicle_type_id":"4","last_reported":1741007943,"current_range_meters":11600,"station_id":"ce4bgr92rcd13ifvqc7g","pricing_plan_id":"cebpf4jnsgd1na2vs0mg"},{"bike_id":"793cca73-1ae1-4978-8f21-b720a02e84d5","system_id":"levelo_inurba_marseille","lat":43.28004,"lon":5.40006,"is_reserved":false,"is_disabled":false,"rental_uris":{"android":"levelo://app?vid=793cca73-1ae1-4978-8f21-b720a02e84d5","ios":"levelo://app?vid=793cca73-1ae1-4978-8f21-b720a02e84d5"},"vehicle_type_id":"4","last_reported":1741007943,"current_range_meters":12000,"station_id":"ce4bho92rcd13ifvqh4g","pricing_plan_id":"cebpf4jnsgd1na2vs0mg"},{"bike_id":"69c64ec9-e24d-4807-ad49-cbbbaf87179a","system_id":"levelo_inurba_marseille","lat":43.26939,"lon":5.4026,"is_reserved":false,"is_disabled":false,"rental_uris":{"android":"levelo://app?vid=69c64ec9-e24d-4807-ad49-cbbbaf87179a","ios":"levelo://app?vid=69c64ec9-e24d-4807-ad49-cbbbaf87179a"},"vehicle_type_id":"4","last_reported":1741007943,"current_range_meters":12000,"station_id":"cjm6bp8fraef2m0cb0m0","pricing_plan_id":"cebpf4jnsgd1na2vs0mg"},{"bike_id":"c5922090-7878-48b6-9a92-2bb58fd4e5e3","system_id":"levelo_inurba_marseille","lat":43.27954,"lon":5.38708,"is_reserved":false,"is_disabled":false,"rental_uris":{"android":"levelo://app?vid=c5922090-7878-48b6-9a92-2bb58fd4e5e3","ios":"levelo://app?vid=c5922090-7878-48b6-9a92-2bb58fd4e5e3"},"vehicle_type_id":"4","last_reported":1741007943,"current_range_meters":12000,"station_id":"ce4bhg12rcd13ifvqf80","pricing_plan_id":"cebpf4jnsgd1na2vs0mg"},{"bike_id":"a7ef7da6-d1fc-4a80-b025-6a7c01c46fda","system_id":"levelo_inurba_marseille","lat":43.3046,"lon":5.37899,"is_reserved":false,"is_disabled":false,"rental_uris":{"android":"levelo://app?vid=a7ef7da6-d1fc-4a80-b025-6a7c01c46fda","ios":"levelo://app?vid=a7ef7da6-d1fc-4a80-b025-6a7c01c46fda"},"vehicle_type_id":"4","last_reported":1741007943,"current_range_meters":12000,"station_id":"ce4bgup2rcd13ifvqcn0","pricing_plan_id":"cebpf4jnsgd1na2vs0mg"},{"bike_id":"48444e72-f404-41da-9532-922f832431da","system_id":"levelo_inurba_marseille","lat":43.31684,"lon":5.40471,"is_reserved":false,"is_disabled":false,"rental_uris":{"android":"levelo://app?vid=48444e72-f404-41da-9532-922f832431da","ios":"levelo://app?vid=48444e72-f404-41da-9532-922f832431da"},"vehicle_type_id":"4","last_reported":1741007943,"current_range_meters":12000,"station_id":"ce4bh012rcd13ifvqd00","pricing_plan_id":"cebpf4jnsgd1na2vs0mg"},{"bike_id":"82b9a069-5feb-448e-8c03-2c57c77e9b9c","system_id":"levelo_inurba_marseille","lat":43.297882,"lon":5.393428,"is_reserved":false,"is_disabled":false,"rental_uris":{"android":"levelo://app?vid=82b9a069-5feb-448e-8c03-2c57c77e9b9c","ios":"levelo://app?vid=82b9a069-5feb-448e-8c03-2c57c77e9b9c"},"vehicle_type_id":"4","last_reported":1741007943,"current_range_meters":12400,"station_id":"chh1huq6cuj3fo74tm60","pricing_plan_id":"cebpf4jnsgd1na2vs0mg"},{"bike_id":"41ed89d3-77cd-4311-8513-748a0ca63c4f","system_id":"levelo_inurba_marseille","lat":43.21267,"lon":5.35331,"is_reserved":false,"is_disabled":false,"rental_uris":{"android":"levelo://app?vid=41ed89d3-77cd-4311-8513-748a0ca63c4f","ios":"levelo://app?vid=41ed89d3-77cd-4311-8513-748a0ca63c4f"},"vehicle_type_id":"4","last_reported":1741007943,"current_range_meters":12400,"station_id":"","pricing_plan_id":"cebpf4jnsgd1na2vs0mg"},{"bike_id":"66e9cb08-4b60-466e-b192-efbce12fa18d","system_id":"levelo_inurba_marseille","lat":43.27823,"lon":5.40715,"is_reserved":false,"is_disabled":false,"rental_uris":{"android":"levelo://app?vid=66e9cb08-4b60-466e-b192-efbce12fa18d","ios":"levelo://app?vid=66e9cb08-4b60-466e-b192-efbce12fa18d"},"vehicle_type_id":"4","last_reported":1741007943,"current_range_meters":12400,"station_id":"ce4bhnh2rcd13ifvqgtg","pricing_plan_id":"cebpf4jnsgd1na2vs0mg"},{"bike_id":"82fc0ed7-e2ce-4836-aed3-b38de60a97b8","system_id":"levelo_inurba_marseille","lat":43.24169,"lon":5.39731,"is_reserved":false,"is_disabled":false,"rental_uris":{"android":"levelo://app?vid=82fc0ed7-e2ce-4836-aed3-b38de60a97b8","ios":"levelo://app?vid=82fc0ed7-e2ce-4836-aed3-b38de60a97b8"},"vehicle_type_id":"4","last_reported":1741007943,"current_range_meters":12400,"station_id":"ce4bhn12rcd13ifvqgpg","pricing_plan_id":"cebpf4jnsgd1na2vs0mg"},{"bike_id":"c53b4655-8f38-4bcf-9057-c168ff39de18","system_id":"levelo_inurba_marseille","lat":43.29166,"lon":5.37167,"is_reserved":false,"is_disabled":false,"rental_uris":{"android":"levelo://app?vid=c53b4655-8f38-4bcf-9057-c168ff39de18","ios":"levelo://app?vid=c53b4655-8f38-4bcf-9057-c168ff39de18"},"vehicle_type_id":"4","last_reported":1741007943,"current_range_meters":12000,"station_id":"ce4bha92rcd13ifvqeh0","pricing_plan_id":"cebpf4jnsgd1na2vs0mg"},{"bike_id":"1c9de4ee-1854-4430-aa49-a14443550b14","system_id":"levelo_inurba_marseille","lat":43.30577,"lon":5.36528,"is_reserved":false,"is_disabled":false,"rental_uris":{"android":"levelo://app?vid=1c9de4ee-1854-4430-aa49-a14443550b14","ios":"levelo://app?vid=1c9de4ee-1854-4430-aa49-a14443550b14"},"vehicle_type_id":"4","last_reported":1741007943,"current_range_meters":12400,"station_id":"ce4bgs12rcd13ifvqcag","pricing_plan_id":"cebpf4jnsgd1na2vs0mg"},{"bike_id":"f71f9016-cd7a-4d2f-a244-6b67297b159e","system_id":"levelo_inurba_marseille","lat":43.2792,"lon":5.416644,"is_reserved":false,"is_disabled":false,"rental_uris":{"android":"levelo://app?vid=f71f9016-cd7a-4d2f-a244-6b67297b159e","ios":"levelo://app?vid=f71f9016-cd7a-4d2f-a244-6b67297b159e"},"vehicle_type_id":"4","last_reported":1741007943,"current_range_meters":12800,"station_id":"","pricing_plan_id":"cebpf4jnsgd1na2vs0mg"},{"bike_id":"556d01aa-241d-4759-80ef-37c3770744b7","system_id":"levelo_inurba_marseille","lat":43.28935,"lon":5.36624,"is_reserved":false,"is_disabled":false,"rental_uris":{"android":"levelo://app?vid=556d01aa-241d-4759-80ef-37c3770744b7","ios":"levelo://app?vid=556d01aa-241d-4759-80ef-37c3770744b7"},"vehicle_type_id":"4","last_reported":1741007943,"current_range_meters":12400,"station_id":"ce4bhap2rcd13ifvqek0","pricing_plan_id":"cebpf4jnsgd1na2vs0mg"},{"bike_id":"030f438a-43dd-4f09-a0e5-f8426fdf4077","system_id":"levelo_inurba_marseille","lat":43.27069,"lon":5.42275,"is_reserved":false,"is_disabled":false,"rental_uris":{"android":"levelo://app?vid=030f438a-43dd-4f09-a0e5-f8426fdf4077","ios":"levelo://app?vid=030f438a-43dd-4f09-a0e5-f8426fdf4077"},"vehicle_type_id":"4","last_reported":1741007943,"current_range_meters":12800,"station_id":"ce4bhk92rcd13ifvqgb0","pricing_plan_id":"cebpf4jnsgd1na2vs0mg"},{"bike_id":"38658c88-48f1-44d7-92bd-94dfc27e434c","system_id":"levelo_inurba_marseille","lat":43.23156,"lon":5.43706,"is_reserved":false,"is_disabled":false,"rental_uris":{"android":"levelo://app?vid=38658c88-48f1-44d7-92bd-94dfc27e434c","ios":"levelo://app?vid=38658c88-48f1-44d7-92bd-94dfc27e434c"},"vehicle_type_id":"4","last_reported":1741007943,"current_range_meters":12800,"station_id":"ce4bhmp2rcd13ifvqgog","pricing_plan_id":"cebpf4jnsgd1na2vs0mg"},{"bike_id":"18bdcf80-0734-4832-baa8-f24221b72650","system_id":"levelo_inurba_marseille","lat":43.26684,"lon":5.38275,"is_reserved":false,"is_disabled":false,"rental_uris":{"android":"levelo://app?vid=18bdcf80-0734-4832-baa8-f24221b72650","ios":"levelo://app?vid=18bdcf80-0734-4832-baa8-f24221b72650"},"vehicle_type_id":"4","last_reported":1741007943,"current_range_meters":12800,"station_id":"ce4bhg92rcd13ifvqf90","pricing_plan_id":"cebpf4jnsgd1na2vs0mg"},{"bike_id":"362b2e41-0f7d-42ca-85b4-447baad17196","system_id":"levelo_inurba_marseille","lat":43.271608,"lon":5.418712,"is_reserved":false,"is_disabled":false,"rental_uris":{"android":"levelo://app?vid=362b2e41-0f7d-42ca-85b4-447baad17196","ios":"levelo://app?vid=362b2e41-0f7d-42ca-85b4-447baad17196"},"vehicle_type_id":"4","last_reported":1741007943,"current_range_meters":12800,"station_id":"","pricing_plan_id":"cebpf4jnsgd1na2vs0mg"},{"bike_id":"dc4a1253-dd15-4982-97f2-5cbbfd9effc5","system_id":"levelo_inurba_marseille","lat":43.27573,"lon":5.38421,"is_reserved":false,"is_disabled":false,"rental_uris":{"android":"levelo://app?vid=dc4a1253-dd15-4982-97f2-5cbbfd9effc5","ios":"levelo://app?vid=dc4a1253-dd15-4982-97f2-5cbbfd9effc5"},"vehicle_type_id":"4","last_reported":1741007943,"current_range_meters":12400,"station_id":"ce4bhh92rcd13ifvqfi0","pricing_plan_id":"cebpf4jnsgd1na2vs0mg"},{"bike_id":"88f05a57-656e-4260-8cd4-95a6035d5d85","system_id":"levelo_inurba_marseille","lat":43.27822,"lon":5.40715,"is_reserved":false,"is_disabled":true,"rental_uris":{"android":"levelo://app?vid=88f05a57-656e-4260-8cd4-95a6035d5d85","ios":"levelo://app?vid=88f05a57-656e-4260-8cd4-95a6035d5d85"},"vehicle_type_id":"4","last_reported":1741007943,"current_range_meters":13600,"station_id":"ce4bhnh2rcd13ifvqgtg","pricing_plan_id":"cebpf4jnsgd1na2vs0mg"},{"bike_id":"a0096203-baa3-4f54-a2d7-33272b708ed7","system_id":"levelo_inurba_marseille","lat":43.23183,"lon":5.43721,"is_reserved":false,"is_disabled":false,"rental_uris":{"android":"levelo://app?vid=a0096203-baa3-4f54-a2d7-33272b708ed7","ios":"levelo://app?vid=a0096203-baa3-4f54-a2d7-33272b708ed7"},"vehicle_type_id":"4","last_reported":1741007943,"current_range_meters":13600,"station_id":"ce4bhmp2rcd13ifvqgog","pricing_plan_id":"cebpf4jnsgd1na2vs0mg"},{"bike_id":"3c82f993-4ee7-4ae3-a2fe-1ecc321d6a9b","system_id":"levelo_inurba_marseille","lat":43.30139,"lon":5.37431,"is_reserved":false,"is_disabled":false,"rental_uris":{"android":"levelo://app?vid=3c82f993-4ee7-4ae3-a2fe-1ecc321d6a9b","ios":"levelo://app?vid=3c82f993-4ee7-4ae3-a2fe-1ecc321d6a9b"},"vehicle_type_id":"4","last_reported":1741007943,"current_range_meters":13600,"station_id":"ce4bgs92rcd13ifvqcc0","pricing_plan_id":"cebpf4jnsgd1na2vs0mg"},{"bike_id":"4b0c1e6f-7d01-4cc1-be9f-f902e288ebfa","system_id":"levelo_inurba_marseille","lat":43.23164,"lon":5.43693,"is_reserved":false,"is_disabled":true,"rental_uris":{"android":"levelo://app?vid=4b0c1e6f-7d01-4cc1-be9f-f902e288ebfa","ios":"levelo://app?vid=4b0c1e6f-7d01-4cc1-be9f-f902e288ebfa"},"vehicle_type_id":"4","last_reported":1741007943,"current_range_meters":13600,"station_id":"ce4bhmp2rcd13ifvqgog","pricing_plan_id":"cebpf4jnsgd1na2vs0mg"},{"bike_id":"76296d8e-76c6-4119-b89e-5f0ce83fe38c","system_id":"levelo_inurba_marseille","lat":43.31221,"lon":5.36873,"is_reserved":false,"is_disabled":false,"rental_uris":{"android":"levelo://app?vid=76296d8e-76c6-4119-b89e-5f0ce83fe38c","ios":"levelo://app?vid=76296d8e-76c6-4119-b89e-5f0ce83fe38c"},"vehicle_type_id":"4","last_reported":1741007943,"current_range_meters":13600,"station_id":"ce4bgl92rcd13ifvqbq0","pricing_plan_id":"cebpf4jnsgd1na2vs0mg"},{"bike_id":"f412bafe-32ca-49bc-b144-43373775534e","system_id":"levelo_inurba_marseille","lat":43.248156,"lon":5.374734,"is_reserved":false,"is_disabled":false,"rental_uris":{"android":"levelo://app?vid=f412bafe-32ca-49bc-b144-43373775534e","ios":"levelo://app?vid=f412bafe-32ca-49bc-b144-43373775534e"},"vehicle_type_id":"4","last_reported":1741007943,"current_range_meters":14000,"station_id":"ce4bhgh2rcd13ifvqfb0","pricing_plan_id":"cebpf4jnsgd1na2vs0mg"},{"bike_id":"999c18d9-fae4-4783-a647-0db34558bfd1","system_id":"levelo_inurba_marseille","lat":43.28358,"lon":5.3863,"is_reserved":false,"is_disabled":false,"rental_uris":{"android":"levelo://app?vid=999c18d9-fae4-4783-a647-0db34558bfd1","ios":"levelo://app?vid=999c18d9-fae4-4783-a647-0db34558bfd1"},"vehicle_type_id":"4","last_reported":1741007943,"current_range_meters":14000,"station_id":"ce4bh492rcd13ifvqdvg","pricing_plan_id":"cebpf4jnsgd1na2vs0mg"},{"bike_id":"0b818497-4d97-451b-b637-cef3d02b5c9d","system_id":"levelo_inurba_marseille","lat":43.31719,"lon":5.43697,"is_reserved":false,"is_disabled":true,"rental_uris":{"android":"levelo://app?vid=0b818497-4d97-451b-b637-cef3d02b5c9d","ios":"levelo://app?vid=0b818497-4d97-451b-b637-cef3d02b5c9d"},"vehicle_type_id":"4","last_reported":1741007943,"current_range_meters":14000,"station_id":"ce4bhp92rcd13ifvqhcg","pricing_plan_id":"cebpf4jnsgd1na2vs0mg"},{"bike_id":"2a2c7556-9924-49b6-9242-0df456e4ad58","system_id":"levelo_inurba_marseille","lat":43.23176,"lon":5.39983,"is_reserved":false,"is_disabled":false,"rental_uris":{"android":"levelo://app?vid=2a2c7556-9924-49b6-9242-0df456e4ad58","ios":"levelo://app?vid=2a2c7556-9924-49b6-9242-0df456e4ad58"},"vehicle_type_id":"4","last_reported":1741007943,"current_range_meters":13600,"station_id":"ce4bhn12rcd13ifvqgqg","pricing_plan_id":"cebpf4jnsgd1na2vs0mg"},{"bike_id":"8d5a005e-adec-405b-9611-e1004fd78c4c","system_id":"levelo_inurba_marseille","lat":43.30457,"lon":5.38895,"is_reserved":false,"is_disabled":true,"rental_uris":{"android":"levelo://app?vid=8d5a005e-adec-405b-9611-e1004fd78c4c","ios":"levelo://app?vid=8d5a005e-adec-405b-9611-e1004fd78c4c"},"vehicle_type_id":"4","last_reported":1741007943,"current_range_meters":14000,"station_id":"ce4bgk12rcd13ifvqbi0","pricing_plan_id":"cebpf4jnsgd1na2vs0mg"},{"bike_id":"75a6b6a8-8cc6-4434-952f-1a367a05e9d7","system_id":"levelo_inurba_marseille","lat":43.27322,"lon":5.39113,"is_reserved":false,"is_disabled":false,"rental_uris":{"android":"levelo://app?vid=75a6b6a8-8cc6-4434-952f-1a367a05e9d7","ios":"levelo://app?vid=75a6b6a8-8cc6-4434-952f-1a367a05e9d7"},"vehicle_type_id":"4","last_reported":1741007943,"current_range_meters":14000,"station_id":"ce4bhgp2rcd13ifvqfe0","pricing_plan_id":"cebpf4jnsgd1na2vs0mg"},{"bike_id":"2daebf8d-4067-4cfc-b8c3-7582fe68c28d","system_id":"levelo_inurba_marseille","lat":43.28475,"lon":5.38424,"is_reserved":false,"is_disabled":false,"rental_uris":{"android":"levelo://app?vid=2daebf8d-4067-4cfc-b8c3-7582fe68c28d","ios":"levelo://app?vid=2daebf8d-4067-4cfc-b8c3-7582fe68c28d"},"vehicle_type_id":"4","last_reported":1741007943,"current_range_meters":14000,"station_id":"ce4bh512rcd13ifvqe3g","pricing_plan_id":"cebpf4jnsgd1na2vs0mg"},{"bike_id":"1344971c-581b-4f93-af89-a4946f4afb29","system_id":"levelo_inurba_marseille","lat":43.30461,"lon":5.37912,"is_reserved":false,"is_disabled":false,"rental_uris":{"android":"levelo://app?vid=1344971c-581b-4f93-af89-a4946f4afb29","ios":"levelo://app?vid=1344971c-581b-4f93-af89-a4946f4afb29"},"vehicle_type_id":"4","last_reported":1741007943,"current_range_meters":14000,"station_id":"ce4bgup2rcd13ifvqcn0","pricing_plan_id":"cebpf4jnsgd1na2vs0mg"},{"bike_id":"7377503b-0960-4c1a-a8a1-658150c25466","system_id":"levelo_inurba_marseille","lat":43.31251,"lon":5.36865,"is_reserved":false,"is_disabled":false,"rental_uris":{"android":"levelo://app?vid=7377503b-0960-4c1a-a8a1-658150c25466","ios":"levelo://app?vid=7377503b-0960-4c1a-a8a1-658150c25466"},"vehicle_type_id":"4","last_reported":1741007943,"current_range_meters":14400,"station_id":"ce4bgl92rcd13ifvqbq0","pricing_plan_id":"cebpf4jnsgd1na2vs0mg"},{"bike_id":"a9eb9414-2a65-4d88-b570-c89f28729dd2","system_id":"levelo_inurba_marseille","lat":43.23095,"lon":5.35478,"is_reserved":false,"is_disabled":false,"rental_uris":{"android":"levelo://app?vid=a9eb9414-2a65-4d88-b570-c89f28729dd2","ios":"levelo://app?vid=a9eb9414-2a65-4d88-b570-c89f28729dd2"},"vehicle_type_id":"4","last_reported":1741007943,"current_range_meters":14400,"station_id":"cpo3342slgdg3j2ifvpg","pricing_plan_id":"cebpf4jnsgd1na2vs0mg"},{"bike_id":"71f1dd38-6ba4-4b27-8738-b70036892271","system_id":"levelo_inurba_marseille","lat":43.29851,"lon":5.36284,"is_reserved":false,"is_disabled":false,"rental_uris":{"android":"levelo://app?vid=71f1dd38-6ba4-4b27-8738-b70036892271","ios":"levelo://app?vid=71f1dd38-6ba4-4b27-8738-b70036892271"},"vehicle_type_id":"4","last_reported":1741007943,"current_range_meters":14400,"station_id":"ce4bgpp2rcd13ifvqc3g","pricing_plan_id":"cebpf4jnsgd1na2vs0mg"},{"bike_id":"1498d133-1f44-418d-9863-2550c688dde6","system_id":"levelo_inurba_marseille","lat":43.29297,"lon":5.40109,"is_reserved":false,"is_disabled":false,"rental_uris":{"android":"levelo://app?vid=1498d133-1f44-418d-9863-2550c688dde6","ios":"levelo://app?vid=1498d133-1f44-418d-9863-2550c688dde6"},"vehicle_type_id":"4","last_reported":1741007943,"current_range_meters":14400,"station_id":"ce4bh312rcd13ifvqdk0","pricing_plan_id":"cebpf4jnsgd1na2vs0mg"},{"bike_id":"6933dd3e-9484-4e9f-bc41-9fb72526d3b8","system_id":"levelo_inurba_marseille","lat":43.29705,"lon":5.36607,"is_reserved":false,"is_disabled":false,"rental_uris":{"android":"levelo://app?vid=6933dd3e-9484-4e9f-bc41-9fb72526d3b8","ios":"levelo://app?vid=6933dd3e-9484-4e9f-bc41-9fb72526d3b8"},"vehicle_type_id":"4","last_reported":1741007943,"current_range_meters":14400,"station_id":"ce4bgn12rcd13ifvqbt0","pricing_plan_id":"cebpf4jnsgd1na2vs0mg"},{"bike_id":"bce611a7-5044-470a-9dc2-ccdbc1151c5c","system_id":"levelo_inurba_marseille","lat":43.32488,"lon":5.36569,"is_reserved":false,"is_disabled":false,"rental_uris":{"android":"levelo://app?vid=bce611a7-5044-470a-9dc2-ccdbc1151c5c","ios":"levelo://app?vid=bce611a7-5044-470a-9dc2-ccdbc1151c5c"},"vehicle_type_id":"4","last_reported":1741007943,"current_range_meters":14400,"station_id":"ce4bhs12rcd13ifvqhvg","pricing_plan_id":"cebpf4jnsgd1na2vs0mg"},{"bike_id":"2fe8f916-4590-4cd4-978d-98051b849535","system_id":"levelo_inurba_marseille","lat":43.27999,"lon":5.41666,"is_reserved":false,"is_disabled":false,"rental_uris":{"android":"levelo://app?vid=2fe8f916-4590-4cd4-978d-98051b849535","ios":"levelo://app?vid=2fe8f916-4590-4cd4-978d-98051b849535"},"vehicle_type_id":"4","last_reported":1741007943,"current_range_meters":14800,"station_id":"ce4bho12rcd13ifvqh1g","pricing_plan_id":"cebpf4jnsgd1na2vs0mg"},{"bike_id":"cb813df4-3836-4634-974a-d02d99a32d8a","system_id":"levelo_inurba_marseille","lat":43.32705,"lon":5.39232,"is_reserved":false,"is_disabled":true,"rental_uris":{"android":"levelo://app?vid=cb813df4-3836-4634-974a-d02d99a32d8a","ios":"levelo://app?vid=cb813df4-3836-4634-974a-d02d99a32d8a"},"vehicle_type_id":"4","last_reported":1741007943,"current_range_meters":14800,"station_id":"","pricing_plan_id":"cebpf4jnsgd1na2vs0mg"},{"bike_id":"9de42f25-f760-4086-9a08-2934eee1b520","system_id":"levelo_inurba_marseille","lat":43.21254,"lon":5.35339,"is_reserved":false,"is_disabled":false,"rental_uris":{"android":"levelo://app?vid=9de42f25-f760-4086-9a08-2934eee1b520","ios":"levelo://app?vid=9de42f25-f760-4086-9a08-2934eee1b520"},"vehicle_type_id":"4","last_reported":1741007943,"current_range_meters":14800,"station_id":"","pricing_plan_id":"cebpf4jnsgd1na2vs0mg"},{"bike_id":"4a889b84-b11f-4811-9285-06ab95b76212","system_id":"levelo_inurba_marseille","lat":43.2499,"lon":5.38939,"is_reserved":false,"is_disabled":false,"rental_uris":{"android":"levelo://app?vid=4a889b84-b11f-4811-9285-06ab95b76212","ios":"levelo://app?vid=4a889b84-b11f-4811-9285-06ab95b76212"},"vehicle_type_id":"4","last_reported":1741007943,"current_range_meters":14800,"station_id":"ce4bhgp2rcd13ifvqfd0","pricing_plan_id":"cebpf4jnsgd1na2vs0mg"},{"bike_id":"ed2965a1-cbfe-4e23-9666-dce524a34587","system_id":"levelo_inurba_marseille","lat":43.27831,"lon":5.40702,"is_reserved":false,"is_disabled":false,"rental_uris":{"android":"levelo://app?vid=ed2965a1-cbfe-4e23-9666-dce524a34587","ios":"levelo://app?vid=ed2965a1-cbfe-4e23-9666-dce524a34587"},"vehicle_type_id":"4","last_reported":1741007943,"current_range_meters":14800,"station_id":"ce4bhnh2rcd13ifvqgtg","pricing_plan_id":"cebpf4jnsgd1na2vs0mg"},{"bike_id":"c6c01a1c-3080-4e5a-b289-e7cf4e155079","system_id":"levelo_inurba_marseille","lat":43.32543,"lon":5.41448,"is_reserved":false,"is_disabled":false,"rental_uris":{"android":"levelo://app?vid=c6c01a1c-3080-4e5a-b289-e7cf4e155079","ios":"levelo://app?vid=c6c01a1c-3080-4e5a-b289-e7cf4e155079"},"vehicle_type_id":"4","last_reported":1741007943,"current_range_meters":14800,"station_id":"ce4bhq12rcd13ifvqhhg","pricing_plan_id":"cebpf4jnsgd1na2vs0mg"},{"bike_id":"3947c993-f1d6-416c-8fc6-be3d14d1f1ef","system_id":"levelo_inurba_marseille","lat":43.26689,"lon":5.38261,"is_reserved":false,"is_disabled":false,"rental_uris":{"android":"levelo://app?vid=3947c993-f1d6-416c-8fc6-be3d14d1f1ef","ios":"levelo://app?vid=3947c993-f1d6-416c-8fc6-be3d14d1f1ef"},"vehicle_type_id":"4","last_reported":1741007943,"current_range_meters":14800,"station_id":"ce4bhg92rcd13ifvqf90","pricing_plan_id":"cebpf4jnsgd1na2vs0mg"},{"bike_id":"a1ff63da-1f83-4edb-ac63-0318bef54641","system_id":"levelo_inurba_marseille","lat":43.2928,"lon":5.40121,"is_reserved":false,"is_disabled":false,"rental_uris":{"android":"levelo://app?vid=a1ff63da-1f83-4edb-ac63-0318bef54641","ios":"levelo://app?vid=a1ff63da-1f83-4edb-ac63-0318bef54641"},"vehicle_type_id":"4","last_reported":1741007943,"current_range_meters":15200,"station_id":"ce4bh312rcd13ifvqdk0","pricing_plan_id":"cebpf4jnsgd1na2vs0mg"},{"bike_id":"91f72666-1eb7-485f-b638-03ee1f35dd7d","system_id":"levelo_inurba_marseille","lat":43.29848,"lon":5.36288,"is_reserved":false,"is_disabled":false,"rental_uris":{"android":"levelo://app?vid=91f72666-1eb7-485f-b638-03ee1f35dd7d","ios":"levelo://app?vid=91f72666-1eb7-485f-b638-03ee1f35dd7d"},"vehicle_type_id":"4","last_reported":1741007943,"current_range_meters":15200,"station_id":"ce4bgpp2rcd13ifvqc3g","pricing_plan_id":"cebpf4jnsgd1na2vs0mg"},{"bike_id":"e9ee3f82-ad9f-4d15-ba2e-147d42e96090","system_id":"levelo_inurba_marseille","lat":43.33721,"lon":5.39186,"is_reserved":false,"is_disabled":false,"rental_uris":{"android":"levelo://app?vid=e9ee3f82-ad9f-4d15-ba2e-147d42e96090","ios":"levelo://app?vid=e9ee3f82-ad9f-4d15-ba2e-147d42e96090"},"vehicle_type_id":"4","last_reported":1741007943,"current_range_meters":15200,"station_id":"ce4bhr92rcd13ifvqhsg","pricing_plan_id":"cebpf4jnsgd1na2vs0mg"},{"bike_id":"e7ec1ac1-2323-47bd-a2b5-7cd3afb282cf","system_id":"levelo_inurba_marseille","lat":43.26571,"lon":5.37284,"is_reserved":false,"is_disabled":false,"rental_uris":{"android":"levelo://app?vid=e7ec1ac1-2323-47bd-a2b5-7cd3afb282cf","ios":"levelo://app?vid=e7ec1ac1-2323-47bd-a2b5-7cd3afb282cf"},"vehicle_type_id":"4","last_reported":1741007943,"current_range_meters":15200,"station_id":"ce4bhg12rcd13ifvqf70","pricing_plan_id":"cebpf4jnsgd1na2vs0mg"},{"bike_id":"a7d6f2fa-8a5e-42f2-9efa-a14c33776a9f","system_id":"levelo_inurba_marseille","lat":43.26794,"lon":5.39406,"is_reserved":false,"is_disabled":false,"rental_uris":{"android":"levelo://app?vid=a7d6f2fa-8a5e-42f2-9efa-a14c33776a9f","ios":"levelo://app?vid=a7d6f2fa-8a5e-42f2-9efa-a14c33776a9f"},"vehicle_type_id":"4","last_reported":1741007943,"current_range_meters":15200,"station_id":"ce4bhh12rcd13ifvqfg0","pricing_plan_id":"cebpf4jnsgd1na2vs0mg"},{"bike_id":"580f3a39-842a-4fdd-a589-5309eed9d153","system_id":"levelo_inurba_marseille","lat":43.25082,"lon":5.39509,"is_reserved":false,"is_disabled":false,"rental_uris":{"android":"levelo://app?vid=580f3a39-842a-4fdd-a589-5309eed9d153","ios":"levelo://app?vid=580f3a39-842a-4fdd-a589-5309eed9d153"},"vehicle_type_id":"4","last_reported":1741007943,"current_range_meters":15200,"station_id":"ce4bhm12rcd13ifvqgkg","pricing_plan_id":"cebpf4jnsgd1na2vs0mg"},{"bike_id":"3e8dd68c-fcf3-4b85-8648-aff70da7f265","system_id":"levelo_inurba_marseille","lat":43.28662,"lon":5.38662,"is_reserved":false,"is_disabled":false,"rental_uris":{"android":"levelo://app?vid=3e8dd68c-fcf3-4b85-8648-aff70da7f265","ios":"levelo://app?vid=3e8dd68c-fcf3-4b85-8648-aff70da7f265"},"vehicle_type_id":"4","last_reported":1741007943,"current_range_meters":15200,"station_id":"ce4bh492rcd13ifvqdug","pricing_plan_id":"cebpf4jnsgd1na2vs0mg"},{"bike_id":"c97761dd-6076-40b3-8eb8-a1cca581d281","system_id":"levelo_inurba_marseille","lat":43.2592,"lon":5.40884,"is_reserved":false,"is_disabled":false,"rental_uris":{"android":"levelo://app?vid=c97761dd-6076-40b3-8eb8-a1cca581d281","ios":"levelo://app?vid=c97761dd-6076-40b3-8eb8-a1cca581d281"},"vehicle_type_id":"4","last_reported":1741007943,"current_range_meters":15200,"station_id":"ce4bhm92rcd13ifvqglg","pricing_plan_id":"cebpf4jnsgd1na2vs0mg"},{"bike_id":"af20a61f-bfb7-4cf0-ac42-5b98f41e7491","system_id":"levelo_inurba_marseille","lat":43.3031,"lon":5.39184,"is_reserved":false,"is_disabled":true,"rental_uris":{"android":"levelo://app?vid=af20a61f-bfb7-4cf0-ac42-5b98f41e7491","ios":"levelo://app?vid=af20a61f-bfb7-4cf0-ac42-5b98f41e7491"},"vehicle_type_id":"4","last_reported":1741007943,"current_range_meters":15200,"station_id":"ce4bgkh2rcd13ifvqbk0","pricing_plan_id":"cebpf4jnsgd1na2vs0mg"},{"bike_id":"923a7320-a0a7-468e-97eb-20f12ca141af","system_id":"levelo_inurba_marseille","lat":43.25003,"lon":5.38916,"is_reserved":false,"is_disabled":false,"rental_uris":{"android":"levelo://app?vid=923a7320-a0a7-468e-97eb-20f12ca141af","ios":"levelo://app?vid=923a7320-a0a7-468e-97eb-20f12ca141af"},"vehicle_type_id":"4","last_reported":1741007943,"current_range_meters":15200,"station_id":"ce4bhgp2rcd13ifvqfd0","pricing_plan_id":"cebpf4jnsgd1na2vs0mg"},{"bike_id":"5a565ef9-a99b-4821-9856-c17f8a27a2dd","system_id":"levelo_inurba_marseille","lat":43.29298,"lon":5.37169,"is_reserved":false,"is_disabled":true,"rental_uris":{"android":"levelo://app?vid=5a565ef9-a99b-4821-9856-c17f8a27a2dd","ios":"levelo://app?vid=5a565ef9-a99b-4821-9856-c17f8a27a2dd"},"vehicle_type_id":"4","last_reported":1741007943,"current_range_meters":15200,"station_id":"ce4bgh92rcd13ifvqb40","pricing_plan_id":"cebpf4jnsgd1na2vs0mg"},{"bike_id":"cb014a6b-6553-43cb-90ee-c6d22cf5883f","system_id":"levelo_inurba_marseille","lat":43.26055,"lon":5.39409,"is_reserved":false,"is_disabled":false,"rental_uris":{"android":"levelo://app?vid=cb014a6b-6553-43cb-90ee-c6d22cf5883f","ios":"levelo://app?vid=cb014a6b-6553-43cb-90ee-c6d22cf5883f"},"vehicle_type_id":"4","last_reported":1741007943,"current_range_meters":15200,"station_id":"ce4bhh92rcd13ifvqfj0","pricing_plan_id":"cebpf4jnsgd1na2vs0mg"},{"bike_id":"73044ac8-aa4f-4e43-9050-be90f82c89a0","system_id":"levelo_inurba_marseille","lat":43.28003,"lon":5.40014,"is_reserved":false,"is_disabled":false,"rental_uris":{"android":"levelo://app?vid=73044ac8-aa4f-4e43-9050-be90f82c89a0","ios":"levelo://app?vid=73044ac8-aa4f-4e43-9050-be90f82c89a0"},"vehicle_type_id":"4","last_reported":1741007943,"current_range_meters":16000,"station_id":"ce4bho92rcd13ifvqh4g","pricing_plan_id":"cebpf4jnsgd1na2vs0mg"},{"bike_id":"eaf480d1-5c03-48e6-a01d-75bcddd12b73","system_id":"levelo_inurba_marseille","lat":43.27116,"lon":5.42239,"is_reserved":false,"is_disabled":true,"rental_uris":{"android":"levelo://app?vid=eaf480d1-5c03-48e6-a01d-75bcddd12b73","ios":"levelo://app?vid=eaf480d1-5c03-48e6-a01d-75bcddd12b73"},"vehicle_type_id":"4","last_reported":1741007943,"current_range_meters":16000,"station_id":"","pricing_plan_id":"cebpf4jnsgd1na2vs0mg"},{"bike_id":"0b4ff34c-fa17-4510-a748-32cb02ba2535","system_id":"levelo_inurba_marseille","lat":43.274172,"lon":5.394188,"is_reserved":false,"is_disabled":false,"rental_uris":{"android":"levelo://app?vid=0b4ff34c-fa17-4510-a748-32cb02ba2535","ios":"levelo://app?vid=0b4ff34c-fa17-4510-a748-32cb02ba2535"},"vehicle_type_id":"4","last_reported":1741007943,"current_range_meters":15200,"station_id":"ce4bgv92rcd13ifvqcq0","pricing_plan_id":"cebpf4jnsgd1na2vs0mg"},{"bike_id":"2441f35a-400a-41d1-948a-411f04eb33d8","system_id":"levelo_inurba_marseille","lat":43.24163,"lon":5.36401,"is_reserved":false,"is_disabled":false,"rental_uris":{"android":"levelo://app?vid=2441f35a-400a-41d1-948a-411f04eb33d8","ios":"levelo://app?vid=2441f35a-400a-41d1-948a-411f04eb33d8"},"vehicle_type_id":"4","last_reported":1741007943,"current_range_meters":16000,"station_id":"cpo36qri1sfpv3e86is0","pricing_plan_id":"cebpf4jnsgd1na2vs0mg"},{"bike_id":"c232877d-0538-49b8-9211-2c727e637691","system_id":"levelo_inurba_marseille","lat":43.29583,"lon":5.36739,"is_reserved":false,"is_disabled":false,"rental_uris":{"android":"levelo://app?vid=c232877d-0538-49b8-9211-2c727e637691","ios":"levelo://app?vid=c232877d-0538-49b8-9211-2c727e637691"},"vehicle_type_id":"4","last_reported":1741007943,"current_range_meters":16000,"station_id":"ce4bgph2rcd13ifvqc2g","pricing_plan_id":"cebpf4jnsgd1na2vs0mg"},{"bike_id":"3622890c-8228-4e63-ae6a-0f5dccff9388","system_id":"levelo_inurba_marseille","lat":43.30957,"lon":5.39028,"is_reserved":false,"is_disabled":false,"rental_uris":{"android":"levelo://app?vid=3622890c-8228-4e63-ae6a-0f5dccff9388","ios":"levelo://app?vid=3622890c-8228-4e63-ae6a-0f5dccff9388"},"vehicle_type_id":"4","last_reported":1741007943,"current_range_meters":16000,"station_id":"ce4bgup2rcd13ifvqco0","pricing_plan_id":"cebpf4jnsgd1na2vs0mg"},{"bike_id":"18da2f6f-6f99-450d-ba40-f8f1649c1e40","system_id":"levelo_inurba_marseille","lat":43.31227,"lon":5.36875,"is_reserved":false,"is_disabled":false,"rental_uris":{"android":"levelo://app?vid=18da2f6f-6f99-450d-ba40-f8f1649c1e40","ios":"levelo://app?vid=18da2f6f-6f99-450d-ba40-f8f1649c1e40"},"vehicle_type_id":"4","last_reported":1741007943,"current_range_meters":16000,"station_id":"ce4bgl92rcd13ifvqbq0","pricing_plan_id":"cebpf4jnsgd1na2vs0mg"},{"bike_id":"44a7153b-0fd7-4509-836b-676bbf84fb06","system_id":"levelo_inurba_marseille","lat":43.23192,"lon":5.35556,"is_reserved":false,"is_disabled":false,"rental_uris":{"android":"levelo://app?vid=44a7153b-0fd7-4509-836b-676bbf84fb06","ios":"levelo://app?vid=44a7153b-0fd7-4509-836b-676bbf84fb06"},"vehicle_type_id":"4","last_reported":1741007943,"current_range_meters":16000,"station_id":"ce4bhu92rcd13ifvqi70","pricing_plan_id":"cebpf4jnsgd1na2vs0mg"},{"bike_id":"ee1d2ad1-36ca-49dd-a328-f2a9a9994ecb","system_id":"levelo_inurba_marseille","lat":43.31068,"lon":5.38139,"is_reserved":false,"is_disabled":false,"rental_uris":{"android":"levelo://app?vid=ee1d2ad1-36ca-49dd-a328-f2a9a9994ecb","ios":"levelo://app?vid=ee1d2ad1-36ca-49dd-a328-f2a9a9994ecb"},"vehicle_type_id":"4","last_reported":1741007943,"current_range_meters":16400,"station_id":"","pricing_plan_id":"cebpf4jnsgd1na2vs0mg"},{"bike_id":"67fdb080-1cf7-4f60-a1ec-ce86ba0897f0","system_id":"levelo_inurba_marseille","lat":43.30954,"lon":5.39031,"is_reserved":false,"is_disabled":false,"rental_uris":{"android":"levelo://app?vid=67fdb080-1cf7-4f60-a1ec-ce86ba0897f0","ios":"levelo://app?vid=67fdb080-1cf7-4f60-a1ec-ce86ba0897f0"},"vehicle_type_id":"4","last_reported":1741007943,"current_range_meters":16400,"station_id":"ce4bgup2rcd13ifvqco0","pricing_plan_id":"cebpf4jnsgd1na2vs0mg"},{"bike_id":"b263ed0b-0f29-4478-914e-04705d0a4931","system_id":"levelo_inurba_marseille","lat":43.30469,"lon":5.37913,"is_reserved":false,"is_disabled":false,"rental_uris":{"android":"levelo://app?vid=b263ed0b-0f29-4478-914e-04705d0a4931","ios":"levelo://app?vid=b263ed0b-0f29-4478-914e-04705d0a4931"},"vehicle_type_id":"4","last_reported":1741007943,"current_range_meters":16400,"station_id":"ce4bgup2rcd13ifvqcn0","pricing_plan_id":"cebpf4jnsgd1na2vs0mg"},{"bike_id":"f9ea3f30-d6c1-4273-88ff-d95cb494ba30","system_id":"levelo_inurba_marseille","lat":43.30549,"lon":5.36535,"is_reserved":false,"is_disabled":false,"rental_uris":{"android":"levelo://app?vid=f9ea3f30-d6c1-4273-88ff-d95cb494ba30","ios":"levelo://app?vid=f9ea3f30-d6c1-4273-88ff-d95cb494ba30"},"vehicle_type_id":"4","last_reported":1741007943,"current_range_meters":16400,"station_id":"ce4bgs12rcd13ifvqcag","pricing_plan_id":"cebpf4jnsgd1na2vs0mg"},{"bike_id":"b06a57f7-690f-408f-8dd5-adbc59abf289","system_id":"levelo_inurba_marseille","lat":43.24818,"lon":5.37459,"is_reserved":false,"is_disabled":false,"rental_uris":{"android":"levelo://app?vid=b06a57f7-690f-408f-8dd5-adbc59abf289","ios":"levelo://app?vid=b06a57f7-690f-408f-8dd5-adbc59abf289"},"vehicle_type_id":"4","last_reported":1741007943,"current_range_meters":16400,"station_id":"ce4bhgh2rcd13ifvqfb0","pricing_plan_id":"cebpf4jnsgd1na2vs0mg"},{"bike_id":"4c18281c-c229-4899-9431-f1c69444bc69","system_id":"levelo_inurba_marseille","lat":43.30303,"lon":5.36901,"is_reserved":false,"is_disabled":false,"rental_uris":{"android":"levelo://app?vid=4c18281c-c229-4899-9431-f1c69444bc69","ios":"levelo://app?vid=4c18281c-c229-4899-9431-f1c69444bc69"},"vehicle_type_id":"4","last_reported":1741007943,"current_range_meters":16800,"station_id":"ce4bgqh2rcd13ifvqc5g","pricing_plan_id":"cebpf4jnsgd1na2vs0mg"},{"bike_id":"4e40f849-23d1-4615-a2ce-186b2c1ad0e1","system_id":"levelo_inurba_marseille","lat":43.28072,"lon":5.39661,"is_reserved":false,"is_disabled":false,"rental_uris":{"android":"levelo://app?vid=4e40f849-23d1-4615-a2ce-186b2c1ad0e1","ios":"levelo://app?vid=4e40f849-23d1-4615-a2ce-186b2c1ad0e1"},"vehicle_type_id":"4","last_reported":1741007943,"current_range_meters":16800,"station_id":"ce4bho12rcd13ifvqh2g","pricing_plan_id":"cebpf4jnsgd1na2vs0mg"},{"bike_id":"e3244e22-4d4c-4303-8491-cfbd6dc60c2b","system_id":"levelo_inurba_marseille","lat":43.27967,"lon":5.3867,"is_reserved":false,"is_disabled":false,"rental_uris":{"android":"levelo://app?vid=e3244e22-4d4c-4303-8491-cfbd6dc60c2b","ios":"levelo://app?vid=e3244e22-4d4c-4303-8491-cfbd6dc60c2b"},"vehicle_type_id":"4","last_reported":1741007943,"current_range_meters":16800,"station_id":"ce4bhg12rcd13ifvqf80","pricing_plan_id":"cebpf4jnsgd1na2vs0mg"},{"bike_id":"93420957-6a17-4c2c-b1ba-3f6c9b68c384","system_id":"levelo_inurba_marseille","lat":43.28344,"lon":5.38099,"is_reserved":false,"is_disabled":false,"rental_uris":{"android":"levelo://app?vid=93420957-6a17-4c2c-b1ba-3f6c9b68c384","ios":"levelo://app?vid=93420957-6a17-4c2c-b1ba-3f6c9b68c384"},"vehicle_type_id":"4","last_reported":1741007943,"current_range_meters":16800,"station_id":"ce4bh412rcd13ifvqdr0","pricing_plan_id":"cebpf4jnsgd1na2vs0mg"},{"bike_id":"47186fff-2a71-4959-a590-e722f4a0a59e","system_id":"levelo_inurba_marseille","lat":43.29578,"lon":5.36738,"is_reserved":false,"is_disabled":false,"rental_uris":{"android":"levelo://app?vid=47186fff-2a71-4959-a590-e722f4a0a59e","ios":"levelo://app?vid=47186fff-2a71-4959-a590-e722f4a0a59e"},"vehicle_type_id":"4","last_reported":1741007943,"current_range_meters":15200,"station_id":"ce4bgph2rcd13ifvqc2g","pricing_plan_id":"cebpf4jnsgd1na2vs0mg"},{"bike_id":"e766974c-8de1-4e5e-ae16-d2476e71afe1","system_id":"levelo_inurba_marseille","lat":43.26216,"lon":5.37438,"is_reserved":false,"is_disabled":false,"rental_uris":{"android":"levelo://app?vid=e766974c-8de1-4e5e-ae16-d2476e71afe1","ios":"levelo://app?vid=e766974c-8de1-4e5e-ae16-d2476e71afe1"},"vehicle_type_id":"4","last_reported":1741007943,"current_range_meters":16800,"station_id":"ce4bhgp2rcd13ifvqfc0","pricing_plan_id":"cebpf4jnsgd1na2vs0mg"},{"bike_id":"65aa662c-e453-4d8b-b06f-b63cd98dac3d","system_id":"levelo_inurba_marseille","lat":43.29841,"lon":5.36266,"is_reserved":false,"is_disabled":false,"rental_uris":{"android":"levelo://app?vid=65aa662c-e453-4d8b-b06f-b63cd98dac3d","ios":"levelo://app?vid=65aa662c-e453-4d8b-b06f-b63cd98dac3d"},"vehicle_type_id":"4","last_reported":1741007943,"current_range_meters":16800,"station_id":"ce4bgpp2rcd13ifvqc3g","pricing_plan_id":"cebpf4jnsgd1na2vs0mg"},{"bike_id":"1fc1950f-5c68-4ba8-90a8-b8173654385b","system_id":"levelo_inurba_marseille","lat":43.25012,"lon":5.38946,"is_reserved":false,"is_disabled":false,"rental_uris":{"android":"levelo://app?vid=1fc1950f-5c68-4ba8-90a8-b8173654385b","ios":"levelo://app?vid=1fc1950f-5c68-4ba8-90a8-b8173654385b"},"vehicle_type_id":"4","last_reported":1741007943,"current_range_meters":17200,"station_id":"ce4bhgp2rcd13ifvqfd0","pricing_plan_id":"cebpf4jnsgd1na2vs0mg"},{"bike_id":"d70f2244-0a55-45cf-ada8-5e84407e052a","system_id":"levelo_inurba_marseille","lat":43.24564,"lon":5.39508,"is_reserved":false,"is_disabled":false,"rental_uris":{"android":"levelo://app?vid=d70f2244-0a55-45cf-ada8-5e84407e052a","ios":"levelo://app?vid=d70f2244-0a55-45cf-ada8-5e84407e052a"},"vehicle_type_id":"4","last_reported":1741007943,"current_range_meters":17200,"station_id":"ce4bhlp2rcd13ifvqgjg","pricing_plan_id":"cebpf4jnsgd1na2vs0mg"},{"bike_id":"2088d297-ac0e-4674-b1cb-86b29bb33a9f","system_id":"levelo_inurba_marseille","lat":43.25008,"lon":5.3891,"is_reserved":false,"is_disabled":false,"rental_uris":{"android":"levelo://app?vid=2088d297-ac0e-4674-b1cb-86b29bb33a9f","ios":"levelo://app?vid=2088d297-ac0e-4674-b1cb-86b29bb33a9f"},"vehicle_type_id":"4","last_reported":1741007943,"current_range_meters":17200,"station_id":"ce4bhgp2rcd13ifvqfd0","pricing_plan_id":"cebpf4jnsgd1na2vs0mg"},{"bike_id":"fe9e67f2-0e1e-43af-b101-2796b0bfa3bc","system_id":"levelo_inurba_marseille","lat":43.295715,"lon":5.375298,"is_reserved":false,"is_disabled":false,"rental_uris":{"android":"levelo://app?vid=fe9e67f2-0e1e-43af-b101-2796b0bfa3bc","ios":"levelo://app?vid=fe9e67f2-0e1e-43af-b101-2796b0bfa3bc"},"vehicle_type_id":"4","last_reported":1741007943,"current_range_meters":17200,"station_id":"ce4bgr92rcd13ifvqc6g","pricing_plan_id":"cebpf4jnsgd1na2vs0mg"},{"bike_id":"4cbb0c6a-dcad-4e9d-b1a7-e278dd7e4db8","system_id":"levelo_inurba_marseille","lat":43.29378,"lon":5.37855,"is_reserved":false,"is_disabled":false,"rental_uris":{"android":"levelo://app?vid=4cbb0c6a-dcad-4e9d-b1a7-e278dd7e4db8","ios":"levelo://app?vid=4cbb0c6a-dcad-4e9d-b1a7-e278dd7e4db8"},"vehicle_type_id":"4","last_reported":1741007943,"current_range_meters":17200,"station_id":"ce4bgjh2rcd13ifvqbf0","pricing_plan_id":"cebpf4jnsgd1na2vs0mg"},{"bike_id":"65fe0474-021d-4adc-9aab-f58076686e12","system_id":"levelo_inurba_marseille","lat":43.27371,"lon":5.3623,"is_reserved":false,"is_disabled":false,"rental_uris":{"android":"levelo://app?vid=65fe0474-021d-4adc-9aab-f58076686e12","ios":"levelo://app?vid=65fe0474-021d-4adc-9aab-f58076686e12"},"vehicle_type_id":"4","last_reported":1741007943,"current_range_meters":16800,"station_id":"ce4bhbh2rcd13ifvqeo0","pricing_plan_id":"cebpf4jnsgd1na2vs0mg"},{"bike_id":"bceefa18-3210-470b-a055-75e2385cf62f","system_id":"levelo_inurba_marseille","lat":43.23169,"lon":5.43686,"is_reserved":false,"is_disabled":false,"rental_uris":{"android":"levelo://app?vid=bceefa18-3210-470b-a055-75e2385cf62f","ios":"levelo://app?vid=bceefa18-3210-470b-a055-75e2385cf62f"},"vehicle_type_id":"4","last_reported":1741007943,"current_range_meters":17200,"station_id":"ce4bhmp2rcd13ifvqgog","pricing_plan_id":"cebpf4jnsgd1na2vs0mg"},{"bike_id":"20028365-39c7-4a99-a7a5-a3ec256550f6","system_id":"levelo_inurba_marseille","lat":43.2318,"lon":5.39986,"is_reserved":false,"is_disabled":false,"rental_uris":{"android":"levelo://app?vid=20028365-39c7-4a99-a7a5-a3ec256550f6","ios":"levelo://app?vid=20028365-39c7-4a99-a7a5-a3ec256550f6"},"vehicle_type_id":"4","last_reported":1741007943,"current_range_meters":17200,"station_id":"ce4bhn12rcd13ifvqgqg","pricing_plan_id":"cebpf4jnsgd1na2vs0mg"},{"bike_id":"79dc2886-9457-4956-a315-0a4ca48ce21a","system_id":"levelo_inurba_marseille","lat":43.30935,"lon":5.40143,"is_reserved":false,"is_disabled":false,"rental_uris":{"android":"levelo://app?vid=79dc2886-9457-4956-a315-0a4ca48ce21a","ios":"levelo://app?vid=79dc2886-9457-4956-a315-0a4ca48ce21a"},"vehicle_type_id":"4","last_reported":1741007943,"current_range_meters":17600,"station_id":"ce4bgvp2rcd13ifvqct0","pricing_plan_id":"cebpf4jnsgd1na2vs0mg"},{"bike_id":"8e7049e0-f12b-48c8-ae6d-9473edd241c8","system_id":"levelo_inurba_marseille","lat":43.27489,"lon":5.42465,"is_reserved":false,"is_disabled":false,"rental_uris":{"android":"levelo://app?vid=8e7049e0-f12b-48c8-ae6d-9473edd241c8","ios":"levelo://app?vid=8e7049e0-f12b-48c8-ae6d-9473edd241c8"},"vehicle_type_id":"4","last_reported":1741007943,"current_range_meters":17600,"station_id":"ce4bhn92rcd13ifvqgrg","pricing_plan_id":"cebpf4jnsgd1na2vs0mg"},{"bike_id":"2e12f33e-c418-46ae-bfbb-98019589dae4","system_id":"levelo_inurba_marseille","lat":43.26693,"lon":5.38261,"is_reserved":false,"is_disabled":false,"rental_uris":{"android":"levelo://app?vid=2e12f33e-c418-46ae-bfbb-98019589dae4","ios":"levelo://app?vid=2e12f33e-c418-46ae-bfbb-98019589dae4"},"vehicle_type_id":"4","last_reported":1741007943,"current_range_meters":17600,"station_id":"ce4bhg92rcd13ifvqf90","pricing_plan_id":"cebpf4jnsgd1na2vs0mg"},{"bike_id":"31e8bd49-9d82-4485-bd12-3b4ff1304b2e","system_id":"levelo_inurba_marseille","lat":43.3056,"lon":5.36568,"is_reserved":false,"is_disabled":false,"rental_uris":{"android":"levelo://app?vid=31e8bd49-9d82-4485-bd12-3b4ff1304b2e","ios":"levelo://app?vid=31e8bd49-9d82-4485-bd12-3b4ff1304b2e"},"vehicle_type_id":"4","last_reported":1741007943,"current_range_meters":17600,"station_id":"ce4bgs12rcd13ifvqcag","pricing_plan_id":"cebpf4jnsgd1na2vs0mg"},{"bike_id":"e0bbd19f-dbed-424f-998c-e43cb85c9ec3","system_id":"levelo_inurba_marseille","lat":43.24171,"lon":5.36396,"is_reserved":false,"is_disabled":false,"rental_uris":{"android":"levelo://app?vid=e0bbd19f-dbed-424f-998c-e43cb85c9ec3","ios":"levelo://app?vid=e0bbd19f-dbed-424f-998c-e43cb85c9ec3"},"vehicle_type_id":"4","last_reported":1741007943,"current_range_meters":17600,"station_id":"cpo36qri1sfpv3e86is0","pricing_plan_id":"cebpf4jnsgd1na2vs0mg"},{"bike_id":"cfd37df0-b1c6-4f94-a627-4f20422c897a","system_id":"levelo_inurba_marseille","lat":43.27705,"lon":5.4153,"is_reserved":false,"is_disabled":false,"rental_uris":{"android":"levelo://app?vid=cfd37df0-b1c6-4f94-a627-4f20422c897a","ios":"levelo://app?vid=cfd37df0-b1c6-4f94-a627-4f20422c897a"},"vehicle_type_id":"4","last_reported":1741007943,"current_range_meters":17600,"station_id":"","pricing_plan_id":"cebpf4jnsgd1na2vs0mg"},{"bike_id":"63054af1-1c04-448f-9cd7-b9d58e61ba11","system_id":"levelo_inurba_marseille","lat":43.29016,"lon":5.38636,"is_reserved":false,"is_disabled":true,"rental_uris":{"android":"levelo://app?vid=63054af1-1c04-448f-9cd7-b9d58e61ba11","ios":"levelo://app?vid=63054af1-1c04-448f-9cd7-b9d58e61ba11"},"vehicle_type_id":"4","last_reported":1741007943,"current_range_meters":17600,"station_id":"ce4bh4p2rcd13ifvqe0g","pricing_plan_id":"cebpf4jnsgd1na2vs0mg"},{"bike_id":"9590e093-b763-48a6-97e1-adddfac92d63","system_id":"levelo_inurba_marseille","lat":43.2971,"lon":5.36613,"is_reserved":false,"is_disabled":false,"rental_uris":{"android":"levelo://app?vid=9590e093-b763-48a6-97e1-adddfac92d63","ios":"levelo://app?vid=9590e093-b763-48a6-97e1-adddfac92d63"},"vehicle_type_id":"4","last_reported":1741007943,"current_range_meters":18000,"station_id":"ce4bgn12rcd13ifvqbt0","pricing_plan_id":"cebpf4jnsgd1na2vs0mg"},{"bike_id":"d363a931-2935-4c90-887f-5c1440ae1836","system_id":"levelo_inurba_marseille","lat":43.298,"lon":5.39339,"is_reserved":false,"is_disabled":false,"rental_uris":{"android":"levelo://app?vid=d363a931-2935-4c90-887f-5c1440ae1836","ios":"levelo://app?vid=d363a931-2935-4c90-887f-5c1440ae1836"},"vehicle_type_id":"4","last_reported":1741007943,"current_range_meters":18000,"station_id":"chh1huq6cuj3fo74tm60","pricing_plan_id":"cebpf4jnsgd1na2vs0mg"},{"bike_id":"0cb16871-7cb0-41db-a877-d6fc51cfa00a","system_id":"levelo_inurba_marseille","lat":43.32365,"lon":5.38883,"is_reserved":false,"is_disabled":false,"rental_uris":{"android":"levelo://app?vid=0cb16871-7cb0-41db-a877-d6fc51cfa00a","ios":"levelo://app?vid=0cb16871-7cb0-41db-a877-d6fc51cfa00a"},"vehicle_type_id":"4","last_reported":1741007943,"current_range_meters":18000,"station_id":"ce4bhqp2rcd13ifvqhog","pricing_plan_id":"cebpf4jnsgd1na2vs0mg"},{"bike_id":"02c85aee-6faf-45a0-bb1f-6c1b5eedd680","system_id":"levelo_inurba_marseille","lat":43.2314,"lon":5.43715,"is_reserved":false,"is_disabled":false,"rental_uris":{"android":"levelo://app?vid=02c85aee-6faf-45a0-bb1f-6c1b5eedd680","ios":"levelo://app?vid=02c85aee-6faf-45a0-bb1f-6c1b5eedd680"},"vehicle_type_id":"4","last_reported":1741007943,"current_range_meters":18000,"station_id":"ce4bhmp2rcd13ifvqgog","pricing_plan_id":"cebpf4jnsgd1na2vs0mg"},{"bike_id":"1c906ecb-aae3-4c98-b5ef-6bb826d22f45","system_id":"levelo_inurba_marseille","lat":43.2587,"lon":5.39895,"is_reserved":false,"is_disabled":false,"rental_uris":{"android":"levelo://app?vid=1c906ecb-aae3-4c98-b5ef-6bb826d22f45","ios":"levelo://app?vid=1c906ecb-aae3-4c98-b5ef-6bb826d22f45"},"vehicle_type_id":"4","last_reported":1741007943,"current_range_meters":18000,"station_id":"ce4bhl92rcd13ifvqghg","pricing_plan_id":"cebpf4jnsgd1na2vs0mg"},{"bike_id":"b56e38d9-6464-43db-aba0-576f488f7563","system_id":"levelo_inurba_marseille","lat":43.27498,"lon":5.42462,"is_reserved":false,"is_disabled":false,"rental_uris":{"android":"levelo://app?vid=b56e38d9-6464-43db-aba0-576f488f7563","ios":"levelo://app?vid=b56e38d9-6464-43db-aba0-576f488f7563"},"vehicle_type_id":"4","last_reported":1741007943,"current_range_meters":18000,"station_id":"ce4bhn92rcd13ifvqgrg","pricing_plan_id":"cebpf4jnsgd1na2vs0mg"},{"bike_id":"6427046b-02de-42ac-851d-61cc1c9eb3cb","system_id":"levelo_inurba_marseille","lat":43.29051,"lon":5.37129,"is_reserved":false,"is_disabled":false,"rental_uris":{"android":"levelo://app?vid=6427046b-02de-42ac-851d-61cc1c9eb3cb","ios":"levelo://app?vid=6427046b-02de-42ac-851d-61cc1c9eb3cb"},"vehicle_type_id":"4","last_reported":1741007943,"current_range_meters":18000,"station_id":"ce4bh5p2rcd13ifvqe4g","pricing_plan_id":"cebpf4jnsgd1na2vs0mg"},{"bike_id":"f3bac1c2-f07e-4311-ba20-9ccc53becb56","system_id":"levelo_inurba_marseille","lat":43.30459,"lon":5.37906,"is_reserved":false,"is_disabled":false,"rental_uris":{"android":"levelo://app?vid=f3bac1c2-f07e-4311-ba20-9ccc53becb56","ios":"levelo://app?vid=f3bac1c2-f07e-4311-ba20-9ccc53becb56"},"vehicle_type_id":"4","last_reported":1741007943,"current_range_meters":18000,"station_id":"ce4bgup2rcd13ifvqcn0","pricing_plan_id":"cebpf4jnsgd1na2vs0mg"},{"bike_id":"311110d2-bc50-4af1-9cd7-81e4518666d0","system_id":"levelo_inurba_marseille","lat":43.31756,"lon":5.39014,"is_reserved":false,"is_disabled":false,"rental_uris":{"android":"levelo://app?vid=311110d2-bc50-4af1-9cd7-81e4518666d0","ios":"levelo://app?vid=311110d2-bc50-4af1-9cd7-81e4518666d0"},"vehicle_type_id":"4","last_reported":1741007943,"current_range_meters":18000,"station_id":"ce4bhqp2rcd13ifvqhng","pricing_plan_id":"cebpf4jnsgd1na2vs0mg"},{"bike_id":"ff1a59c9-74f4-4336-beec-e23f40e25ebc","system_id":"levelo_inurba_marseille","lat":43.27363,"lon":5.36243,"is_reserved":false,"is_disabled":false,"rental_uris":{"android":"levelo://app?vid=ff1a59c9-74f4-4336-beec-e23f40e25ebc","ios":"levelo://app?vid=ff1a59c9-74f4-4336-beec-e23f40e25ebc"},"vehicle_type_id":"4","last_reported":1741007943,"current_range_meters":18800,"station_id":"ce4bhbh2rcd13ifvqeo0","pricing_plan_id":"cebpf4jnsgd1na2vs0mg"},{"bike_id":"21d576ee-ad99-4344-99a6-48a7647dc728","system_id":"levelo_inurba_marseille","lat":43.32939,"lon":5.42994,"is_reserved":false,"is_disabled":false,"rental_uris":{"android":"levelo://app?vid=21d576ee-ad99-4344-99a6-48a7647dc728","ios":"levelo://app?vid=21d576ee-ad99-4344-99a6-48a7647dc728"},"vehicle_type_id":"4","last_reported":1741007943,"current_range_meters":18800,"station_id":"","pricing_plan_id":"cebpf4jnsgd1na2vs0mg"},{"bike_id":"ad7f03a8-b253-4da6-871b-2dafec0c2279","system_id":"levelo_inurba_marseille","lat":43.25871,"lon":5.39894,"is_reserved":false,"is_disabled":false,"rental_uris":{"android":"levelo://app?vid=ad7f03a8-b253-4da6-871b-2dafec0c2279","ios":"levelo://app?vid=ad7f03a8-b253-4da6-871b-2dafec0c2279"},"vehicle_type_id":"4","last_reported":1741007943,"current_range_meters":18800,"station_id":"ce4bhl92rcd13ifvqghg","pricing_plan_id":"cebpf4jnsgd1na2vs0mg"},{"bike_id":"53ad4496-9844-4a4a-8820-0ec7f7b7323a","system_id":"levelo_inurba_marseille","lat":43.31223,"lon":5.36852,"is_reserved":false,"is_disabled":false,"rental_uris":{"android":"levelo://app?vid=53ad4496-9844-4a4a-8820-0ec7f7b7323a","ios":"levelo://app?vid=53ad4496-9844-4a4a-8820-0ec7f7b7323a"},"vehicle_type_id":"4","last_reported":1741007943,"current_range_meters":18800,"station_id":"ce4bgl92rcd13ifvqbq0","pricing_plan_id":"cebpf4jnsgd1na2vs0mg"},{"bike_id":"3f676685-4764-4e05-bd6a-e9a3ceb5a9b2","system_id":"levelo_inurba_marseille","lat":43.27176,"lon":5.40985,"is_reserved":false,"is_disabled":false,"rental_uris":{"android":"levelo://app?vid=3f676685-4764-4e05-bd6a-e9a3ceb5a9b2","ios":"levelo://app?vid=3f676685-4764-4e05-bd6a-e9a3ceb5a9b2"},"vehicle_type_id":"4","last_reported":1741007943,"current_range_meters":18800,"station_id":"ce4bhl12rcd13ifvqgf0","pricing_plan_id":"cebpf4jnsgd1na2vs0mg"},{"bike_id":"5515b2ed-d24a-4958-9699-245f169e22b6","system_id":"levelo_inurba_marseille","lat":43.29547,"lon":5.42291,"is_reserved":false,"is_disabled":false,"rental_uris":{"android":"levelo://app?vid=5515b2ed-d24a-4958-9699-245f169e22b6","ios":"levelo://app?vid=5515b2ed-d24a-4958-9699-245f169e22b6"},"vehicle_type_id":"4","last_reported":1741007943,"current_range_meters":18800,"station_id":"ce4bhph2rcd13ifvqhdg","pricing_plan_id":"cebpf4jnsgd1na2vs0mg"},{"bike_id":"c56d401b-f1cc-441c-b5c2-25d45fb9ea4e","system_id":"levelo_inurba_marseille","lat":43.31713,"lon":5.37754,"is_reserved":false,"is_disabled":false,"rental_uris":{"android":"levelo://app?vid=c56d401b-f1cc-441c-b5c2-25d45fb9ea4e","ios":"levelo://app?vid=c56d401b-f1cc-441c-b5c2-25d45fb9ea4e"},"vehicle_type_id":"4","last_reported":1741007943,"current_range_meters":19200,"station_id":"ce4bgth2rcd13ifvqch0","pricing_plan_id":"cebpf4jnsgd1na2vs0mg"},{"bike_id":"30829229-7d63-4c2f-a75a-66ef68a0f389","system_id":"levelo_inurba_marseille","lat":43.24545,"lon":5.3952,"is_reserved":false,"is_disabled":false,"rental_uris":{"android":"levelo://app?vid=30829229-7d63-4c2f-a75a-66ef68a0f389","ios":"levelo://app?vid=30829229-7d63-4c2f-a75a-66ef68a0f389"},"vehicle_type_id":"4","last_reported":1741007943,"current_range_meters":19200,"station_id":"ce4bhlp2rcd13ifvqgjg","pricing_plan_id":"cebpf4jnsgd1na2vs0mg"},{"bike_id":"c8134fc0-79d4-470e-98a2-74375b91daf0","system_id":"levelo_inurba_marseille","lat":43.26067,"lon":5.39381,"is_reserved":false,"is_disabled":false,"rental_uris":{"android":"levelo://app?vid=c8134fc0-79d4-470e-98a2-74375b91daf0","ios":"levelo://app?vid=c8134fc0-79d4-470e-98a2-74375b91daf0"},"vehicle_type_id":"4","last_reported":1741007943,"current_range_meters":19200,"station_id":"ce4bhh92rcd13ifvqfj0","pricing_plan_id":"cebpf4jnsgd1na2vs0mg"},{"bike_id":"82217258-5aca-45b6-b1b1-4c65ac2c2dbb","system_id":"levelo_inurba_marseille","lat":43.25083,"lon":5.3951,"is_reserved":false,"is_disabled":false,"rental_uris":{"android":"levelo://app?vid=82217258-5aca-45b6-b1b1-4c65ac2c2dbb","ios":"levelo://app?vid=82217258-5aca-45b6-b1b1-4c65ac2c2dbb"},"vehicle_type_id":"4","last_reported":1741007943,"current_range_meters":19200,"station_id":"ce4bhm12rcd13ifvqgkg","pricing_plan_id":"cebpf4jnsgd1na2vs0mg"},{"bike_id":"f66ba047-eb1e-4c71-b5da-460a1f07fb55","system_id":"levelo_inurba_marseille","lat":43.27317,"lon":5.39082,"is_reserved":false,"is_disabled":false,"rental_uris":{"android":"levelo://app?vid=f66ba047-eb1e-4c71-b5da-460a1f07fb55","ios":"levelo://app?vid=f66ba047-eb1e-4c71-b5da-460a1f07fb55"},"vehicle_type_id":"4","last_reported":1741007943,"current_range_meters":19200,"station_id":"ce4bhgp2rcd13ifvqfe0","pricing_plan_id":"cebpf4jnsgd1na2vs0mg"},{"bike_id":"e6ce3260-6e42-4334-a434-b7f25aa0a5bb","system_id":"levelo_inurba_marseille","lat":43.31325,"lon":5.39698,"is_reserved":false,"is_disabled":true,"rental_uris":{"android":"levelo://app?vid=e6ce3260-6e42-4334-a434-b7f25aa0a5bb","ios":"levelo://app?vid=e6ce3260-6e42-4334-a434-b7f25aa0a5bb"},"vehicle_type_id":"4","last_reported":1741007943,"current_range_meters":19200,"station_id":"ce4bgvp2rcd13ifvqcu0","pricing_plan_id":"cebpf4jnsgd1na2vs0mg"},{"bike_id":"ec829cb0-1abc-41cc-bdf2-03325252e782","system_id":"levelo_inurba_marseille","lat":43.24676,"lon":5.38855,"is_reserved":false,"is_disabled":false,"rental_uris":{"android":"levelo://app?vid=ec829cb0-1abc-41cc-bdf2-03325252e782","ios":"levelo://app?vid=ec829cb0-1abc-41cc-bdf2-03325252e782"},"vehicle_type_id":"4","last_reported":1741007943,"current_range_meters":19200,"station_id":"ce4bhg12rcd13ifvqf60","pricing_plan_id":"cebpf4jnsgd1na2vs0mg"},{"bike_id":"9f5c3b70-b9b3-4668-ab77-ada2de1f974e","system_id":"levelo_inurba_marseille","lat":43.29308,"lon":5.37448,"is_reserved":false,"is_disabled":false,"rental_uris":{"android":"levelo://app?vid=9f5c3b70-b9b3-4668-ab77-ada2de1f974e","ios":"levelo://app?vid=9f5c3b70-b9b3-4668-ab77-ada2de1f974e"},"vehicle_type_id":"4","last_reported":1741007943,"current_range_meters":19200,"station_id":"ce4bgi12rcd13ifvqb70","pricing_plan_id":"cebpf4jnsgd1na2vs0mg"},{"bike_id":"74abfbef-a3b9-4c13-83b8-8ff06ddccab5","system_id":"levelo_inurba_marseille","lat":43.30148,"lon":5.38095,"is_reserved":false,"is_disabled":false,"rental_uris":{"android":"levelo://app?vid=74abfbef-a3b9-4c13-83b8-8ff06ddccab5","ios":"levelo://app?vid=74abfbef-a3b9-4c13-83b8-8ff06ddccab5"},"vehicle_type_id":"4","last_reported":1741007943,"current_range_meters":19200,"station_id":"ce4bgjp2rcd13ifvqbh0","pricing_plan_id":"cebpf4jnsgd1na2vs0mg"},{"bike_id":"47ca7176-dcba-4b9e-8dbb-e2bb239319ab","system_id":"levelo_inurba_marseille","lat":43.3144,"lon":5.385,"is_reserved":false,"is_disabled":false,"rental_uris":{"android":"levelo://app?vid=47ca7176-dcba-4b9e-8dbb-e2bb239319ab","ios":"levelo://app?vid=47ca7176-dcba-4b9e-8dbb-e2bb239319ab"},"vehicle_type_id":"4","last_reported":1741007943,"current_range_meters":19600,"station_id":"","pricing_plan_id":"cebpf4jnsgd1na2vs0mg"},{"bike_id":"c9309e68-295d-4fc9-8493-82d5eaaada4f","system_id":"levelo_inurba_marseille","lat":43.31529,"lon":5.38037,"is_reserved":false,"is_disabled":false,"rental_uris":{"android":"levelo://app?vid=c9309e68-295d-4fc9-8493-82d5eaaada4f","ios":"levelo://app?vid=c9309e68-295d-4fc9-8493-82d5eaaada4f"},"vehicle_type_id":"4","last_reported":1741007943,"current_range_meters":19200,"station_id":"ce4bhsp2rcd13ifvqi50","pricing_plan_id":"cebpf4jnsgd1na2vs0mg"},{"bike_id":"d98895af-3f7b-46c0-9f67-de98d612aaf0","system_id":"levelo_inurba_marseille","lat":43.28569,"lon":5.39509,"is_reserved":false,"is_disabled":false,"rental_uris":{"android":"levelo://app?vid=d98895af-3f7b-46c0-9f67-de98d612aaf0","ios":"levelo://app?vid=d98895af-3f7b-46c0-9f67-de98d612aaf0"},