{"last_updated":1732537176,"ttl":60,"version":"2.2","data":{"bikes":[{"bike_id":"ce7ec125-e5e1-4f1c-9ffa-2776a8995d05","system_id":"levelo_inurba_marseille","lat":43.27065,"lon":5.42269,"is_reserved":false,"is_disabled":true,"rental_uris":{"android":"levelo://app?vid=ce7ec125-e5e1-4f1c-9ffa-2776a8995d05","ios":"levelo://app?vid=ce7ec125-e5e1-4f1c-9ffa-2776a8995d05"},"vehicle_type_id":"4","last_reported":1732537176,"current_range_meters":0,"station_id":"ce4bhk92rcd13ifvqgb0","pricing_plan_id":"cebpf4jnsgd1na2vs0mg"},{"bike_id":"be51e4b1-8475-4469-a86d-a11fb572b42f","system_id":"levelo_inurba_marseille","lat":43.29628,"lon":5.40592,"is_reserved":false,"is_disabled":false,"rental_uris":{"android":"levelo://app?vid=be51e4b1-8475-4469-a86d-a11fb572b42f","ios":"levelo://app?vid=be51e4b1-8475-4469-a86d-a11fb572b42f"},"vehicle_type_id":"4","last_reported":1732537176,"current_range_meters":10800,"station_id":"ce4bh0h2rcd13ifvqd60","pricing_plan_id":"cebpf4jnsgd1na2vs0mg"},{"bike_id":"dad9e197-4927-4fd9-8cfb-d1c31e46b32c","system_id":"levelo_inurba_marseille","lat":43.25941,"lon":5.40903,"is_reserved":false,"is_disabled":false,"rental_uris":{"android":"levelo://app?vid=dad9e197-4927-4fd9-8cfb-d1c31e46b32c","ios":"levelo://app?vid=dad9e197-4927-4fd9-8cfb-d1c31e46b32c"},"vehicle_type_id":"4","last_reported":1732537176,"current_range_meters":23200,"station_id":"ce4bhm92rcd13ifvqglg","pricing_plan_id":"cebpf4jnsgd1na2vs0mg"},{"bike_id":"6ff11242-12a1-46a6-aa07-1e9f4b6cd549","system_id":"levelo_inurba_marseille","lat":43.2979,"lon":5.39339,"is_reserved":false,"is_disabled":false,"rental_uris":{"android":"levelo://app?vid=6ff11242-12a1-46a6-aa07-1e9f4b6cd549","ios":"levelo://app?vid=6ff11242-12a1-46a6-aa07-1e9f4b6cd549"},"vehicle_type_id":"4","last_reported":1732537176,"current_range_meters":6400,"station_id":"chh1huq6cuj3fo74tm60","pricing_plan_id":"cebpf4jnsgd1na2vs0mg"},{"bike_id":"9505ee08-e930-4998-8f08-56def138bb8c","system_id":"levelo_inurba_marseille","lat":43.31117,"lon":5.37767,"is_reserved":false,"is_disabled":false,"rental_uris":{"android":"levelo://app?vid=9505ee08-e930-4998-8f08-56def138bb8c","ios":"levelo://app?vid=9505ee08-e930-4998-8f08-56def138bb8c"},"vehicle_type_id":"4","last_reported":1732537176,"current_range_meters":13600,"station_id":"ce4bgt92rcd13ifvqcg0","pricing_plan_id":"cebpf4jnsgd1na2vs0mg"},{"bike_id":"d57aab1f-4226-4c67-9f52-f1c27b38e5e5","system_id":"levelo_inurba_marseille","lat":43.28569,"lon":5.39497,"is_reserved":false,"is_disabled":false,"rental_uris":{"android":"levelo://app?vid=d57aab1f-4226-4c67-9f52-f1c27b38e5e5","ios":"levelo://app?vid=d57aab1f-4226-4c67-9f52-f1c27b38e5e5"},"vehicle_type_id":"4","last_reported":1732537176,"current_range_meters":38800,"station_id":"ce4bh292rcd13ifvqdg0","pricing_plan_id":"cebpf4jnsgd1na2vs0mg"},{"bike_id":"b321a489-0b5d-4df3-be9c-10997b313f60","system_id":"levelo_inurba_marseille","lat":43.28347,"lon":5.38102,"is_reserved":false,"is_disabled":false,"rental_uris":{"android":"levelo://app?vid=b321a489-0b5d-4df3-be9c-10997b313f60","ios":"levelo://app?vid=b321a489-0b5d-4df3-be9c-10997b313f60"},"vehicle_type_id":"4","last_reported":1732537176,"current_range_meters":27600,"station_id":"ce4bh412rcd13ifvqdr0","pricing_plan_id":"cebpf4jnsgd1na2vs0mg"},{"bike_id":"ac15ea7b-c790-41c8-9ea5-ee3f73e32ca4","system_id":"levelo_inurba_marseille","lat":43.29523,"lon":5.39031,"is_reserved":false,"is_disabled":false,"rental_uris":{"android":"levelo://app?vid=ac15ea7b-c790-41c8-9ea5-ee3f73e32ca4","ios":"levelo://app?vid=ac15ea7b-c790-41c8-9ea5-ee3f73e32ca4"},"vehicle_type_id":"4","last_reported":1732537176,"current_range_meters":35600,"station_id":"ce4bh3p2rcd13ifvqdp0","pricing_plan_id":"cebpf4jnsgd1na2vs0mg"},{"bike_id":"94527a76-0bb1-4146-9d66-5a02656d021d","system_id":"levelo_inurba_marseille","lat":43.28156,"lon":5.42644,"is_reserved":false,"is_disabled":false,"rental_uris":{"android":"levelo://app?vid=94527a76-0bb1-4146-9d66-5a02656d021d","ios":"levelo://app?vid=94527a76-0bb1-4146-9d66-5a02656d021d"},"vehicle_type_id":"4","last_reported":1732537176,"current_range_meters":10800,"station_id":"ce4bhnh2rcd13ifvqgug","pricing_plan_id":"cebpf4jnsgd1na2vs0mg"},{"bike_id":"a783aa87-d272-439a-88f5-0aba0c628af2","system_id":"levelo_inurba_marseille","lat":43.32657,"lon":5.40995,"is_reserved":false,"is_disabled":true,"rental_uris":{"android":"levelo://app?vid=a783aa87-d272-439a-88f5-0aba0c628af2","ios":"levelo://app?vid=a783aa87-d272-439a-88f5-0aba0c628af2"},"vehicle_type_id":"4","last_reported":1732537176,"current_range_meters":8400,"station_id":"ce4bhpp2rcd13ifvqhgg","pricing_plan_id":"cebpf4jnsgd1na2vs0mg"},{"bike_id":"2d76a46c-0b1d-4012-b930-acc0f89163be","system_id":"levelo_inurba_marseille","lat":43.31238,"lon":5.36863,"is_reserved":false,"is_disabled":false,"rental_uris":{"android":"levelo://app?vid=2d76a46c-0b1d-4012-b930-acc0f89163be","ios":"levelo://app?vid=2d76a46c-0b1d-4012-b930-acc0f89163be"},"vehicle_type_id":"4","last_reported":1732537176,"current_range_meters":24000,"station_id":"ce4bgl92rcd13ifvqbq0","pricing_plan_id":"cebpf4jnsgd1na2vs0mg"},{"bike_id":"1d480d76-bb73-4781-930a-16c68fdce680","system_id":"levelo_inurba_marseille","lat":43.25576,"lon":5.38233,"is_reserved":false,"is_disabled":false,"rental_uris":{"android":"levelo://app?vid=1d480d76-bb73-4781-930a-16c68fdce680","ios":"levelo://app?vid=1d480d76-bb73-4781-930a-16c68fdce680"},"vehicle_type_id":"4","last_reported":1732537176,"current_range_meters":28400,"station_id":"ce4bhih2rcd13ifvqfs0","pricing_plan_id":"cebpf4jnsgd1na2vs0mg"},{"bike_id":"d5f4879c-4dae-42ac-a7d5-9a65246905af","system_id":"levelo_inurba_marseille","lat":43.25865,"lon":5.39895,"is_reserved":false,"is_disabled":false,"rental_uris":{"android":"levelo://app?vid=d5f4879c-4dae-42ac-a7d5-9a65246905af","ios":"levelo://app?vid=d5f4879c-4dae-42ac-a7d5-9a65246905af"},"vehicle_type_id":"4","last_reported":1732537176,"current_range_meters":24000,"station_id":"ce4bhl92rcd13ifvqghg","pricing_plan_id":"cebpf4jnsgd1na2vs0mg"},{"bike_id":"bda227ed-32f5-420d-a515-78943985b838","system_id":"levelo_inurba_marseille","lat":43.30155,"lon":5.38101,"is_reserved":false,"is_disabled":true,"rental_uris":{"android":"levelo://app?vid=bda227ed-32f5-420d-a515-78943985b838","ios":"levelo://app?vid=bda227ed-32f5-420d-a515-78943985b838"},"vehicle_type_id":"4","last_reported":1732537176,"current_range_meters":30800,"station_id":"ce4bgjp2rcd13ifvqbh0","pricing_plan_id":"cebpf4jnsgd1na2vs0mg"},{"bike_id":"30585094-ecfe-43ac-ae36-000c4a5ab426","system_id":"levelo_inurba_marseille","lat":43.30948,"lon":5.39034,"is_reserved":false,"is_disabled":true,"rental_uris":{"android":"levelo://app?vid=30585094-ecfe-43ac-ae36-000c4a5ab426","ios":"levelo://app?vid=30585094-ecfe-43ac-ae36-000c4a5ab426"},"vehicle_type_id":"4","last_reported":1732537176,"current_range_meters":17200,"station_id":"ce4bgup2rcd13ifvqco0","pricing_plan_id":"cebpf4jnsgd1na2vs0mg"},{"bike_id":"cd9c2338-5b64-4620-a8be-7c44a2c0996e","system_id":"levelo_inurba_marseille","lat":43.25104,"lon":5.40329,"is_reserved":false,"is_disabled":false,"rental_uris":{"android":"levelo://app?vid=cd9c2338-5b64-4620-a8be-7c44a2c0996e","ios":"levelo://app?vid=cd9c2338-5b64-4620-a8be-7c44a2c0996e"},"vehicle_type_id":"4","last_reported":1732537176,"current_range_meters":38800,"station_id":"ce4bhlh2rcd13ifvqgig","pricing_plan_id":"cebpf4jnsgd1na2vs0mg"},{"bike_id":"39b11e64-2962-470f-8250-90fe18d4a5f4","system_id":"levelo_inurba_marseille","lat":43.24721,"lon":5.39299,"is_reserved":false,"is_disabled":true,"rental_uris":{"android":"levelo://app?vid=39b11e64-2962-470f-8250-90fe18d4a5f4","ios":"levelo://app?vid=39b11e64-2962-470f-8250-90fe18d4a5f4"},"vehicle_type_id":"4","last_reported":1732537176,"current_range_meters":0,"station_id":"","pricing_plan_id":"cebpf4jnsgd1na2vs0mg"},{"bike_id":"96bdc386-972d-4abf-bdbc-fce33197b4f3","system_id":"levelo_inurba_marseille","lat":43.26682,"lon":5.38263,"is_reserved":false,"is_disabled":false,"rental_uris":{"android":"levelo://app?vid=96bdc386-972d-4abf-bdbc-fce33197b4f3","ios":"levelo://app?vid=96bdc386-972d-4abf-bdbc-fce33197b4f3"},"vehicle_type_id":"4","last_reported":1732537176,"current_range_meters":35200,"station_id":"ce4bhg92rcd13ifvqf90","pricing_plan_id":"cebpf4jnsgd1na2vs0mg"},{"bike_id":"48c65e97-1516-4538-82d5-5272854a7544","system_id":"levelo_inurba_marseille","lat":43.32482,"lon":5.36567,"is_reserved":false,"is_disabled":false,"rental_uris":{"android":"levelo://app?vid=48c65e97-1516-4538-82d5-5272854a7544","ios":"levelo://app?vid=48c65e97-1516-4538-82d5-5272854a7544"},"vehicle_type_id":"4","last_reported":1732537176,"current_range_meters":38000,"station_id":"ce4bhs12rcd13ifvqhvg","pricing_plan_id":"cebpf4jnsgd1na2vs0mg"},{"bike_id":"3ade58a9-2491-481a-86c5-e1c95f66dde0","system_id":"levelo_inurba_marseille","lat":43.240738,"lon":5.37762,"is_reserved":false,"is_disabled":true,"rental_uris":{"android":"levelo://app?vid=3ade58a9-2491-481a-86c5-e1c95f66dde0","ios":"levelo://app?vid=3ade58a9-2491-481a-86c5-e1c95f66dde0"},"vehicle_type_id":"4","last_reported":1732537176,"current_range_meters":25600,"station_id":"ce4bhnp2rcd13ifvqgvg","pricing_plan_id":"cebpf4jnsgd1na2vs0mg"},{"bike_id":"30ba3f49-11a8-42b0-83f1-dbeeb3e63c56","system_id":"levelo_inurba_marseille","lat":43.31717,"lon":5.37747,"is_reserved":false,"is_disabled":false,"rental_uris":{"android":"levelo://app?vid=30ba3f49-11a8-42b0-83f1-dbeeb3e63c56","ios":"levelo://app?vid=30ba3f49-11a8-42b0-83f1-dbeeb3e63c56"},"vehicle_type_id":"4","last_reported":1732537176,"current_range_meters":38000,"station_id":"ce4bgth2rcd13ifvqch0","pricing_plan_id":"cebpf4jnsgd1na2vs0mg"},{"bike_id":"9c9d48fb-d109-47b1-86d8-c2eb469b4acc","system_id":"levelo_inurba_marseille","lat":43.25118,"lon":5.40317,"is_reserved":false,"is_disabled":false,"rental_uris":{"android":"levelo://app?vid=9c9d48fb-d109-47b1-86d8-c2eb469b4acc","ios":"levelo://app?vid=9c9d48fb-d109-47b1-86d8-c2eb469b4acc"},"vehicle_type_id":"4","last_reported":1732537176,"current_range_meters":9600,"station_id":"ce4bhlh2rcd13ifvqgig","pricing_plan_id":"cebpf4jnsgd1na2vs0mg"},{"bike_id":"e55d71d0-970e-4e17-ba14-4482cf574a53","system_id":"levelo_inurba_marseille","lat":43.33774,"lon":5.38501,"is_reserved":false,"is_disabled":false,"rental_uris":{"android":"levelo://app?vid=e55d71d0-970e-4e17-ba14-4482cf574a53","ios":"levelo://app?vid=e55d71d0-970e-4e17-ba14-4482cf574a53"},"vehicle_type_id":"4","last_reported":1732537176,"current_range_meters":33600,"station_id":"","pricing_plan_id":"cebpf4jnsgd1na2vs0mg"},{"bike_id":"39772c2f-fe87-4f2b-a94f-704958df3c08","system_id":"levelo_inurba_marseille","lat":43.23158,"lon":5.43714,"is_reserved":false,"is_disabled":false,"rental_uris":{"android":"levelo://app?vid=39772c2f-fe87-4f2b-a94f-704958df3c08","ios":"levelo://app?vid=39772c2f-fe87-4f2b-a94f-704958df3c08"},"vehicle_type_id":"4","last_reported":1732537176,"current_range_meters":38800,"station_id":"ce4bhmp2rcd13ifvqgog","pricing_plan_id":"cebpf4jnsgd1na2vs0mg"},{"bike_id":"7ed79d38-4524-4734-8c20-d609753b8379","system_id":"levelo_inurba_marseille","lat":43.29631,"lon":5.40597,"is_reserved":false,"is_disabled":false,"rental_uris":{"android":"levelo://app?vid=7ed79d38-4524-4734-8c20-d609753b8379","ios":"levelo://app?vid=7ed79d38-4524-4734-8c20-d609753b8379"},"vehicle_type_id":"4","last_reported":1732537176,"current_range_meters":38800,"station_id":"ce4bh0h2rcd13ifvqd60","pricing_plan_id":"cebpf4jnsgd1na2vs0mg"},{"bike_id":"0fe6bc3d-1c43-4c88-8c2e-a1bfffbf804b","system_id":"levelo_inurba_marseille","lat":43.29636,"lon":5.40595,"is_reserved":false,"is_disabled":false,"rental_uris":{"android":"levelo://app?vid=0fe6bc3d-1c43-4c88-8c2e-a1bfffbf804b","ios":"levelo://app?vid=0fe6bc3d-1c43-4c88-8c2e-a1bfffbf804b"},"vehicle_type_id":"4","last_reported":1732537176,"current_range_meters":39200,"station_id":"ce4bh0h2rcd13ifvqd60","pricing_plan_id":"cebpf4jnsgd1na2vs0mg"},{"bike_id":"4c6270c1-d1b3-47e1-8802-6c59ecda65c0","system_id":"levelo_inurba_marseille","lat":43.3012,"lon":5.39168,"is_reserved":false,"is_disabled":false,"rental_uris":{"android":"levelo://app?vid=4c6270c1-d1b3-47e1-8802-6c59ecda65c0","ios":"levelo://app?vid=4c6270c1-d1b3-47e1-8802-6c59ecda65c0"},"vehicle_type_id":"4","last_reported":1732537176,"current_range_meters":19600,"station_id":"","pricing_plan_id":"cebpf4jnsgd1na2vs0mg"},{"bike_id":"26ec1a22-5020-45e4-ab45-512c7f67d5dd","system_id":"levelo_inurba_marseille","lat":43.3206,"lon":5.41542,"is_reserved":false,"is_disabled":true,"rental_uris":{"android":"levelo://app?vid=26ec1a22-5020-45e4-ab45-512c7f67d5dd","ios":"levelo://app?vid=26ec1a22-5020-45e4-ab45-512c7f67d5dd"},"vehicle_type_id":"4","last_reported":1732537176,"current_range_meters":24400,"station_id":"ce4bhq92rcd13ifvqhkg","pricing_plan_id":"cebpf4jnsgd1na2vs0mg"},{"bike_id":"bb352709-a974-4625-8b05-938eb9fba5c0","system_id":"levelo_inurba_marseille","lat":43.2511,"lon":5.40323,"is_reserved":false,"is_disabled":false,"rental_uris":{"android":"levelo://app?vid=bb352709-a974-4625-8b05-938eb9fba5c0","ios":"levelo://app?vid=bb352709-a974-4625-8b05-938eb9fba5c0"},"vehicle_type_id":"4","last_reported":1732537176,"current_range_meters":8400,"station_id":"ce4bhlh2rcd13ifvqgig","pricing_plan_id":"cebpf4jnsgd1na2vs0mg"},{"bike_id":"1daf88ed-52d0-49f0-9530-529b07a45643","system_id":"levelo_inurba_marseille","lat":43.29957,"lon":5.41321,"is_reserved":false,"is_disabled":false,"rental_uris":{"android":"levelo://app?vid=1daf88ed-52d0-49f0-9530-529b07a45643","ios":"levelo://app?vid=1daf88ed-52d0-49f0-9530-529b07a45643"},"vehicle_type_id":"4","last_reported":1732537176,"current_range_meters":23200,"station_id":"ce4bhp12rcd13ifvqh9g","pricing_plan_id":"cebpf4jnsgd1na2vs0mg"},{"bike_id":"1436042d-745b-4b81-9385-49b067b9ed21","system_id":"levelo_inurba_marseille","lat":43.30882,"lon":5.37198,"is_reserved":false,"is_disabled":false,"rental_uris":{"android":"levelo://app?vid=1436042d-745b-4b81-9385-49b067b9ed21","ios":"levelo://app?vid=1436042d-745b-4b81-9385-49b067b9ed21"},"vehicle_type_id":"4","last_reported":1732537176,"current_range_meters":32400,"station_id":"ce4bguh2rcd13ifvqckg","pricing_plan_id":"cebpf4jnsgd1na2vs0mg"},{"bike_id":"025fb27c-4b94-4477-ba0e-4c2b49d7e280","system_id":"levelo_inurba_marseille","lat":43.26957,"lon":5.38621,"is_reserved":false,"is_disabled":false,"rental_uris":{"android":"levelo://app?vid=025fb27c-4b94-4477-ba0e-4c2b49d7e280","ios":"levelo://app?vid=025fb27c-4b94-4477-ba0e-4c2b49d7e280"},"vehicle_type_id":"4","last_reported":1732537176,"current_range_meters":34000,"station_id":"ce4bhh92rcd13ifvqfh0","pricing_plan_id":"cebpf4jnsgd1na2vs0mg"},{"bike_id":"4d75385d-8869-4946-a04e-6f63912eaeb2","system_id":"levelo_inurba_marseille","lat":43.2694,"lon":5.3863,"is_reserved":false,"is_disabled":false,"rental_uris":{"android":"levelo://app?vid=4d75385d-8869-4946-a04e-6f63912eaeb2","ios":"levelo://app?vid=4d75385d-8869-4946-a04e-6f63912eaeb2"},"vehicle_type_id":"4","last_reported":1732537176,"current_range_meters":6800,"station_id":"ce4bhh92rcd13ifvqfh0","pricing_plan_id":"cebpf4jnsgd1na2vs0mg"},{"bike_id":"1e126baa-22b4-4cf7-a05e-1c0611873009","system_id":"levelo_inurba_marseille","lat":43.311192,"lon":5.377708,"is_reserved":false,"is_disabled":true,"rental_uris":{"android":"levelo://app?vid=1e126baa-22b4-4cf7-a05e-1c0611873009","ios":"levelo://app?vid=1e126baa-22b4-4cf7-a05e-1c0611873009"},"vehicle_type_id":"4","last_reported":1732537176,"current_range_meters":0,"station_id":"","pricing_plan_id":"cebpf4jnsgd1na2vs0mg"},{"bike_id":"fac75614-d8f8-4f81-b9f8-eadcd11350bd","system_id":"levelo_inurba_marseille","lat":43.30464,"lon":5.37895,"is_reserved":false,"is_disabled":true,"rental_uris":{"android":"levelo://app?vid=fac75614-d8f8-4f81-b9f8-eadcd11350bd","ios":"levelo://app?vid=fac75614-d8f8-4f81-b9f8-eadcd11350bd"},"vehicle_type_id":"4","last_reported":1732537176,"current_range_meters":25200,"station_id":"ce4bgup2rcd13ifvqcn0","pricing_plan_id":"cebpf4jnsgd1na2vs0mg"},{"bike_id":"030fb72b-6ff7-4649-8c5f-9f2bebbb17dc","system_id":"levelo_inurba_marseille","lat":43.26686,"lon":5.38274,"is_reserved":false,"is_disabled":false,"rental_uris":{"android":"levelo://app?vid=030fb72b-6ff7-4649-8c5f-9f2bebbb17dc","ios":"levelo://app?vid=030fb72b-6ff7-4649-8c5f-9f2bebbb17dc"},"vehicle_type_id":"4","last_reported":1732537176,"current_range_meters":28000,"station_id":"ce4bhg92rcd13ifvqf90","pricing_plan_id":"cebpf4jnsgd1na2vs0mg"},{"bike_id":"2516526c-dced-4bda-b648-a037d8984aaa","system_id":"levelo_inurba_marseille","lat":43.32539,"lon":5.41428,"is_reserved":false,"is_disabled":false,"rental_uris":{"android":"levelo://app?vid=2516526c-dced-4bda-b648-a037d8984aaa","ios":"levelo://app?vid=2516526c-dced-4bda-b648-a037d8984aaa"},"vehicle_type_id":"4","last_reported":1732537176,"current_range_meters":12800,"station_id":"ce4bhq12rcd13ifvqhhg","pricing_plan_id":"cebpf4jnsgd1na2vs0mg"},{"bike_id":"fd1eb0db-ad48-4d6c-888e-52bf1f573ebb","system_id":"levelo_inurba_marseille","lat":43.30523,"lon":5.36719,"is_reserved":false,"is_disabled":false,"rental_uris":{"android":"levelo://app?vid=fd1eb0db-ad48-4d6c-888e-52bf1f573ebb","ios":"levelo://app?vid=fd1eb0db-ad48-4d6c-888e-52bf1f573ebb"},"vehicle_type_id":"4","last_reported":1732537176,"current_range_meters":30000,"station_id":"ce4bgrp2rcd13ifvqc9g","pricing_plan_id":"cebpf4jnsgd1na2vs0mg"},{"bike_id":"53dfa244-74a2-4ae3-a3e2-c3900f572a57","system_id":"levelo_inurba_marseille","lat":43.24171,"lon":5.36396,"is_reserved":false,"is_disabled":false,"rental_uris":{"android":"levelo://app?vid=53dfa244-74a2-4ae3-a3e2-c3900f572a57","ios":"levelo://app?vid=53dfa244-74a2-4ae3-a3e2-c3900f572a57"},"vehicle_type_id":"4","last_reported":1732537176,"current_range_meters":8400,"station_id":"cpo36qri1sfpv3e86is0","pricing_plan_id":"cebpf4jnsgd1na2vs0mg"},{"bike_id":"c01413e4-6898-45ee-be35-ef8f0832c3bc","system_id":"levelo_inurba_marseille","lat":43.32356,"lon":5.38887,"is_reserved":false,"is_disabled":true,"rental_uris":{"android":"levelo://app?vid=c01413e4-6898-45ee-be35-ef8f0832c3bc","ios":"levelo://app?vid=c01413e4-6898-45ee-be35-ef8f0832c3bc"},"vehicle_type_id":"4","last_reported":1732537176,"current_range_meters":27600,"station_id":"ce4bhqp2rcd13ifvqhog","pricing_plan_id":"cebpf4jnsgd1na2vs0mg"},{"bike_id":"a73de2a2-c889-4d6a-8a7c-845bdbb682a8","system_id":"levelo_inurba_marseille","lat":43.2953,"lon":5.39043,"is_reserved":false,"is_disabled":false,"rental_uris":{"android":"levelo://app?vid=a73de2a2-c889-4d6a-8a7c-845bdbb682a8","ios":"levelo://app?vid=a73de2a2-c889-4d6a-8a7c-845bdbb682a8"},"vehicle_type_id":"4","last_reported":1732537176,"current_range_meters":33200,"station_id":"ce4bh3p2rcd13ifvqdp0","pricing_plan_id":"cebpf4jnsgd1na2vs0mg"},{"bike_id":"7767996f-2f6e-4bc8-bbf5-81dc5bff054c","system_id":"levelo_inurba_marseille","lat":43.29306,"lon":5.37443,"is_reserved":false,"is_disabled":true,"rental_uris":{"android":"levelo://app?vid=7767996f-2f6e-4bc8-bbf5-81dc5bff054c","ios":"levelo://app?vid=7767996f-2f6e-4bc8-bbf5-81dc5bff054c"},"vehicle_type_id":"4","last_reported":1732537176,"current_range_meters":37600,"station_id":"ce4bgi12rcd13ifvqb70","pricing_plan_id":"cebpf4jnsgd1na2vs0mg"},{"bike_id":"9465545f-af87-4599-bf7e-091832e32b7b","system_id":"levelo_inurba_marseille","lat":43.29546,"lon":5.38545,"is_reserved":false,"is_disabled":true,"rental_uris":{"android":"levelo://app?vid=9465545f-af87-4599-bf7e-091832e32b7b","ios":"levelo://app?vid=9465545f-af87-4599-bf7e-091832e32b7b"},"vehicle_type_id":"4","last_reported":1732537176,"current_range_meters":25200,"station_id":"ce4bgih2rcd13ifvqba0","pricing_plan_id":"cebpf4jnsgd1na2vs0mg"},{"bike_id":"df466673-8480-4993-aaab-7f6ec0696a11","system_id":"levelo_inurba_marseille","lat":43.26503,"lon":5.39536,"is_reserved":false,"is_disabled":false,"rental_uris":{"android":"levelo://app?vid=df466673-8480-4993-aaab-7f6ec0696a11","ios":"levelo://app?vid=df466673-8480-4993-aaab-7f6ec0696a11"},"vehicle_type_id":"4","last_reported":1732537176,"current_range_meters":15200,"station_id":"ce4bhi12rcd13ifvqfq0","pricing_plan_id":"cebpf4jnsgd1na2vs0mg"},{"bike_id":"40cfd9d7-e32d-46e7-9583-673a5ca6d2ed","system_id":"levelo_inurba_marseille","lat":43.26683,"lon":5.38264,"is_reserved":false,"is_disabled":false,"rental_uris":{"android":"levelo://app?vid=40cfd9d7-e32d-46e7-9583-673a5ca6d2ed","ios":"levelo://app?vid=40cfd9d7-e32d-46e7-9583-673a5ca6d2ed"},"vehicle_type_id":"4","last_reported":1732537176,"current_range_meters":38400,"station_id":"ce4bhg92rcd13ifvqf90","pricing_plan_id":"cebpf4jnsgd1na2vs0mg"},{"bike_id":"015d9608-e3d2-43da-9f42-0f13bede6986","system_id":"levelo_inurba_marseille","lat":43.25113,"lon":5.40326,"is_reserved":false,"is_disabled":false,"rental_uris":{"android":"levelo://app?vid=015d9608-e3d2-43da-9f42-0f13bede6986","ios":"levelo://app?vid=015d9608-e3d2-43da-9f42-0f13bede6986"},"vehicle_type_id":"4","last_reported":1732537176,"current_range_meters":24800,"station_id":"ce4bhlh2rcd13ifvqgig","pricing_plan_id":"cebpf4jnsgd1na2vs0mg"},{"bike_id":"8b8a2263-337c-4622-b2b6-74c398a5001d","system_id":"levelo_inurba_marseille","lat":43.30546,"lon":5.36531,"is_reserved":false,"is_disabled":false,"rental_uris":{"android":"levelo://app?vid=8b8a2263-337c-4622-b2b6-74c398a5001d","ios":"levelo://app?vid=8b8a2263-337c-4622-b2b6-74c398a5001d"},"vehicle_type_id":"4","last_reported":1732537176,"current_range_meters":20000,"station_id":"ce4bgs12rcd13ifvqcag","pricing_plan_id":"cebpf4jnsgd1na2vs0mg"},{"bike_id":"835b00c2-64c0-4cbe-82bb-c78dd70919e3","system_id":"levelo_inurba_marseille","lat":43.279661,"lon":5.407939,"is_reserved":false,"is_disabled":false,"rental_uris":{"android":"levelo://app?vid=835b00c2-64c0-4cbe-82bb-c78dd70919e3","ios":"levelo://app?vid=835b00c2-64c0-4cbe-82bb-c78dd70919e3"},"vehicle_type_id":"4","last_reported":1732537176,"current_range_meters":7200,"station_id":"","pricing_plan_id":"cebpf4jnsgd1na2vs0mg"},{"bike_id":"f6bfff08-376d-42d9-a3f3-0c329bc43ebe","system_id":"levelo_inurba_marseille","lat":43.29287,"lon":5.37454,"is_reserved":false,"is_disabled":false,"rental_uris":{"android":"levelo://app?vid=f6bfff08-376d-42d9-a3f3-0c329bc43ebe","ios":"levelo://app?vid=f6bfff08-376d-42d9-a3f3-0c329bc43ebe"},"vehicle_type_id":"4","last_reported":1732537176,"current_range_meters":31200,"station_id":"ce4bgi12rcd13ifvqb70","pricing_plan_id":"cebpf4jnsgd1na2vs0mg"},{"bike_id":"2d772cbb-b7de-4499-9753-7f81fd5790be","system_id":"levelo_inurba_marseille","lat":43.26934,"lon":5.38923,"is_reserved":false,"is_disabled":false,"rental_uris":{"android":"levelo://app?vid=2d772cbb-b7de-4499-9753-7f81fd5790be","ios":"levelo://app?vid=2d772cbb-b7de-4499-9753-7f81fd5790be"},"vehicle_type_id":"4","last_reported":1732537176,"current_range_meters":38000,"station_id":"ce4bhhh2rcd13ifvqfl0","pricing_plan_id":"cebpf4jnsgd1na2vs0mg"},{"bike_id":"cdea59b3-474c-435a-97c9-7a97db92633d","system_id":"levelo_inurba_marseille","lat":43.30806,"lon":5.43526,"is_reserved":false,"is_disabled":false,"rental_uris":{"android":"levelo://app?vid=cdea59b3-474c-435a-97c9-7a97db92633d","ios":"levelo://app?vid=cdea59b3-474c-435a-97c9-7a97db92633d"},"vehicle_type_id":"4","last_reported":1732537176,"current_range_meters":37600,"station_id":"ce4bhph2rcd13ifvqheg","pricing_plan_id":"cebpf4jnsgd1na2vs0mg"},{"bike_id":"ea84055d-01cb-4e5e-9879-add3bc59baf7","system_id":"levelo_inurba_marseille","lat":43.32484,"lon":5.36563,"is_reserved":false,"is_disabled":false,"rental_uris":{"android":"levelo://app?vid=ea84055d-01cb-4e5e-9879-add3bc59baf7","ios":"levelo://app?vid=ea84055d-01cb-4e5e-9879-add3bc59baf7"},"vehicle_type_id":"4","last_reported":1732537176,"current_range_meters":8000,"station_id":"ce4bhs12rcd13ifvqhvg","pricing_plan_id":"cebpf4jnsgd1na2vs0mg"},{"bike_id":"8f2aa4c1-472e-48b8-b9a7-e83545c95d08","system_id":"levelo_inurba_marseille","lat":43.30543,"lon":5.3654,"is_reserved":false,"is_disabled":false,"rental_uris":{"android":"levelo://app?vid=8f2aa4c1-472e-48b8-b9a7-e83545c95d08","ios":"levelo://app?vid=8f2aa4c1-472e-48b8-b9a7-e83545c95d08"},"vehicle_type_id":"4","last_reported":1732537176,"current_range_meters":33600,"station_id":"ce4bgs12rcd13ifvqcag","pricing_plan_id":"cebpf4jnsgd1na2vs0mg"},{"bike_id":"a63f026b-964a-429c-9110-87bd719c2c3a","system_id":"levelo_inurba_marseille","lat":43.29297,"lon":5.37444,"is_reserved":false,"is_disabled":true,"rental_uris":{"android":"levelo://app?vid=a63f026b-964a-429c-9110-87bd719c2c3a","ios":"levelo://app?vid=a63f026b-964a-429c-9110-87bd719c2c3a"},"vehicle_type_id":"4","last_reported":1732537176,"current_range_meters":30400,"station_id":"ce4bgi12rcd13ifvqb70","pricing_plan_id":"cebpf4jnsgd1na2vs0mg"},{"bike_id":"ca8f0402-6749-4ba3-a4af-37a70f840e6c","system_id":"levelo_inurba_marseille","lat":43.29261,"lon":5.40914,"is_reserved":false,"is_disabled":false,"rental_uris":{"android":"levelo://app?vid=ca8f0402-6749-4ba3-a4af-37a70f840e6c","ios":"levelo://app?vid=ca8f0402-6749-4ba3-a4af-37a70f840e6c"},"vehicle_type_id":"4","last_reported":1732537176,"current_range_meters":19200,"station_id":"ce4bh192rcd13ifvqdc0","pricing_plan_id":"cebpf4jnsgd1na2vs0mg"},{"bike_id":"5f3e1e95-68a4-4eb2-9aa4-2ef515dacd34","system_id":"levelo_inurba_marseille","lat":43.31247,"lon":5.36892,"is_reserved":false,"is_disabled":true,"rental_uris":{"android":"levelo://app?vid=5f3e1e95-68a4-4eb2-9aa4-2ef515dacd34","ios":"levelo://app?vid=5f3e1e95-68a4-4eb2-9aa4-2ef515dacd34"},"vehicle_type_id":"4","last_reported":1732537176,"current_range_meters":4400,"station_id":"ce4bgl92rcd13ifvqbq0","pricing_plan_id":"cebpf4jnsgd1na2vs0mg"},{"bike_id":"08117995-990e-4451-96a5-afc9c181642a","system_id":"levelo_inurba_marseille","lat":43.28615,"lon":5.35093,"is_reserved":false,"is_disabled":false,"rental_uris":{"android":"levelo://app?vid=08117995-990e-4451-96a5-afc9c181642a","ios":"levelo://app?vid=08117995-990e-4451-96a5-afc9c181642a"},"vehicle_type_id":"4","last_reported":1732537176,"current_range_meters":23200,"station_id":"ce4bhch2rcd13ifvqeug","pricing_plan_id":"cebpf4jnsgd1na2vs0mg"},{"bike_id":"856e29cb-295f-4f0c-9b6f-98ae7860111f","system_id":"levelo_inurba_marseille","lat":43.29553,"lon":5.42284,"is_reserved":false,"is_disabled":false,"rental_uris":{"android":"levelo://app?vid=856e29cb-295f-4f0c-9b6f-98ae7860111f","ios":"levelo://app?vid=856e29cb-295f-4f0c-9b6f-98ae7860111f"},"vehicle_type_id":"4","last_reported":1732537176,"current_range_meters":26800,"station_id":"ce4bhph2rcd13ifvqhdg","pricing_plan_id":"cebpf4jnsgd1na2vs0mg"},{"bike_id":"555e2357-2bcd-47ca-b42f-f1e2c0c36aac","system_id":"levelo_inurba_marseille","lat":43.29637,"lon":5.40597,"is_reserved":false,"is_disabled":true,"rental_uris":{"android":"levelo://app?vid=555e2357-2bcd-47ca-b42f-f1e2c0c36aac","ios":"levelo://app?vid=555e2357-2bcd-47ca-b42f-f1e2c0c36aac"},"vehicle_type_id":"4","last_reported":1732537176,"current_range_meters":0,"station_id":"ce4bh0h2rcd13ifvqd60","pricing_plan_id":"cebpf4jnsgd1na2vs0mg"},{"bike_id":"31d77af9-b2e3-42f4-b9be-40536570a291","system_id":"levelo_inurba_marseille","lat":43.32484,"lon":5.36571,"is_reserved":false,"is_disabled":false,"rental_uris":{"android":"levelo://app?vid=31d77af9-b2e3-42f4-b9be-40536570a291","ios":"levelo://app?vid=31d77af9-b2e3-42f4-b9be-40536570a291"},"vehicle_type_id":"4","last_reported":1732537176,"current_range_meters":38800,"station_id":"ce4bhs12rcd13ifvqhvg","pricing_plan_id":"cebpf4jnsgd1na2vs0mg"},{"bike_id":"44aae9d1-32dd-48e6-be40-3a13d92b0ec4","system_id":"levelo_inurba_marseille","lat":43.31122,"lon":5.37759,"is_reserved":false,"is_disabled":false,"rental_uris":{"android":"levelo://app?vid=44aae9d1-32dd-48e6-be40-3a13d92b0ec4","ios":"levelo://app?vid=44aae9d1-32dd-48e6-be40-3a13d92b0ec4"},"vehicle_type_id":"4","last_reported":1732537176,"current_range_meters":37600,"station_id":"ce4bgt92rcd13ifvqcg0","pricing_plan_id":"cebpf4jnsgd1na2vs0mg"},{"bike_id":"4cf68192-498e-49a8-b866-19367c604fb3","system_id":"levelo_inurba_marseille","lat":43.29576,"lon":5.39969,"is_reserved":false,"is_disabled":true,"rental_uris":{"android":"levelo://app?vid=4cf68192-498e-49a8-b866-19367c604fb3","ios":"levelo://app?vid=4cf68192-498e-49a8-b866-19367c604fb3"},"vehicle_type_id":"4","last_reported":1732537176,"current_range_meters":30000,"station_id":"ce4bh312rcd13ifvqdj0","pricing_plan_id":"cebpf4jnsgd1na2vs0mg"},{"bike_id":"d9bb6317-9863-4086-90fe-e9eae128e310","system_id":"levelo_inurba_marseille","lat":43.26209,"lon":5.37442,"is_reserved":false,"is_disabled":false,"rental_uris":{"android":"levelo://app?vid=d9bb6317-9863-4086-90fe-e9eae128e310","ios":"levelo://app?vid=d9bb6317-9863-4086-90fe-e9eae128e310"},"vehicle_type_id":"4","last_reported":1732537176,"current_range_meters":38400,"station_id":"ce4bhgp2rcd13ifvqfc0","pricing_plan_id":"cebpf4jnsgd1na2vs0mg"},{"bike_id":"f374664c-1636-49b7-8bba-3022742724b0","system_id":"levelo_inurba_marseille","lat":43.31232,"lon":5.36857,"is_reserved":false,"is_disabled":false,"rental_uris":{"android":"levelo://app?vid=f374664c-1636-49b7-8bba-3022742724b0","ios":"levelo://app?vid=f374664c-1636-49b7-8bba-3022742724b0"},"vehicle_type_id":"4","last_reported":1732537176,"current_range_meters":38800,"station_id":"ce4bgl92rcd13ifvqbq0","pricing_plan_id":"cebpf4jnsgd1na2vs0mg"},{"bike_id":"254a152d-c50b-4e86-ac1c-23e9c6540d0e","system_id":"levelo_inurba_marseille","lat":43.25109,"lon":5.40325,"is_reserved":false,"is_disabled":false,"rental_uris":{"android":"levelo://app?vid=254a152d-c50b-4e86-ac1c-23e9c6540d0e","ios":"levelo://app?vid=254a152d-c50b-4e86-ac1c-23e9c6540d0e"},"vehicle_type_id":"4","last_reported":1732537176,"current_range_meters":38800,"station_id":"ce4bhlh2rcd13ifvqgig","pricing_plan_id":"cebpf4jnsgd1na2vs0mg"},{"bike_id":"b55c4065-7c3b-46b3-a329-23e168fa727f","system_id":"levelo_inurba_marseille","lat":43.28699,"lon":5.39982,"is_reserved":false,"is_disabled":false,"rental_uris":{"android":"levelo://app?vid=b55c4065-7c3b-46b3-a329-23e168fa727f","ios":"levelo://app?vid=b55c4065-7c3b-46b3-a329-23e168fa727f"},"vehicle_type_id":"4","last_reported":1732537176,"current_range_meters":11600,"station_id":"ce4bho92rcd13ifvqh3g","pricing_plan_id":"cebpf4jnsgd1na2vs0mg"},{"bike_id":"cb3e2ea1-6aaa-4c79-8af8-4aff457edba8","system_id":"levelo_inurba_marseille","lat":43.23147,"lon":5.4372,"is_reserved":false,"is_disabled":false,"rental_uris":{"android":"levelo://app?vid=cb3e2ea1-6aaa-4c79-8af8-4aff457edba8","ios":"levelo://app?vid=cb3e2ea1-6aaa-4c79-8af8-4aff457edba8"},"vehicle_type_id":"4","last_reported":1732537176,"current_range_meters":27600,"station_id":"ce4bhmp2rcd13ifvqgog","pricing_plan_id":"cebpf4jnsgd1na2vs0mg"},{"bike_id":"6a77cde1-ce49-473c-aa05-5c7828e65875","system_id":"levelo_inurba_marseille","lat":43.29811,"lon":5.38081,"is_reserved":false,"is_disabled":true,"rental_uris":{"android":"levelo://app?vid=6a77cde1-ce49-473c-aa05-5c7828e65875","ios":"levelo://app?vid=6a77cde1-ce49-473c-aa05-5c7828e65875"},"vehicle_type_id":"4","last_reported":1732537176,"current_range_meters":38800,"station_id":"ce4bgip2rcd13ifvqbb0","pricing_plan_id":"cebpf4jnsgd1na2vs0mg"},{"bike_id":"54f158e7-1fe0-4c86-b21f-09513cf7a0b8","system_id":"levelo_inurba_marseille","lat":43.25493,"lon":5.3765,"is_reserved":false,"is_disabled":true,"rental_uris":{"android":"levelo://app?vid=54f158e7-1fe0-4c86-b21f-09513cf7a0b8","ios":"levelo://app?vid=54f158e7-1fe0-4c86-b21f-09513cf7a0b8"},"vehicle_type_id":"4","last_reported":1732537176,"current_range_meters":26000,"station_id":"ce4bhh12rcd13ifvqff0","pricing_plan_id":"cebpf4jnsgd1na2vs0mg"},{"bike_id":"ba9ca061-531b-44d9-af62-3edc28860cec","system_id":"levelo_inurba_marseille","lat":43.32542,"lon":5.41442,"is_reserved":false,"is_disabled":true,"rental_uris":{"android":"levelo://app?vid=ba9ca061-531b-44d9-af62-3edc28860cec","ios":"levelo://app?vid=ba9ca061-531b-44d9-af62-3edc28860cec"},"vehicle_type_id":"4","last_reported":1732537176,"current_range_meters":29600,"station_id":"ce4bhq12rcd13ifvqhhg","pricing_plan_id":"cebpf4jnsgd1na2vs0mg"},{"bike_id":"93fe94db-033b-4622-98b4-d49f1d9109a6","system_id":"levelo_inurba_marseille","lat":43.29842,"lon":5.36259,"is_reserved":false,"is_disabled":false,"rental_uris":{"android":"levelo://app?vid=93fe94db-033b-4622-98b4-d49f1d9109a6","ios":"levelo://app?vid=93fe94db-033b-4622-98b4-d49f1d9109a6"},"vehicle_type_id":"4","last_reported":1732537176,"current_range_meters":36400,"station_id":"ce4bgpp2rcd13ifvqc3g","pricing_plan_id":"cebpf4jnsgd1na2vs0mg"},{"bike_id":"aafce12c-cc5b-4bab-850d-abd1a416e585","system_id":"levelo_inurba_marseille","lat":43.3024,"lon":5.40066,"is_reserved":false,"is_disabled":true,"rental_uris":{"android":"levelo://app?vid=aafce12c-cc5b-4bab-850d-abd1a416e585","ios":"levelo://app?vid=aafce12c-cc5b-4bab-850d-abd1a416e585"},"vehicle_type_id":"4","last_reported":1732537176,"current_range_meters":28400,"station_id":"ce4bgvh2rcd13ifvqcs0","pricing_plan_id":"cebpf4jnsgd1na2vs0mg"},{"bike_id":"00741319-8635-43ce-a1f4-ee7bcf739bb3","system_id":"levelo_inurba_marseille","lat":43.34143,"lon":5.40907,"is_reserved":false,"is_disabled":false,"rental_uris":{"android":"levelo://app?vid=00741319-8635-43ce-a1f4-ee7bcf739bb3","ios":"levelo://app?vid=00741319-8635-43ce-a1f4-ee7bcf739bb3"},"vehicle_type_id":"4","last_reported":1732537176,"current_range_meters":28400,"station_id":"ce4bhqh2rcd13ifvqhlg","pricing_plan_id":"cebpf4jnsgd1na2vs0mg"},{"bike_id":"aa717be1-dcce-416b-90e1-180e376a1e41","system_id":"levelo_inurba_marseille","lat":43.337444,"lon":5.374475,"is_reserved":false,"is_disabled":false,"rental_uris":{"android":"levelo://app?vid=aa717be1-dcce-416b-90e1-180e376a1e41","ios":"levelo://app?vid=aa717be1-dcce-416b-90e1-180e376a1e41"},"vehicle_type_id":"4","last_reported":1732537176,"current_range_meters":38400,"station_id":"","pricing_plan_id":"cebpf4jnsgd1na2vs0mg"},{"bike_id":"010675b9-621e-43ad-8db7-6d8375a2b95b","system_id":"levelo_inurba_marseille","lat":43.3023,"lon":5.37433,"is_reserved":false,"is_disabled":true,"rental_uris":{"android":"levelo://app?vid=010675b9-621e-43ad-8db7-6d8375a2b95b","ios":"levelo://app?vid=010675b9-621e-43ad-8db7-6d8375a2b95b"},"vehicle_type_id":"4","last_reported":1732537176,"current_range_meters":21600,"station_id":"","pricing_plan_id":"cebpf4jnsgd1na2vs0mg"},{"bike_id":"294eeb79-af1b-495a-909f-216801ae6b41","system_id":"levelo_inurba_marseille","lat":43.33757,"lon":5.3745,"is_reserved":false,"is_disabled":false,"rental_uris":{"android":"levelo://app?vid=294eeb79-af1b-495a-909f-216801ae6b41","ios":"levelo://app?vid=294eeb79-af1b-495a-909f-216801ae6b41"},"vehicle_type_id":"4","last_reported":1732537176,"current_range_meters":14800,"station_id":"","pricing_plan_id":"cebpf4jnsgd1na2vs0mg"},{"bike_id":"ed92592a-32cf-420f-a16e-b1e7ec9d7eb9","system_id":"levelo_inurba_marseille","lat":43.29119,"lon":5.38337,"is_reserved":false,"is_disabled":false,"rental_uris":{"android":"levelo://app?vid=ed92592a-32cf-420f-a16e-b1e7ec9d7eb9","ios":"levelo://app?vid=ed92592a-32cf-420f-a16e-b1e7ec9d7eb9"},"vehicle_type_id":"4","last_reported":1732537176,"current_range_meters":36800,"station_id":"ce4bh512rcd13ifvqe2g","pricing_plan_id":"cebpf4jnsgd1na2vs0mg"},{"bike_id":"710550dd-d09e-4c17-9da9-505612778a6f","system_id":"levelo_inurba_marseille","lat":43.30144,"lon":5.37407,"is_reserved":false,"is_disabled":false,"rental_uris":{"android":"levelo://app?vid=710550dd-d09e-4c17-9da9-505612778a6f","ios":"levelo://app?vid=710550dd-d09e-4c17-9da9-505612778a6f"},"vehicle_type_id":"4","last_reported":1732537176,"current_range_meters":34000,"station_id":"ce4bgs92rcd13ifvqcc0","pricing_plan_id":"cebpf4jnsgd1na2vs0mg"},{"bike_id":"757e0405-92a8-4568-920e-e5c1129e791f","system_id":"levelo_inurba_marseille","lat":43.24385,"lon":5.37054,"is_reserved":false,"is_disabled":false,"rental_uris":{"android":"levelo://app?vid=757e0405-92a8-4568-920e-e5c1129e791f","ios":"levelo://app?vid=757e0405-92a8-4568-920e-e5c1129e791f"},"vehicle_type_id":"4","last_reported":1732537176,"current_range_meters":11200,"station_id":"ce4bhhh2rcd13ifvqfk0","pricing_plan_id":"cebpf4jnsgd1na2vs0mg"},{"bike_id":"c2d79a08-3d81-480f-80c4-d9075dcd8711","system_id":"levelo_inurba_marseille","lat":43.26554,"lon":5.3729,"is_reserved":false,"is_disabled":false,"rental_uris":{"android":"levelo://app?vid=c2d79a08-3d81-480f-80c4-d9075dcd8711","ios":"levelo://app?vid=c2d79a08-3d81-480f-80c4-d9075dcd8711"},"vehicle_type_id":"4","last_reported":1732537176,"current_range_meters":33200,"station_id":"ce4bhg12rcd13ifvqf70","pricing_plan_id":"cebpf4jnsgd1na2vs0mg"},{"bike_id":"ad41734b-a8fa-482b-b392-8cd6d12dc01d","system_id":"levelo_inurba_marseille","lat":43.30178,"lon":5.36611,"is_reserved":false,"is_disabled":true,"rental_uris":{"android":"levelo://app?vid=ad41734b-a8fa-482b-b392-8cd6d12dc01d","ios":"levelo://app?vid=ad41734b-a8fa-482b-b392-8cd6d12dc01d"},"vehicle_type_id":"4","last_reported":1732537176,"current_range_meters":23200,"station_id":"ce4bgrh2rcd13ifvqc8g","pricing_plan_id":"cebpf4jnsgd1na2vs0mg"},{"bike_id":"777b7fed-d395-4c97-b504-dee7c3479d4f","system_id":"levelo_inurba_marseille","lat":43.29836,"lon":5.3785,"is_reserved":false,"is_disabled":true,"rental_uris":{"android":"levelo://app?vid=777b7fed-d395-4c97-b504-dee7c3479d4f","ios":"levelo://app?vid=777b7fed-d395-4c97-b504-dee7c3479d4f"},"vehicle_type_id":"4","last_reported":1732537176,"current_range_meters":0,"station_id":"","pricing_plan_id":"cebpf4jnsgd1na2vs0mg"},{"bike_id":"67b08f25-908a-4248-b75e-9051992502d7","system_id":"levelo_inurba_marseille","lat":43.31322,"lon":5.39686,"is_reserved":false,"is_disabled":false,"rental_uris":{"android":"levelo://app?vid=67b08f25-908a-4248-b75e-9051992502d7","ios":"levelo://app?vid=67b08f25-908a-4248-b75e-9051992502d7"},"vehicle_type_id":"4","last_reported":1732537176,"current_range_meters":20000,"station_id":"ce4bgvp2rcd13ifvqcu0","pricing_plan_id":"cebpf4jnsgd1na2vs0mg"},{"bike_id":"cd78312a-142a-42d0-92e1-dbc654bf8bb4","system_id":"levelo_inurba_marseille","lat":43.24183,"lon":5.39717,"is_reserved":false,"is_disabled":true,"rental_uris":{"android":"levelo://app?vid=cd78312a-142a-42d0-92e1-dbc654bf8bb4","ios":"levelo://app?vid=cd78312a-142a-42d0-92e1-dbc654bf8bb4"},"vehicle_type_id":"4","last_reported":1732537176,"current_range_meters":4800,"station_id":"ce4bhn12rcd13ifvqgpg","pricing_plan_id":"cebpf4jnsgd1na2vs0mg"},{"bike_id":"75f1334e-b7a7-46bf-9d44-5d1d470ed592","system_id":"levelo_inurba_marseille","lat":43.26035,"lon":5.3754,"is_reserved":false,"is_disabled":false,"rental_uris":{"android":"levelo://app?vid=75f1334e-b7a7-46bf-9d44-5d1d470ed592","ios":"levelo://app?vid=75f1334e-b7a7-46bf-9d44-5d1d470ed592"},"vehicle_type_id":"4","last_reported":1732537176,"current_range_meters":16400,"station_id":"ce4bhgh2rcd13ifvqfa0","pricing_plan_id":"cebpf4jnsgd1na2vs0mg"},{"bike_id":"d922b735-d82b-4e62-aaae-247cfa2ce37a","system_id":"levelo_inurba_marseille","lat":43.25104,"lon":5.40324,"is_reserved":false,"is_disabled":false,"rental_uris":{"android":"levelo://app?vid=d922b735-d82b-4e62-aaae-247cfa2ce37a","ios":"levelo://app?vid=d922b735-d82b-4e62-aaae-247cfa2ce37a"},"vehicle_type_id":"4","last_reported":1732537176,"current_range_meters":16400,"station_id":"ce4bhlh2rcd13ifvqgig","pricing_plan_id":"cebpf4jnsgd1na2vs0mg"},{"bike_id":"88e6eeaf-65be-43da-875d-f1a54fa7faf5","system_id":"levelo_inurba_marseille","lat":43.30614,"lon":5.37221,"is_reserved":false,"is_disabled":false,"rental_uris":{"android":"levelo://app?vid=88e6eeaf-65be-43da-875d-f1a54fa7faf5","ios":"levelo://app?vid=88e6eeaf-65be-43da-875d-f1a54fa7faf5"},"vehicle_type_id":"4","last_reported":1732537176,"current_range_meters":32000,"station_id":"ce4bgqh2rcd13ifvqc4g","pricing_plan_id":"cebpf4jnsgd1na2vs0mg"},{"bike_id":"935038d0-e307-49e5-ab69-c010784c0474","system_id":"levelo_inurba_marseille","lat":43.25941,"lon":5.40906,"is_reserved":false,"is_disabled":false,"rental_uris":{"android":"levelo://app?vid=935038d0-e307-49e5-ab69-c010784c0474","ios":"levelo://app?vid=935038d0-e307-49e5-ab69-c010784c0474"},"vehicle_type_id":"4","last_reported":1732537176,"current_range_meters":16800,"station_id":"ce4bhm92rcd13ifvqglg","pricing_plan_id":"cebpf4jnsgd1na2vs0mg"},{"bike_id":"43f6da94-5cf1-446e-9b8d-b4c4e86bf027","system_id":"levelo_inurba_marseille","lat":43.26192,"lon":5.37446,"is_reserved":false,"is_disabled":true,"rental_uris":{"android":"levelo://app?vid=43f6da94-5cf1-446e-9b8d-b4c4e86bf027","ios":"levelo://app?vid=43f6da94-5cf1-446e-9b8d-b4c4e86bf027"},"vehicle_type_id":"4","last_reported":1732537176,"current_range_meters":1600,"station_id":"ce4bhgp2rcd13ifvqfc0","pricing_plan_id":"cebpf4jnsgd1na2vs0mg"},{"bike_id":"dd5ab154-647e-4dfa-88f1-0f781c7552f5","system_id":"levelo_inurba_marseille","lat":43.25576,"lon":5.3824,"is_reserved":false,"is_disabled":false,"rental_uris":{"android":"levelo://app?vid=dd5ab154-647e-4dfa-88f1-0f781c7552f5","ios":"levelo://app?vid=dd5ab154-647e-4dfa-88f1-0f781c7552f5"},"vehicle_type_id":"4","last_reported":1732537176,"current_range_meters":22000,"station_id":"ce4bhih2rcd13ifvqfs0","pricing_plan_id":"cebpf4jnsgd1na2vs0mg"},{"bike_id":"d201b0ea-25e8-47da-8b8d-352cfe5bbd43","system_id":"levelo_inurba_marseille","lat":43.24662,"lon":5.38161,"is_reserved":false,"is_disabled":false,"rental_uris":{"android":"levelo://app?vid=d201b0ea-25e8-47da-8b8d-352cfe5bbd43","ios":"levelo://app?vid=d201b0ea-25e8-47da-8b8d-352cfe5bbd43"},"vehicle_type_id":"4","last_reported":1732537176,"current_range_meters":5600,"station_id":"ce4bhih2rcd13ifvqfr0","pricing_plan_id":"cebpf4jnsgd1na2vs0mg"},{"bike_id":"994195f6-b5da-4158-a5b5-8b38baad32b0","system_id":"levelo_inurba_marseille","lat":43.33724,"lon":5.39187,"is_reserved":false,"is_disabled":false,"rental_uris":{"android":"levelo://app?vid=994195f6-b5da-4158-a5b5-8b38baad32b0","ios":"levelo://app?vid=994195f6-b5da-4158-a5b5-8b38baad32b0"},"vehicle_type_id":"4","last_reported":1732537176,"current_range_meters":23200,"station_id":"ce4bhr92rcd13ifvqhsg","pricing_plan_id":"cebpf4jnsgd1na2vs0mg"},{"bike_id":"ef3aaa44-c741-4ab7-baa1-9530e3896307","system_id":"levelo_inurba_marseille","lat":43.30599,"lon":5.39358,"is_reserved":false,"is_disabled":false,"rental_uris":{"android":"levelo://app?vid=ef3aaa44-c741-4ab7-baa1-9530e3896307","ios":"levelo://app?vid=ef3aaa44-c741-4ab7-baa1-9530e3896307"},"vehicle_type_id":"4","last_reported":1732537176,"current_range_meters":27600,"station_id":"ce4bh0p2rcd13ifvqd80","pricing_plan_id":"cebpf4jnsgd1na2vs0mg"},{"bike_id":"d4e97efb-5c0c-4918-b54b-b306c997d94c","system_id":"levelo_inurba_marseille","lat":43.34141,"lon":5.409,"is_reserved":false,"is_disabled":false,"rental_uris":{"android":"levelo://app?vid=d4e97efb-5c0c-4918-b54b-b306c997d94c","ios":"levelo://app?vid=d4e97efb-5c0c-4918-b54b-b306c997d94c"},"vehicle_type_id":"4","last_reported":1732537176,"current_range_meters":38800,"station_id":"ce4bhqh2rcd13ifvqhlg","pricing_plan_id":"cebpf4jnsgd1na2vs0mg"},{"bike_id":"24fc129a-3a98-4f25-9554-234fc3a2dc8d","system_id":"levelo_inurba_marseille","lat":43.30416,"lon":5.41282,"is_reserved":false,"is_disabled":true,"rental_uris":{"android":"levelo://app?vid=24fc129a-3a98-4f25-9554-234fc3a2dc8d","ios":"levelo://app?vid=24fc129a-3a98-4f25-9554-234fc3a2dc8d"},"vehicle_type_id":"4","last_reported":1732537176,"current_range_meters":25200,"station_id":"ce4bhop2rcd13ifvqh8g","pricing_plan_id":"cebpf4jnsgd1na2vs0mg"},{"bike_id":"f9bb7fe1-5ca1-47b2-944e-eb055f53c14e","system_id":"levelo_inurba_marseille","lat":43.30552,"lon":5.38394,"is_reserved":false,"is_disabled":true,"rental_uris":{"android":"levelo://app?vid=f9bb7fe1-5ca1-47b2-944e-eb055f53c14e","ios":"levelo://app?vid=f9bb7fe1-5ca1-47b2-944e-eb055f53c14e"},"vehicle_type_id":"4","last_reported":1732537176,"current_range_meters":19200,"station_id":"ce4bgg92rcd13ifvqb30","pricing_plan_id":"cebpf4jnsgd1na2vs0mg"},{"bike_id":"7c49fba6-2c15-41b5-90b1-73c464d4a38d","system_id":"levelo_inurba_marseille","lat":43.28714,"lon":5.39982,"is_reserved":false,"is_disabled":false,"rental_uris":{"android":"levelo://app?vid=7c49fba6-2c15-41b5-90b1-73c464d4a38d","ios":"levelo://app?vid=7c49fba6-2c15-41b5-90b1-73c464d4a38d"},"vehicle_type_id":"4","last_reported":1732537176,"current_range_meters":30800,"station_id":"ce4bho92rcd13ifvqh3g","pricing_plan_id":"cebpf4jnsgd1na2vs0mg"},{"bike_id":"5d9127b2-409a-4e00-b212-9b69c1248067","system_id":"levelo_inurba_marseille","lat":43.26208,"lon":5.37928,"is_reserved":false,"is_disabled":false,"rental_uris":{"android":"levelo://app?vid=5d9127b2-409a-4e00-b212-9b69c1248067","ios":"levelo://app?vid=5d9127b2-409a-4e00-b212-9b69c1248067"},"vehicle_type_id":"4","last_reported":1732537176,"current_range_meters":38400,"station_id":"ce4bhjp2rcd13ifvqg90","pricing_plan_id":"cebpf4jnsgd1na2vs0mg"},{"bike_id":"ab62cdd5-3314-41c0-8cc9-b8644da6c7ff","system_id":"levelo_inurba_marseille","lat":43.25582,"lon":5.38231,"is_reserved":false,"is_disabled":false,"rental_uris":{"android":"levelo://app?vid=ab62cdd5-3314-41c0-8cc9-b8644da6c7ff","ios":"levelo://app?vid=ab62cdd5-3314-41c0-8cc9-b8644da6c7ff"},"vehicle_type_id":"4","last_reported":1732537176,"current_range_meters":24000,"station_id":"ce4bhih2rcd13ifvqfs0","pricing_plan_id":"cebpf4jnsgd1na2vs0mg"},{"bike_id":"3127e641-24de-41d4-a4d3-dad3d243e08e","system_id":"levelo_inurba_marseille","lat":43.28126,"lon":5.37835,"is_reserved":false,"is_disabled":false,"rental_uris":{"android":"levelo://app?vid=3127e641-24de-41d4-a4d3-dad3d243e08e","ios":"levelo://app?vid=3127e641-24de-41d4-a4d3-dad3d243e08e"},"vehicle_type_id":"4","last_reported":1732537176,"current_range_meters":34800,"station_id":"ce4bha12rcd13ifvqee0","pricing_plan_id":"cebpf4jnsgd1na2vs0mg"},{"bike_id":"ce5799fd-fcbe-47f1-bc0a-166e9e57910b","system_id":"levelo_inurba_marseille","lat":43.25818,"lon":5.39435,"is_reserved":false,"is_disabled":false,"rental_uris":{"android":"levelo://app?vid=ce5799fd-fcbe-47f1-bc0a-166e9e57910b","ios":"levelo://app?vid=ce5799fd-fcbe-47f1-bc0a-166e9e57910b"},"vehicle_type_id":"4","last_reported":1732537176,"current_range_meters":19200,"station_id":"ce4bhip2rcd13ifvqft0","pricing_plan_id":"cebpf4jnsgd1na2vs0mg"},{"bike_id":"62bcad95-d3e2-434c-81f4-127757d19c4c","system_id":"levelo_inurba_marseille","lat":43.2922,"lon":5.39605,"is_reserved":false,"is_disabled":true,"rental_uris":{"android":"levelo://app?vid=62bcad95-d3e2-434c-81f4-127757d19c4c","ios":"levelo://app?vid=62bcad95-d3e2-434c-81f4-127757d19c4c"},"vehicle_type_id":"4","last_reported":1732537176,"current_range_meters":0,"station_id":"","pricing_plan_id":"cebpf4jnsgd1na2vs0mg"},{"bike_id":"f586fe43-4d5d-4534-9e50-209fda2ca425","system_id":"levelo_inurba_marseille","lat":43.26486,"lon":5.39549,"is_reserved":false,"is_disabled":false,"rental_uris":{"android":"levelo://app?vid=f586fe43-4d5d-4534-9e50-209fda2ca425","ios":"levelo://app?vid=f586fe43-4d5d-4534-9e50-209fda2ca425"},"vehicle_type_id":"4","last_reported":1732537176,"current_range_meters":38000,"station_id":"ce4bhi12rcd13ifvqfq0","pricing_plan_id":"cebpf4jnsgd1na2vs0mg"},{"bike_id":"faddc5bf-9308-4490-a929-f5be12fd1597","system_id":"levelo_inurba_marseille","lat":43.25564,"lon":5.38243,"is_reserved":false,"is_disabled":false,"rental_uris":{"android":"levelo://app?vid=faddc5bf-9308-4490-a929-f5be12fd1597","ios":"levelo://app?vid=faddc5bf-9308-4490-a929-f5be12fd1597"},"vehicle_type_id":"4","last_reported":1732537176,"current_range_meters":38000,"station_id":"ce4bhih2rcd13ifvqfs0","pricing_plan_id":"cebpf4jnsgd1na2vs0mg"},{"bike_id":"36296f5c-0176-4be0-97c8-7930cda9c369","system_id":"levelo_inurba_marseille","lat":43.32109,"lon":5.36771,"is_reserved":false,"is_disabled":false,"rental_uris":{"android":"levelo://app?vid=36296f5c-0176-4be0-97c8-7930cda9c369","ios":"levelo://app?vid=36296f5c-0176-4be0-97c8-7930cda9c369"},"vehicle_type_id":"4","last_reported":1732537176,"current_range_meters":27200,"station_id":"ce4bhrh2rcd13ifvqhug","pricing_plan_id":"cebpf4jnsgd1na2vs0mg"},{"bike_id":"b9f550e6-10c3-40ac-9b1d-624567266dd8","system_id":"levelo_inurba_marseille","lat":43.32475,"lon":5.36568,"is_reserved":false,"is_disabled":false,"rental_uris":{"android":"levelo://app?vid=b9f550e6-10c3-40ac-9b1d-624567266dd8","ios":"levelo://app?vid=b9f550e6-10c3-40ac-9b1d-624567266dd8"},"vehicle_type_id":"4","last_reported":1732537176,"current_range_meters":25600,"station_id":"ce4bhs12rcd13ifvqhvg","pricing_plan_id":"cebpf4jnsgd1na2vs0mg"},{"bike_id":"3749f547-26de-49f3-8704-9a5a504b68f5","system_id":"levelo_inurba_marseille","lat":43.2558,"lon":5.38231,"is_reserved":false,"is_disabled":false,"rental_uris":{"android":"levelo://app?vid=3749f547-26de-49f3-8704-9a5a504b68f5","ios":"levelo://app?vid=3749f547-26de-49f3-8704-9a5a504b68f5"},"vehicle_type_id":"4","last_reported":1732537176,"current_range_meters":30000,"station_id":"ce4bhih2rcd13ifvqfs0","pricing_plan_id":"cebpf4jnsgd1na2vs0mg"},{"bike_id":"066d4edd-075b-4437-803d-c7740565a1af","system_id":"levelo_inurba_marseille","lat":43.29415,"lon":5.375,"is_reserved":false,"is_disabled":false,"rental_uris":{"android":"levelo://app?vid=066d4edd-075b-4437-803d-c7740565a1af","ios":"levelo://app?vid=066d4edd-075b-4437-803d-c7740565a1af"},"vehicle_type_id":"4","last_reported":1732537176,"current_range_meters":23200,"station_id":"ce4bgi12rcd13ifvqb70","pricing_plan_id":"cebpf4jnsgd1na2vs0mg"},{"bike_id":"1ebc2642-599e-41e5-89df-308a45bbfcfb","system_id":"levelo_inurba_marseille","lat":43.32101,"lon":5.36771,"is_reserved":false,"is_disabled":false,"rental_uris":{"android":"levelo://app?vid=1ebc2642-599e-41e5-89df-308a45bbfcfb","ios":"levelo://app?vid=1ebc2642-599e-41e5-89df-308a45bbfcfb"},"vehicle_type_id":"4","last_reported":1732537176,"current_range_meters":20400,"station_id":"ce4bhrh2rcd13ifvqhug","pricing_plan_id":"cebpf4jnsgd1na2vs0mg"},{"bike_id":"b86f2eef-7673-4a5d-878a-c0ee9eda3feb","system_id":"levelo_inurba_marseille","lat":43.30547,"lon":5.36537,"is_reserved":false,"is_disabled":false,"rental_uris":{"android":"levelo://app?vid=b86f2eef-7673-4a5d-878a-c0ee9eda3feb","ios":"levelo://app?vid=b86f2eef-7673-4a5d-878a-c0ee9eda3feb"},"vehicle_type_id":"4","last_reported":1732537176,"current_range_meters":24000,"station_id":"ce4bgs12rcd13ifvqcag","pricing_plan_id":"cebpf4jnsgd1na2vs0mg"},{"bike_id":"aa8e26a5-0055-4871-af0d-126cc3f5f778","system_id":"levelo_inurba_marseille","lat":43.30463,"lon":5.37908,"is_reserved":false,"is_disabled":false,"rental_uris":{"android":"levelo://app?vid=aa8e26a5-0055-4871-af0d-126cc3f5f778","ios":"levelo://app?vid=aa8e26a5-0055-4871-af0d-126cc3f5f778"},"vehicle_type_id":"4","last_reported":1732537176,"current_range_meters":22000,"station_id":"ce4bgup2rcd13ifvqcn0","pricing_plan_id":"cebpf4jnsgd1na2vs0mg"},{"bike_id":"8ac8ae6d-42b3-4068-a992-537653320638","system_id":"levelo_inurba_marseille","lat":43.25933,"lon":5.40912,"is_reserved":false,"is_disabled":false,"rental_uris":{"android":"levelo://app?vid=8ac8ae6d-42b3-4068-a992-537653320638","ios":"levelo://app?vid=8ac8ae6d-42b3-4068-a992-537653320638"},"vehicle_type_id":"4","last_reported":1732537176,"current_range_meters":32800,"station_id":"ce4bhm92rcd13ifvqglg","pricing_plan_id":"cebpf4jnsgd1na2vs0mg"},{"bike_id":"5d7feb9a-064c-4ad8-b84a-eddbfa1261c4","system_id":"levelo_inurba_marseille","lat":43.25118,"lon":5.40317,"is_reserved":false,"is_disabled":false,"rental_uris":{"android":"levelo://app?vid=5d7feb9a-064c-4ad8-b84a-eddbfa1261c4","ios":"levelo://app?vid=5d7feb9a-064c-4ad8-b84a-eddbfa1261c4"},"vehicle_type_id":"4","last_reported":1732537176,"current_range_meters":30800,"station_id":"ce4bhlh2rcd13ifvqgig","pricing_plan_id":"cebpf4jnsgd1na2vs0mg"},{"bike_id":"a918e547-6f82-4e25-bfd2-d24f191d92a1","system_id":"levelo_inurba_marseille","lat":43.24068,"lon":5.37734,"is_reserved":false,"is_disabled":false,"rental_uris":{"android":"levelo://app?vid=a918e547-6f82-4e25-bfd2-d24f191d92a1","ios":"levelo://app?vid=a918e547-6f82-4e25-bfd2-d24f191d92a1"},"vehicle_type_id":"4","last_reported":1732537176,"current_range_meters":28400,"station_id":"ce4bhnp2rcd13ifvqgvg","pricing_plan_id":"cebpf4jnsgd1na2vs0mg"},{"bike_id":"5dbc2cc6-ac08-4028-bf03-e52d0df7a536","system_id":"levelo_inurba_marseille","lat":43.28463,"lon":5.35891,"is_reserved":false,"is_disabled":false,"rental_uris":{"android":"levelo://app?vid=5dbc2cc6-ac08-4028-bf03-e52d0df7a536","ios":"levelo://app?vid=5dbc2cc6-ac08-4028-bf03-e52d0df7a536"},"vehicle_type_id":"4","last_reported":1732537176,"current_range_meters":25200,"station_id":"ce4bhah2rcd13ifvqei0","pricing_plan_id":"cebpf4jnsgd1na2vs0mg"},{"bike_id":"6454e564-4e89-4d66-9bef-1fddf4911052","system_id":"levelo_inurba_marseille","lat":43.3054,"lon":5.3654,"is_reserved":false,"is_disabled":false,"rental_uris":{"android":"levelo://app?vid=6454e564-4e89-4d66-9bef-1fddf4911052","ios":"levelo://app?vid=6454e564-4e89-4d66-9bef-1fddf4911052"},"vehicle_type_id":"4","last_reported":1732537176,"current_range_meters":8400,"station_id":"ce4bgs12rcd13ifvqcag","pricing_plan_id":"cebpf4jnsgd1na2vs0mg"},{"bike_id":"514a8212-9b24-4a6b-a340-210872312793","system_id":"levelo_inurba_marseille","lat":43.27326,"lon":5.39076,"is_reserved":false,"is_disabled":true,"rental_uris":{"android":"levelo://app?vid=514a8212-9b24-4a6b-a340-210872312793","ios":"levelo://app?vid=514a8212-9b24-4a6b-a340-210872312793"},"vehicle_type_id":"4","last_reported":1732537176,"current_range_meters":12400,"station_id":"ce4bhgp2rcd13ifvqfe0","pricing_plan_id":"cebpf4jnsgd1na2vs0mg"},{"bike_id":"17ba6615-9f08-440e-93e9-f8f4f3600fcd","system_id":"levelo_inurba_marseille","lat":43.30533,"lon":5.36538,"is_reserved":false,"is_disabled":false,"rental_uris":{"android":"levelo://app?vid=17ba6615-9f08-440e-93e9-f8f4f3600fcd","ios":"levelo://app?vid=17ba6615-9f08-440e-93e9-f8f4f3600fcd"},"vehicle_type_id":"4","last_reported":1732537176,"current_range_meters":38800,"station_id":"ce4bgs12rcd13ifvqcag","pricing_plan_id":"cebpf4jnsgd1na2vs0mg"},{"bike_id":"cbc2167d-639d-4b33-b914-3ad6f36f2868","system_id":"levelo_inurba_marseille","lat":43.22923,"lon":5.35375,"is_reserved":false,"is_disabled":false,"rental_uris":{"android":"levelo://app?vid=cbc2167d-639d-4b33-b914-3ad6f36f2868","ios":"levelo://app?vid=cbc2167d-639d-4b33-b914-3ad6f36f2868"},"vehicle_type_id":"4","last_reported":1732537176,"current_range_meters":30400,"station_id":"cpo3532slgdg3j2ikp40","pricing_plan_id":"cebpf4jnsgd1na2vs0mg"},{"bike_id":"c4591fec-8c8d-495c-9589-bbcb7df7d040","system_id":"levelo_inurba_marseille","lat":43.27376,"lon":5.3625,"is_reserved":false,"is_disabled":false,"rental_uris":{"android":"levelo://app?vid=c4591fec-8c8d-495c-9589-bbcb7df7d040","ios":"levelo://app?vid=c4591fec-8c8d-495c-9589-bbcb7df7d040"},"vehicle_type_id":"4","last_reported":1732537176,"current_range_meters":38400,"station_id":"ce4bhbh2rcd13ifvqeo0","pricing_plan_id":"cebpf4jnsgd1na2vs0mg"},{"bike_id":"8ff6927a-74d0-4610-b648-3cc754f0f233","system_id":"levelo_inurba_marseille","lat":43.28036,"lon":5.42439,"is_reserved":false,"is_disabled":false,"rental_uris":{"android":"levelo://app?vid=8ff6927a-74d0-4610-b648-3cc754f0f233","ios":"levelo://app?vid=8ff6927a-74d0-4610-b648-3cc754f0f233"},"vehicle_type_id":"4","last_reported":1732537176,"current_range_meters":22800,"station_id":"","pricing_plan_id":"cebpf4jnsgd1na2vs0mg"},{"bike_id":"1a5dfa7a-1d4a-4735-b35d-631116c77557","system_id":"levelo_inurba_marseille","lat":43.31719,"lon":5.42401,"is_reserved":false,"is_disabled":false,"rental_uris":{"android":"levelo://app?vid=1a5dfa7a-1d4a-4735-b35d-631116c77557","ios":"levelo://app?vid=1a5dfa7a-1d4a-4735-b35d-631116c77557"},"vehicle_type_id":"4","last_reported":1732537176,"current_range_meters":38800,"station_id":"ce4bhp92rcd13ifvqhbg","pricing_plan_id":"cebpf4jnsgd1na2vs0mg"},{"bike_id":"635f2088-37d7-4c7e-b140-3292398be605","system_id":"levelo_inurba_marseille","lat":43.24806,"lon":5.37453,"is_reserved":false,"is_disabled":false,"rental_uris":{"android":"levelo://app?vid=635f2088-37d7-4c7e-b140-3292398be605","ios":"levelo://app?vid=635f2088-37d7-4c7e-b140-3292398be605"},"vehicle_type_id":"4","last_reported":1732537176,"current_range_meters":30000,"station_id":"ce4bhgh2rcd13ifvqfb0","pricing_plan_id":"cebpf4jnsgd1na2vs0mg"},{"bike_id":"068b75b2-3c94-4320-a3a2-b2e99bcb5408","system_id":"levelo_inurba_marseille","lat":43.28412,"lon":5.34989,"is_reserved":false,"is_disabled":false,"rental_uris":{"android":"levelo://app?vid=068b75b2-3c94-4320-a3a2-b2e99bcb5408","ios":"levelo://app?vid=068b75b2-3c94-4320-a3a2-b2e99bcb5408"},"vehicle_type_id":"4","last_reported":1732537176,"current_range_meters":20800,"station_id":"ce4bhbh2rcd13ifvqepg","pricing_plan_id":"cebpf4jnsgd1na2vs0mg"},{"bike_id":"d46b17b6-87ca-401e-9ef9-984f685c1c1c","system_id":"levelo_inurba_marseille","lat":43.337444,"lon":5.374475,"is_reserved":false,"is_disabled":true,"rental_uris":{"android":"levelo://app?vid=d46b17b6-87ca-401e-9ef9-984f685c1c1c","ios":"levelo://app?vid=d46b17b6-87ca-401e-9ef9-984f685c1c1c"},"vehicle_type_id":"4","last_reported":1732537176,"current_range_meters":36000,"station_id":"","pricing_plan_id":"cebpf4jnsgd1na2vs0mg"},{"bike_id":"20ba3e55-9bab-4ccf-9497-ab7699c90419","system_id":"levelo_inurba_marseille","lat":43.25933,"lon":5.40901,"is_reserved":false,"is_disabled":false,"rental_uris":{"android":"levelo://app?vid=20ba3e55-9bab-4ccf-9497-ab7699c90419","ios":"levelo://app?vid=20ba3e55-9bab-4ccf-9497-ab7699c90419"},"vehicle_type_id":"4","last_reported":1732537176,"current_range_meters":37600,"station_id":"ce4bhm92rcd13ifvqglg","pricing_plan_id":"cebpf4jnsgd1na2vs0mg"},{"bike_id":"9328bf07-69e7-4ddc-b711-0669ff412e1c","system_id":"levelo_inurba_marseille","lat":43.29281,"lon":5.40126,"is_reserved":false,"is_disabled":true,"rental_uris":{"android":"levelo://app?vid=9328bf07-69e7-4ddc-b711-0669ff412e1c","ios":"levelo://app?vid=9328bf07-69e7-4ddc-b711-0669ff412e1c"},"vehicle_type_id":"4","last_reported":1732537176,"current_range_meters":22000,"station_id":"ce4bh312rcd13ifvqdk0","pricing_plan_id":"cebpf4jnsgd1na2vs0mg"},{"bike_id":"0ba34144-8b11-4238-a036-babaa1e0facf","system_id":"levelo_inurba_marseille","lat":43.30123,"lon":5.38783,"is_reserved":false,"is_disabled":false,"rental_uris":{"android":"levelo://app?vid=0ba34144-8b11-4238-a036-babaa1e0facf","ios":"levelo://app?vid=0ba34144-8b11-4238-a036-babaa1e0facf"},"vehicle_type_id":"4","last_reported":1732537176,"current_range_meters":20800,"station_id":"ce4bghh2rcd13ifvqb60","pricing_plan_id":"cebpf4jnsgd1na2vs0mg"},{"bike_id":"ed00ff1c-a428-4ce5-a455-260378e65da7","system_id":"levelo_inurba_marseille","lat":43.288016,"lon":5.400158,"is_reserved":false,"is_disabled":true,"rental_uris":{"android":"levelo://app?vid=ed00ff1c-a428-4ce5-a455-260378e65da7","ios":"levelo://app?vid=ed00ff1c-a428-4ce5-a455-260378e65da7"},"vehicle_type_id":"4","last_reported":1732537176,"current_range_meters":400,"station_id":"","pricing_plan_id":"cebpf4jnsgd1na2vs0mg"},{"bike_id":"9f39a5d0-7875-4e58-85fb-5252fae9a8e9","system_id":"levelo_inurba_marseille","lat":43.28352,"lon":5.381,"is_reserved":false,"is_disabled":false,"rental_uris":{"android":"levelo://app?vid=9f39a5d0-7875-4e58-85fb-5252fae9a8e9","ios":"levelo://app?vid=9f39a5d0-7875-4e58-85fb-5252fae9a8e9"},"vehicle_type_id":"4","last_reported":1732537176,"current_range_meters":28000,"station_id":"ce4bh412rcd13ifvqdr0","pricing_plan_id":"cebpf4jnsgd1na2vs0mg"},{"bike_id":"5a4d3b04-1c84-4ddc-b44a-35fe4ee6a3a6","system_id":"levelo_inurba_marseille","lat":43.31229,"lon":5.36874,"is_reserved":false,"is_disabled":false,"rental_uris":{"android":"levelo://app?vid=5a4d3b04-1c84-4ddc-b44a-35fe4ee6a3a6","ios":"levelo://app?vid=5a4d3b04-1c84-4ddc-b44a-35fe4ee6a3a6"},"vehicle_type_id":"4","last_reported":1732537176,"current_range_meters":28000,"station_id":"ce4bgl92rcd13ifvqbq0","pricing_plan_id":"cebpf4jnsgd1na2vs0mg"},{"bike_id":"858b65e1-94fc-4151-a71e-8b168cb19dcb","system_id":"levelo_inurba_marseille","lat":43.32249,"lon":5.39241,"is_reserved":false,"is_disabled":true,"rental_uris":{"android":"levelo://app?vid=858b65e1-94fc-4151-a71e-8b168cb19dcb","ios":"levelo://app?vid=858b65e1-94fc-4151-a71e-8b168cb19dcb"},"vehicle_type_id":"4","last_reported":1732537176,"current_range_meters":2800,"station_id":"","pricing_plan_id":"cebpf4jnsgd1na2vs0mg"},{"bike_id":"d30bfaac-cfb5-479c-a3ec-feb800aed1c6","system_id":"levelo_inurba_marseille","lat":43.25091,"lon":5.39509,"is_reserved":false,"is_disabled":false,"rental_uris":{"android":"levelo://app?vid=d30bfaac-cfb5-479c-a3ec-feb800aed1c6","ios":"levelo://app?vid=d30bfaac-cfb5-479c-a3ec-feb800aed1c6"},"vehicle_type_id":"4","last_reported":1732537176,"current_range_meters":28000,"station_id":"ce4bhm12rcd13ifvqgkg","pricing_plan_id":"cebpf4jnsgd1na2vs0mg"},{"bike_id":"c19daa05-850d-4320-a7a9-0c3452315bd1","system_id":"levelo_inurba_marseille","lat":43.30517,"lon":5.36531,"is_reserved":false,"is_disabled":false,"rental_uris":{"android":"levelo://app?vid=c19daa05-850d-4320-a7a9-0c3452315bd1","ios":"levelo://app?vid=c19daa05-850d-4320-a7a9-0c3452315bd1"},"vehicle_type_id":"4","last_reported":1732537176,"current_range_meters":33600,"station_id":"ce4bgs12rcd13ifvqcag","pricing_plan_id":"cebpf4jnsgd1na2vs0mg"},{"bike_id":"6d9bbd2c-9a95-453f-83bf-d7a632e40058","system_id":"levelo_inurba_marseille","lat":43.2847,"lon":5.35881,"is_reserved":false,"is_disabled":false,"rental_uris":{"android":"levelo://app?vid=6d9bbd2c-9a95-453f-83bf-d7a632e40058","ios":"levelo://app?vid=6d9bbd2c-9a95-453f-83bf-d7a632e40058"},"vehicle_type_id":"4","last_reported":1732537176,"current_range_meters":7200,"station_id":"ce4bhah2rcd13ifvqei0","pricing_plan_id":"cebpf4jnsgd1na2vs0mg"},{"bike_id":"4e87309c-63f9-421b-a46b-6d014e343b7c","system_id":"levelo_inurba_marseille","lat":43.29623,"lon":5.3718,"is_reserved":false,"is_disabled":false,"rental_uris":{"android":"levelo://app?vid=4e87309c-63f9-421b-a46b-6d014e343b7c","ios":"levelo://app?vid=4e87309c-63f9-421b-a46b-6d014e343b7c"},"vehicle_type_id":"4","last_reported":1732537176,"current_range_meters":38000,"station_id":"ce4bgnh2rcd13ifvqc0g","pricing_plan_id":"cebpf4jnsgd1na2vs0mg"},{"bike_id":"bdcd807d-101c-4909-b854-901665fa1cfa","system_id":"levelo_inurba_marseille","lat":43.31359,"lon":5.38503,"is_reserved":false,"is_disabled":true,"rental_uris":{"android":"levelo://app?vid=bdcd807d-101c-4909-b854-901665fa1cfa","ios":"levelo://app?vid=bdcd807d-101c-4909-b854-901665fa1cfa"},"vehicle_type_id":"4","last_reported":1732537176,"current_range_meters":2000,"station_id":"ce4bgt92rcd13ifvqcf0","pricing_plan_id":"cebpf4jnsgd1na2vs0mg"},{"bike_id":"d2c5de91-ee11-4235-bf0b-2d6ba223d13a","system_id":"levelo_inurba_marseille","lat":43.34142,"lon":5.40902,"is_reserved":false,"is_disabled":false,"rental_uris":{"android":"levelo://app?vid=d2c5de91-ee11-4235-bf0b-2d6ba223d13a","ios":"levelo://app?vid=d2c5de91-ee11-4235-bf0b-2d6ba223d13a"},"vehicle_type_id":"4","last_reported":1732537176,"current_range_meters":6400,"station_id":"ce4bhqh2rcd13ifvqhlg","pricing_plan_id":"cebpf4jnsgd1na2vs0mg"},{"bike_id":"1c70e5e6-7fac-4d18-ba75-18652dc12e80","system_id":"levelo_inurba_marseille","lat":43.25504,"lon":5.37651,"is_reserved":false,"is_disabled":true,"rental_uris":{"android":"levelo://app?vid=1c70e5e6-7fac-4d18-ba75-18652dc12e80","ios":"levelo://app?vid=1c70e5e6-7fac-4d18-ba75-18652dc12e80"},"vehicle_type_id":"4","last_reported":1732537176,"current_range_meters":38800,"station_id":"ce4bhh12rcd13ifvqff0","pricing_plan_id":"cebpf4jnsgd1na2vs0mg"},{"bike_id":"1e1f8462-5ebf-4f42-a352-fa67b0650ef1","system_id":"levelo_inurba_marseille","lat":43.30152,"lon":5.38096,"is_reserved":false,"is_disabled":false,"rental_uris":{"android":"levelo://app?vid=1e1f8462-5ebf-4f42-a352-fa67b0650ef1","ios":"levelo://app?vid=1e1f8462-5ebf-4f42-a352-fa67b0650ef1"},"vehicle_type_id":"4","last_reported":1732537176,"current_range_meters":36800,"station_id":"ce4bgjp2rcd13ifvqbh0","pricing_plan_id":"cebpf4jnsgd1na2vs0mg"},{"bike_id":"552ae1f9-34eb-4d70-a19b-3616d3661778","system_id":"levelo_inurba_marseille","lat":43.33724,"lon":5.39173,"is_reserved":false,"is_disabled":false,"rental_uris":{"android":"levelo://app?vid=552ae1f9-34eb-4d70-a19b-3616d3661778","ios":"levelo://app?vid=552ae1f9-34eb-4d70-a19b-3616d3661778"},"vehicle_type_id":"4","last_reported":1732537176,"current_range_meters":9600,"station_id":"ce4bhr92rcd13ifvqhsg","pricing_plan_id":"cebpf4jnsgd1na2vs0mg"},{"bike_id":"f7f3756c-1ec7-4782-9c87-6273f87b6774","system_id":"levelo_inurba_marseille","lat":43.337444,"lon":5.374475,"is_reserved":false,"is_disabled":true,"rental_uris":{"android":"levelo://app?vid=f7f3756c-1ec7-4782-9c87-6273f87b6774","ios":"levelo://app?vid=f7f3756c-1ec7-4782-9c87-6273f87b6774"},"vehicle_type_id":"4","last_reported":1732537176,"current_range_meters":24400,"station_id":"","pricing_plan_id":"cebpf4jnsgd1na2vs0mg"},{"bike_id":"1bc34748-f26d-4050-a984-16054866760d","system_id":"levelo_inurba_marseille","lat":43.27433,"lon":5.39409,"is_reserved":false,"is_disabled":false,"rental_uris":{"android":"levelo://app?vid=1bc34748-f26d-4050-a984-16054866760d","ios":"levelo://app?vid=1bc34748-f26d-4050-a984-16054866760d"},"vehicle_type_id":"4","last_reported":1732537176,"current_range_meters":38400,"station_id":"ce4bhdp2rcd13ifvqf20","pricing_plan_id":"cebpf4jnsgd1na2vs0mg"},{"bike_id":"57b110bc-d427-4076-9a55-28213cac1a4e","system_id":"levelo_inurba_marseille","lat":43.26686,"lon":5.38274,"is_reserved":false,"is_disabled":false,"rental_uris":{"android":"levelo://app?vid=57b110bc-d427-4076-9a55-28213cac1a4e","ios":"levelo://app?vid=57b110bc-d427-4076-9a55-28213cac1a4e"},"vehicle_type_id":"4","last_reported":1732537176,"current_range_meters":22000,"station_id":"ce4bhg92rcd13ifvqf90","pricing_plan_id":"cebpf4jnsgd1na2vs0mg"},{"bike_id":"eb994cda-9cc7-4bc9-ab58-1b5e09c0cc32","system_id":"levelo_inurba_marseille","lat":43.26033,"lon":5.37548,"is_reserved":false,"is_disabled":false,"rental_uris":{"android":"levelo://app?vid=eb994cda-9cc7-4bc9-ab58-1b5e09c0cc32","ios":"levelo://app?vid=eb994cda-9cc7-4bc9-ab58-1b5e09c0cc32"},"vehicle_type_id":"4","last_reported":1732537176,"current_range_meters":38800,"station_id":"ce4bhgh2rcd13ifvqfa0","pricing_plan_id":"cebpf4jnsgd1na2vs0mg"},{"bike_id":"75aa5573-d642-454f-b124-c181bec6ef29","system_id":"levelo_inurba_marseille","lat":43.3035,"lon":5.4188,"is_reserved":false,"is_disabled":false,"rental_uris":{"android":"levelo://app?vid=75aa5573-d642-454f-b124-c181bec6ef29","ios":"levelo://app?vid=75aa5573-d642-454f-b124-c181bec6ef29"},"vehicle_type_id":"4","last_reported":1732537176,"current_range_meters":37600,"station_id":"ce4bhop2rcd13ifvqh7g","pricing_plan_id":"cebpf4jnsgd1na2vs0mg"},{"bike_id":"25a2b490-97af-47b5-a929-7a7a9e93428d","system_id":"levelo_inurba_marseille","lat":43.306,"lon":5.39356,"is_reserved":false,"is_disabled":true,"rental_uris":{"android":"levelo://app?vid=25a2b490-97af-47b5-a929-7a7a9e93428d","ios":"levelo://app?vid=25a2b490-97af-47b5-a929-7a7a9e93428d"},"vehicle_type_id":"4","last_reported":1732537176,"current_range_meters":4800,"station_id":"ce4bh0p2rcd13ifvqd80","pricing_plan_id":"cebpf4jnsgd1na2vs0mg"},{"bike_id":"b7b61d62-d3cf-45c0-ae9e-f05215122577","system_id":"levelo_inurba_marseille","lat":43.30925,"lon":5.40151,"is_reserved":false,"is_disabled":true,"rental_uris":{"android":"levelo://app?vid=b7b61d62-d3cf-45c0-ae9e-f05215122577","ios":"levelo://app?vid=b7b61d62-d3cf-45c0-ae9e-f05215122577"},"vehicle_type_id":"4","last_reported":1732537176,"current_range_meters":0,"station_id":"","pricing_plan_id":"cebpf4jnsgd1na2vs0mg"},{"bike_id":"7f89b812-16cb-4135-bc5f-efa2b244ec26","system_id":"levelo_inurba_marseille","lat":43.26556,"lon":5.37289,"is_reserved":false,"is_disabled":true,"rental_uris":{"android":"levelo://app?vid=7f89b812-16cb-4135-bc5f-efa2b244ec26","ios":"levelo://app?vid=7f89b812-16cb-4135-bc5f-efa2b244ec26"},"vehicle_type_id":"4","last_reported":1732537176,"current_range_meters":36800,"station_id":"ce4bhg12rcd13ifvqf70","pricing_plan_id":"cebpf4jnsgd1na2vs0mg"},{"bike_id":"e2f0ef73-8018-4db5-80ea-af7dd90396dd","system_id":"levelo_inurba_marseille","lat":43.28151,"lon":5.42641,"is_reserved":false,"is_disabled":false,"rental_uris":{"android":"levelo://app?vid=e2f0ef73-8018-4db5-80ea-af7dd90396dd","ios":"levelo://app?vid=e2f0ef73-8018-4db5-80ea-af7dd90396dd"},"vehicle_type_id":"4","last_reported":1732537176,"current_range_meters":18800,"station_id":"ce4bhnh2rcd13ifvqgug","pricing_plan_id":"cebpf4jnsgd1na2vs0mg"},{"bike_id":"86ec5835-1e76-4455-9969-54b44bba3755","system_id":"levelo_inurba_marseille","lat":43.3248,"lon":5.36551,"is_reserved":false,"is_disabled":false,"rental_uris":{"android":"levelo://app?vid=86ec5835-1e76-4455-9969-54b44bba3755","ios":"levelo://app?vid=86ec5835-1e76-4455-9969-54b44bba3755"},"vehicle_type_id":"4","last_reported":1732537176,"current_range_meters":39200,"station_id":"ce4bhs12rcd13ifvqhvg","pricing_plan_id":"cebpf4jnsgd1na2vs0mg"},{"bike_id":"54aa96d9-1827-49fc-85aa-0558dfaec8c4","system_id":"levelo_inurba_marseille","lat":43.28713,"lon":5.37937,"is_reserved":false,"is_disabled":false,"rental_uris":{"android":"levelo://app?vid=54aa96d9-1827-49fc-85aa-0558dfaec8c4","ios":"levelo://app?vid=54aa96d9-1827-49fc-85aa-0558dfaec8c4"},"vehicle_type_id":"4","last_reported":1732537176,"current_range_meters":24000,"station_id":"ce4bh9p2rcd13ifvqec0","pricing_plan_id":"cebpf4jnsgd1na2vs0mg"},{"bike_id":"63e5c75a-30c8-4be5-8ec8-448fdf89dbb8","system_id":"levelo_inurba_marseille","lat":43.23068,"lon":5.3549,"is_reserved":false,"is_disabled":false,"rental_uris":{"android":"levelo://app?vid=63e5c75a-30c8-4be5-8ec8-448fdf89dbb8","ios":"levelo://app?vid=63e5c75a-30c8-4be5-8ec8-448fdf89dbb8"},"vehicle_type_id":"4","last_reported":1732537176,"current_range_meters":36800,"station_id":"cpo3342slgdg3j2ifvpg","pricing_plan_id":"cebpf4jnsgd1na2vs0mg"},{"bike_id":"3cbca4fe-612d-42f2-9493-716c1fd1417b","system_id":"levelo_inurba_marseille","lat":43.28149,"lon":5.42652,"is_reserved":false,"is_disabled":false,"rental_uris":{"android":"levelo://app?vid=3cbca4fe-612d-42f2-9493-716c1fd1417b","ios":"levelo://app?vid=3cbca4fe-612d-42f2-9493-716c1fd1417b"},"vehicle_type_id":"4","last_reported":1732537176,"current_range_meters":11600,"station_id":"ce4bhnh2rcd13ifvqgug","pricing_plan_id":"cebpf4jnsgd1na2vs0mg"},{"bike_id":"62fb3f0a-80e5-42bd-9653-adfa7bc7c75a","system_id":"levelo_inurba_marseille","lat":43.27939,"lon":5.41048,"is_reserved":false,"is_disabled":false,"rental_uris":{"android":"levelo://app?vid=62fb3f0a-80e5-42bd-9653-adfa7bc7c75a","ios":"levelo://app?vid=62fb3f0a-80e5-42bd-9653-adfa7bc7c75a"},"vehicle_type_id":"4","last_reported":1732537176,"current_range_meters":10800,"station_id":"ce4bhnp2rcd13ifvqh0g","pricing_plan_id":"cebpf4jnsgd1na2vs0mg"},{"bike_id":"6a30d627-309b-4ab9-ab1e-41d25a38cdaa","system_id":"levelo_inurba_marseille","lat":43.32538,"lon":5.41441,"is_reserved":false,"is_disabled":true,"rental_uris":{"android":"levelo://app?vid=6a30d627-309b-4ab9-ab1e-41d25a38cdaa","ios":"levelo://app?vid=6a30d627-309b-4ab9-ab1e-41d25a38cdaa"},"vehicle_type_id":"4","last_reported":1732537176,"current_range_meters":38800,"station_id":"ce4bhq12rcd13ifvqhhg","pricing_plan_id":"cebpf4jnsgd1na2vs0mg"},{"bike_id":"319287df-687a-4519-8559-afdae3b3272f","system_id":"levelo_inurba_marseille","lat":43.29791,"lon":5.38117,"is_reserved":false,"is_disabled":true,"rental_uris":{"android":"levelo://app?vid=319287df-687a-4519-8559-afdae3b3272f","ios":"levelo://app?vid=319287df-687a-4519-8559-afdae3b3272f"},"vehicle_type_id":"4","last_reported":1732537176,"current_range_meters":28400,"station_id":"ce4bgip2rcd13ifvqbb0","pricing_plan_id":"cebpf4jnsgd1na2vs0mg"},{"bike_id":"bca3fd95-577b-4655-a940-7281cdb56793","system_id":"levelo_inurba_marseille","lat":43.28038,"lon":5.36948,"is_reserved":false,"is_disabled":true,"rental_uris":{"android":"levelo://app?vid=bca3fd95-577b-4655-a940-7281cdb56793","ios":"levelo://app?vid=bca3fd95-577b-4655-a940-7281cdb56793"},"vehicle_type_id":"4","last_reported":1732537176,"current_range_meters":30000,"station_id":"ce4bha12rcd13ifvqef0","pricing_plan_id":"cebpf4jnsgd1na2vs0mg"},{"bike_id":"e5951ee3-4a5a-4ebb-b469-096c5188dfa3","system_id":"levelo_inurba_marseille","lat":43.23195,"lon":5.35547,"is_reserved":false,"is_disabled":false,"rental_uris":{"android":"levelo://app?vid=e5951ee3-4a5a-4ebb-b469-096c5188dfa3","ios":"levelo://app?vid=e5951ee3-4a5a-4ebb-b469-096c5188dfa3"},"vehicle_type_id":"4","last_reported":1732537176,"current_range_meters":38800,"station_id":"ce4bhu92rcd13ifvqi70","pricing_plan_id":"cebpf4jnsgd1na2vs0mg"},{"bike_id":"3cc26207-7312-4eaa-95b6-cfa66aac5ad8","system_id":"levelo_inurba_marseille","lat":43.23153,"lon":5.43713,"is_reserved":false,"is_disabled":false,"rental_uris":{"android":"levelo://app?vid=3cc26207-7312-4eaa-95b6-cfa66aac5ad8","ios":"levelo://app?vid=3cc26207-7312-4eaa-95b6-cfa66aac5ad8"},"vehicle_type_id":"4","last_reported":1732537176,"current_range_meters":14800,"station_id":"ce4bhmp2rcd13ifvqgog","pricing_plan_id":"cebpf4jnsgd1na2vs0mg"},{"bike_id":"33ae12dc-d757-46bf-b195-cf4bbca44eb2","system_id":"levelo_inurba_marseille","lat":43.305326,"lon":5.365416,"is_reserved":false,"is_disabled":false,"rental_uris":{"android":"levelo://app?vid=33ae12dc-d757-46bf-b195-cf4bbca44eb2","ios":"levelo://app?vid=33ae12dc-d757-46bf-b195-cf4bbca44eb2"},"vehicle_type_id":"4","last_reported":1732537176,"current_range_meters":38800,"station_id":"ce4bgs12rcd13ifvqcag","pricing_plan_id":"cebpf4jnsgd1na2vs0mg"},{"bike_id":"66aad5d7-efa9-4543-8e11-bbf0af584fcf","system_id":"levelo_inurba_marseille","lat":43.27811,"lon":5.407,"is_reserved":false,"is_disabled":true,"rental_uris":{"android":"levelo://app?vid=66aad5d7-efa9-4543-8e11-bbf0af584fcf","ios":"levelo://app?vid=66aad5d7-efa9-4543-8e11-bbf0af584fcf"},"vehicle_type_id":"4","last_reported":1732537176,"current_range_meters":38800,"station_id":"ce4bhnh2rcd13ifvqgtg","pricing_plan_id":"cebpf4jnsgd1na2vs0mg"},{"bike_id":"17719921-fa55-4c69-8660-9ccaf52e1631","system_id":"levelo_inurba_marseille","lat":43.28938,"lon":5.36642,"is_reserved":false,"is_disabled":false,"rental_uris":{"android":"levelo://app?vid=17719921-fa55-4c69-8660-9ccaf52e1631","ios":"levelo://app?vid=17719921-fa55-4c69-8660-9ccaf52e1631"},"vehicle_type_id":"4","last_reported":1732537176,"current_range_meters":38800,"station_id":"ce4bhap2rcd13ifvqek0","pricing_plan_id":"cebpf4jnsgd1na2vs0mg"},{"bike_id":"6c948e9c-d5b3-4fe5-a918-1bd2f7c83b02","system_id":"levelo_inurba_marseille","lat":43.32119,"lon":5.36774,"is_reserved":false,"is_disabled":false,"rental_uris":{"android":"levelo://app?vid=6c948e9c-d5b3-4fe5-a918-1bd2f7c83b02","ios":"levelo://app?vid=6c948e9c-d5b3-4fe5-a918-1bd2f7c83b02"},"vehicle_type_id":"4","last_reported":1732537176,"current_range_meters":24400,"station_id":"ce4bhrh2rcd13ifvqhug","pricing_plan_id":"cebpf4jnsgd1na2vs0mg"},{"bike_id":"9e620abf-d324-4f99-84fc-d67e71109f2a","system_id":"levelo_inurba_marseille","lat":43.31077,"lon":5.42435,"is_reserved":false,"is_disabled":true,"rental_uris":{"android":"levelo://app?vid=9e620abf-d324-4f99-84fc-d67e71109f2a","ios":"levelo://app?vid=9e620abf-d324-4f99-84fc-d67e71109f2a"},"vehicle_type_id":"4","last_reported":1732537176,"current_range_meters":0,"station_id":"ce4bhp92rcd13ifvqhag","pricing_plan_id":"cebpf4jnsgd1na2vs0mg"},{"bike_id":"9388a7ff-9c5c-4c26-9899-39b2408cf7e3","system_id":"levelo_inurba_marseille","lat":43.31025,"lon":5.38342,"is_reserved":false,"is_disabled":true,"rental_uris":{"android":"levelo://app?vid=9388a7ff-9c5c-4c26-9899-39b2408cf7e3","ios":"levelo://app?vid=9388a7ff-9c5c-4c26-9899-39b2408cf7e3"},"vehicle_type_id":"4","last_reported":1732537176,"current_range_meters":0,"station_id":"","pricing_plan_id":"cebpf4jnsgd1na2vs0mg"},{"bike_id":"f0b812fb-308b-478f-b343-bd91863b177d","system_id":"levelo_inurba_marseille","lat":43.323456,"lon":5.40621,"is_reserved":false,"is_disabled":true,"rental_uris":{"android":"levelo://app?vid=f0b812fb-308b-478f-b343-bd91863b177d","ios":"levelo://app?vid=f0b812fb-308b-478f-b343-bd91863b177d"},"vehicle_type_id":"4","last_reported":1732537176,"current_range_meters":10000,"station_id":"ce4bhq92rcd13ifvqhjg","pricing_plan_id":"cebpf4jnsgd1na2vs0mg"},{"bike_id":"f14e9fba-b9bd-4443-896c-9fd7a4fd971d","system_id":"levelo_inurba_marseille","lat":43.29896,"lon":5.4367,"is_reserved":false,"is_disabled":false,"rental_uris":{"android":"levelo://app?vid=f14e9fba-b9bd-4443-896c-9fd7a4fd971d","ios":"levelo://app?vid=f14e9fba-b9bd-4443-896c-9fd7a4fd971d"},"vehicle_type_id":"4","last_reported":1732537176,"current_range_meters":38800,"station_id":"ce4bhpp2rcd13ifvqhfg","pricing_plan_id":"cebpf4jnsgd1na2vs0mg"},{"bike_id":"5c53cfbd-2547-413a-b79a-f8cc3b1ca992","system_id":"levelo_inurba_marseille","lat":43.32112,"lon":5.36777,"is_reserved":false,"is_disabled":false,"rental_uris":{"android":"levelo://app?vid=5c53cfbd-2547-413a-b79a-f8cc3b1ca992","ios":"levelo://app?vid=5c53cfbd-2547-413a-b79a-f8cc3b1ca992"},"vehicle_type_id":"4","last_reported":1732537176,"current_range_meters":36800,"station_id":"ce4bhrh2rcd13ifvqhug","pricing_plan_id":"cebpf4jnsgd1na2vs0mg"},{"bike_id":"d88f5771-1d71-4a0f-b2f4-698480b92445","system_id":"levelo_inurba_marseille","lat":43.29417,"lon":5.38617,"is_reserved":false,"is_disabled":false,"rental_uris":{"android":"levelo://app?vid=d88f5771-1d71-4a0f-b2f4-698480b92445","ios":"levelo://app?vid=d88f5771-1d71-4a0f-b2f4-698480b92445"},"vehicle_type_id":"4","last_reported":1732537176,"current_range_meters":20000,"station_id":"ce4bh2h2rcd13ifvqdh0","pricing_plan_id":"cebpf4jnsgd1na2vs0mg"},{"bike_id":"f6f0efc7-4e69-4855-a7e3-653138d55abf","system_id":"levelo_inurba_marseille","lat":43.30787,"lon":5.37641,"is_reserved":false,"is_disabled":false,"rental_uris":{"android":"levelo://app?vid=f6f0efc7-4e69-4855-a7e3-653138d55abf","ios":"levelo://app?vid=f6f0efc7-4e69-4855-a7e3-653138d55abf"},"vehicle_type_id":"4","last_reported":1732537176,"current_range_meters":36800,"station_id":"ce4bgv92rcd13ifvqcq0","pricing_plan_id":"cebpf4jnsgd1na2vs0mg"},{"bike_id":"8e203eb2-49a8-475a-99e2-f0fe6cf047ea","system_id":"levelo_inurba_marseille","lat":43.33023,"lon":5.39041,"is_reserved":false,"is_disabled":false,"rental_uris":{"android":"levelo://app?vid=8e203eb2-49a8-475a-99e2-f0fe6cf047ea","ios":"levelo://app?vid=8e203eb2-49a8-475a-99e2-f0fe6cf047ea"},"vehicle_type_id":"4","last_reported":1732537176,"current_range_meters":20000,"station_id":"ce4bhr92rcd13ifvqhrg","pricing_plan_id":"cebpf4jnsgd1na2vs0mg"},{"bike_id":"3b1c97d8-be81-484f-81f9-990f5b17db10","system_id":"levelo_inurba_marseille","lat":43.34147,"lon":5.40911,"is_reserved":false,"is_disabled":true,"rental_uris":{"android":"levelo://app?vid=3b1c97d8-be81-484f-81f9-990f5b17db10","ios":"levelo://app?vid=3b1c97d8-be81-484f-81f9-990f5b17db10"},"vehicle_type_id":"4","last_reported":1732537176,"current_range_meters":38000,"station_id":"ce4bhqh2rcd13ifvqhlg","pricing_plan_id":"cebpf4jnsgd1na2vs0mg"},{"bike_id":"43ef1878-08c8-43ce-8a84-e0d20cc2548c","system_id":"levelo_inurba_marseille","lat":43.25941,"lon":5.40904,"is_reserved":false,"is_disabled":false,"rental_uris":{"android":"levelo://app?vid=43ef1878-08c8-43ce-8a84-e0d20cc2548c","ios":"levelo://app?vid=43ef1878-08c8-43ce-8a84-e0d20cc2548c"},"vehicle_type_id":"4","last_reported":1732537176,"current_range_meters":36400,"station_id":"ce4bhm92rcd13ifvqglg","pricing_plan_id":"cebpf4jnsgd1na2vs0mg"},{"bike_id":"9f267e62-6b87-4771-87f0-74b82cb5947e","system_id":"levelo_inurba_marseille","lat":43.29443,"lon":5.39741,"is_reserved":false,"is_disabled":false,"rental_uris":{"android":"levelo://app?vid=9f267e62-6b87-4771-87f0-74b82cb5947e","ios":"levelo://app?vid=9f267e62-6b87-4771-87f0-74b82cb5947e"},"vehicle_type_id":"4","last_reported":1732537176,"current_range_meters":29600,"station_id":"ce4bh3h2rcd13ifvqdo0","pricing_plan_id":"cebpf4jnsgd1na2vs0mg"},{"bike_id":"56ca6b93-ca3d-4dfc-8e20-e35c24d8bd07","system_id":"levelo_inurba_marseille","lat":43.337444,"lon":5.374475,"is_reserved":false,"is_disabled":true,"rental_uris":{"android":"levelo://app?vid=56ca6b93-ca3d-4dfc-8e20-e35c24d8bd07","ios":"levelo://app?vid=56ca6b93-ca3d-4dfc-8e20-e35c24d8bd07"},"vehicle_type_id":"4","last_reported":1732537176,"current_range_meters":0,"station_id":"","pricing_plan_id":"cebpf4jnsgd1na2vs0mg"},{"bike_id":"bc8a82a4-5816-451b-beca-f0dccc6922d0","system_id":"levelo_inurba_marseille","lat":43.29618,"lon":5.37152,"is_reserved":false,"is_disabled":false,"rental_uris":{"android":"levelo://app?vid=bc8a82a4-5816-451b-beca-f0dccc6922d0","ios":"levelo://app?vid=bc8a82a4-5816-451b-beca-f0dccc6922d0"},"vehicle_type_id":"4","last_reported":1732537176,"current_range_meters":24000,"station_id":"ce4bgnh2rcd13ifvqc0g","pricing_plan_id":"cebpf4jnsgd1na2vs0mg"},{"bike_id":"5a5dc9da-13ee-4e53-9066-4548e3d0883f","system_id":"levelo_inurba_marseille","lat":43.33755,"lon":5.3745,"is_reserved":false,"is_disabled":false,"rental_uris":{"android":"levelo://app?vid=5a5dc9da-13ee-4e53-9066-4548e3d0883f","ios":"levelo://app?vid=5a5dc9da-13ee-4e53-9066-4548e3d0883f"},"vehicle_type_id":"4","last_reported":1732537176,"current_range_meters":16800,"station_id":"","pricing_plan_id":"cebpf4jnsgd1na2vs0mg"},{"bike_id":"40c7ddb8-0e1a-4eb1-9e2f-d3bf1a0f9d1e","system_id":"levelo_inurba_marseille","lat":43.28274,"lon":5.35069,"is_reserved":false,"is_disabled":true,"rental_uris":{"android":"levelo://app?vid=40c7ddb8-0e1a-4eb1-9e2f-d3bf1a0f9d1e","ios":"levelo://app?vid=40c7ddb8-0e1a-4eb1-9e2f-d3bf1a0f9d1e"},"vehicle_type_id":"4","last_reported":1732537176,"current_range_meters":25600,"station_id":"ce4bhbp2rcd13ifvqerg","pricing_plan_id":"cebpf4jnsgd1na2vs0mg"},{"bike_id":"46ac22a8-6f10-4221-98a6-34eba5c97bfb","system_id":"levelo_inurba_marseille","lat":43.29197,"lon":5.37311,"is_reserved":false,"is_disabled":true,"rental_uris":{"android":"levelo://app?vid=46ac22a8-6f10-4221-98a6-34eba5c97bfb","ios":"levelo://app?vid=46ac22a8-6f10-4221-98a6-34eba5c97bfb"},"vehicle_type_id":"4","last_reported":1732537176,"current_range_meters":0,"station_id":"","pricing_plan_id":"cebpf4jnsgd1na2vs0mg"},{"bike_id":"5846e7ee-045c-466d-b02c-9cd3eadc9db6","system_id":"levelo_inurba_marseille","lat":43.2921,"lon":5.35802,"is_reserved":false,"is_disabled":true,"rental_uris":{"android":"levelo://app?vid=5846e7ee-045c-466d-b02c-9cd3eadc9db6","ios":"levelo://app?vid=5846e7ee-045c-466d-b02c-9cd3eadc9db6"},"vehicle_type_id":"4","last_reported":1732537176,"current_range_meters":38800,"station_id":"ce4bhb12rcd13ifvqel0","pricing_plan_id":"cebpf4jnsgd1na2vs0mg"},{"bike_id":"e5801354-cfcd-47ab-a2b0-37a38d6693f1","system_id":"levelo_inurba_marseille","lat":43.29522,"lon":5.39042,"is_reserved":false,"is_disabled":false,"rental_uris":{"android":"levelo://app?vid=e5801354-cfcd-47ab-a2b0-37a38d6693f1","ios":"levelo://app?vid=e5801354-cfcd-47ab-a2b0-37a38d6693f1"},"vehicle_type_id":"4","last_reported":1732537176,"current_range_meters":38000,"station_id":"ce4bh3p2rcd13ifvqdp0","pricing_plan_id":"cebpf4jnsgd1na2vs0mg"},{"bike_id":"43746d86-8a13-4845-9faf-ae69b548d714","system_id":"levelo_inurba_marseille","lat":43.29453,"lon":5.37917,"is_reserved":false,"is_disabled":true,"rental_uris":{"android":"levelo://app?vid=43746d86-8a13-4845-9faf-ae69b548d714","ios":"levelo://app?vid=43746d86-8a13-4845-9faf-ae69b548d714"},"vehicle_type_id":"4","last_reported":1732537176,"current_range_meters":0,"station_id":"","pricing_plan_id":"cebpf4jnsgd1na2vs0mg"},{"bike_id":"2af2f209-74ab-41f6-b808-cd21a37751e1","system_id":"levelo_inurba_marseille","lat":43.26035,"lon":5.37542,"is_reserved":false,"is_disabled":false,"rental_uris":{"android":"levelo://app?vid=2af2f209-74ab-41f6-b808-cd21a37751e1","ios":"levelo://app?vid=2af2f209-74ab-41f6-b808-cd21a37751e1"},"vehicle_type_id":"4","last_reported":1732537176,"current_range_meters":38000,"station_id":"ce4bhgh2rcd13ifvqfa0","pricing_plan_id":"cebpf4jnsgd1na2vs0mg"},{"bike_id":"7317920e-5975-4c67-a891-63736e89f140","system_id":"levelo_inurba_marseille","lat":43.29274,"lon":5.36786,"is_reserved":false,"is_disabled":true,"rental_uris":{"android":"levelo://app?vid=7317920e-5975-4c67-a891-63736e89f140","ios":"levelo://app?vid=7317920e-5975-4c67-a891-63736e89f140"},"vehicle_type_id":"4","last_reported":1732537176,"current_range_meters":24000,"station_id":"","pricing_plan_id":"cebpf4jnsgd1na2vs0mg"},{"bike_id":"09f0f347-fe7c-480c-80d7-f2b2fe8e527f","system_id":"levelo_inurba_marseille","lat":43.31336,"lon":5.39692,"is_reserved":false,"is_disabled":false,"rental_uris":{"android":"levelo://app?vid=09f0f347-fe7c-480c-80d7-f2b2fe8e527f","ios":"levelo://app?vid=09f0f347-fe7c-480c-80d7-f2b2fe8e527f"},"vehicle_type_id":"4","last_reported":1732537176,"current_range_meters":24000,"station_id":"ce4bgvp2rcd13ifvqcu0","pricing_plan_id":"cebpf4jnsgd1na2vs0mg"},{"bike_id":"a2b09865-004d-45eb-b301-cf3640220a72","system_id":"levelo_inurba_marseille","lat":43.29605,"lon":5.38105,"is_reserved":false,"is_disabled":true,"rental_uris":{"android":"levelo://app?vid=a2b09865-004d-45eb-b301-cf3640220a72","ios":"levelo://app?vid=a2b09865-004d-45eb-b301-cf3640220a72"},"vehicle_type_id":"4","last_reported":1732537176,"current_range_meters":0,"station_id":"ce4bgl12rcd13ifvqbo0","pricing_plan_id":"cebpf4jnsgd1na2vs0mg"},{"bike_id":"3e3c0be4-7fb7-4ca3-945a-c2f577396c6f","system_id":"levelo_inurba_marseille","lat":43.26684,"lon":5.38273,"is_reserved":false,"is_disabled":false,"rental_uris":{"android":"levelo://app?vid=3e3c0be4-7fb7-4ca3-945a-c2f577396c6f","ios":"levelo://app?vid=3e3c0be4-7fb7-4ca3-945a-c2f577396c6f"},"vehicle_type_id":"4","last_reported":1732537176,"current_range_meters":27200,"station_id":"ce4bhg92rcd13ifvqf90","pricing_plan_id":"cebpf4jnsgd1na2vs0mg"},{"bike_id":"02a52d7f-7dbc-4f4e-9b17-8b357250006e","system_id":"levelo_inurba_marseille","lat":43.2512,"lon":5.40318,"is_reserved":false,"is_disabled":false,"rental_uris":{"android":"levelo://app?vid=02a52d7f-7dbc-4f4e-9b17-8b357250006e","ios":"levelo://app?vid=02a52d7f-7dbc-4f4e-9b17-8b357250006e"},"vehicle_type_id":"4","last_reported":1732537176,"current_range_meters":22000,"station_id":"ce4bhlh2rcd13ifvqgig","pricing_plan_id":"cebpf4jnsgd1na2vs0mg"},{"bike_id":"b777e881-954f-41ae-bb6d-48a5fe325c58","system_id":"levelo_inurba_marseille","lat":43.26205,"lon":5.3792,"is_reserved":false,"is_disabled":false,"rental_uris":{"android":"levelo://app?vid=b777e881-954f-41ae-bb6d-48a5fe325c58","ios":"levelo://app?vid=b777e881-954f-41ae-bb6d-48a5fe325c58"},"vehicle_type_id":"4","last_reported":1732537176,"current_range_meters":38400,"station_id":"ce4bhjp2rcd13ifvqg90","pricing_plan_id":"cebpf4jnsgd1na2vs0mg"},{"bike_id":"2612e93b-efd9-47d8-9055-c03c0a09ca65","system_id":"levelo_inurba_marseille","lat":43.26781,"lon":5.39423,"is_reserved":false,"is_disabled":true,"rental_uris":{"android":"levelo://app?vid=2612e93b-efd9-47d8-9055-c03c0a09ca65","ios":"levelo://app?vid=2612e93b-efd9-47d8-9055-c03c0a09ca65"},"vehicle_type_id":"4","last_reported":1732537176,"current_range_meters":0,"station_id":"ce4bhh12rcd13ifvqfg0","pricing_plan_id":"cebpf4jnsgd1na2vs0mg"},{"bike_id":"fa719603-3f5a-410e-b287-e996ead0be5d","system_id":"levelo_inurba_marseille","lat":43.29473,"lon":5.37468,"is_reserved":false,"is_disabled":false,"rental_uris":{"android":"levelo://app?vid=fa719603-3f5a-410e-b287-e996ead0be5d","ios":"levelo://app?vid=fa719603-3f5a-410e-b287-e996ead0be5d"},"vehicle_type_id":"4","last_reported":1732537176,"current_range_meters":35600,"station_id":"","pricing_plan_id":"cebpf4jnsgd1na2vs0mg"},{"bike_id":"cd7f2149-18dc-4ca5-b205-655be80f6b80","system_id":"levelo_inurba_marseille","lat":43.26552,"lon":5.37294,"is_reserved":false,"is_disabled":true,"rental_uris":{"android":"levelo://app?vid=cd7f2149-18dc-4ca5-b205-655be80f6b80","ios":"levelo://app?vid=cd7f2149-18dc-4ca5-b205-655be80f6b80"},"vehicle_type_id":"4","last_reported":1732537176,"current_range_meters":27600,"station_id":"ce4bhg12rcd13ifvqf70","pricing_plan_id":"cebpf4jnsgd1na2vs0mg"},{"bike_id":"2d1762b4-1fa7-4794-9eae-18b02df97334","system_id":"levelo_inurba_marseille","lat":43.25859,"lon":5.399,"is_reserved":false,"is_disabled":false,"rental_uris":{"android":"levelo://app?vid=2d1762b4-1fa7-4794-9eae-18b02df97334","ios":"levelo://app?vid=2d1762b4-1fa7-4794-9eae-18b02df97334"},"vehicle_type_id":"4","last_reported":1732537176,"current_range_meters":12000,"station_id":"ce4bhl92rcd13ifvqghg","pricing_plan_id":"cebpf4jnsgd1na2vs0mg"},{"bike_id":"ac8a6bc2-c9c9-45a2-85f6-35f3b09c2037","system_id":"levelo_inurba_marseille","lat":43.33607,"lon":5.41032,"is_reserved":false,"is_disabled":true,"rental_uris":{"android":"levelo://app?vid=ac8a6bc2-c9c9-45a2-85f6-35f3b09c2037","ios":"levelo://app?vid=ac8a6bc2-c9c9-45a2-85f6-35f3b09c2037"},"vehicle_type_id":"4","last_reported":1732537176,"current_range_meters":30000,"station_id":"ce4bhqh2rcd13ifvqhmg","pricing_plan_id":"cebpf4jnsgd1na2vs0mg"},{"bike_id":"ee2b6f35-7d1b-4ce9-8a89-ced5ff6ba75e","system_id":"levelo_inurba_marseille","lat":43.24387,"lon":5.37061,"is_reserved":false,"is_disabled":false,"rental_uris":{"android":"levelo://app?vid=ee2b6f35-7d1b-4ce9-8a89-ced5ff6ba75e","ios":"levelo://app?vid=ee2b6f35-7d1b-4ce9-8a89-ced5ff6ba75e"},"vehicle_type_id":"4","last_reported":1732537176,"current_range_meters":38800,"station_id":"ce4bhhh2rcd13ifvqfk0","pricing_plan_id":"cebpf4jnsgd1na2vs0mg"},{"bike_id":"26fb7497-a780-47ad-baa8-e3678ac91922","system_id":"levelo_inurba_marseille","lat":43.29273,"lon":5.36841,"is_reserved":false,"is_disabled":true,"rental_uris":{"android":"levelo://app?vid=26fb7497-a780-47ad-baa8-e3678ac91922","ios":"levelo://app?vid=26fb7497-a780-47ad-baa8-e3678ac91922"},"vehicle_type_id":"4","last_reported":1732537176,"current_range_meters":27200,"station_id":"ce4bhbp2rcd13ifvqesg","pricing_plan_id":"cebpf4jnsgd1na2vs0mg"},{"bike_id":"40838fbd-175e-4307-947d-b85409f45c17","system_id":"levelo_inurba_marseille","lat":43.23192,"lon":5.35562,"is_reserved":false,"is_disabled":false,"rental_uris":{"android":"levelo://app?vid=40838fbd-175e-4307-947d-b85409f45c17","ios":"levelo://app?vid=40838fbd-175e-4307-947d-b85409f45c17"},"vehicle_type_id":"4","last_reported":1732537176,"current_range_meters":30400,"station_id":"ce4bhu92rcd13ifvqi70","pricing_plan_id":"cebpf4jnsgd1na2vs0mg"},{"bike_id":"7f723b0b-cbe8-4f68-b8fe-2ce3d5e983bd","system_id":"levelo_inurba_marseille","lat":43.32103,"lon":5.36777,"is_reserved":false,"is_disabled":true,"rental_uris":{"android":"levelo://app?vid=7f723b0b-cbe8-4f68-b8fe-2ce3d5e983bd","ios":"levelo://app?vid=7f723b0b-cbe8-4f68-b8fe-2ce3d5e983bd"},"vehicle_type_id":"4","last_reported":1732537176,"current_range_meters":24800,"station_id":"","pricing_plan_id":"cebpf4jnsgd1na2vs0mg"},{"bike_id":"e68c2589-81cc-40d1-bb3c-4dfcd49cdfe0","system_id":"levelo_inurba_marseille","lat":43.28859,"lon":5.35852,"is_reserved":false,"is_disabled":false,"rental_uris":{"android":"levelo://app?vid=e68c2589-81cc-40d1-bb3c-4dfcd49cdfe0","ios":"levelo://app?vid=e68c2589-81cc-40d1-bb3c-4dfcd49cdfe0"},"vehicle_type_id":"4","last_reported":1732537176,"current_range_meters":30800,"station_id":"ce4bhb12rcd13ifvqem0","pricing_plan_id":"cebpf4jnsgd1na2vs0mg"},{"bike_id":"7cfbf8de-341d-439b-a0bb-87c189438b23","system_id":"levelo_inurba_marseille","lat":43.2731,"lon":5.39083,"is_reserved":false,"is_disabled":false,"rental_uris":{"android":"levelo://app?vid=7cfbf8de-341d-439b-a0bb-87c189438b23","ios":"levelo://app?vid=7cfbf8de-341d-439b-a0bb-87c189438b23"},"vehicle_type_id":"4","last_reported":1732537176,"current_range_meters":5600,"station_id":"ce4bhgp2rcd13ifvqfe0","pricing_plan_id":"cebpf4jnsgd1na2vs0mg"},{"bike_id":"821bf144-3e04-433b-8fdc-df913ad0749b","system_id":"levelo_inurba_marseille","lat":43.3169,"lon":5.37736,"is_reserved":false,"is_disabled":false,"rental_uris":{"android":"levelo://app?vid=821bf144-3e04-433b-8fdc-df913ad0749b","ios":"levelo://app?vid=821bf144-3e04-433b-8fdc-df913ad0749b"},"vehicle_type_id":"4","last_reported":1732537176,"current_range_meters":35200,"station_id":"ce4bgth2rcd13ifvqch0","pricing_plan_id":"cebpf4jnsgd1na2vs0mg"},{"bike_id":"7e9061cd-5627-407a-8c6f-fcf878e75a40","system_id":"levelo_inurba_marseille","lat":43.27957,"lon":5.41042,"is_reserved":false,"is_disabled":true,"rental_uris":{"android":"levelo://app?vid=7e9061cd-5627-407a-8c6f-fcf878e75a40","ios":"levelo://app?vid=7e9061cd-5627-407a-8c6f-fcf878e75a40"},"vehicle_type_id":"4","last_reported":1732537176,"current_range_meters":6400,"station_id":"ce4bhnp2rcd13ifvqh0g","pricing_plan_id":"cebpf4jnsgd1na2vs0mg"},{"bike_id":"5b251b7c-9517-4f20-8a92-420ca3d04076","system_id":"levelo_inurba_marseille","lat":43.25107,"lon":5.40324,"is_reserved":false,"is_disabled":false,"rental_uris":{"android":"levelo://app?vid=5b251b7c-9517-4f20-8a92-420ca3d04076","ios":"levelo://app?vid=5b251b7c-9517-4f20-8a92-420ca3d04076"},"vehicle_type_id":"4","last_reported":1732537176,"current_range_meters":16800,"station_id":"ce4bhlh2rcd13ifvqgig","pricing_plan_id":"cebpf4jnsgd1na2vs0mg"},{"bike_id":"787d897e-559f-4da0-a1d4-e83009938176","system_id":"levelo_inurba_marseille","lat":43.27428,"lon":5.39408,"is_reserved":false,"is_disabled":true,"rental_uris":{"android":"levelo://app?vid=787d897e-559f-4da0-a1d4-e83009938176","ios":"levelo://app?vid=787d897e-559f-4da0-a1d4-e83009938176"},"vehicle_type_id":"4","last_reported":1732537176,"current_range_meters":24800,"station_id":"ce4bhdp2rcd13ifvqf20","pricing_plan_id":"cebpf4jnsgd1na2vs0mg"},{"bike_id":"72f3abdc-02fb-4b43-850e-b1ec134c3ff0","system_id":"levelo_inurba_marseille","lat":43.25818,"lon":5.39434,"is_reserved":false,"is_disabled":false,"rental_uris":{"android":"levelo://app?vid=72f3abdc-02fb-4b43-850e-b1ec134c3ff0","ios":"levelo://app?vid=72f3abdc-02fb-4b43-850e-b1ec134c3ff0"},"vehicle_type_id":"4","last_reported":1732537176,"current_range_meters":33600,"station_id":"ce4bhip2rcd13ifvqft0","pricing_plan_id":"cebpf4jnsgd1na2vs0mg"},{"bike_id":"5889cd86-d015-49c4-a90f-f922775c191a","system_id":"levelo_inurba_marseille","lat":43.2888,"lon":5.39444,"is_reserved":false,"is_disabled":false,"rental_uris":{"android":"levelo://app?vid=5889cd86-d015-49c4-a90f-f922775c191a","ios":"levelo://app?vid=5889cd86-d015-49c4-a90f-f922775c191a"},"vehicle_type_id":"4","last_reported":1732537176,"current_range_meters":7200,"station_id":"ce4bh2p2rcd13ifvqdi0","pricing_plan_id":"cebpf4jnsgd1na2vs0mg"},{"bike_id":"cd15ad48-52ae-4ea9-b6b3-8e65761b5145","system_id":"levelo_inurba_marseille","lat":43.3013,"lon":5.38781,"is_reserved":false,"is_disabled":false,"rental_uris":{"android":"levelo://app?vid=cd15ad48-52ae-4ea9-b6b3-8e65761b5145","ios":"levelo://app?vid=cd15ad48-52ae-4ea9-b6b3-8e65761b5145"},"vehicle_type_id":"4","last_reported":1732537176,"current_range_meters":38800,"station_id":"ce4bghh2rcd13ifvqb60","pricing_plan_id":"cebpf4jnsgd1na2vs0mg"},{"bike_id":"9ac7c1f6-ebd0-4684-a4df-cd1bc9139944","system_id":"levelo_inurba_marseille","lat":43.30595,"lon":5.39358,"is_reserved":false,"is_disabled":false,"rental_uris":{"android":"levelo://app?vid=9ac7c1f6-ebd0-4684-a4df-cd1bc9139944","ios":"levelo://app?vid=9ac7c1f6-ebd0-4684-a4df-cd1bc9139944"},"vehicle_type_id":"4","last_reported":1732537176,"current_range_meters":38800,"station_id":"ce4bh0p2rcd13ifvqd80","pricing_plan_id":"cebpf4jnsgd1na2vs0mg"},{"bike_id":"9753de2a-b71e-49d8-aca8-eeeec7bb904b","system_id":"levelo_inurba_marseille","lat":43.27945,"lon":5.41032,"is_reserved":false,"is_disabled":false,"rental_uris":{"android":"levelo://app?vid=9753de2a-b71e-49d8-aca8-eeeec7bb904b","ios":"levelo://app?vid=9753de2a-b71e-49d8-aca8-eeeec7bb904b"},"vehicle_type_id":"4","last_reported":1732537176,"current_range_meters":35600,"station_id":"ce4bhnp2rcd13ifvqh0g","pricing_plan_id":"cebpf4jnsgd1na2vs0mg"},{"bike_id":"0b5f7b4e-e065-44c9-9b8b-2118dda16eca","system_id":"levelo_inurba_marseille","lat":43.24809,"lon":5.3746,"is_reserved":false,"is_disabled":true,"rental_uris":{"android":"levelo://app?vid=0b5f7b4e-e065-44c9-9b8b-2118dda16eca","ios":"levelo://app?vid=0b5f7b4e-e065-44c9-9b8b-2118dda16eca"},"vehicle_type_id":"4","last_reported":1732537176,"current_range_meters":38800,"station_id":"ce4bhgh2rcd13ifvqfb0","pricing_plan_id":"cebpf4jnsgd1na2vs0mg"},{"bike_id":"0f0cbb2a-9f8f-4587-bc13-e68e0663e0e4","system_id":"levelo_inurba_marseille","lat":43.23152,"lon":5.43703,"is_reserved":false,"is_disabled":false,"rental_uris":{"android":"levelo://app?vid=0f0cbb2a-9f8f-4587-bc13-e68e0663e0e4","ios":"levelo://app?vid=0f0cbb2a-9f8f-4587-bc13-e68e0663e0e4"},"vehicle_type_id":"4","last_reported":1732537176,"current_range_meters":13600,"station_id":"ce4bhmp2rcd13ifvqgog","pricing_plan_id":"cebpf4jnsgd1na2vs0mg"},{"bike_id":"3461a59d-6983-4ec8-ada5-77a02e2d76aa","system_id":"levelo_inurba_marseille","lat":43.27434,"lon":5.3941,"is_reserved":false,"is_disabled":false,"rental_uris":{"android":"levelo://app?vid=3461a59d-6983-4ec8-ada5-77a02e2d76aa","ios":"levelo://app?vid=3461a59d-6983-4ec8-ada5-77a02e2d76aa"},"vehicle_type_id":"4","last_reported":1732537176,"current_range_meters":30000,"station_id":"ce4bhdp2rcd13ifvqf20","pricing_plan_id":"cebpf4jnsgd1na2vs0mg"},{"bike_id":"8d450723-f86a-440f-9581-3922c7acfb0a","system_id":"levelo_inurba_marseille","lat":43.28471,"lon":5.38547,"is_reserved":false,"is_disabled":true,"rental_uris":{"android":"levelo://app?vid=8d450723-f86a-440f-9581-3922c7acfb0a","ios":"levelo://app?vid=8d450723-f86a-440f-9581-3922c7acfb0a"},"vehicle_type_id":"4","last_reported":1732537176,"current_range_meters":35600,"station_id":"ce4bh8p2rcd13ifvqeb0","pricing_plan_id":"cebpf4jnsgd1na2vs0mg"},{"bike_id":"01114b84-803f-42e2-b0f2-2c85e989595a","system_id":"levelo_inurba_marseille","lat":43.30806,"lon":5.43524,"is_reserved":false,"is_disabled":false,"rental_uris":{"android":"levelo://app?vid=01114b84-803f-42e2-b0f2-2c85e989595a","ios":"levelo://app?vid=01114b84-803f-42e2-b0f2-2c85e989595a"},"vehicle_type_id":"4","last_reported":1732537176,"current_range_meters":38000,"station_id":"ce4bhph2rcd13ifvqheg","pricing_plan_id":"cebpf4jnsgd1na2vs0mg"},{"bike_id":"60427790-815a-4228-bddc-76c7e142b52c","system_id":"levelo_inurba_marseille","lat":43.24997,"lon":5.38939,"is_reserved":false,"is_disabled":false,"rental_uris":{"android":"levelo://app?vid=60427790-815a-4228-bddc-76c7e142b52c","ios":"levelo://app?vid=60427790-815a-4228-bddc-76c7e142b52c"},"vehicle_type_id":"4","last_reported":1732537176,"current_range_meters":38400,"station_id":"ce4bhgp2rcd13ifvqfd0","pricing_plan_id":"cebpf4jnsgd1na2vs0mg"},{"bike_id":"54c7aa9b-5e46-440e-9d13-ecd0afacc4b5","system_id":"levelo_inurba_marseille","lat":43.29804,"lon":5.38095,"is_reserved":false,"is_disabled":false,"rental_uris":{"android":"levelo://app?vid=54c7aa9b-5e46-440e-9d13-ecd0afacc4b5","ios":"levelo://app?vid=54c7aa9b-5e46-440e-9d13-ecd0afacc4b5"},"vehicle_type_id":"4","last_reported":1732537176,"current_range_meters":11200,"station_id":"ce4bgip2rcd13ifvqbb0","pricing_plan_id":"cebpf4jnsgd1na2vs0mg"},{"bike_id":"67c65a47-0c42-4999-aa49-2ce3737b761c","system_id":"levelo_inurba_marseille","lat":43.31244,"lon":5.36865,"is_reserved":false,"is_disabled":false,"rental_uris":{"android":"levelo://app?vid=67c65a47-0c42-4999-aa49-2ce3737b761c","ios":"levelo://app?vid=67c65a47-0c42-4999-aa49-2ce3737b761c"},"vehicle_type_id":"4","last_reported":1732537176,"current_range_meters":34800,"station_id":"ce4bgl92rcd13ifvqbq0","pricing_plan_id":"cebpf4jnsgd1na2vs0mg"},{"bike_id":"377685fb-15b2-43e5-aec5-f2233ca56f1c","system_id":"levelo_inurba_marseille","lat":43.23194,"lon":5.35551,"is_reserved":false,"is_disabled":false,"rental_uris":{"android":"levelo://app?vid=377685fb-15b2-43e5-aec5-f2233ca56f1c","ios":"levelo://app?vid=377685fb-15b2-43e5-aec5-f2233ca56f1c"},"vehicle_type_id":"4","last_reported":1732537176,"current_range_meters":31200,"station_id":"ce4bhu92rcd13ifvqi70","pricing_plan_id":"cebpf4jnsgd1na2vs0mg"},{"bike_id":"b7253de9-6ec1-4db5-9737-385abac9855c","system_id":"levelo_inurba_marseille","lat":43.26676,"lon":5.39526,"is_reserved":false,"is_disabled":true,"rental_uris":{"android":"levelo://app?vid=b7253de9-6ec1-4db5-9737-385abac9855c","ios":"levelo://app?vid=b7253de9-6ec1-4db5-9737-385abac9855c"},"vehicle_type_id":"4","last_reported":1732537176,"current_range_meters":0,"station_id":"","pricing_plan_id":"cebpf4jnsgd1na2vs0mg"},