{"last_updated":1691647746,"ttl":30,"version":"2.2","data":{"bikes":[{"bike_id":"7e2ce04e-7afb-4d33-915d-ebf961a67335","system_id":"levelo_inurba_marseille","lat":43.313391,"lon":5.36706,"is_reserved":false,"is_disabled":false,"rental_uris":{"android":"levelo://app?vid=7e2ce04e-7afb-4d33-915d-ebf961a67335","ios":"levelo://app?vid=7e2ce04e-7afb-4d33-915d-ebf961a67335"},"vehicle_type_id":"4","last_reported":1691647746,"current_range_meters":30000,"station_id":"ce4bgr92rcd13ifvqc6g","pricing_plan_id":"free"},{"bike_id":"23e5164c-c564-415b-bd46-3d6cb44b9d9d","system_id":"levelo_inurba_marseille","lat":43.31341,"lon":5.367098,"is_reserved":false,"is_disabled":false,"rental_uris":{"android":"levelo://app?vid=23e5164c-c564-415b-bd46-3d6cb44b9d9d","ios":"levelo://app?vid=23e5164c-c564-415b-bd46-3d6cb44b9d9d"},"vehicle_type_id":"4","last_reported":1691647746,"current_range_meters":31200,"station_id":"ce4bgr92rcd13ifvqc6g","pricing_plan_id":"free"},{"bike_id":"3dbff4f3-dafb-4f8b-866a-76574dae3269","system_id":"levelo_inurba_marseille","lat":43.31341,"lon":5.367098,"is_reserved":false,"is_disabled":false,"rental_uris":{"android":"levelo://app?vid=3dbff4f3-dafb-4f8b-866a-76574dae3269","ios":"levelo://app?vid=3dbff4f3-dafb-4f8b-866a-76574dae3269"},"vehicle_type_id":"4","last_reported":1691647746,"current_range_meters":17200,"station_id":"ce4bgr92rcd13ifvqc6g","pricing_plan_id":"free"},{"bike_id":"aae78cf0-8515-4733-a75e-7519f0552678","system_id":"levelo_inurba_marseille","lat":43.313391,"lon":5.36706,"is_reserved":false,"is_disabled":false,"rental_uris":{"android":"levelo://app?vid=aae78cf0-8515-4733-a75e-7519f0552678","ios":"levelo://app?vid=aae78cf0-8515-4733-a75e-7519f0552678"},"vehicle_type_id":"4","last_reported":1691647746,"current_range_meters":29200,"station_id":"ce4bgr92rcd13ifvqc6g","pricing_plan_id":"free"},{"bike_id":"844abb0f-0195-4948-9cdf-95861988fb5c","system_id":"levelo_inurba_marseille","lat":43.31341,"lon":5.367098,"is_reserved":false,"is_disabled":false,"rental_uris":{"android":"levelo://app?vid=844abb0f-0195-4948-9cdf-95861988fb5c","ios":"levelo://app?vid=844abb0f-0195-4948-9cdf-95861988fb5c"},"vehicle_type_id":"4","last_reported":1691647746,"current_range_meters":25200,"station_id":"ce4bgr92rcd13ifvqc6g","pricing_plan_id":"free"},{"bike_id":"95a7de92-2ef7-4cea-92e1-bc5f31e47188","system_id":"levelo_inurba_marseille","lat":43.313391,"lon":5.36706,"is_reserved":false,"is_disabled":false,"rental_uris":{"android":"levelo://app?vid=95a7de92-2ef7-4cea-92e1-bc5f31e47188","ios":"levelo://app?vid=95a7de92-2ef7-4cea-92e1-bc5f31e47188"},"vehicle_type_id":"4","last_reported":1691647746,"current_range_meters":28000,"station_id":"ce4bgr92rcd13ifvqc6g","pricing_plan_id":"free"},{"bike_id":"4a12e0b6-dd08-4c05-9a81-e87cf7c5574d","system_id":"levelo_inurba_marseille","lat":43.312239,"lon":5.368562,"is_reserved":false,"is_disabled":false,"rental_uris":{"android":"levelo://app?vid=4a12e0b6-dd08-4c05-9a81-e87cf7c5574d","ios":"levelo://app?vid=4a12e0b6-dd08-4c05-9a81-e87cf7c5574d"},"vehicle_type_id":"4","last_reported":1691647746,"current_range_meters":30000,"station_id":"ce4bgl92rcd13ifvqbq0","pricing_plan_id":"free"},{"bike_id":"d007897d-4787-4697-8cd2-aa47c88ef95d","system_id":"levelo_inurba_marseille","lat":43.312239,"lon":5.368562,"is_reserved":false,"is_disabled":false,"rental_uris":{"android":"levelo://app?vid=d007897d-4787-4697-8cd2-aa47c88ef95d","ios":"levelo://app?vid=d007897d-4787-4697-8cd2-aa47c88ef95d"},"vehicle_type_id":"4","last_reported":1691647746,"current_range_meters":18800,"station_id":"ce4bgl92rcd13ifvqbq0","pricing_plan_id":"free"},{"bike_id":"1880707e-53c1-44ec-92a9-3a77b5ec21f7","system_id":"levelo_inurba_marseille","lat":43.312239,"lon":5.368562,"is_reserved":false,"is_disabled":false,"rental_uris":{"android":"levelo://app?vid=1880707e-53c1-44ec-92a9-3a77b5ec21f7","ios":"levelo://app?vid=1880707e-53c1-44ec-92a9-3a77b5ec21f7"},"vehicle_type_id":"4","last_reported":1691647746,"current_range_meters":30400,"station_id":"ce4bgl92rcd13ifvqbq0","pricing_plan_id":"free"},{"bike_id":"901cf419-b48c-49c5-8259-92a7d6857c7d","system_id":"levelo_inurba_marseille","lat":43.31105,"lon":5.36764,"is_reserved":false,"is_disabled":false,"rental_uris":{"android":"levelo://app?vid=901cf419-b48c-49c5-8259-92a7d6857c7d","ios":"levelo://app?vid=901cf419-b48c-49c5-8259-92a7d6857c7d"},"vehicle_type_id":"4","last_reported":1691647746,"current_range_meters":800,"station_id":"","pricing_plan_id":"free"},{"bike_id":"336cae46-6b8b-4ff0-9929-5fd0ef39b30b","system_id":"levelo_inurba_marseille","lat":43.309076,"lon":5.368465,"is_reserved":false,"is_disabled":false,"rental_uris":{"android":"levelo://app?vid=336cae46-6b8b-4ff0-9929-5fd0ef39b30b","ios":"levelo://app?vid=336cae46-6b8b-4ff0-9929-5fd0ef39b30b"},"vehicle_type_id":"4","last_reported":1691647746,"current_range_meters":30800,"station_id":"ce4bgn92rcd13ifvqbvg","pricing_plan_id":"free"},{"bike_id":"7f3aa93d-93a3-456e-929b-86cc1471f578","system_id":"levelo_inurba_marseille","lat":43.309076,"lon":5.368465,"is_reserved":false,"is_disabled":false,"rental_uris":{"android":"levelo://app?vid=7f3aa93d-93a3-456e-929b-86cc1471f578","ios":"levelo://app?vid=7f3aa93d-93a3-456e-929b-86cc1471f578"},"vehicle_type_id":"4","last_reported":1691647746,"current_range_meters":22000,"station_id":"ce4bgn92rcd13ifvqbvg","pricing_plan_id":"free"},{"bike_id":"ef84c5d2-f19f-4138-944f-04d3a4dd0c9c","system_id":"levelo_inurba_marseille","lat":43.314811,"lon":5.373103,"is_reserved":false,"is_disabled":false,"rental_uris":{"android":"levelo://app?vid=ef84c5d2-f19f-4138-944f-04d3a4dd0c9c","ios":"levelo://app?vid=ef84c5d2-f19f-4138-944f-04d3a4dd0c9c"},"vehicle_type_id":"4","last_reported":1691647746,"current_range_meters":28000,"station_id":"ce4bgt12rcd13ifvqcd0","pricing_plan_id":"free"},{"bike_id":"dde6414a-62b3-4c42-a15e-fa524c4e1d8b","system_id":"levelo_inurba_marseille","lat":43.314811,"lon":5.373104,"is_reserved":false,"is_disabled":false,"rental_uris":{"android":"levelo://app?vid=dde6414a-62b3-4c42-a15e-fa524c4e1d8b","ios":"levelo://app?vid=dde6414a-62b3-4c42-a15e-fa524c4e1d8b"},"vehicle_type_id":"4","last_reported":1691647746,"current_range_meters":31200,"station_id":"ce4bgt12rcd13ifvqcd0","pricing_plan_id":"free"},{"bike_id":"82708223-a109-4a81-8872-0a922546ca3f","system_id":"levelo_inurba_marseille","lat":43.314811,"lon":5.373103,"is_reserved":false,"is_disabled":false,"rental_uris":{"android":"levelo://app?vid=82708223-a109-4a81-8872-0a922546ca3f","ios":"levelo://app?vid=82708223-a109-4a81-8872-0a922546ca3f"},"vehicle_type_id":"4","last_reported":1691647746,"current_range_meters":30400,"station_id":"ce4bgt12rcd13ifvqcd0","pricing_plan_id":"free"},{"bike_id":"4da51374-3f72-439b-8d67-6919e9e746f6","system_id":"levelo_inurba_marseille","lat":43.314811,"lon":5.373103,"is_reserved":false,"is_disabled":false,"rental_uris":{"android":"levelo://app?vid=4da51374-3f72-439b-8d67-6919e9e746f6","ios":"levelo://app?vid=4da51374-3f72-439b-8d67-6919e9e746f6"},"vehicle_type_id":"4","last_reported":1691647746,"current_range_meters":29600,"station_id":"ce4bgt12rcd13ifvqcd0","pricing_plan_id":"free"},{"bike_id":"6921a279-6f1f-441e-ae0b-671177e814f3","system_id":"levelo_inurba_marseille","lat":43.309039,"lon":5.371797,"is_reserved":false,"is_disabled":false,"rental_uris":{"android":"levelo://app?vid=6921a279-6f1f-441e-ae0b-671177e814f3","ios":"levelo://app?vid=6921a279-6f1f-441e-ae0b-671177e814f3"},"vehicle_type_id":"4","last_reported":1691647746,"current_range_meters":0,"station_id":"ce4bguh2rcd13ifvqckg","pricing_plan_id":"free"},{"bike_id":"b2439a2a-4bc2-42f8-8726-1e45425a8dbb","system_id":"levelo_inurba_marseille","lat":43.305712,"lon":5.365641,"is_reserved":false,"is_disabled":false,"rental_uris":{"android":"levelo://app?vid=b2439a2a-4bc2-42f8-8726-1e45425a8dbb","ios":"levelo://app?vid=b2439a2a-4bc2-42f8-8726-1e45425a8dbb"},"vehicle_type_id":"4","last_reported":1691647746,"current_range_meters":28800,"station_id":"ce4bgs12rcd13ifvqcag","pricing_plan_id":"free"},{"bike_id":"01888f00-91a0-4149-90ab-4c03d41179b8","system_id":"levelo_inurba_marseille","lat":43.30533,"lon":5.36725,"is_reserved":false,"is_disabled":false,"rental_uris":{"android":"levelo://app?vid=01888f00-91a0-4149-90ab-4c03d41179b8","ios":"levelo://app?vid=01888f00-91a0-4149-90ab-4c03d41179b8"},"vehicle_type_id":"4","last_reported":1691647746,"current_range_meters":16000,"station_id":"ce4bgrp2rcd13ifvqc9g","pricing_plan_id":"free"},{"bike_id":"65f07690-98f4-4b03-9e3b-8c4240d1b0bb","system_id":"levelo_inurba_marseille","lat":43.305714,"lon":5.365633,"is_reserved":false,"is_disabled":false,"rental_uris":{"android":"levelo://app?vid=65f07690-98f4-4b03-9e3b-8c4240d1b0bb","ios":"levelo://app?vid=65f07690-98f4-4b03-9e3b-8c4240d1b0bb"},"vehicle_type_id":"4","last_reported":1691647746,"current_range_meters":25200,"station_id":"ce4bgs12rcd13ifvqcag","pricing_plan_id":"free"},{"bike_id":"23ec7dca-e606-43a0-9965-c1f52635ec9c","system_id":"levelo_inurba_marseille","lat":43.305706,"lon":5.365654,"is_reserved":false,"is_disabled":false,"rental_uris":{"android":"levelo://app?vid=23ec7dca-e606-43a0-9965-c1f52635ec9c","ios":"levelo://app?vid=23ec7dca-e606-43a0-9965-c1f52635ec9c"},"vehicle_type_id":"4","last_reported":1691647746,"current_range_meters":31200,"station_id":"ce4bgs12rcd13ifvqcag","pricing_plan_id":"free"},{"bike_id":"3bb4d6ef-743e-4ca6-a2f4-6f1bbd211f9c","system_id":"levelo_inurba_marseille","lat":43.305706,"lon":5.365654,"is_reserved":false,"is_disabled":false,"rental_uris":{"android":"levelo://app?vid=3bb4d6ef-743e-4ca6-a2f4-6f1bbd211f9c","ios":"levelo://app?vid=3bb4d6ef-743e-4ca6-a2f4-6f1bbd211f9c"},"vehicle_type_id":"4","last_reported":1691647746,"current_range_meters":13200,"station_id":"ce4bgs12rcd13ifvqcag","pricing_plan_id":"free"},{"bike_id":"6b7474cf-dd23-4ecf-972a-deb01acad978","system_id":"levelo_inurba_marseille","lat":43.31882,"lon":5.373,"is_reserved":false,"is_disabled":false,"rental_uris":{"android":"levelo://app?vid=6b7474cf-dd23-4ecf-972a-deb01acad978","ios":"levelo://app?vid=6b7474cf-dd23-4ecf-972a-deb01acad978"},"vehicle_type_id":"4","last_reported":1691647746,"current_range_meters":16000,"station_id":"","pricing_plan_id":"free"},{"bike_id":"8f70845f-0cc2-4b10-b256-9a34d2a6e6c9","system_id":"levelo_inurba_marseille","lat":43.30518,"lon":5.36702,"is_reserved":false,"is_disabled":false,"rental_uris":{"android":"levelo://app?vid=8f70845f-0cc2-4b10-b256-9a34d2a6e6c9","ios":"levelo://app?vid=8f70845f-0cc2-4b10-b256-9a34d2a6e6c9"},"vehicle_type_id":"4","last_reported":1691647746,"current_range_meters":26400,"station_id":"ce4bgrp2rcd13ifvqc9g","pricing_plan_id":"free"},{"bike_id":"88a09525-95cd-400f-b95e-cb1ba1529d5f","system_id":"levelo_inurba_marseille","lat":43.30517,"lon":5.36703,"is_reserved":false,"is_disabled":false,"rental_uris":{"android":"levelo://app?vid=88a09525-95cd-400f-b95e-cb1ba1529d5f","ios":"levelo://app?vid=88a09525-95cd-400f-b95e-cb1ba1529d5f"},"vehicle_type_id":"4","last_reported":1691647746,"current_range_meters":8800,"station_id":"ce4bgrp2rcd13ifvqc9g","pricing_plan_id":"free"},{"bike_id":"5c8e4d12-76ee-4882-a22c-30e63e6d552a","system_id":"levelo_inurba_marseille","lat":43.311131,"lon":5.377651,"is_reserved":false,"is_disabled":false,"rental_uris":{"android":"levelo://app?vid=5c8e4d12-76ee-4882-a22c-30e63e6d552a","ios":"levelo://app?vid=5c8e4d12-76ee-4882-a22c-30e63e6d552a"},"vehicle_type_id":"4","last_reported":1691647746,"current_range_meters":23600,"station_id":"ce4bgt92rcd13ifvqcg0","pricing_plan_id":"free"},{"bike_id":"30216cdf-55cd-4de8-8d34-d3f603b0e0f1","system_id":"levelo_inurba_marseille","lat":43.311125,"lon":5.377624,"is_reserved":false,"is_disabled":false,"rental_uris":{"android":"levelo://app?vid=30216cdf-55cd-4de8-8d34-d3f603b0e0f1","ios":"levelo://app?vid=30216cdf-55cd-4de8-8d34-d3f603b0e0f1"},"vehicle_type_id":"4","last_reported":1691647746,"current_range_meters":31200,"station_id":"ce4bgt92rcd13ifvqcg0","pricing_plan_id":"free"},{"bike_id":"27b4a0ee-a7ed-48b3-8ea0-c3885dfbb1c8","system_id":"levelo_inurba_marseille","lat":43.311125,"lon":5.377624,"is_reserved":false,"is_disabled":false,"rental_uris":{"android":"levelo://app?vid=27b4a0ee-a7ed-48b3-8ea0-c3885dfbb1c8","ios":"levelo://app?vid=27b4a0ee-a7ed-48b3-8ea0-c3885dfbb1c8"},"vehicle_type_id":"4","last_reported":1691647746,"current_range_meters":9200,"station_id":"ce4bgt92rcd13ifvqcg0","pricing_plan_id":"free"},{"bike_id":"b3692515-e357-40f2-a58f-fdeb4044c5c2","system_id":"levelo_inurba_marseille","lat":43.311125,"lon":5.377624,"is_reserved":false,"is_disabled":false,"rental_uris":{"android":"levelo://app?vid=b3692515-e357-40f2-a58f-fdeb4044c5c2","ios":"levelo://app?vid=b3692515-e357-40f2-a58f-fdeb4044c5c2"},"vehicle_type_id":"4","last_reported":1691647746,"current_range_meters":23200,"station_id":"ce4bgt92rcd13ifvqcg0","pricing_plan_id":"free"},{"bike_id":"5614afc3-2344-4cf3-8142-bc2071257d7b","system_id":"levelo_inurba_marseille","lat":43.30779,"lon":5.37665,"is_reserved":false,"is_disabled":false,"rental_uris":{"android":"levelo://app?vid=5614afc3-2344-4cf3-8142-bc2071257d7b","ios":"levelo://app?vid=5614afc3-2344-4cf3-8142-bc2071257d7b"},"vehicle_type_id":"4","last_reported":1691647746,"current_range_meters":12000,"station_id":"ce4bgv92rcd13ifvqcq0","pricing_plan_id":"free"},{"bike_id":"4577e4e1-3be8-4fda-806c-2508181485e3","system_id":"levelo_inurba_marseille","lat":43.317075,"lon":5.377367,"is_reserved":false,"is_disabled":false,"rental_uris":{"android":"levelo://app?vid=4577e4e1-3be8-4fda-806c-2508181485e3","ios":"levelo://app?vid=4577e4e1-3be8-4fda-806c-2508181485e3"},"vehicle_type_id":"4","last_reported":1691647746,"current_range_meters":30400,"station_id":"ce4bgth2rcd13ifvqch0","pricing_plan_id":"free"},{"bike_id":"6af14756-a054-458b-9e87-1b383acf57a6","system_id":"levelo_inurba_marseille","lat":43.317075,"lon":5.377367,"is_reserved":false,"is_disabled":false,"rental_uris":{"android":"levelo://app?vid=6af14756-a054-458b-9e87-1b383acf57a6","ios":"levelo://app?vid=6af14756-a054-458b-9e87-1b383acf57a6"},"vehicle_type_id":"4","last_reported":1691647746,"current_range_meters":30400,"station_id":"ce4bgth2rcd13ifvqch0","pricing_plan_id":"free"},{"bike_id":"20b5ce43-c7f1-4b3b-b3b7-a6912248472f","system_id":"levelo_inurba_marseille","lat":43.317075,"lon":5.377367,"is_reserved":false,"is_disabled":false,"rental_uris":{"android":"levelo://app?vid=20b5ce43-c7f1-4b3b-b3b7-a6912248472f","ios":"levelo://app?vid=20b5ce43-c7f1-4b3b-b3b7-a6912248472f"},"vehicle_type_id":"4","last_reported":1691647746,"current_range_meters":31200,"station_id":"ce4bgth2rcd13ifvqch0","pricing_plan_id":"free"},{"bike_id":"65affa8a-9878-4fb2-aeeb-5e00e608d8f2","system_id":"levelo_inurba_marseille","lat":43.317075,"lon":5.377367,"is_reserved":false,"is_disabled":false,"rental_uris":{"android":"levelo://app?vid=65affa8a-9878-4fb2-aeeb-5e00e608d8f2","ios":"levelo://app?vid=65affa8a-9878-4fb2-aeeb-5e00e608d8f2"},"vehicle_type_id":"4","last_reported":1691647746,"current_range_meters":31200,"station_id":"ce4bgth2rcd13ifvqch0","pricing_plan_id":"free"},{"bike_id":"dbadef06-daaa-4454-a704-981a09e77f2d","system_id":"levelo_inurba_marseille","lat":43.317075,"lon":5.377367,"is_reserved":false,"is_disabled":false,"rental_uris":{"android":"levelo://app?vid=dbadef06-daaa-4454-a704-981a09e77f2d","ios":"levelo://app?vid=dbadef06-daaa-4454-a704-981a09e77f2d"},"vehicle_type_id":"4","last_reported":1691647746,"current_range_meters":31200,"station_id":"ce4bgth2rcd13ifvqch0","pricing_plan_id":"free"},{"bike_id":"370abbac-34e2-4a24-aa1f-5c7a3ffd275e","system_id":"levelo_inurba_marseille","lat":43.31537,"lon":5.38015,"is_reserved":false,"is_disabled":false,"rental_uris":{"android":"levelo://app?vid=370abbac-34e2-4a24-aa1f-5c7a3ffd275e","ios":"levelo://app?vid=370abbac-34e2-4a24-aa1f-5c7a3ffd275e"},"vehicle_type_id":"4","last_reported":1691647746,"current_range_meters":3200,"station_id":"ce4bhsp2rcd13ifvqi50","pricing_plan_id":"free"},{"bike_id":"b64e79e4-ebf7-4d2e-bf44-4793f3d42aa7","system_id":"levelo_inurba_marseille","lat":43.315293,"lon":5.380349,"is_reserved":false,"is_disabled":false,"rental_uris":{"android":"levelo://app?vid=b64e79e4-ebf7-4d2e-bf44-4793f3d42aa7","ios":"levelo://app?vid=b64e79e4-ebf7-4d2e-bf44-4793f3d42aa7"},"vehicle_type_id":"4","last_reported":1691647746,"current_range_meters":18800,"station_id":"ce4bhsp2rcd13ifvqi50","pricing_plan_id":"free"},{"bike_id":"771193b4-30f7-468d-9e5a-a1f52ffd145d","system_id":"levelo_inurba_marseille","lat":43.31533,"lon":5.38025,"is_reserved":false,"is_disabled":false,"rental_uris":{"android":"levelo://app?vid=771193b4-30f7-468d-9e5a-a1f52ffd145d","ios":"levelo://app?vid=771193b4-30f7-468d-9e5a-a1f52ffd145d"},"vehicle_type_id":"4","last_reported":1691647746,"current_range_meters":18000,"station_id":"ce4bhsp2rcd13ifvqi50","pricing_plan_id":"free"},{"bike_id":"95cc0804-bed7-455f-b0f9-bd943ee43f12","system_id":"levelo_inurba_marseille","lat":43.31527,"lon":5.38028,"is_reserved":false,"is_disabled":false,"rental_uris":{"android":"levelo://app?vid=95cc0804-bed7-455f-b0f9-bd943ee43f12","ios":"levelo://app?vid=95cc0804-bed7-455f-b0f9-bd943ee43f12"},"vehicle_type_id":"4","last_reported":1691647746,"current_range_meters":9200,"station_id":"ce4bhsp2rcd13ifvqi50","pricing_plan_id":"free"},{"bike_id":"388fd06e-4b25-4beb-ab61-1247c7750e63","system_id":"levelo_inurba_marseille","lat":43.315293,"lon":5.380349,"is_reserved":false,"is_disabled":false,"rental_uris":{"android":"levelo://app?vid=388fd06e-4b25-4beb-ab61-1247c7750e63","ios":"levelo://app?vid=388fd06e-4b25-4beb-ab61-1247c7750e63"},"vehicle_type_id":"4","last_reported":1691647746,"current_range_meters":8800,"station_id":"ce4bhsp2rcd13ifvqi50","pricing_plan_id":"free"},{"bike_id":"d451f739-1095-4b2e-9f59-c23e378536c5","system_id":"levelo_inurba_marseille","lat":43.31533,"lon":5.38027,"is_reserved":false,"is_disabled":false,"rental_uris":{"android":"levelo://app?vid=d451f739-1095-4b2e-9f59-c23e378536c5","ios":"levelo://app?vid=d451f739-1095-4b2e-9f59-c23e378536c5"},"vehicle_type_id":"4","last_reported":1691647746,"current_range_meters":6800,"station_id":"ce4bhsp2rcd13ifvqi50","pricing_plan_id":"free"},{"bike_id":"da430621-b577-46bb-bbff-4aea0febfcce","system_id":"levelo_inurba_marseille","lat":43.30806,"lon":5.38148,"is_reserved":false,"is_disabled":false,"rental_uris":{"android":"levelo://app?vid=da430621-b577-46bb-bbff-4aea0febfcce","ios":"levelo://app?vid=da430621-b577-46bb-bbff-4aea0febfcce"},"vehicle_type_id":"4","last_reported":1691647746,"current_range_meters":22000,"station_id":"ce4bgt12rcd13ifvqce0","pricing_plan_id":"free"},{"bike_id":"b7be1477-7fa4-492d-9432-5ac71f2fb920","system_id":"levelo_inurba_marseille","lat":43.308012,"lon":5.381511,"is_reserved":false,"is_disabled":false,"rental_uris":{"android":"levelo://app?vid=b7be1477-7fa4-492d-9432-5ac71f2fb920","ios":"levelo://app?vid=b7be1477-7fa4-492d-9432-5ac71f2fb920"},"vehicle_type_id":"4","last_reported":1691647746,"current_range_meters":31200,"station_id":"ce4bgt12rcd13ifvqce0","pricing_plan_id":"free"},{"bike_id":"b430f3fb-08db-4332-868f-b408d3738077","system_id":"levelo_inurba_marseille","lat":43.30798,"lon":5.38153,"is_reserved":false,"is_disabled":false,"rental_uris":{"android":"levelo://app?vid=b430f3fb-08db-4332-868f-b408d3738077","ios":"levelo://app?vid=b430f3fb-08db-4332-868f-b408d3738077"},"vehicle_type_id":"4","last_reported":1691647746,"current_range_meters":30800,"station_id":"ce4bgt12rcd13ifvqce0","pricing_plan_id":"free"},{"bike_id":"fef1aa4b-ac62-48ed-b15f-98618a24c3f3","system_id":"levelo_inurba_marseille","lat":43.304606,"lon":5.379026,"is_reserved":false,"is_disabled":false,"rental_uris":{"android":"levelo://app?vid=fef1aa4b-ac62-48ed-b15f-98618a24c3f3","ios":"levelo://app?vid=fef1aa4b-ac62-48ed-b15f-98618a24c3f3"},"vehicle_type_id":"4","last_reported":1691647746,"current_range_meters":25600,"station_id":"ce4bgup2rcd13ifvqcn0","pricing_plan_id":"free"},{"bike_id":"44ff5d64-470c-4244-b378-d026439428b7","system_id":"levelo_inurba_marseille","lat":43.304606,"lon":5.379026,"is_reserved":false,"is_disabled":false,"rental_uris":{"android":"levelo://app?vid=44ff5d64-470c-4244-b378-d026439428b7","ios":"levelo://app?vid=44ff5d64-470c-4244-b378-d026439428b7"},"vehicle_type_id":"4","last_reported":1691647746,"current_range_meters":8400,"station_id":"ce4bgup2rcd13ifvqcn0","pricing_plan_id":"free"},{"bike_id":"e58b96fd-ce90-46c8-9df7-b9bc1156dc50","system_id":"levelo_inurba_marseille","lat":43.304606,"lon":5.379026,"is_reserved":false,"is_disabled":false,"rental_uris":{"android":"levelo://app?vid=e58b96fd-ce90-46c8-9df7-b9bc1156dc50","ios":"levelo://app?vid=e58b96fd-ce90-46c8-9df7-b9bc1156dc50"},"vehicle_type_id":"4","last_reported":1691647746,"current_range_meters":26000,"station_id":"ce4bgup2rcd13ifvqcn0","pricing_plan_id":"free"},{"bike_id":"ac7de726-f9ac-4374-96bb-a57347ba8f41","system_id":"levelo_inurba_marseille","lat":43.304606,"lon":5.379026,"is_reserved":false,"is_disabled":false,"rental_uris":{"android":"levelo://app?vid=ac7de726-f9ac-4374-96bb-a57347ba8f41","ios":"levelo://app?vid=ac7de726-f9ac-4374-96bb-a57347ba8f41"},"vehicle_type_id":"4","last_reported":1691647746,"current_range_meters":8000,"station_id":"ce4bgup2rcd13ifvqcn0","pricing_plan_id":"free"},{"bike_id":"0f917fdb-42c7-430e-82d8-fae969d4445c","system_id":"levelo_inurba_marseille","lat":43.304606,"lon":5.379026,"is_reserved":false,"is_disabled":false,"rental_uris":{"android":"levelo://app?vid=0f917fdb-42c7-430e-82d8-fae969d4445c","ios":"levelo://app?vid=0f917fdb-42c7-430e-82d8-fae969d4445c"},"vehicle_type_id":"4","last_reported":1691647746,"current_range_meters":28000,"station_id":"ce4bgup2rcd13ifvqcn0","pricing_plan_id":"free"},{"bike_id":"446f86c0-f251-418a-8ab4-cc24e1e669eb","system_id":"levelo_inurba_marseille","lat":43.304606,"lon":5.379026,"is_reserved":false,"is_disabled":false,"rental_uris":{"android":"levelo://app?vid=446f86c0-f251-418a-8ab4-cc24e1e669eb","ios":"levelo://app?vid=446f86c0-f251-418a-8ab4-cc24e1e669eb"},"vehicle_type_id":"4","last_reported":1691647746,"current_range_meters":14000,"station_id":"ce4bgup2rcd13ifvqcn0","pricing_plan_id":"free"},{"bike_id":"36330250-3fc6-456e-a74d-b97ec14dc784","system_id":"levelo_inurba_marseille","lat":43.304606,"lon":5.379026,"is_reserved":false,"is_disabled":false,"rental_uris":{"android":"levelo://app?vid=36330250-3fc6-456e-a74d-b97ec14dc784","ios":"levelo://app?vid=36330250-3fc6-456e-a74d-b97ec14dc784"},"vehicle_type_id":"4","last_reported":1691647746,"current_range_meters":13600,"station_id":"ce4bgup2rcd13ifvqcn0","pricing_plan_id":"free"},{"bike_id":"ba90796a-dd3b-4002-96c6-7cd534a0aef1","system_id":"levelo_inurba_marseille","lat":43.304606,"lon":5.379026,"is_reserved":false,"is_disabled":false,"rental_uris":{"android":"levelo://app?vid=ba90796a-dd3b-4002-96c6-7cd534a0aef1","ios":"levelo://app?vid=ba90796a-dd3b-4002-96c6-7cd534a0aef1"},"vehicle_type_id":"4","last_reported":1691647746,"current_range_meters":28000,"station_id":"ce4bgup2rcd13ifvqcn0","pricing_plan_id":"free"},{"bike_id":"c3c47af1-e006-42a5-bfbd-8368b32cbd24","system_id":"levelo_inurba_marseille","lat":43.304606,"lon":5.379026,"is_reserved":false,"is_disabled":false,"rental_uris":{"android":"levelo://app?vid=c3c47af1-e006-42a5-bfbd-8368b32cbd24","ios":"levelo://app?vid=c3c47af1-e006-42a5-bfbd-8368b32cbd24"},"vehicle_type_id":"4","last_reported":1691647746,"current_range_meters":26400,"station_id":"ce4bgup2rcd13ifvqcn0","pricing_plan_id":"free"},{"bike_id":"5ee21f43-de17-4bd5-8352-aa7758b3a6b9","system_id":"levelo_inurba_marseille","lat":43.304606,"lon":5.379026,"is_reserved":false,"is_disabled":false,"rental_uris":{"android":"levelo://app?vid=5ee21f43-de17-4bd5-8352-aa7758b3a6b9","ios":"levelo://app?vid=5ee21f43-de17-4bd5-8352-aa7758b3a6b9"},"vehicle_type_id":"4","last_reported":1691647746,"current_range_meters":12000,"station_id":"ce4bgup2rcd13ifvqcn0","pricing_plan_id":"free"},{"bike_id":"e640e967-4e96-4b1c-b70e-276ac1cd5aa1","system_id":"levelo_inurba_marseille","lat":43.304606,"lon":5.379026,"is_reserved":false,"is_disabled":false,"rental_uris":{"android":"levelo://app?vid=e640e967-4e96-4b1c-b70e-276ac1cd5aa1","ios":"levelo://app?vid=e640e967-4e96-4b1c-b70e-276ac1cd5aa1"},"vehicle_type_id":"4","last_reported":1691647746,"current_range_meters":24800,"station_id":"ce4bgup2rcd13ifvqcn0","pricing_plan_id":"free"},{"bike_id":"3014008b-fc40-4953-94ac-558636fce719","system_id":"levelo_inurba_marseille","lat":43.304606,"lon":5.379026,"is_reserved":false,"is_disabled":false,"rental_uris":{"android":"levelo://app?vid=3014008b-fc40-4953-94ac-558636fce719","ios":"levelo://app?vid=3014008b-fc40-4953-94ac-558636fce719"},"vehicle_type_id":"4","last_reported":1691647746,"current_range_meters":4400,"station_id":"ce4bgup2rcd13ifvqcn0","pricing_plan_id":"free"},{"bike_id":"2ac64697-7de0-4d42-af9a-9082d1161391","system_id":"levelo_inurba_marseille","lat":43.304606,"lon":5.379026,"is_reserved":false,"is_disabled":false,"rental_uris":{"android":"levelo://app?vid=2ac64697-7de0-4d42-af9a-9082d1161391","ios":"levelo://app?vid=2ac64697-7de0-4d42-af9a-9082d1161391"},"vehicle_type_id":"4","last_reported":1691647746,"current_range_meters":26400,"station_id":"ce4bgup2rcd13ifvqcn0","pricing_plan_id":"free"},{"bike_id":"e8713f62-5110-4843-b163-89ccd4535418","system_id":"levelo_inurba_marseille","lat":43.304606,"lon":5.379026,"is_reserved":false,"is_disabled":false,"rental_uris":{"android":"levelo://app?vid=e8713f62-5110-4843-b163-89ccd4535418","ios":"levelo://app?vid=e8713f62-5110-4843-b163-89ccd4535418"},"vehicle_type_id":"4","last_reported":1691647746,"current_range_meters":15200,"station_id":"ce4bgup2rcd13ifvqcn0","pricing_plan_id":"free"},{"bike_id":"cdcd0527-8af6-4c86-9e70-17df1bcea732","system_id":"levelo_inurba_marseille","lat":43.304606,"lon":5.379026,"is_reserved":false,"is_disabled":false,"rental_uris":{"android":"levelo://app?vid=cdcd0527-8af6-4c86-9e70-17df1bcea732","ios":"levelo://app?vid=cdcd0527-8af6-4c86-9e70-17df1bcea732"},"vehicle_type_id":"4","last_reported":1691647746,"current_range_meters":23600,"station_id":"ce4bgup2rcd13ifvqcn0","pricing_plan_id":"free"},{"bike_id":"50a69179-cca2-4da8-8624-7bfc8ae53e23","system_id":"levelo_inurba_marseille","lat":43.304606,"lon":5.379026,"is_reserved":false,"is_disabled":false,"rental_uris":{"android":"levelo://app?vid=50a69179-cca2-4da8-8624-7bfc8ae53e23","ios":"levelo://app?vid=50a69179-cca2-4da8-8624-7bfc8ae53e23"},"vehicle_type_id":"4","last_reported":1691647746,"current_range_meters":29600,"station_id":"ce4bgup2rcd13ifvqcn0","pricing_plan_id":"free"},{"bike_id":"07339627-2817-48b9-81c5-c57a2b6ed022","system_id":"levelo_inurba_marseille","lat":43.304606,"lon":5.379026,"is_reserved":false,"is_disabled":false,"rental_uris":{"android":"levelo://app?vid=07339627-2817-48b9-81c5-c57a2b6ed022","ios":"levelo://app?vid=07339627-2817-48b9-81c5-c57a2b6ed022"},"vehicle_type_id":"4","last_reported":1691647746,"current_range_meters":0,"station_id":"ce4bgup2rcd13ifvqcn0","pricing_plan_id":"free"},{"bike_id":"3b9e2189-217e-444a-9b46-c0e7d2111bd2","system_id":"levelo_inurba_marseille","lat":43.31993,"lon":5.38142,"is_reserved":false,"is_disabled":false,"rental_uris":{"android":"levelo://app?vid=3b9e2189-217e-444a-9b46-c0e7d2111bd2","ios":"levelo://app?vid=3b9e2189-217e-444a-9b46-c0e7d2111bd2"},"vehicle_type_id":"4","last_reported":1691647746,"current_range_meters":16800,"station_id":"ce4bhr12rcd13ifvqhpg","pricing_plan_id":"free"},{"bike_id":"4a20a5f6-388a-43f1-81ce-3a12d611be86","system_id":"levelo_inurba_marseille","lat":43.319935,"lon":5.381699,"is_reserved":false,"is_disabled":false,"rental_uris":{"android":"levelo://app?vid=4a20a5f6-388a-43f1-81ce-3a12d611be86","ios":"levelo://app?vid=4a20a5f6-388a-43f1-81ce-3a12d611be86"},"vehicle_type_id":"4","last_reported":1691647746,"current_range_meters":30400,"station_id":"ce4bhr12rcd13ifvqhpg","pricing_plan_id":"free"},{"bike_id":"34d34957-3a05-48d3-a56a-489b167561fb","system_id":"levelo_inurba_marseille","lat":43.319935,"lon":5.381699,"is_reserved":false,"is_disabled":false,"rental_uris":{"android":"levelo://app?vid=34d34957-3a05-48d3-a56a-489b167561fb","ios":"levelo://app?vid=34d34957-3a05-48d3-a56a-489b167561fb"},"vehicle_type_id":"4","last_reported":1691647746,"current_range_meters":29600,"station_id":"ce4bhr12rcd13ifvqhpg","pricing_plan_id":"free"},{"bike_id":"7b419518-ea7f-4da5-b99a-931cff3ce7fb","system_id":"levelo_inurba_marseille","lat":43.319935,"lon":5.381699,"is_reserved":false,"is_disabled":false,"rental_uris":{"android":"levelo://app?vid=7b419518-ea7f-4da5-b99a-931cff3ce7fb","ios":"levelo://app?vid=7b419518-ea7f-4da5-b99a-931cff3ce7fb"},"vehicle_type_id":"4","last_reported":1691647746,"current_range_meters":29600,"station_id":"ce4bhr12rcd13ifvqhpg","pricing_plan_id":"free"},{"bike_id":"e9251178-4e44-4544-a15d-0d6d23fccc8a","system_id":"levelo_inurba_marseille","lat":43.319935,"lon":5.381699,"is_reserved":false,"is_disabled":false,"rental_uris":{"android":"levelo://app?vid=e9251178-4e44-4544-a15d-0d6d23fccc8a","ios":"levelo://app?vid=e9251178-4e44-4544-a15d-0d6d23fccc8a"},"vehicle_type_id":"4","last_reported":1691647746,"current_range_meters":26400,"station_id":"ce4bhr12rcd13ifvqhpg","pricing_plan_id":"free"},{"bike_id":"bf512cc6-afbc-4489-bf1e-6896e516a5ea","system_id":"levelo_inurba_marseille","lat":43.313571,"lon":5.384829,"is_reserved":false,"is_disabled":false,"rental_uris":{"android":"levelo://app?vid=bf512cc6-afbc-4489-bf1e-6896e516a5ea","ios":"levelo://app?vid=bf512cc6-afbc-4489-bf1e-6896e516a5ea"},"vehicle_type_id":"4","last_reported":1691647746,"current_range_meters":27600,"station_id":"ce4bgt92rcd13ifvqcf0","pricing_plan_id":"free"},{"bike_id":"3e757d7a-266e-4fe2-a9f4-151797caa0a1","system_id":"levelo_inurba_marseille","lat":43.31366,"lon":5.38488,"is_reserved":false,"is_disabled":false,"rental_uris":{"android":"levelo://app?vid=3e757d7a-266e-4fe2-a9f4-151797caa0a1","ios":"levelo://app?vid=3e757d7a-266e-4fe2-a9f4-151797caa0a1"},"vehicle_type_id":"4","last_reported":1691647746,"current_range_meters":31200,"station_id":"","pricing_plan_id":"free"},{"bike_id":"1835d30b-04e8-4d82-84b5-13185bb77fba","system_id":"levelo_inurba_marseille","lat":43.313571,"lon":5.384829,"is_reserved":false,"is_disabled":false,"rental_uris":{"android":"levelo://app?vid=1835d30b-04e8-4d82-84b5-13185bb77fba","ios":"levelo://app?vid=1835d30b-04e8-4d82-84b5-13185bb77fba"},"vehicle_type_id":"4","last_reported":1691647746,"current_range_meters":19200,"station_id":"ce4bgt92rcd13ifvqcf0","pricing_plan_id":"free"},{"bike_id":"630e1aa0-a397-46df-b865-cddd2e1532e2","system_id":"levelo_inurba_marseille","lat":43.305364,"lon":5.384119,"is_reserved":false,"is_disabled":false,"rental_uris":{"android":"levelo://app?vid=630e1aa0-a397-46df-b865-cddd2e1532e2","ios":"levelo://app?vid=630e1aa0-a397-46df-b865-cddd2e1532e2"},"vehicle_type_id":"4","last_reported":1691647746,"current_range_meters":21600,"station_id":"ce4bgg92rcd13ifvqb30","pricing_plan_id":"free"},{"bike_id":"b69ccbe3-966a-4e79-88ce-d00e02ad589e","system_id":"levelo_inurba_marseille","lat":43.298433,"lon":5.362774,"is_reserved":false,"is_disabled":false,"rental_uris":{"android":"levelo://app?vid=b69ccbe3-966a-4e79-88ce-d00e02ad589e","ios":"levelo://app?vid=b69ccbe3-966a-4e79-88ce-d00e02ad589e"},"vehicle_type_id":"4","last_reported":1691647746,"current_range_meters":27600,"station_id":"ce4bgpp2rcd13ifvqc3g","pricing_plan_id":"free"},{"bike_id":"b8c9a25e-2f7c-4c9a-95aa-bf9336c12443","system_id":"levelo_inurba_marseille","lat":43.298433,"lon":5.362774,"is_reserved":false,"is_disabled":false,"rental_uris":{"android":"levelo://app?vid=b8c9a25e-2f7c-4c9a-95aa-bf9336c12443","ios":"levelo://app?vid=b8c9a25e-2f7c-4c9a-95aa-bf9336c12443"},"vehicle_type_id":"4","last_reported":1691647746,"current_range_meters":31200,"station_id":"ce4bgpp2rcd13ifvqc3g","pricing_plan_id":"free"},{"bike_id":"ef4ea2f2-5e2b-488d-a761-3bd0eb6966b1","system_id":"levelo_inurba_marseille","lat":43.30533,"lon":5.38421,"is_reserved":false,"is_disabled":false,"rental_uris":{"android":"levelo://app?vid=ef4ea2f2-5e2b-488d-a761-3bd0eb6966b1","ios":"levelo://app?vid=ef4ea2f2-5e2b-488d-a761-3bd0eb6966b1"},"vehicle_type_id":"4","last_reported":1691647746,"current_range_meters":30000,"station_id":"ce4bgg92rcd13ifvqb30","pricing_plan_id":"free"},{"bike_id":"bfa0871d-a4e2-4038-af53-2d15a9ca3160","system_id":"levelo_inurba_marseille","lat":43.305364,"lon":5.384119,"is_reserved":false,"is_disabled":false,"rental_uris":{"android":"levelo://app?vid=bfa0871d-a4e2-4038-af53-2d15a9ca3160","ios":"levelo://app?vid=bfa0871d-a4e2-4038-af53-2d15a9ca3160"},"vehicle_type_id":"4","last_reported":1691647746,"current_range_meters":7200,"station_id":"ce4bgg92rcd13ifvqb30","pricing_plan_id":"free"},{"bike_id":"2f0f237b-4ca2-4e09-a94e-b777bc3d7d18","system_id":"levelo_inurba_marseille","lat":43.305364,"lon":5.384119,"is_reserved":false,"is_disabled":false,"rental_uris":{"android":"levelo://app?vid=2f0f237b-4ca2-4e09-a94e-b777bc3d7d18","ios":"levelo://app?vid=2f0f237b-4ca2-4e09-a94e-b777bc3d7d18"},"vehicle_type_id":"4","last_reported":1691647746,"current_range_meters":30800,"station_id":"ce4bgg92rcd13ifvqb30","pricing_plan_id":"free"},{"bike_id":"083c5213-502c-433c-98e6-986b59e2c57a","system_id":"levelo_inurba_marseille","lat":43.298433,"lon":5.362774,"is_reserved":false,"is_disabled":false,"rental_uris":{"android":"levelo://app?vid=083c5213-502c-433c-98e6-986b59e2c57a","ios":"levelo://app?vid=083c5213-502c-433c-98e6-986b59e2c57a"},"vehicle_type_id":"4","last_reported":1691647746,"current_range_meters":30400,"station_id":"ce4bgpp2rcd13ifvqc3g","pricing_plan_id":"free"},{"bike_id":"28b4c874-f898-40e4-91f3-80fb864221b3","system_id":"levelo_inurba_marseille","lat":43.298433,"lon":5.362774,"is_reserved":false,"is_disabled":false,"rental_uris":{"android":"levelo://app?vid=28b4c874-f898-40e4-91f3-80fb864221b3","ios":"levelo://app?vid=28b4c874-f898-40e4-91f3-80fb864221b3"},"vehicle_type_id":"4","last_reported":1691647746,"current_range_meters":30000,"station_id":"ce4bgpp2rcd13ifvqc3g","pricing_plan_id":"free"},{"bike_id":"4224c3c3-f79d-4a79-b97e-348b90351bd9","system_id":"levelo_inurba_marseille","lat":43.298433,"lon":5.362774,"is_reserved":false,"is_disabled":false,"rental_uris":{"android":"levelo://app?vid=4224c3c3-f79d-4a79-b97e-348b90351bd9","ios":"levelo://app?vid=4224c3c3-f79d-4a79-b97e-348b90351bd9"},"vehicle_type_id":"4","last_reported":1691647746,"current_range_meters":19600,"station_id":"ce4bgpp2rcd13ifvqc3g","pricing_plan_id":"free"},{"bike_id":"93ac042b-2daa-46e4-8ccb-9f0cc3c4f55f","system_id":"levelo_inurba_marseille","lat":43.30537,"lon":5.38432,"is_reserved":false,"is_disabled":false,"rental_uris":{"android":"levelo://app?vid=93ac042b-2daa-46e4-8ccb-9f0cc3c4f55f","ios":"levelo://app?vid=93ac042b-2daa-46e4-8ccb-9f0cc3c4f55f"},"vehicle_type_id":"4","last_reported":1691647746,"current_range_meters":29200,"station_id":"ce4bgg92rcd13ifvqb30","pricing_plan_id":"free"},{"bike_id":"7969ab38-093f-4f91-8082-8eeb0891d09c","system_id":"levelo_inurba_marseille","lat":43.305364,"lon":5.384119,"is_reserved":false,"is_disabled":false,"rental_uris":{"android":"levelo://app?vid=7969ab38-093f-4f91-8082-8eeb0891d09c","ios":"levelo://app?vid=7969ab38-093f-4f91-8082-8eeb0891d09c"},"vehicle_type_id":"4","last_reported":1691647746,"current_range_meters":2400,"station_id":"ce4bgg92rcd13ifvqb30","pricing_plan_id":"free"},{"bike_id":"30537d43-af02-4a10-b928-7b9b8cf633d2","system_id":"levelo_inurba_marseille","lat":43.305322,"lon":5.384298,"is_reserved":false,"is_disabled":false,"rental_uris":{"android":"levelo://app?vid=30537d43-af02-4a10-b928-7b9b8cf633d2","ios":"levelo://app?vid=30537d43-af02-4a10-b928-7b9b8cf633d2"},"vehicle_type_id":"4","last_reported":1691647746,"current_range_meters":17200,"station_id":"ce4bgg92rcd13ifvqb30","pricing_plan_id":"free"},{"bike_id":"495d6416-48d2-46ad-9faa-7e386de2f343","system_id":"levelo_inurba_marseille","lat":43.31169,"lon":5.38703,"is_reserved":false,"is_disabled":false,"rental_uris":{"android":"levelo://app?vid=495d6416-48d2-46ad-9faa-7e386de2f343","ios":"levelo://app?vid=495d6416-48d2-46ad-9faa-7e386de2f343"},"vehicle_type_id":"4","last_reported":1691647746,"current_range_meters":0,"station_id":"ce4bgv12rcd13ifvqcp0","pricing_plan_id":"free"},{"bike_id":"7b847215-29fb-4fe4-86ae-5ae74269ee3f","system_id":"levelo_inurba_marseille","lat":43.298433,"lon":5.362774,"is_reserved":false,"is_disabled":false,"rental_uris":{"android":"levelo://app?vid=7b847215-29fb-4fe4-86ae-5ae74269ee3f","ios":"levelo://app?vid=7b847215-29fb-4fe4-86ae-5ae74269ee3f"},"vehicle_type_id":"4","last_reported":1691647746,"current_range_meters":31600,"station_id":"ce4bgpp2rcd13ifvqc3g","pricing_plan_id":"free"},{"bike_id":"fc0100e7-14d1-44e5-83bd-10e287e5b2b7","system_id":"levelo_inurba_marseille","lat":43.298433,"lon":5.362774,"is_reserved":false,"is_disabled":false,"rental_uris":{"android":"levelo://app?vid=fc0100e7-14d1-44e5-83bd-10e287e5b2b7","ios":"levelo://app?vid=fc0100e7-14d1-44e5-83bd-10e287e5b2b7"},"vehicle_type_id":"4","last_reported":1691647746,"current_range_meters":31200,"station_id":"ce4bgpp2rcd13ifvqc3g","pricing_plan_id":"free"},{"bike_id":"9ffed9d4-0d45-4a57-881f-b8213304bc42","system_id":"levelo_inurba_marseille","lat":43.311722,"lon":5.387247,"is_reserved":false,"is_disabled":false,"rental_uris":{"android":"levelo://app?vid=9ffed9d4-0d45-4a57-881f-b8213304bc42","ios":"levelo://app?vid=9ffed9d4-0d45-4a57-881f-b8213304bc42"},"vehicle_type_id":"4","last_reported":1691647746,"current_range_meters":28400,"station_id":"ce4bgv12rcd13ifvqcp0","pricing_plan_id":"free"},{"bike_id":"5a19a5c4-c7fd-40b5-b48c-1d9f88cab7c1","system_id":"levelo_inurba_marseille","lat":43.311722,"lon":5.387247,"is_reserved":false,"is_disabled":false,"rental_uris":{"android":"levelo://app?vid=5a19a5c4-c7fd-40b5-b48c-1d9f88cab7c1","ios":"levelo://app?vid=5a19a5c4-c7fd-40b5-b48c-1d9f88cab7c1"},"vehicle_type_id":"4","last_reported":1691647746,"current_range_meters":29600,"station_id":"ce4bgv12rcd13ifvqcp0","pricing_plan_id":"free"},{"bike_id":"3a574de3-b31f-4b53-9fcf-1545808be757","system_id":"levelo_inurba_marseille","lat":43.3229,"lon":5.38265,"is_reserved":false,"is_disabled":false,"rental_uris":{"android":"levelo://app?vid=3a574de3-b31f-4b53-9fcf-1545808be757","ios":"levelo://app?vid=3a574de3-b31f-4b53-9fcf-1545808be757"},"vehicle_type_id":"4","last_reported":1691647746,"current_range_meters":22800,"station_id":"ce4bhr12rcd13ifvqhqg","pricing_plan_id":"free"},{"bike_id":"c966d00d-f08a-432f-ad19-9bfa00dfa0fe","system_id":"levelo_inurba_marseille","lat":43.322872,"lon":5.382756,"is_reserved":false,"is_disabled":false,"rental_uris":{"android":"levelo://app?vid=c966d00d-f08a-432f-ad19-9bfa00dfa0fe","ios":"levelo://app?vid=c966d00d-f08a-432f-ad19-9bfa00dfa0fe"},"vehicle_type_id":"4","last_reported":1691647746,"current_range_meters":12000,"station_id":"ce4bhr12rcd13ifvqhqg","pricing_plan_id":"free"},{"bike_id":"4656a0a2-1ed7-49a9-99e1-00b2f7e77116","system_id":"levelo_inurba_marseille","lat":43.32821,"lon":5.36691,"is_reserved":false,"is_disabled":false,"rental_uris":{"android":"levelo://app?vid=4656a0a2-1ed7-49a9-99e1-00b2f7e77116","ios":"levelo://app?vid=4656a0a2-1ed7-49a9-99e1-00b2f7e77116"},"vehicle_type_id":"4","last_reported":1691647746,"current_range_meters":26400,"station_id":"ce4bhs92rcd13ifvqi0g","pricing_plan_id":"free"},{"bike_id":"8ce81456-09b5-4da0-802b-88be49dcac1d","system_id":"levelo_inurba_marseille","lat":43.328371,"lon":5.366909,"is_reserved":false,"is_disabled":false,"rental_uris":{"android":"levelo://app?vid=8ce81456-09b5-4da0-802b-88be49dcac1d","ios":"levelo://app?vid=8ce81456-09b5-4da0-802b-88be49dcac1d"},"vehicle_type_id":"4","last_reported":1691647746,"current_range_meters":29600,"station_id":"ce4bhs92rcd13ifvqi0g","pricing_plan_id":"free"},{"bike_id":"a112a680-d3e0-411d-8250-15bff243835d","system_id":"levelo_inurba_marseille","lat":43.32821,"lon":5.36673,"is_reserved":false,"is_disabled":false,"rental_uris":{"android":"levelo://app?vid=a112a680-d3e0-411d-8250-15bff243835d","ios":"levelo://app?vid=a112a680-d3e0-411d-8250-15bff243835d"},"vehicle_type_id":"4","last_reported":1691647746,"current_range_meters":31200,"station_id":"ce4bhs92rcd13ifvqi0g","pricing_plan_id":"free"},{"bike_id":"5d76a089-57a6-41c3-9736-662fd5348cfc","system_id":"levelo_inurba_marseille","lat":43.328371,"lon":5.366909,"is_reserved":false,"is_disabled":false,"rental_uris":{"android":"levelo://app?vid=5d76a089-57a6-41c3-9736-662fd5348cfc","ios":"levelo://app?vid=5d76a089-57a6-41c3-9736-662fd5348cfc"},"vehicle_type_id":"4","last_reported":1691647746,"current_range_meters":28000,"station_id":"ce4bhs92rcd13ifvqi0g","pricing_plan_id":"free"},{"bike_id":"b2b8ea68-4d7e-45d6-a6c7-b81fe7fda41d","system_id":"levelo_inurba_marseille","lat":43.328371,"lon":5.366909,"is_reserved":false,"is_disabled":false,"rental_uris":{"android":"levelo://app?vid=b2b8ea68-4d7e-45d6-a6c7-b81fe7fda41d","ios":"levelo://app?vid=b2b8ea68-4d7e-45d6-a6c7-b81fe7fda41d"},"vehicle_type_id":"4","last_reported":1691647746,"current_range_meters":8400,"station_id":"ce4bhs92rcd13ifvqi0g","pricing_plan_id":"free"},{"bike_id":"44cbca90-a0c9-4533-9e94-08e0b85b5e18","system_id":"levelo_inurba_marseille","lat":43.328371,"lon":5.366909,"is_reserved":false,"is_disabled":false,"rental_uris":{"android":"levelo://app?vid=44cbca90-a0c9-4533-9e94-08e0b85b5e18","ios":"levelo://app?vid=44cbca90-a0c9-4533-9e94-08e0b85b5e18"},"vehicle_type_id":"4","last_reported":1691647746,"current_range_meters":20000,"station_id":"ce4bhs92rcd13ifvqi0g","pricing_plan_id":"free"},{"bike_id":"69c925b7-f2ca-418a-bcab-d1a9ba9c6a39","system_id":"levelo_inurba_marseille","lat":43.32827,"lon":5.36694,"is_reserved":false,"is_disabled":false,"rental_uris":{"android":"levelo://app?vid=69c925b7-f2ca-418a-bcab-d1a9ba9c6a39","ios":"levelo://app?vid=69c925b7-f2ca-418a-bcab-d1a9ba9c6a39"},"vehicle_type_id":"4","last_reported":1691647746,"current_range_meters":21600,"station_id":"ce4bhs92rcd13ifvqi0g","pricing_plan_id":"free"},{"bike_id":"cf43544e-989a-4d21-9699-931a6368cb00","system_id":"levelo_inurba_marseille","lat":43.328371,"lon":5.366909,"is_reserved":false,"is_disabled":false,"rental_uris":{"android":"levelo://app?vid=cf43544e-989a-4d21-9699-931a6368cb00","ios":"levelo://app?vid=cf43544e-989a-4d21-9699-931a6368cb00"},"vehicle_type_id":"4","last_reported":1691647746,"current_range_meters":31200,"station_id":"ce4bhs92rcd13ifvqi0g","pricing_plan_id":"free"},{"bike_id":"6154b1b8-932f-4660-b41a-1fe692c915cf","system_id":"levelo_inurba_marseille","lat":43.32828,"lon":5.36694,"is_reserved":false,"is_disabled":false,"rental_uris":{"android":"levelo://app?vid=6154b1b8-932f-4660-b41a-1fe692c915cf","ios":"levelo://app?vid=6154b1b8-932f-4660-b41a-1fe692c915cf"},"vehicle_type_id":"4","last_reported":1691647746,"current_range_meters":20000,"station_id":"ce4bhs92rcd13ifvqi0g","pricing_plan_id":"free"},{"bike_id":"dd789220-e7b5-42c1-b9dc-dc4243148021","system_id":"levelo_inurba_marseille","lat":43.297163,"lon":5.365866,"is_reserved":false,"is_disabled":false,"rental_uris":{"android":"levelo://app?vid=dd789220-e7b5-42c1-b9dc-dc4243148021","ios":"levelo://app?vid=dd789220-e7b5-42c1-b9dc-dc4243148021"},"vehicle_type_id":"4","last_reported":1691647746,"current_range_meters":31200,"station_id":"ce4bgn12rcd13ifvqbt0","pricing_plan_id":"free"},{"bike_id":"ea463673-f102-43b5-86a0-c0a25bd302df","system_id":"levelo_inurba_marseille","lat":43.299028,"lon":5.381509,"is_reserved":false,"is_disabled":false,"rental_uris":{"android":"levelo://app?vid=ea463673-f102-43b5-86a0-c0a25bd302df","ios":"levelo://app?vid=ea463673-f102-43b5-86a0-c0a25bd302df"},"vehicle_type_id":"4","last_reported":1691647746,"current_range_meters":30400,"station_id":"ce4bgj12rcd13ifvqbc0","pricing_plan_id":"free"},{"bike_id":"c3718dca-c87d-4147-b34f-0d0b82a7e233","system_id":"levelo_inurba_marseille","lat":43.299028,"lon":5.381509,"is_reserved":false,"is_disabled":false,"rental_uris":{"android":"levelo://app?vid=c3718dca-c87d-4147-b34f-0d0b82a7e233","ios":"levelo://app?vid=c3718dca-c87d-4147-b34f-0d0b82a7e233"},"vehicle_type_id":"4","last_reported":1691647746,"current_range_meters":29600,"station_id":"ce4bgj12rcd13ifvqbc0","pricing_plan_id":"free"},{"bike_id":"f6843521-da14-4c47-afeb-570ac92c71dc","system_id":"levelo_inurba_marseille","lat":43.299028,"lon":5.381509,"is_reserved":false,"is_disabled":false,"rental_uris":{"android":"levelo://app?vid=f6843521-da14-4c47-afeb-570ac92c71dc","ios":"levelo://app?vid=f6843521-da14-4c47-afeb-570ac92c71dc"},"vehicle_type_id":"4","last_reported":1691647746,"current_range_meters":29200,"station_id":"ce4bgj12rcd13ifvqbc0","pricing_plan_id":"free"},{"bike_id":"4e19e25b-8248-4b70-bd58-7ec0ea66c321","system_id":"levelo_inurba_marseille","lat":43.299028,"lon":5.381509,"is_reserved":false,"is_disabled":false,"rental_uris":{"android":"levelo://app?vid=4e19e25b-8248-4b70-bd58-7ec0ea66c321","ios":"levelo://app?vid=4e19e25b-8248-4b70-bd58-7ec0ea66c321"},"vehicle_type_id":"4","last_reported":1691647746,"current_range_meters":31200,"station_id":"ce4bgj12rcd13ifvqbc0","pricing_plan_id":"free"},{"bike_id":"1d941b44-6056-4be6-9b12-c15303e326f1","system_id":"levelo_inurba_marseille","lat":43.29913,"lon":5.38155,"is_reserved":false,"is_disabled":false,"rental_uris":{"android":"levelo://app?vid=1d941b44-6056-4be6-9b12-c15303e326f1","ios":"levelo://app?vid=1d941b44-6056-4be6-9b12-c15303e326f1"},"vehicle_type_id":"4","last_reported":1691647746,"current_range_meters":14800,"station_id":"","pricing_plan_id":"free"},{"bike_id":"6b314f79-044a-459a-ab27-7899fd32e40e","system_id":"levelo_inurba_marseille","lat":43.309589,"lon":5.390258,"is_reserved":false,"is_disabled":false,"rental_uris":{"android":"levelo://app?vid=6b314f79-044a-459a-ab27-7899fd32e40e","ios":"levelo://app?vid=6b314f79-044a-459a-ab27-7899fd32e40e"},"vehicle_type_id":"4","last_reported":1691647746,"current_range_meters":7200,"station_id":"ce4bgup2rcd13ifvqco0","pricing_plan_id":"free"},{"bike_id":"004a0f7d-61cd-4b7f-925c-042e34e5972e","system_id":"levelo_inurba_marseille","lat":43.309589,"lon":5.390258,"is_reserved":false,"is_disabled":false,"rental_uris":{"android":"levelo://app?vid=004a0f7d-61cd-4b7f-925c-042e34e5972e","ios":"levelo://app?vid=004a0f7d-61cd-4b7f-925c-042e34e5972e"},"vehicle_type_id":"4","last_reported":1691647746,"current_range_meters":24400,"station_id":"ce4bgup2rcd13ifvqco0","pricing_plan_id":"free"},{"bike_id":"f0d506b5-1334-4bf3-b008-61812ced1ee1","system_id":"levelo_inurba_marseille","lat":43.31762,"lon":5.39013,"is_reserved":false,"is_disabled":false,"rental_uris":{"android":"levelo://app?vid=f0d506b5-1334-4bf3-b008-61812ced1ee1","ios":"levelo://app?vid=f0d506b5-1334-4bf3-b008-61812ced1ee1"},"vehicle_type_id":"4","last_reported":1691647746,"current_range_meters":28800,"station_id":"ce4bhqp2rcd13ifvqhng","pricing_plan_id":"free"},{"bike_id":"38e8fd84-b93e-4ffe-9727-cb45e74dfa50","system_id":"levelo_inurba_marseille","lat":43.31756,"lon":5.39016,"is_reserved":false,"is_disabled":false,"rental_uris":{"android":"levelo://app?vid=38e8fd84-b93e-4ffe-9727-cb45e74dfa50","ios":"levelo://app?vid=38e8fd84-b93e-4ffe-9727-cb45e74dfa50"},"vehicle_type_id":"4","last_reported":1691647746,"current_range_meters":30400,"station_id":"ce4bhqp2rcd13ifvqhng","pricing_plan_id":"free"},{"bike_id":"48e06ba0-e106-42f6-b9c6-3cc9eaec879d","system_id":"levelo_inurba_marseille","lat":43.31757,"lon":5.39018,"is_reserved":false,"is_disabled":false,"rental_uris":{"android":"levelo://app?vid=48e06ba0-e106-42f6-b9c6-3cc9eaec879d","ios":"levelo://app?vid=48e06ba0-e106-42f6-b9c6-3cc9eaec879d"},"vehicle_type_id":"4","last_reported":1691647746,"current_range_meters":30400,"station_id":"ce4bhqp2rcd13ifvqhng","pricing_plan_id":"free"},{"bike_id":"38795b4d-66c8-4f7f-85fd-a43fd1cba755","system_id":"levelo_inurba_marseille","lat":43.31759,"lon":5.39021,"is_reserved":false,"is_disabled":false,"rental_uris":{"android":"levelo://app?vid=38795b4d-66c8-4f7f-85fd-a43fd1cba755","ios":"levelo://app?vid=38795b4d-66c8-4f7f-85fd-a43fd1cba755"},"vehicle_type_id":"4","last_reported":1691647746,"current_range_meters":29600,"station_id":"ce4bhqp2rcd13ifvqhng","pricing_plan_id":"free"},{"bike_id":"c43e3c76-982b-41a7-bd1f-dd9a5a3de2a4","system_id":"levelo_inurba_marseille","lat":43.298037,"lon":5.381066,"is_reserved":false,"is_disabled":false,"rental_uris":{"android":"levelo://app?vid=c43e3c76-982b-41a7-bd1f-dd9a5a3de2a4","ios":"levelo://app?vid=c43e3c76-982b-41a7-bd1f-dd9a5a3de2a4"},"vehicle_type_id":"4","last_reported":1691647746,"current_range_meters":31200,"station_id":"ce4bgip2rcd13ifvqbb0","pricing_plan_id":"free"},{"bike_id":"8616956f-c1b8-43ee-9b32-516103851c6c","system_id":"levelo_inurba_marseille","lat":43.298037,"lon":5.381066,"is_reserved":false,"is_disabled":false,"rental_uris":{"android":"levelo://app?vid=8616956f-c1b8-43ee-9b32-516103851c6c","ios":"levelo://app?vid=8616956f-c1b8-43ee-9b32-516103851c6c"},"vehicle_type_id":"4","last_reported":1691647746,"current_range_meters":31200,"station_id":"ce4bgip2rcd13ifvqbb0","pricing_plan_id":"free"},{"bike_id":"292d477d-fc80-48d5-b4bc-0dec2638858b","system_id":"levelo_inurba_marseille","lat":43.298037,"lon":5.381066,"is_reserved":false,"is_disabled":false,"rental_uris":{"android":"levelo://app?vid=292d477d-fc80-48d5-b4bc-0dec2638858b","ios":"levelo://app?vid=292d477d-fc80-48d5-b4bc-0dec2638858b"},"vehicle_type_id":"4","last_reported":1691647746,"current_range_meters":16000,"station_id":"ce4bgip2rcd13ifvqbb0","pricing_plan_id":"free"},{"bike_id":"6acfd00c-02fc-4d49-b5d8-aa52da2eb492","system_id":"levelo_inurba_marseille","lat":43.298037,"lon":5.381066,"is_reserved":false,"is_disabled":false,"rental_uris":{"android":"levelo://app?vid=6acfd00c-02fc-4d49-b5d8-aa52da2eb492","ios":"levelo://app?vid=6acfd00c-02fc-4d49-b5d8-aa52da2eb492"},"vehicle_type_id":"4","last_reported":1691647746,"current_range_meters":23600,"station_id":"ce4bgip2rcd13ifvqbb0","pricing_plan_id":"free"},{"bike_id":"5cf14edf-827e-4988-97fc-1f8b3e71419d","system_id":"levelo_inurba_marseille","lat":43.298037,"lon":5.381066,"is_reserved":false,"is_disabled":false,"rental_uris":{"android":"levelo://app?vid=5cf14edf-827e-4988-97fc-1f8b3e71419d","ios":"levelo://app?vid=5cf14edf-827e-4988-97fc-1f8b3e71419d"},"vehicle_type_id":"4","last_reported":1691647746,"current_range_meters":27600,"station_id":"ce4bgip2rcd13ifvqbb0","pricing_plan_id":"free"},{"bike_id":"89dfa49e-df88-4160-898c-516e5a0a89b1","system_id":"levelo_inurba_marseille","lat":43.297964,"lon":5.380919,"is_reserved":false,"is_disabled":false,"rental_uris":{"android":"levelo://app?vid=89dfa49e-df88-4160-898c-516e5a0a89b1","ios":"levelo://app?vid=89dfa49e-df88-4160-898c-516e5a0a89b1"},"vehicle_type_id":"4","last_reported":1691647746,"current_range_meters":24400,"station_id":"","pricing_plan_id":"free"},{"bike_id":"20625074-97e3-43c6-b82f-39c201f6603f","system_id":"levelo_inurba_marseille","lat":43.298037,"lon":5.381066,"is_reserved":false,"is_disabled":false,"rental_uris":{"android":"levelo://app?vid=20625074-97e3-43c6-b82f-39c201f6603f","ios":"levelo://app?vid=20625074-97e3-43c6-b82f-39c201f6603f"},"vehicle_type_id":"4","last_reported":1691647746,"current_range_meters":27200,"station_id":"ce4bgip2rcd13ifvqbb0","pricing_plan_id":"free"},{"bike_id":"d52b5acd-43cd-4e31-9330-e9f3ffcbb7cc","system_id":"levelo_inurba_marseille","lat":43.30436,"lon":5.38881,"is_reserved":false,"is_disabled":false,"rental_uris":{"android":"levelo://app?vid=d52b5acd-43cd-4e31-9330-e9f3ffcbb7cc","ios":"levelo://app?vid=d52b5acd-43cd-4e31-9330-e9f3ffcbb7cc"},"vehicle_type_id":"4","last_reported":1691647746,"current_range_meters":8400,"station_id":"ce4bgk12rcd13ifvqbi0","pricing_plan_id":"free"},{"bike_id":"260f96af-5438-43f7-b372-2ee76fe2cc32","system_id":"levelo_inurba_marseille","lat":43.30429,"lon":5.38878,"is_reserved":false,"is_disabled":false,"rental_uris":{"android":"levelo://app?vid=260f96af-5438-43f7-b372-2ee76fe2cc32","ios":"levelo://app?vid=260f96af-5438-43f7-b372-2ee76fe2cc32"},"vehicle_type_id":"4","last_reported":1691647746,"current_range_meters":13600,"station_id":"ce4bgk12rcd13ifvqbi0","pricing_plan_id":"free"},{"bike_id":"89e4182c-3990-4897-aa7d-5de94d9cb3a0","system_id":"levelo_inurba_marseille","lat":43.30434,"lon":5.38884,"is_reserved":false,"is_disabled":false,"rental_uris":{"android":"levelo://app?vid=89e4182c-3990-4897-aa7d-5de94d9cb3a0","ios":"levelo://app?vid=89e4182c-3990-4897-aa7d-5de94d9cb3a0"},"vehicle_type_id":"4","last_reported":1691647746,"current_range_meters":20000,"station_id":"ce4bgk12rcd13ifvqbi0","pricing_plan_id":"free"},{"bike_id":"2701643a-962c-4958-9c3e-0f7aa4367e6f","system_id":"levelo_inurba_marseille","lat":43.29786,"lon":5.38091,"is_reserved":false,"is_disabled":false,"rental_uris":{"android":"levelo://app?vid=2701643a-962c-4958-9c3e-0f7aa4367e6f","ios":"levelo://app?vid=2701643a-962c-4958-9c3e-0f7aa4367e6f"},"vehicle_type_id":"4","last_reported":1691647746,"current_range_meters":31200,"station_id":"ce4bgip2rcd13ifvqbb0","pricing_plan_id":"free"},{"bike_id":"bedefa25-c450-4643-9dfc-c5280f971190","system_id":"levelo_inurba_marseille","lat":43.30438,"lon":5.38888,"is_reserved":false,"is_disabled":false,"rental_uris":{"android":"levelo://app?vid=bedefa25-c450-4643-9dfc-c5280f971190","ios":"levelo://app?vid=bedefa25-c450-4643-9dfc-c5280f971190"},"vehicle_type_id":"4","last_reported":1691647746,"current_range_meters":26000,"station_id":"ce4bgk12rcd13ifvqbi0","pricing_plan_id":"free"},{"bike_id":"72472863-85fd-4caa-bfe3-20491b2d60c8","system_id":"levelo_inurba_marseille","lat":43.295748,"lon":5.37522,"is_reserved":false,"is_disabled":false,"rental_uris":{"android":"levelo://app?vid=72472863-85fd-4caa-bfe3-20491b2d60c8","ios":"levelo://app?vid=72472863-85fd-4caa-bfe3-20491b2d60c8"},"vehicle_type_id":"4","last_reported":1691647746,"current_range_meters":31200,"station_id":"ce4bgh92rcd13ifvqb50","pricing_plan_id":"free"},{"bike_id":"f1180eb2-b30a-470f-884b-acdefad5516f","system_id":"levelo_inurba_marseille","lat":43.30434,"lon":5.38887,"is_reserved":false,"is_disabled":false,"rental_uris":{"android":"levelo://app?vid=f1180eb2-b30a-470f-884b-acdefad5516f","ios":"levelo://app?vid=f1180eb2-b30a-470f-884b-acdefad5516f"},"vehicle_type_id":"4","last_reported":1691647746,"current_range_meters":4800,"station_id":"ce4bgk12rcd13ifvqbi0","pricing_plan_id":"free"},{"bike_id":"20ff2e7b-b82c-4f7e-a8e0-938d072e4076","system_id":"levelo_inurba_marseille","lat":43.30433,"lon":5.38889,"is_reserved":false,"is_disabled":false,"rental_uris":{"android":"levelo://app?vid=20ff2e7b-b82c-4f7e-a8e0-938d072e4076","ios":"levelo://app?vid=20ff2e7b-b82c-4f7e-a8e0-938d072e4076"},"vehicle_type_id":"4","last_reported":1691647746,"current_range_meters":26000,"station_id":"ce4bgk12rcd13ifvqbi0","pricing_plan_id":"free"},{"bike_id":"97d5ab96-d6a5-45f5-8eda-80715e145f7d","system_id":"levelo_inurba_marseille","lat":43.30434,"lon":5.3889,"is_reserved":false,"is_disabled":false,"rental_uris":{"android":"levelo://app?vid=97d5ab96-d6a5-45f5-8eda-80715e145f7d","ios":"levelo://app?vid=97d5ab96-d6a5-45f5-8eda-80715e145f7d"},"vehicle_type_id":"4","last_reported":1691647746,"current_range_meters":30400,"station_id":"ce4bgk12rcd13ifvqbi0","pricing_plan_id":"free"},{"bike_id":"7b7e7971-dc4a-479b-bc1f-bb4cd2d4b34b","system_id":"levelo_inurba_marseille","lat":43.304278,"lon":5.388868,"is_reserved":false,"is_disabled":false,"rental_uris":{"android":"levelo://app?vid=7b7e7971-dc4a-479b-bc1f-bb4cd2d4b34b","ios":"levelo://app?vid=7b7e7971-dc4a-479b-bc1f-bb4cd2d4b34b"},"vehicle_type_id":"4","last_reported":1691647746,"current_range_meters":8000,"station_id":"ce4bgk12rcd13ifvqbi0","pricing_plan_id":"free"},{"bike_id":"f5528046-044a-46ae-9c45-914e9ee2126c","system_id":"levelo_inurba_marseille","lat":43.30437,"lon":5.38893,"is_reserved":false,"is_disabled":false,"rental_uris":{"android":"levelo://app?vid=f5528046-044a-46ae-9c45-914e9ee2126c","ios":"levelo://app?vid=f5528046-044a-46ae-9c45-914e9ee2126c"},"vehicle_type_id":"4","last_reported":1691647746,"current_range_meters":24800,"station_id":"ce4bgk12rcd13ifvqbi0","pricing_plan_id":"free"},{"bike_id":"b485eb2b-7305-40b7-b2fc-13c97d38a77c","system_id":"levelo_inurba_marseille","lat":43.298037,"lon":5.381066,"is_reserved":false,"is_disabled":false,"rental_uris":{"android":"levelo://app?vid=b485eb2b-7305-40b7-b2fc-13c97d38a77c","ios":"levelo://app?vid=b485eb2b-7305-40b7-b2fc-13c97d38a77c"},"vehicle_type_id":"4","last_reported":1691647746,"current_range_meters":31200,"station_id":"ce4bgip2rcd13ifvqbb0","pricing_plan_id":"free"},{"bike_id":"1ffca318-bade-41d6-bde8-639e0e09ff5b","system_id":"levelo_inurba_marseille","lat":43.30434,"lon":5.38891,"is_reserved":false,"is_disabled":false,"rental_uris":{"android":"levelo://app?vid=1ffca318-bade-41d6-bde8-639e0e09ff5b","ios":"levelo://app?vid=1ffca318-bade-41d6-bde8-639e0e09ff5b"},"vehicle_type_id":"4","last_reported":1691647746,"current_range_meters":16400,"station_id":"ce4bgk12rcd13ifvqbi0","pricing_plan_id":"free"},{"bike_id":"de59a05e-c261-4a54-bc69-7898e69da3ea","system_id":"levelo_inurba_marseille","lat":43.30436,"lon":5.38893,"is_reserved":false,"is_disabled":false,"rental_uris":{"android":"levelo://app?vid=de59a05e-c261-4a54-bc69-7898e69da3ea","ios":"levelo://app?vid=de59a05e-c261-4a54-bc69-7898e69da3ea"},"vehicle_type_id":"4","last_reported":1691647746,"current_range_meters":26800,"station_id":"ce4bgk12rcd13ifvqbi0","pricing_plan_id":"free"},{"bike_id":"a9a91d7c-8600-4cf1-9e73-1fb21f85b3c6","system_id":"levelo_inurba_marseille","lat":43.30438,"lon":5.38895,"is_reserved":false,"is_disabled":false,"rental_uris":{"android":"levelo://app?vid=a9a91d7c-8600-4cf1-9e73-1fb21f85b3c6","ios":"levelo://app?vid=a9a91d7c-8600-4cf1-9e73-1fb21f85b3c6"},"vehicle_type_id":"4","last_reported":1691647746,"current_range_meters":30400,"station_id":"ce4bgk12rcd13ifvqbi0","pricing_plan_id":"free"},{"bike_id":"bc6f3610-3985-40ad-9253-f52d80bfb99c","system_id":"levelo_inurba_marseille","lat":43.30434,"lon":5.38894,"is_reserved":false,"is_disabled":false,"rental_uris":{"android":"levelo://app?vid=bc6f3610-3985-40ad-9253-f52d80bfb99c","ios":"levelo://app?vid=bc6f3610-3985-40ad-9253-f52d80bfb99c"},"vehicle_type_id":"4","last_reported":1691647746,"current_range_meters":16800,"station_id":"ce4bgk12rcd13ifvqbi0","pricing_plan_id":"free"},{"bike_id":"58dfc379-bc92-400d-8c7f-535a5224d428","system_id":"levelo_inurba_marseille","lat":43.30425,"lon":5.38889,"is_reserved":false,"is_disabled":false,"rental_uris":{"android":"levelo://app?vid=58dfc379-bc92-400d-8c7f-535a5224d428","ios":"levelo://app?vid=58dfc379-bc92-400d-8c7f-535a5224d428"},"vehicle_type_id":"4","last_reported":1691647746,"current_range_meters":18000,"station_id":"ce4bgk12rcd13ifvqbi0","pricing_plan_id":"free"},{"bike_id":"7051b9c1-7c26-4390-af8c-161fa88ed957","system_id":"levelo_inurba_marseille","lat":43.30433,"lon":5.38895,"is_reserved":false,"is_disabled":false,"rental_uris":{"android":"levelo://app?vid=7051b9c1-7c26-4390-af8c-161fa88ed957","ios":"levelo://app?vid=7051b9c1-7c26-4390-af8c-161fa88ed957"},"vehicle_type_id":"4","last_reported":1691647746,"current_range_meters":26400,"station_id":"ce4bgk12rcd13ifvqbi0","pricing_plan_id":"free"},{"bike_id":"5f306410-ccdd-460f-86aa-0632df3eecf9","system_id":"levelo_inurba_marseille","lat":43.29779,"lon":5.38095,"is_reserved":false,"is_disabled":false,"rental_uris":{"android":"levelo://app?vid=5f306410-ccdd-460f-86aa-0632df3eecf9","ios":"levelo://app?vid=5f306410-ccdd-460f-86aa-0632df3eecf9"},"vehicle_type_id":"4","last_reported":1691647746,"current_range_meters":30800,"station_id":"ce4bgip2rcd13ifvqbb0","pricing_plan_id":"free"},{"bike_id":"a4df99ce-0488-49dd-a888-94686f562e88","system_id":"levelo_inurba_marseille","lat":43.295748,"lon":5.37522,"is_reserved":false,"is_disabled":false,"rental_uris":{"android":"levelo://app?vid=a4df99ce-0488-49dd-a888-94686f562e88","ios":"levelo://app?vid=a4df99ce-0488-49dd-a888-94686f562e88"},"vehicle_type_id":"4","last_reported":1691647746,"current_range_meters":28400,"station_id":"ce4bgh92rcd13ifvqb50","pricing_plan_id":"free"},{"bike_id":"2b4fef3e-532c-4cab-9089-2bd5bde5b2d5","system_id":"levelo_inurba_marseille","lat":43.299707,"lon":5.384859,"is_reserved":false,"is_disabled":false,"rental_uris":{"android":"levelo://app?vid=2b4fef3e-532c-4cab-9089-2bd5bde5b2d5","ios":"levelo://app?vid=2b4fef3e-532c-4cab-9089-2bd5bde5b2d5"},"vehicle_type_id":"4","last_reported":1691647746,"current_range_meters":30400,"station_id":"ce4bgj92rcd13ifvqbd0","pricing_plan_id":"free"},{"bike_id":"7e25021d-2e37-4027-a78d-2c286150e1d0","system_id":"levelo_inurba_marseille","lat":43.30376,"lon":5.38915,"is_reserved":false,"is_disabled":false,"rental_uris":{"android":"levelo://app?vid=7e25021d-2e37-4027-a78d-2c286150e1d0","ios":"levelo://app?vid=7e25021d-2e37-4027-a78d-2c286150e1d0"},"vehicle_type_id":"4","last_reported":1691647746,"current_range_meters":2000,"station_id":"","pricing_plan_id":"free"},{"bike_id":"cb1fa596-089c-44b5-8115-00053cda7f57","system_id":"levelo_inurba_marseille","lat":43.299707,"lon":5.384859,"is_reserved":false,"is_disabled":false,"rental_uris":{"android":"levelo://app?vid=cb1fa596-089c-44b5-8115-00053cda7f57","ios":"levelo://app?vid=cb1fa596-089c-44b5-8115-00053cda7f57"},"vehicle_type_id":"4","last_reported":1691647746,"current_range_meters":29600,"station_id":"ce4bgj92rcd13ifvqbd0","pricing_plan_id":"free"},{"bike_id":"a0a1e7a3-dd1f-4211-b55e-79794c28ecda","system_id":"levelo_inurba_marseille","lat":43.299717,"lon":5.384845,"is_reserved":false,"is_disabled":false,"rental_uris":{"android":"levelo://app?vid=a0a1e7a3-dd1f-4211-b55e-79794c28ecda","ios":"levelo://app?vid=a0a1e7a3-dd1f-4211-b55e-79794c28ecda"},"vehicle_type_id":"4","last_reported":1691647746,"current_range_meters":31200,"station_id":"ce4bgj92rcd13ifvqbd0","pricing_plan_id":"free"},{"bike_id":"76c0ea33-d01d-44ff-9fbe-6e38d709d6f8","system_id":"levelo_inurba_marseille","lat":43.32367,"lon":5.388836,"is_reserved":false,"is_disabled":false,"rental_uris":{"android":"levelo://app?vid=76c0ea33-d01d-44ff-9fbe-6e38d709d6f8","ios":"levelo://app?vid=76c0ea33-d01d-44ff-9fbe-6e38d709d6f8"},"vehicle_type_id":"4","last_reported":1691647746,"current_range_meters":31200,"station_id":"ce4bhqp2rcd13ifvqhog","pricing_plan_id":"free"},{"bike_id":"806cc27e-ca7e-4b43-89f1-5e372b8b86fa","system_id":"levelo_inurba_marseille","lat":43.32367,"lon":5.388836,"is_reserved":false,"is_disabled":false,"rental_uris":{"android":"levelo://app?vid=806cc27e-ca7e-4b43-89f1-5e372b8b86fa","ios":"levelo://app?vid=806cc27e-ca7e-4b43-89f1-5e372b8b86fa"},"vehicle_type_id":"4","last_reported":1691647746,"current_range_meters":2400,"station_id":"ce4bhqp2rcd13ifvqhog","pricing_plan_id":"free"},{"bike_id":"f188a99d-0081-4ab7-9625-a7f502171b6c","system_id":"levelo_inurba_marseille","lat":43.32367,"lon":5.388836,"is_reserved":false,"is_disabled":false,"rental_uris":{"android":"levelo://app?vid=f188a99d-0081-4ab7-9625-a7f502171b6c","ios":"levelo://app?vid=f188a99d-0081-4ab7-9625-a7f502171b6c"},"vehicle_type_id":"4","last_reported":1691647746,"current_range_meters":31200,"station_id":"ce4bhqp2rcd13ifvqhog","pricing_plan_id":"free"},{"bike_id":"455244fc-303e-4d68-a824-01d4b5557428","system_id":"levelo_inurba_marseille","lat":43.32367,"lon":5.388836,"is_reserved":false,"is_disabled":false,"rental_uris":{"android":"levelo://app?vid=455244fc-303e-4d68-a824-01d4b5557428","ios":"levelo://app?vid=455244fc-303e-4d68-a824-01d4b5557428"},"vehicle_type_id":"4","last_reported":1691647746,"current_range_meters":18800,"station_id":"ce4bhqp2rcd13ifvqhog","pricing_plan_id":"free"},{"bike_id":"2011a59c-724a-4c49-9a27-d409f1e7d03e","system_id":"levelo_inurba_marseille","lat":43.32367,"lon":5.388836,"is_reserved":false,"is_disabled":false,"rental_uris":{"android":"levelo://app?vid=2011a59c-724a-4c49-9a27-d409f1e7d03e","ios":"levelo://app?vid=2011a59c-724a-4c49-9a27-d409f1e7d03e"},"vehicle_type_id":"4","last_reported":1691647746,"current_range_meters":22400,"station_id":"ce4bhqp2rcd13ifvqhog","pricing_plan_id":"free"},{"bike_id":"51af65c0-eb64-40d5-af2a-1804a21ab835","system_id":"levelo_inurba_marseille","lat":43.32371,"lon":5.38884,"is_reserved":false,"is_disabled":false,"rental_uris":{"android":"levelo://app?vid=51af65c0-eb64-40d5-af2a-1804a21ab835","ios":"levelo://app?vid=51af65c0-eb64-40d5-af2a-1804a21ab835"},"vehicle_type_id":"4","last_reported":1691647746,"current_range_meters":12000,"station_id":"ce4bhqp2rcd13ifvqhog","pricing_plan_id":"free"},{"bike_id":"fa080c76-bf7b-4a09-97dc-8d82d0fb035f","system_id":"levelo_inurba_marseille","lat":43.29602,"lon":5.381084,"is_reserved":false,"is_disabled":false,"rental_uris":{"android":"levelo://app?vid=fa080c76-bf7b-4a09-97dc-8d82d0fb035f","ios":"levelo://app?vid=fa080c76-bf7b-4a09-97dc-8d82d0fb035f"},"vehicle_type_id":"4","last_reported":1691647746,"current_range_meters":28400,"station_id":"ce4bgl12rcd13ifvqbo0","pricing_plan_id":"free"},{"bike_id":"dbe406a0-e31d-4174-932b-0d8d584d17c2","system_id":"levelo_inurba_marseille","lat":43.292749,"lon":5.368402,"is_reserved":false,"is_disabled":false,"rental_uris":{"android":"levelo://app?vid=dbe406a0-e31d-4174-932b-0d8d584d17c2","ios":"levelo://app?vid=dbe406a0-e31d-4174-932b-0d8d584d17c2"},"vehicle_type_id":"4","last_reported":1691647746,"current_range_meters":30000,"station_id":"ce4bhbp2rcd13ifvqesg","pricing_plan_id":"free"},{"bike_id":"83a8108e-272a-4ea7-893c-b99a1c900ade","system_id":"levelo_inurba_marseille","lat":43.292749,"lon":5.368402,"is_reserved":false,"is_disabled":false,"rental_uris":{"android":"levelo://app?vid=83a8108e-272a-4ea7-893c-b99a1c900ade","ios":"levelo://app?vid=83a8108e-272a-4ea7-893c-b99a1c900ade"},"vehicle_type_id":"4","last_reported":1691647746,"current_range_meters":28800,"station_id":"ce4bhbp2rcd13ifvqesg","pricing_plan_id":"free"},{"bike_id":"93ea62a3-6f67-4a5b-a7ac-5d8343fcde9b","system_id":"levelo_inurba_marseille","lat":43.305994,"lon":5.393687,"is_reserved":false,"is_disabled":false,"rental_uris":{"android":"levelo://app?vid=93ea62a3-6f67-4a5b-a7ac-5d8343fcde9b","ios":"levelo://app?vid=93ea62a3-6f67-4a5b-a7ac-5d8343fcde9b"},"vehicle_type_id":"4","last_reported":1691647746,"current_range_meters":30000,"station_id":"ce4bh0p2rcd13ifvqd80","pricing_plan_id":"free"},{"bike_id":"9ce4abdf-9885-48f8-be68-df9186b7101f","system_id":"levelo_inurba_marseille","lat":43.2936,"lon":5.37835,"is_reserved":false,"is_disabled":false,"rental_uris":{"android":"levelo://app?vid=9ce4abdf-9885-48f8-be68-df9186b7101f","ios":"levelo://app?vid=9ce4abdf-9885-48f8-be68-df9186b7101f"},"vehicle_type_id":"4","last_reported":1691647746,"current_range_meters":27600,"station_id":"ce4bgjh2rcd13ifvqbf0","pricing_plan_id":"free"},{"bike_id":"adaa60c7-ddd9-4935-a389-d05cda73878d","system_id":"levelo_inurba_marseille","lat":43.2936,"lon":5.37835,"is_reserved":false,"is_disabled":false,"rental_uris":{"android":"levelo://app?vid=adaa60c7-ddd9-4935-a389-d05cda73878d","ios":"levelo://app?vid=adaa60c7-ddd9-4935-a389-d05cda73878d"},"vehicle_type_id":"4","last_reported":1691647746,"current_range_meters":24400,"station_id":"ce4bgjh2rcd13ifvqbf0","pricing_plan_id":"free"},{"bike_id":"4da9256f-89ad-4980-8e65-6b17672a000a","system_id":"levelo_inurba_marseille","lat":43.30301,"lon":5.39218,"is_reserved":false,"is_disabled":false,"rental_uris":{"android":"levelo://app?vid=4da9256f-89ad-4980-8e65-6b17672a000a","ios":"levelo://app?vid=4da9256f-89ad-4980-8e65-6b17672a000a"},"vehicle_type_id":"4","last_reported":1691647746,"current_range_meters":30000,"station_id":"ce4bgkh2rcd13ifvqbk0","pricing_plan_id":"free"},{"bike_id":"e9990132-f457-41b6-854f-460ea7a1a812","system_id":"levelo_inurba_marseille","lat":43.292311,"lon":5.360731,"is_reserved":false,"is_disabled":false,"rental_uris":{"android":"levelo://app?vid=e9990132-f457-41b6-854f-460ea7a1a812","ios":"levelo://app?vid=e9990132-f457-41b6-854f-460ea7a1a812"},"vehicle_type_id":"4","last_reported":1691647746,"current_range_meters":24000,"station_id":"ce4bhbh2rcd13ifvqeqg","pricing_plan_id":"free"},{"bike_id":"58550f92-208e-453a-9711-d0b5be9202e7","system_id":"levelo_inurba_marseille","lat":43.30879,"lon":5.39633,"is_reserved":false,"is_disabled":false,"rental_uris":{"android":"levelo://app?vid=58550f92-208e-453a-9711-d0b5be9202e7","ios":"levelo://app?vid=58550f92-208e-453a-9711-d0b5be9202e7"},"vehicle_type_id":"4","last_reported":1691647746,"current_range_meters":18800,"station_id":"ce4bh012rcd13ifvqcv0","pricing_plan_id":"free"},{"bike_id":"064db49c-9443-45f1-9dbf-4d0b263de4ce","system_id":"levelo_inurba_marseille","lat":43.30885,"lon":5.39635,"is_reserved":false,"is_disabled":false,"rental_uris":{"android":"levelo://app?vid=064db49c-9443-45f1-9dbf-4d0b263de4ce","ios":"levelo://app?vid=064db49c-9443-45f1-9dbf-4d0b263de4ce"},"vehicle_type_id":"4","last_reported":1691647746,"current_range_meters":0,"station_id":"ce4bh012rcd13ifvqcv0","pricing_plan_id":"free"},{"bike_id":"bde7a2a5-41ad-4e82-89f4-555f5f2c0d2f","system_id":"levelo_inurba_marseille","lat":43.309038,"lon":5.396546,"is_reserved":false,"is_disabled":false,"rental_uris":{"android":"levelo://app?vid=bde7a2a5-41ad-4e82-89f4-555f5f2c0d2f","ios":"levelo://app?vid=bde7a2a5-41ad-4e82-89f4-555f5f2c0d2f"},"vehicle_type_id":"4","last_reported":1691647746,"current_range_meters":16400,"station_id":"ce4bh012rcd13ifvqcv0","pricing_plan_id":"free"},{"bike_id":"3c64dd36-cd9e-41e5-8b15-9f6015b721bb","system_id":"levelo_inurba_marseille","lat":43.30887,"lon":5.39638,"is_reserved":false,"is_disabled":false,"rental_uris":{"android":"levelo://app?vid=3c64dd36-cd9e-41e5-8b15-9f6015b721bb","ios":"levelo://app?vid=3c64dd36-cd9e-41e5-8b15-9f6015b721bb"},"vehicle_type_id":"4","last_reported":1691647746,"current_range_meters":27200,"station_id":"ce4bh012rcd13ifvqcv0","pricing_plan_id":"free"},{"bike_id":"edb4dc0d-ed15-48ed-80c8-ace755fc786d","system_id":"levelo_inurba_marseille","lat":43.313291,"lon":5.396838,"is_reserved":false,"is_disabled":false,"rental_uris":{"android":"levelo://app?vid=edb4dc0d-ed15-48ed-80c8-ace755fc786d","ios":"levelo://app?vid=edb4dc0d-ed15-48ed-80c8-ace755fc786d"},"vehicle_type_id":"4","last_reported":1691647746,"current_range_meters":20400,"station_id":"ce4bgvp2rcd13ifvqcu0","pricing_plan_id":"free"},{"bike_id":"d8d101db-6ee8-4dab-83de-34758f37e5f2","system_id":"levelo_inurba_marseille","lat":43.31328,"lon":5.39689,"is_reserved":false,"is_disabled":false,"rental_uris":{"android":"levelo://app?vid=d8d101db-6ee8-4dab-83de-34758f37e5f2","ios":"levelo://app?vid=d8d101db-6ee8-4dab-83de-34758f37e5f2"},"vehicle_type_id":"4","last_reported":1691647746,"current_range_meters":7600,"station_id":"ce4bgvp2rcd13ifvqcu0","pricing_plan_id":"free"},{"bike_id":"eb6911ba-0308-409f-980c-db52e3df53c3","system_id":"levelo_inurba_marseille","lat":43.31327,"lon":5.3969,"is_reserved":false,"is_disabled":false,"rental_uris":{"android":"levelo://app?vid=eb6911ba-0308-409f-980c-db52e3df53c3","ios":"levelo://app?vid=eb6911ba-0308-409f-980c-db52e3df53c3"},"vehicle_type_id":"4","last_reported":1691647746,"current_range_meters":25200,"station_id":"ce4bgvp2rcd13ifvqcu0","pricing_plan_id":"free"},{"bike_id":"2cb53614-bdf2-49bb-9dca-e5860eefc5ab","system_id":"levelo_inurba_marseille","lat":43.31328,"lon":5.3969,"is_reserved":false,"is_disabled":false,"rental_uris":{"android":"levelo://app?vid=2cb53614-bdf2-49bb-9dca-e5860eefc5ab","ios":"levelo://app?vid=2cb53614-bdf2-49bb-9dca-e5860eefc5ab"},"vehicle_type_id":"4","last_reported":1691647746,"current_range_meters":8800,"station_id":"ce4bgvp2rcd13ifvqcu0","pricing_plan_id":"free"},{"bike_id":"3aaf81f8-3e55-47fd-8622-b936f674923f","system_id":"levelo_inurba_marseille","lat":43.313291,"lon":5.396838,"is_reserved":false,"is_disabled":false,"rental_uris":{"android":"levelo://app?vid=3aaf81f8-3e55-47fd-8622-b936f674923f","ios":"levelo://app?vid=3aaf81f8-3e55-47fd-8622-b936f674923f"},"vehicle_type_id":"4","last_reported":1691647746,"current_range_meters":30400,"station_id":"ce4bgvp2rcd13ifvqcu0","pricing_plan_id":"free"},{"bike_id":"c633a63b-a955-4e5a-8051-608e198aa0a0","system_id":"levelo_inurba_marseille","lat":43.3133,"lon":5.39697,"is_reserved":false,"is_disabled":false,"rental_uris":{"android":"levelo://app?vid=c633a63b-a955-4e5a-8051-608e198aa0a0","ios":"levelo://app?vid=c633a63b-a955-4e5a-8051-608e198aa0a0"},"vehicle_type_id":"4","last_reported":1691647746,"current_range_meters":1200,"station_id":"ce4bgvp2rcd13ifvqcu0","pricing_plan_id":"free"},{"bike_id":"cb239f0d-494e-4892-bc70-b25abccd9c17","system_id":"levelo_inurba_marseille","lat":43.29534,"lon":5.3854,"is_reserved":false,"is_disabled":false,"rental_uris":{"android":"levelo://app?vid=cb239f0d-494e-4892-bc70-b25abccd9c17","ios":"levelo://app?vid=cb239f0d-494e-4892-bc70-b25abccd9c17"},"vehicle_type_id":"4","last_reported":1691647746,"current_range_meters":29200,"station_id":"","pricing_plan_id":"free"},{"bike_id":"dea43c6c-74d5-4ebc-b662-56e3c2382b50","system_id":"levelo_inurba_marseille","lat":43.29529,"lon":5.385581,"is_reserved":false,"is_disabled":false,"rental_uris":{"android":"levelo://app?vid=dea43c6c-74d5-4ebc-b662-56e3c2382b50","ios":"levelo://app?vid=dea43c6c-74d5-4ebc-b662-56e3c2382b50"},"vehicle_type_id":"4","last_reported":1691647746,"current_range_meters":0,"station_id":"ce4bgih2rcd13ifvqba0","pricing_plan_id":"free"},{"bike_id":"b7124ebf-acf1-4952-9124-e894472afd0b","system_id":"levelo_inurba_marseille","lat":43.30203,"lon":5.39464,"is_reserved":false,"is_disabled":false,"rental_uris":{"android":"levelo://app?vid=b7124ebf-acf1-4952-9124-e894472afd0b","ios":"levelo://app?vid=b7124ebf-acf1-4952-9124-e894472afd0b"},"vehicle_type_id":"4","last_reported":1691647746,"current_range_meters":27200,"station_id":"ce4bh0p2rcd13ifvqd70","pricing_plan_id":"free"},{"bike_id":"8d981c35-e9c9-4d20-9ada-3f76282818b0","system_id":"levelo_inurba_marseille","lat":43.302008,"lon":5.394694,"is_reserved":false,"is_disabled":false,"rental_uris":{"android":"levelo://app?vid=8d981c35-e9c9-4d20-9ada-3f76282818b0","ios":"levelo://app?vid=8d981c35-e9c9-4d20-9ada-3f76282818b0"},"vehicle_type_id":"4","last_reported":1691647746,"current_range_meters":29200,"station_id":"ce4bh0p2rcd13ifvqd70","pricing_plan_id":"free"},{"bike_id":"1b8d2a7e-d83e-460a-a72c-36b892b89db6","system_id":"levelo_inurba_marseille","lat":43.290624,"lon":5.359245,"is_reserved":false,"is_disabled":false,"rental_uris":{"android":"levelo://app?vid=1b8d2a7e-d83e-460a-a72c-36b892b89db6","ios":"levelo://app?vid=1b8d2a7e-d83e-460a-a72c-36b892b89db6"},"vehicle_type_id":"4","last_reported":1691647746,"current_range_meters":26800,"station_id":"ce4bha92rcd13ifvqeg0","pricing_plan_id":"free"},{"bike_id":"73a88a13-139b-4376-ae5d-3b15cb800a87","system_id":"levelo_inurba_marseille","lat":43.290624,"lon":5.359245,"is_reserved":false,"is_disabled":false,"rental_uris":{"android":"levelo://app?vid=73a88a13-139b-4376-ae5d-3b15cb800a87","ios":"levelo://app?vid=73a88a13-139b-4376-ae5d-3b15cb800a87"},"vehicle_type_id":"4","last_reported":1691647746,"current_range_meters":30400,"station_id":"ce4bha92rcd13ifvqeg0","pricing_plan_id":"free"},{"bike_id":"ffbc008c-29a7-4585-92ca-a33a47397761","system_id":"levelo_inurba_marseille","lat":43.290327,"lon":5.375711,"is_reserved":false,"is_disabled":false,"rental_uris":{"android":"levelo://app?vid=ffbc008c-29a7-4585-92ca-a33a47397761","ios":"levelo://app?vid=ffbc008c-29a7-4585-92ca-a33a47397761"},"vehicle_type_id":"4","last_reported":1691647746,"current_range_meters":27600,"station_id":"ce4bh692rcd13ifvqe90","pricing_plan_id":"free"},{"bike_id":"c72086f8-515a-44bb-8b25-1d1c22e0e947","system_id":"levelo_inurba_marseille","lat":43.294153,"lon":5.386305,"is_reserved":false,"is_disabled":false,"rental_uris":{"android":"levelo://app?vid=c72086f8-515a-44bb-8b25-1d1c22e0e947","ios":"levelo://app?vid=c72086f8-515a-44bb-8b25-1d1c22e0e947"},"vehicle_type_id":"4","last_reported":1691647746,"current_range_meters":31200,"station_id":"ce4bh2h2rcd13ifvqdh0","pricing_plan_id":"free"},{"bike_id":"4bcb2fac-a12f-4fce-acb0-59d478877d3e","system_id":"levelo_inurba_marseille","lat":43.29417,"lon":5.3862,"is_reserved":false,"is_disabled":false,"rental_uris":{"android":"levelo://app?vid=4bcb2fac-a12f-4fce-acb0-59d478877d3e","ios":"levelo://app?vid=4bcb2fac-a12f-4fce-acb0-59d478877d3e"},"vehicle_type_id":"4","last_reported":1691647746,"current_range_meters":31200,"station_id":"ce4bh2h2rcd13ifvqdh0","pricing_plan_id":"free"},{"bike_id":"93a4dd71-55bd-49c8-9eeb-69d13f226dd4","system_id":"levelo_inurba_marseille","lat":43.29035,"lon":5.37567,"is_reserved":false,"is_disabled":false,"rental_uris":{"android":"levelo://app?vid=93a4dd71-55bd-49c8-9eeb-69d13f226dd4","ios":"levelo://app?vid=93a4dd71-55bd-49c8-9eeb-69d13f226dd4"},"vehicle_type_id":"4","last_reported":1691647746,"current_range_meters":31200,"station_id":"","pricing_plan_id":"free"},{"bike_id":"effe87c8-1332-4542-a7b0-395d8fbd7384","system_id":"levelo_inurba_marseille","lat":43.290327,"lon":5.375711,"is_reserved":false,"is_disabled":false,"rental_uris":{"android":"levelo://app?vid=effe87c8-1332-4542-a7b0-395d8fbd7384","ios":"levelo://app?vid=effe87c8-1332-4542-a7b0-395d8fbd7384"},"vehicle_type_id":"4","last_reported":1691647746,"current_range_meters":7600,"station_id":"ce4bh692rcd13ifvqe90","pricing_plan_id":"free"},{"bike_id":"8057b2a3-e5a4-4ea8-b91c-5e0a431aa2ed","system_id":"levelo_inurba_marseille","lat":43.290327,"lon":5.375711,"is_reserved":false,"is_disabled":false,"rental_uris":{"android":"levelo://app?vid=8057b2a3-e5a4-4ea8-b91c-5e0a431aa2ed","ios":"levelo://app?vid=8057b2a3-e5a4-4ea8-b91c-5e0a431aa2ed"},"vehicle_type_id":"4","last_reported":1691647746,"current_range_meters":31200,"station_id":"ce4bh692rcd13ifvqe90","pricing_plan_id":"free"},{"bike_id":"2496a934-aaef-4d94-9d3d-04a35682d007","system_id":"levelo_inurba_marseille","lat":43.294153,"lon":5.386305,"is_reserved":false,"is_disabled":false,"rental_uris":{"android":"levelo://app?vid=2496a934-aaef-4d94-9d3d-04a35682d007","ios":"levelo://app?vid=2496a934-aaef-4d94-9d3d-04a35682d007"},"vehicle_type_id":"4","last_reported":1691647746,"current_range_meters":28400,"station_id":"ce4bh2h2rcd13ifvqdh0","pricing_plan_id":"free"},{"bike_id":"589d2da8-beee-4e2f-9ad5-d7b1d5b78862","system_id":"levelo_inurba_marseille","lat":43.289468,"lon":5.363719,"is_reserved":false,"is_disabled":false,"rental_uris":{"android":"levelo://app?vid=589d2da8-beee-4e2f-9ad5-d7b1d5b78862","ios":"levelo://app?vid=589d2da8-beee-4e2f-9ad5-d7b1d5b78862"},"vehicle_type_id":"4","last_reported":1691647746,"current_range_meters":30400,"station_id":"ce4bhc92rcd13ifvqetg","pricing_plan_id":"free"},{"bike_id":"cc53ec21-09ca-4507-8513-d491ecb4fd1a","system_id":"levelo_inurba_marseille","lat":43.29025,"lon":5.37569,"is_reserved":false,"is_disabled":false,"rental_uris":{"android":"levelo://app?vid=cc53ec21-09ca-4507-8513-d491ecb4fd1a","ios":"levelo://app?vid=cc53ec21-09ca-4507-8513-d491ecb4fd1a"},"vehicle_type_id":"4","last_reported":1691647746,"current_range_meters":31200,"station_id":"ce4bh692rcd13ifvqe90","pricing_plan_id":"free"},{"bike_id":"7364c00e-70ab-45d3-9068-f9dd8e701b61","system_id":"levelo_inurba_marseille","lat":43.28936,"lon":5.36631,"is_reserved":false,"is_disabled":false,"rental_uris":{"android":"levelo://app?vid=7364c00e-70ab-45d3-9068-f9dd8e701b61","ios":"levelo://app?vid=7364c00e-70ab-45d3-9068-f9dd8e701b61"},"vehicle_type_id":"4","last_reported":1691647746,"current_range_meters":23200,"station_id":"ce4bhap2rcd13ifvqek0","pricing_plan_id":"free"},{"bike_id":"7dca358e-a90a-4baf-8300-7b21bc8b9b17","system_id":"levelo_inurba_marseille","lat":43.289468,"lon":5.363719,"is_reserved":false,"is_disabled":false,"rental_uris":{"android":"levelo://app?vid=7dca358e-a90a-4baf-8300-7b21bc8b9b17","ios":"levelo://app?vid=7dca358e-a90a-4baf-8300-7b21bc8b9b17"},"vehicle_type_id":"4","last_reported":1691647746,"current_range_meters":31200,"station_id":"ce4bhc92rcd13ifvqetg","pricing_plan_id":"free"},{"bike_id":"e3e1cec8-921a-4628-a247-bf7498e69345","system_id":"levelo_inurba_marseille","lat":43.28934,"lon":5.36633,"is_reserved":false,"is_disabled":false,"rental_uris":{"android":"levelo://app?vid=e3e1cec8-921a-4628-a247-bf7498e69345","ios":"levelo://app?vid=e3e1cec8-921a-4628-a247-bf7498e69345"},"vehicle_type_id":"4","last_reported":1691647746,"current_range_meters":0,"station_id":"ce4bhap2rcd13ifvqek0","pricing_plan_id":"free"},{"bike_id":"07ce1ad6-44b1-4fef-898e-fb96e70e0b76","system_id":"levelo_inurba_marseille","lat":43.28933,"lon":5.36626,"is_reserved":false,"is_disabled":false,"rental_uris":{"android":"levelo://app?vid=07ce1ad6-44b1-4fef-898e-fb96e70e0b76","ios":"levelo://app?vid=07ce1ad6-44b1-4fef-898e-fb96e70e0b76"},"vehicle_type_id":"4","last_reported":1691647746,"current_range_meters":30000,"station_id":"ce4bhap2rcd13ifvqek0","pricing_plan_id":"free"},{"bike_id":"4f326880-c603-4e5a-8417-752fc026ce66","system_id":"levelo_inurba_marseille","lat":43.29041,"lon":5.399634,"is_reserved":false,"is_disabled":false,"rental_uris":{"android":"levelo://app?vid=4f326880-c603-4e5a-8417-752fc026ce66","ios":"levelo://app?vid=4f326880-c603-4e5a-8417-752fc026ce66"},"vehicle_type_id":"4","last_reported":1691647746,"current_range_meters":8000,"station_id":"ce4bh392rcd13ifvqdm0","pricing_plan_id":"free"},{"bike_id":"222a51df-734d-4b20-824a-1e329d4b9ab7","system_id":"levelo_inurba_marseille","lat":43.292642,"lon":5.384254,"is_reserved":false,"is_disabled":false,"rental_uris":{"android":"levelo://app?vid=222a51df-734d-4b20-824a-1e329d4b9ab7","ios":"levelo://app?vid=222a51df-734d-4b20-824a-1e329d4b9ab7"},"vehicle_type_id":"4","last_reported":1691647746,"current_range_meters":2800,"station_id":"ce4bh692rcd13ifvqea0","pricing_plan_id":"free"},{"bike_id":"cd18ec56-e060-43f8-abdc-69c3f20377dc","system_id":"levelo_inurba_marseille","lat":43.3044,"lon":5.39749,"is_reserved":false,"is_disabled":false,"rental_uris":{"android":"levelo://app?vid=cd18ec56-e060-43f8-abdc-69c3f20377dc","ios":"levelo://app?vid=cd18ec56-e060-43f8-abdc-69c3f20377dc"},"vehicle_type_id":"4","last_reported":1691647746,"current_range_meters":30400,"station_id":"ce4bh092rcd13ifvqd20","pricing_plan_id":"free"},{"bike_id":"6ffb5f7f-9ea3-40b7-a8b7-4db523dcb586","system_id":"levelo_inurba_marseille","lat":43.304274,"lon":5.397513,"is_reserved":false,"is_disabled":false,"rental_uris":{"android":"levelo://app?vid=6ffb5f7f-9ea3-40b7-a8b7-4db523dcb586","ios":"levelo://app?vid=6ffb5f7f-9ea3-40b7-a8b7-4db523dcb586"},"vehicle_type_id":"4","last_reported":1691647746,"current_range_meters":11200,"station_id":"ce4bh092rcd13ifvqd20","pricing_plan_id":"free"},{"bike_id":"1c5b63a0-5824-43fd-b3ed-53009cd8dcab","system_id":"levelo_inurba_marseille","lat":43.3304,"lon":5.38914,"is_reserved":false,"is_disabled":false,"rental_uris":{"android":"levelo://app?vid=1c5b63a0-5824-43fd-b3ed-53009cd8dcab","ios":"levelo://app?vid=1c5b63a0-5824-43fd-b3ed-53009cd8dcab"},"vehicle_type_id":"4","last_reported":1691647746,"current_range_meters":18800,"station_id":"ce4bhr92rcd13ifvqhrg","pricing_plan_id":"free"},{"bike_id":"f71aed5b-352a-4d4c-967b-b7e0283ec3d5","system_id":"levelo_inurba_marseille","lat":43.33043,"lon":5.38913,"is_reserved":false,"is_disabled":false,"rental_uris":{"android":"levelo://app?vid=f71aed5b-352a-4d4c-967b-b7e0283ec3d5","ios":"levelo://app?vid=f71aed5b-352a-4d4c-967b-b7e0283ec3d5"},"vehicle_type_id":"4","last_reported":1691647746,"current_range_meters":26400,"station_id":"ce4bhr92rcd13ifvqhrg","pricing_plan_id":"free"},{"bike_id":"1c79b98b-e834-4ec1-8c0a-11564463e8c3","system_id":"levelo_inurba_marseille","lat":43.33038,"lon":5.38922,"is_reserved":false,"is_disabled":false,"rental_uris":{"android":"levelo://app?vid=1c79b98b-e834-4ec1-8c0a-11564463e8c3","ios":"levelo://app?vid=1c79b98b-e834-4ec1-8c0a-11564463e8c3"},"vehicle_type_id":"4","last_reported":1691647746,"current_range_meters":4400,"station_id":"ce4bhr92rcd13ifvqhrg","pricing_plan_id":"free"},{"bike_id":"1d39cb6b-9879-4e3f-8a27-1c570603366e","system_id":"levelo_inurba_marseille","lat":43.33046,"lon":5.3891,"is_reserved":false,"is_disabled":false,"rental_uris":{"android":"levelo://app?vid=1d39cb6b-9879-4e3f-8a27-1c570603366e","ios":"levelo://app?vid=1d39cb6b-9879-4e3f-8a27-1c570603366e"},"vehicle_type_id":"4","last_reported":1691647746,"current_range_meters":30400,"station_id":"ce4bhr92rcd13ifvqhrg","pricing_plan_id":"free"},{"bike_id":"1442a7a3-ff71-4544-9c28-09ad90a2fdad","system_id":"levelo_inurba_marseille","lat":43.33041,"lon":5.38918,"is_reserved":false,"is_disabled":false,"rental_uris":{"android":"levelo://app?vid=1442a7a3-ff71-4544-9c28-09ad90a2fdad","ios":"levelo://app?vid=1442a7a3-ff71-4544-9c28-09ad90a2fdad"},"vehicle_type_id":"4","last_reported":1691647746,"current_range_meters":14800,"station_id":"ce4bhr92rcd13ifvqhrg","pricing_plan_id":"free"},{"bike_id":"f8bf6a9c-58da-4368-a1c1-f966be94a14b","system_id":"levelo_inurba_marseille","lat":43.33041,"lon":5.38923,"is_reserved":false,"is_disabled":false,"rental_uris":{"android":"levelo://app?vid=f8bf6a9c-58da-4368-a1c1-f966be94a14b","ios":"levelo://app?vid=f8bf6a9c-58da-4368-a1c1-f966be94a14b"},"vehicle_type_id":"4","last_reported":1691647746,"current_range_meters":28400,"station_id":"ce4bhr92rcd13ifvqhrg","pricing_plan_id":"free"},{"bike_id":"7b78d55e-e99c-4fa7-968a-c672d6912f00","system_id":"levelo_inurba_marseille","lat":43.290104,"lon":5.356111,"is_reserved":false,"is_disabled":false,"rental_uris":{"android":"levelo://app?vid=7b78d55e-e99c-4fa7-968a-c672d6912f00","ios":"levelo://app?vid=7b78d55e-e99c-4fa7-968a-c672d6912f00"},"vehicle_type_id":"4","last_reported":1691647746,"current_range_meters":32000,"station_id":"ce4bhb92rcd13ifvqen0","pricing_plan_id":"free"},{"bike_id":"749612e1-53a8-409f-8649-ba086192e9d6","system_id":"levelo_inurba_marseille","lat":43.290104,"lon":5.356111,"is_reserved":false,"is_disabled":false,"rental_uris":{"android":"levelo://app?vid=749612e1-53a8-409f-8649-ba086192e9d6","ios":"levelo://app?vid=749612e1-53a8-409f-8649-ba086192e9d6"},"vehicle_type_id":"4","last_reported":1691647746,"current_range_meters":5600,"station_id":"ce4bhb92rcd13ifvqen0","pricing_plan_id":"free"},{"bike_id":"d92191b5-3897-428d-989c-4b986c7a7e64","system_id":"levelo_inurba_marseille","lat":43.29003,"lon":5.35605,"is_reserved":false,"is_disabled":false,"rental_uris":{"android":"levelo://app?vid=d92191b5-3897-428d-989c-4b986c7a7e64","ios":"levelo://app?vid=d92191b5-3897-428d-989c-4b986c7a7e64"},"vehicle_type_id":"4","last_reported":1691647746,"current_range_meters":29600,"station_id":"ce4bhb92rcd13ifvqen0","pricing_plan_id":"free"},{"bike_id":"258284d3-f7e9-46f6-b971-216749f7fced","system_id":"levelo_inurba_marseille","lat":43.290104,"lon":5.356111,"is_reserved":false,"is_disabled":false,"rental_uris":{"android":"levelo://app?vid=258284d3-f7e9-46f6-b971-216749f7fced","ios":"levelo://app?vid=258284d3-f7e9-46f6-b971-216749f7fced"},"vehicle_type_id":"4","last_reported":1691647746,"current_range_meters":21600,"station_id":"ce4bhb92rcd13ifvqen0","pricing_plan_id":"free"},{"bike_id":"b8a49fd5-a6df-4c6b-9a07-49f1a8160363","system_id":"levelo_inurba_marseille","lat":43.31271,"lon":5.40161,"is_reserved":false,"is_disabled":false,"rental_uris":{"android":"levelo://app?vid=b8a49fd5-a6df-4c6b-9a07-49f1a8160363","ios":"levelo://app?vid=b8a49fd5-a6df-4c6b-9a07-49f1a8160363"},"vehicle_type_id":"4","last_reported":1691647746,"current_range_meters":26400,"station_id":"ce4bh092rcd13ifvqd30","pricing_plan_id":"free"},{"bike_id":"1cf93978-bcf6-4332-a1f4-a806ba3bbacc","system_id":"levelo_inurba_marseille","lat":43.312609,"lon":5.401662,"is_reserved":false,"is_disabled":false,"rental_uris":{"android":"levelo://app?vid=1cf93978-bcf6-4332-a1f4-a806ba3bbacc","ios":"levelo://app?vid=1cf93978-bcf6-4332-a1f4-a806ba3bbacc"},"vehicle_type_id":"4","last_reported":1691647746,"current_range_meters":12800,"station_id":"ce4bh092rcd13ifvqd30","pricing_plan_id":"free"},{"bike_id":"529c76dc-9a5c-4dc5-a869-a02368342ed4","system_id":"levelo_inurba_marseille","lat":43.31269,"lon":5.40162,"is_reserved":false,"is_disabled":false,"rental_uris":{"android":"levelo://app?vid=529c76dc-9a5c-4dc5-a869-a02368342ed4","ios":"levelo://app?vid=529c76dc-9a5c-4dc5-a869-a02368342ed4"},"vehicle_type_id":"4","last_reported":1691647746,"current_range_meters":24800,"station_id":"ce4bh092rcd13ifvqd30","pricing_plan_id":"free"},{"bike_id":"f34a5915-1812-4fa3-9b65-04bccadba1c0","system_id":"levelo_inurba_marseille","lat":43.31269,"lon":5.40163,"is_reserved":false,"is_disabled":false,"rental_uris":{"android":"levelo://app?vid=f34a5915-1812-4fa3-9b65-04bccadba1c0","ios":"levelo://app?vid=f34a5915-1812-4fa3-9b65-04bccadba1c0"},"vehicle_type_id":"4","last_reported":1691647746,"current_range_meters":28800,"station_id":"ce4bh092rcd13ifvqd30","pricing_plan_id":"free"},{"bike_id":"6fbe7c27-fd6f-4ff1-bc28-4459cd1f7923","system_id":"levelo_inurba_marseille","lat":43.31277,"lon":5.40164,"is_reserved":false,"is_disabled":false,"rental_uris":{"android":"levelo://app?vid=6fbe7c27-fd6f-4ff1-bc28-4459cd1f7923","ios":"levelo://app?vid=6fbe7c27-fd6f-4ff1-bc28-4459cd1f7923"},"vehicle_type_id":"4","last_reported":1691647746,"current_range_meters":30800,"station_id":"ce4bh092rcd13ifvqd30","pricing_plan_id":"free"},{"bike_id":"75cd8422-1da6-4031-8f91-601a07fca7e2","system_id":"levelo_inurba_marseille","lat":43.31277,"lon":5.40165,"is_reserved":false,"is_disabled":false,"rental_uris":{"android":"levelo://app?vid=75cd8422-1da6-4031-8f91-601a07fca7e2","ios":"levelo://app?vid=75cd8422-1da6-4031-8f91-601a07fca7e2"},"vehicle_type_id":"4","last_reported":1691647746,"current_range_meters":26400,"station_id":"ce4bh092rcd13ifvqd30","pricing_plan_id":"free"},{"bike_id":"f0b1875f-2a46-4265-a8e4-a4f5997ff23b","system_id":"levelo_inurba_marseille","lat":43.31271,"lon":5.4017,"is_reserved":false,"is_disabled":false,"rental_uris":{"android":"levelo://app?vid=f0b1875f-2a46-4265-a8e4-a4f5997ff23b","ios":"levelo://app?vid=f0b1875f-2a46-4265-a8e4-a4f5997ff23b"},"vehicle_type_id":"4","last_reported":1691647746,"current_range_meters":30400,"station_id":"ce4bh092rcd13ifvqd30","pricing_plan_id":"free"},{"bike_id":"5a3ba953-7d30-4c98-a977-34d2907f02d7","system_id":"levelo_inurba_marseille","lat":43.31283,"lon":5.40171,"is_reserved":false,"is_disabled":false,"rental_uris":{"android":"levelo://app?vid=5a3ba953-7d30-4c98-a977-34d2907f02d7","ios":"levelo://app?vid=5a3ba953-7d30-4c98-a977-34d2907f02d7"},"vehicle_type_id":"4","last_reported":1691647746,"current_range_meters":30400,"station_id":"ce4bh092rcd13ifvqd30","pricing_plan_id":"free"},{"bike_id":"50c4ade6-fa25-4e7f-b0b0-68ab2f9e70f2","system_id":"levelo_inurba_marseille","lat":43.30932,"lon":5.40142,"is_reserved":false,"is_disabled":false,"rental_uris":{"android":"levelo://app?vid=50c4ade6-fa25-4e7f-b0b0-68ab2f9e70f2","ios":"levelo://app?vid=50c4ade6-fa25-4e7f-b0b0-68ab2f9e70f2"},"vehicle_type_id":"4","last_reported":1691647746,"current_range_meters":27200,"station_id":"ce4bgvp2rcd13ifvqct0","pricing_plan_id":"free"},{"bike_id":"4a00bf9d-451f-47c1-86a9-c16bbcf1bea8","system_id":"levelo_inurba_marseille","lat":43.309371,"lon":5.401449,"is_reserved":false,"is_disabled":false,"rental_uris":{"android":"levelo://app?vid=4a00bf9d-451f-47c1-86a9-c16bbcf1bea8","ios":"levelo://app?vid=4a00bf9d-451f-47c1-86a9-c16bbcf1bea8"},"vehicle_type_id":"4","last_reported":1691647746,"current_range_meters":29200,"station_id":"ce4bgvp2rcd13ifvqct0","pricing_plan_id":"free"},{"bike_id":"adb7c281-53cd-4db4-8828-df98bfc187ab","system_id":"levelo_inurba_marseille","lat":43.30933,"lon":5.40144,"is_reserved":false,"is_disabled":false,"rental_uris":{"android":"levelo://app?vid=adb7c281-53cd-4db4-8828-df98bfc187ab","ios":"levelo://app?vid=adb7c281-53cd-4db4-8828-df98bfc187ab"},"vehicle_type_id":"4","last_reported":1691647746,"current_range_meters":30400,"station_id":"ce4bgvp2rcd13ifvqct0","pricing_plan_id":"free"},{"bike_id":"398be01c-a3b9-4b1a-8a6f-22e0c5c14b9b","system_id":"levelo_inurba_marseille","lat":43.30924,"lon":5.40143,"is_reserved":false,"is_disabled":false,"rental_uris":{"android":"levelo://app?vid=398be01c-a3b9-4b1a-8a6f-22e0c5c14b9b","ios":"levelo://app?vid=398be01c-a3b9-4b1a-8a6f-22e0c5c14b9b"},"vehicle_type_id":"4","last_reported":1691647746,"current_range_meters":12400,"station_id":"ce4bgvp2rcd13ifvqct0","pricing_plan_id":"free"},{"bike_id":"94bcd71b-942e-48ed-b8b3-f337cdb50842","system_id":"levelo_inurba_marseille","lat":43.33747,"lon":5.37459,"is_reserved":false,"is_disabled":false,"rental_uris":{"android":"levelo://app?vid=94bcd71b-942e-48ed-b8b3-f337cdb50842","ios":"levelo://app?vid=94bcd71b-942e-48ed-b8b3-f337cdb50842"},"vehicle_type_id":"4","last_reported":1691647746,"current_range_meters":25200,"station_id":"","pricing_plan_id":"free"},{"bike_id":"0a90cbd0-982d-41b5-9012-48702dfc121e","system_id":"levelo_inurba_marseille","lat":43.30928,"lon":5.40144,"is_reserved":false,"is_disabled":false,"rental_uris":{"android":"levelo://app?vid=0a90cbd0-982d-41b5-9012-48702dfc121e","ios":"levelo://app?vid=0a90cbd0-982d-41b5-9012-48702dfc121e"},"vehicle_type_id":"4","last_reported":1691647746,"current_range_meters":22800,"station_id":"ce4bgvp2rcd13ifvqct0","pricing_plan_id":"free"},{"bike_id":"69ff2b15-467e-4498-8594-ebaafd152838","system_id":"levelo_inurba_marseille","lat":43.30926,"lon":5.40145,"is_reserved":false,"is_disabled":false,"rental_uris":{"android":"levelo://app?vid=69ff2b15-467e-4498-8594-ebaafd152838","ios":"levelo://app?vid=69ff2b15-467e-4498-8594-ebaafd152838"},"vehicle_type_id":"4","last_reported":1691647746,"current_range_meters":6800,"station_id":"ce4bgvp2rcd13ifvqct0","pricing_plan_id":"free"},{"bike_id":"62ccfa2c-0892-495b-adff-13a19404ddb6","system_id":"levelo_inurba_marseille","lat":43.30931,"lon":5.40146,"is_reserved":false,"is_disabled":false,"rental_uris":{"android":"levelo://app?vid=62ccfa2c-0892-495b-adff-13a19404ddb6","ios":"levelo://app?vid=62ccfa2c-0892-495b-adff-13a19404ddb6"},"vehicle_type_id":"4","last_reported":1691647746,"current_range_meters":30800,"station_id":"ce4bgvp2rcd13ifvqct0","pricing_plan_id":"free"},{"bike_id":"f02efca3-3b28-4756-a143-cb945536c921","system_id":"levelo_inurba_marseille","lat":43.30939,"lon":5.40148,"is_reserved":false,"is_disabled":false,"rental_uris":{"android":"levelo://app?vid=f02efca3-3b28-4756-a143-cb945536c921","ios":"levelo://app?vid=f02efca3-3b28-4756-a143-cb945536c921"},"vehicle_type_id":"4","last_reported":1691647746,"current_range_meters":30800,"station_id":"ce4bgvp2rcd13ifvqct0","pricing_plan_id":"free"},{"bike_id":"d9addfb0-cebc-4fbd-b821-fecd6eed02b2","system_id":"levelo_inurba_marseille","lat":43.30927,"lon":5.40147,"is_reserved":false,"is_disabled":false,"rental_uris":{"android":"levelo://app?vid=d9addfb0-cebc-4fbd-b821-fecd6eed02b2","ios":"levelo://app?vid=d9addfb0-cebc-4fbd-b821-fecd6eed02b2"},"vehicle_type_id":"4","last_reported":1691647746,"current_range_meters":28800,"station_id":"ce4bgvp2rcd13ifvqct0","pricing_plan_id":"free"},{"bike_id":"8f310142-6315-41cd-8830-29ee6c85dfd2","system_id":"levelo_inurba_marseille","lat":43.30639,"lon":5.40069,"is_reserved":false,"is_disabled":false,"rental_uris":{"android":"levelo://app?vid=8f310142-6315-41cd-8830-29ee6c85dfd2","ios":"levelo://app?vid=8f310142-6315-41cd-8830-29ee6c85dfd2"},"vehicle_type_id":"4","last_reported":1691647746,"current_range_meters":30400,"station_id":"ce4bh112rcd13ifvqda0","pricing_plan_id":"free"},{"bike_id":"12bf16df-d3cf-420d-9f4c-3224c71815c1","system_id":"levelo_inurba_marseille","lat":43.30644,"lon":5.40071,"is_reserved":false,"is_disabled":false,"rental_uris":{"android":"levelo://app?vid=12bf16df-d3cf-420d-9f4c-3224c71815c1","ios":"levelo://app?vid=12bf16df-d3cf-420d-9f4c-3224c71815c1"},"vehicle_type_id":"4","last_reported":1691647746,"current_range_meters":25600,"station_id":"ce4bh112rcd13ifvqda0","pricing_plan_id":"free"},{"bike_id":"49c7ac9e-3ae7-46e0-8292-3a3c70fc074f","system_id":"levelo_inurba_marseille","lat":43.30927,"lon":5.40148,"is_reserved":false,"is_disabled":false,"rental_uris":{"android":"levelo://app?vid=49c7ac9e-3ae7-46e0-8292-3a3c70fc074f","ios":"levelo://app?vid=49c7ac9e-3ae7-46e0-8292-3a3c70fc074f"},"vehicle_type_id":"4","last_reported":1691647746,"current_range_meters":14800,"station_id":"ce4bgvp2rcd13ifvqct0","pricing_plan_id":"free"},{"bike_id":"7ababcee-d646-4709-8369-565becc9cf6b","system_id":"levelo_inurba_marseille","lat":43.30642,"lon":5.40072,"is_reserved":false,"is_disabled":false,"rental_uris":{"android":"levelo://app?vid=7ababcee-d646-4709-8369-565becc9cf6b","ios":"levelo://app?vid=7ababcee-d646-4709-8369-565becc9cf6b"},"vehicle_type_id":"4","last_reported":1691647746,"current_range_meters":13600,"station_id":"ce4bh112rcd13ifvqda0","pricing_plan_id":"free"},{"bike_id":"3c7690e5-a5bc-4ab1-a472-223dc78675aa","system_id":"levelo_inurba_marseille","lat":43.3063,"lon":5.40068,"is_reserved":false,"is_disabled":false,"rental_uris":{"android":"levelo://app?vid=3c7690e5-a5bc-4ab1-a472-223dc78675aa","ios":"levelo://app?vid=3c7690e5-a5bc-4ab1-a472-223dc78675aa"},"vehicle_type_id":"4","last_reported":1691647746,"current_range_meters":14800,"station_id":"ce4bh112rcd13ifvqda0","pricing_plan_id":"free"},{"bike_id":"5e74cdda-b3fa-4460-9e92-c87ff726f8ef","system_id":"levelo_inurba_marseille","lat":43.30924,"lon":5.40149,"is_reserved":false,"is_disabled":false,"rental_uris":{"android":"levelo://app?vid=5e74cdda-b3fa-4460-9e92-c87ff726f8ef","ios":"levelo://app?vid=5e74cdda-b3fa-4460-9e92-c87ff726f8ef"},"vehicle_type_id":"4","last_reported":1691647746,"current_range_meters":3600,"station_id":"ce4bgvp2rcd13ifvqct0","pricing_plan_id":"free"},{"bike_id":"c9c2d5d5-8543-4b3c-a315-6d85a0dcb786","system_id":"levelo_inurba_marseille","lat":43.30932,"lon":5.40154,"is_reserved":false,"is_disabled":false,"rental_uris":{"android":"levelo://app?vid=c9c2d5d5-8543-4b3c-a315-6d85a0dcb786","ios":"levelo://app?vid=c9c2d5d5-8543-4b3c-a315-6d85a0dcb786"},"vehicle_type_id":"4","last_reported":1691647746,"current_range_meters":24000,"station_id":"ce4bgvp2rcd13ifvqct0","pricing_plan_id":"free"},{"bike_id":"0d5fe8ff-262f-4caf-9296-b73a969e9afc","system_id":"levelo_inurba_marseille","lat":43.30635,"lon":5.40074,"is_reserved":false,"is_disabled":false,"rental_uris":{"android":"levelo://app?vid=0d5fe8ff-262f-4caf-9296-b73a969e9afc","ios":"levelo://app?vid=0d5fe8ff-262f-4caf-9296-b73a969e9afc"},"vehicle_type_id":"4","last_reported":1691647746,"current_range_meters":31200,"station_id":"ce4bh112rcd13ifvqda0","pricing_plan_id":"free"},{"bike_id":"3248a221-d0b5-412e-82db-c7b3781c5b75","system_id":"levelo_inurba_marseille","lat":43.30642,"lon":5.401031,"is_reserved":false,"is_disabled":false,"rental_uris":{"android":"levelo://app?vid=3248a221-d0b5-412e-82db-c7b3781c5b75","ios":"levelo://app?vid=3248a221-d0b5-412e-82db-c7b3781c5b75"},"vehicle_type_id":"4","last_reported":1691647746,"current_range_meters":25600,"station_id":"ce4bh112rcd13ifvqda0","pricing_plan_id":"free"},{"bike_id":"587f2a5e-97aa-4562-ad3a-7a9ad8b5b318","system_id":"levelo_inurba_marseille","lat":43.33755,"lon":5.37463,"is_reserved":false,"is_disabled":false,"rental_uris":{"android":"levelo://app?vid=587f2a5e-97aa-4562-ad3a-7a9ad8b5b318","ios":"levelo://app?vid=587f2a5e-97aa-4562-ad3a-7a9ad8b5b318"},"vehicle_type_id":"4","last_reported":1691647746,"current_range_meters":27200,"station_id":"","pricing_plan_id":"free"},{"bike_id":"a8898336-eac9-487e-abc8-5e5e499aa2ca","system_id":"levelo_inurba_marseille","lat":43.30641,"lon":5.40079,"is_reserved":false,"is_disabled":false,"rental_uris":{"android":"levelo://app?vid=a8898336-eac9-487e-abc8-5e5e499aa2ca","ios":"levelo://app?vid=a8898336-eac9-487e-abc8-5e5e499aa2ca"},"vehicle_type_id":"4","last_reported":1691647746,"current_range_meters":25200,"station_id":"ce4bh112rcd13ifvqda0","pricing_plan_id":"free"},