{"last_updated":1703632050,"ttl":30,"version":"2.2","data":{"bikes":[{"bike_id":"a25f4aab-f089-4843-af85-886aa79c6d7e","system_id":"levelo_inurba_marseille","lat":43.312239,"lon":5.368562,"is_reserved":false,"is_disabled":false,"rental_uris":{"android":"levelo://app?vid=a25f4aab-f089-4843-af85-886aa79c6d7e","ios":"levelo://app?vid=a25f4aab-f089-4843-af85-886aa79c6d7e"},"vehicle_type_id":"4","last_reported":1703632050,"current_range_meters":24000,"station_id":"ce4bgl92rcd13ifvqbq0","pricing_plan_id":"free"},{"bike_id":"918d1ee6-ccef-43f1-a78b-6eb4343b5867","system_id":"levelo_inurba_marseille","lat":43.312239,"lon":5.368562,"is_reserved":false,"is_disabled":false,"rental_uris":{"android":"levelo://app?vid=918d1ee6-ccef-43f1-a78b-6eb4343b5867","ios":"levelo://app?vid=918d1ee6-ccef-43f1-a78b-6eb4343b5867"},"vehicle_type_id":"4","last_reported":1703632050,"current_range_meters":6800,"station_id":"ce4bgl92rcd13ifvqbq0","pricing_plan_id":"free"},{"bike_id":"359a5d7c-9e6a-470e-bb1c-233de3183714","system_id":"levelo_inurba_marseille","lat":43.312239,"lon":5.368562,"is_reserved":false,"is_disabled":false,"rental_uris":{"android":"levelo://app?vid=359a5d7c-9e6a-470e-bb1c-233de3183714","ios":"levelo://app?vid=359a5d7c-9e6a-470e-bb1c-233de3183714"},"vehicle_type_id":"4","last_reported":1703632050,"current_range_meters":25600,"station_id":"ce4bgl92rcd13ifvqbq0","pricing_plan_id":"free"},{"bike_id":"e075fba3-6aba-4538-a7e2-5aaeb94b9f46","system_id":"levelo_inurba_marseille","lat":43.312239,"lon":5.368562,"is_reserved":false,"is_disabled":false,"rental_uris":{"android":"levelo://app?vid=e075fba3-6aba-4538-a7e2-5aaeb94b9f46","ios":"levelo://app?vid=e075fba3-6aba-4538-a7e2-5aaeb94b9f46"},"vehicle_type_id":"4","last_reported":1703632050,"current_range_meters":20000,"station_id":"ce4bgl92rcd13ifvqbq0","pricing_plan_id":"free"},{"bike_id":"ff03b6fc-d42e-4c73-8278-51355d9b5b4e","system_id":"levelo_inurba_marseille","lat":43.3149,"lon":5.37301,"is_reserved":false,"is_disabled":false,"rental_uris":{"android":"levelo://app?vid=ff03b6fc-d42e-4c73-8278-51355d9b5b4e","ios":"levelo://app?vid=ff03b6fc-d42e-4c73-8278-51355d9b5b4e"},"vehicle_type_id":"4","last_reported":1703632050,"current_range_meters":19600,"station_id":"","pricing_plan_id":"free"},{"bike_id":"97502ab0-b074-477a-8e64-8e12ca35fa4b","system_id":"levelo_inurba_marseille","lat":43.314811,"lon":5.373104,"is_reserved":false,"is_disabled":false,"rental_uris":{"android":"levelo://app?vid=97502ab0-b074-477a-8e64-8e12ca35fa4b","ios":"levelo://app?vid=97502ab0-b074-477a-8e64-8e12ca35fa4b"},"vehicle_type_id":"4","last_reported":1703632050,"current_range_meters":22400,"station_id":"ce4bgt12rcd13ifvqcd0","pricing_plan_id":"free"},{"bike_id":"c6b2834a-ff3d-4d5e-926d-fdef273be535","system_id":"levelo_inurba_marseille","lat":43.314811,"lon":5.373103,"is_reserved":false,"is_disabled":false,"rental_uris":{"android":"levelo://app?vid=c6b2834a-ff3d-4d5e-926d-fdef273be535","ios":"levelo://app?vid=c6b2834a-ff3d-4d5e-926d-fdef273be535"},"vehicle_type_id":"4","last_reported":1703632050,"current_range_meters":20400,"station_id":"ce4bgt12rcd13ifvqcd0","pricing_plan_id":"free"},{"bike_id":"94d95998-ccd6-4a91-8e8c-66895ed3b333","system_id":"levelo_inurba_marseille","lat":43.309039,"lon":5.371797,"is_reserved":false,"is_disabled":false,"rental_uris":{"android":"levelo://app?vid=94d95998-ccd6-4a91-8e8c-66895ed3b333","ios":"levelo://app?vid=94d95998-ccd6-4a91-8e8c-66895ed3b333"},"vehicle_type_id":"4","last_reported":1703632050,"current_range_meters":19600,"station_id":"ce4bguh2rcd13ifvqckg","pricing_plan_id":"free"},{"bike_id":"b188ea05-75d2-48e4-9a1d-c00cacf47457","system_id":"levelo_inurba_marseille","lat":43.309039,"lon":5.371797,"is_reserved":false,"is_disabled":false,"rental_uris":{"android":"levelo://app?vid=b188ea05-75d2-48e4-9a1d-c00cacf47457","ios":"levelo://app?vid=b188ea05-75d2-48e4-9a1d-c00cacf47457"},"vehicle_type_id":"4","last_reported":1703632050,"current_range_meters":28000,"station_id":"ce4bguh2rcd13ifvqckg","pricing_plan_id":"free"},{"bike_id":"98fc8f36-009c-49c0-bde9-eaacf0237add","system_id":"levelo_inurba_marseille","lat":43.31488,"lon":5.37395,"is_reserved":false,"is_disabled":false,"rental_uris":{"android":"levelo://app?vid=98fc8f36-009c-49c0-bde9-eaacf0237add","ios":"levelo://app?vid=98fc8f36-009c-49c0-bde9-eaacf0237add"},"vehicle_type_id":"4","last_reported":1703632050,"current_range_meters":24400,"station_id":"","pricing_plan_id":"free"},{"bike_id":"437be774-9347-4f56-865e-861017296255","system_id":"levelo_inurba_marseille","lat":43.318964,"lon":5.36877,"is_reserved":false,"is_disabled":false,"rental_uris":{"android":"levelo://app?vid=437be774-9347-4f56-865e-861017296255","ios":"levelo://app?vid=437be774-9347-4f56-865e-861017296255"},"vehicle_type_id":"4","last_reported":1703632050,"current_range_meters":10400,"station_id":"","pricing_plan_id":"free"},{"bike_id":"f4a21fd0-b277-4f4d-937e-9a7033e31ba2","system_id":"levelo_inurba_marseille","lat":43.31128,"lon":5.37754,"is_reserved":false,"is_disabled":false,"rental_uris":{"android":"levelo://app?vid=f4a21fd0-b277-4f4d-937e-9a7033e31ba2","ios":"levelo://app?vid=f4a21fd0-b277-4f4d-937e-9a7033e31ba2"},"vehicle_type_id":"4","last_reported":1703632050,"current_range_meters":23200,"station_id":"ce4bgt92rcd13ifvqcg0","pricing_plan_id":"free"},{"bike_id":"d58aeaf5-1bb7-4025-8b1c-898243efe6ee","system_id":"levelo_inurba_marseille","lat":43.311131,"lon":5.377651,"is_reserved":false,"is_disabled":false,"rental_uris":{"android":"levelo://app?vid=d58aeaf5-1bb7-4025-8b1c-898243efe6ee","ios":"levelo://app?vid=d58aeaf5-1bb7-4025-8b1c-898243efe6ee"},"vehicle_type_id":"4","last_reported":1703632050,"current_range_meters":24400,"station_id":"ce4bgt92rcd13ifvqcg0","pricing_plan_id":"free"},{"bike_id":"dc4c4455-6090-4511-b54c-37c802dcab4f","system_id":"levelo_inurba_marseille","lat":43.31121,"lon":5.37764,"is_reserved":false,"is_disabled":false,"rental_uris":{"android":"levelo://app?vid=dc4c4455-6090-4511-b54c-37c802dcab4f","ios":"levelo://app?vid=dc4c4455-6090-4511-b54c-37c802dcab4f"},"vehicle_type_id":"4","last_reported":1703632050,"current_range_meters":24000,"station_id":"ce4bgt92rcd13ifvqcg0","pricing_plan_id":"free"},{"bike_id":"4ccb7dd7-30cc-4cb6-b63d-77aef7ebffae","system_id":"levelo_inurba_marseille","lat":43.311178,"lon":5.377652,"is_reserved":false,"is_disabled":false,"rental_uris":{"android":"levelo://app?vid=4ccb7dd7-30cc-4cb6-b63d-77aef7ebffae","ios":"levelo://app?vid=4ccb7dd7-30cc-4cb6-b63d-77aef7ebffae"},"vehicle_type_id":"4","last_reported":1703632050,"current_range_meters":22400,"station_id":"ce4bgt92rcd13ifvqcg0","pricing_plan_id":"free"},{"bike_id":"de5a5de1-5fe5-42e3-9c3f-34e8b3df6b65","system_id":"levelo_inurba_marseille","lat":43.311194,"lon":5.37766,"is_reserved":false,"is_disabled":false,"rental_uris":{"android":"levelo://app?vid=de5a5de1-5fe5-42e3-9c3f-34e8b3df6b65","ios":"levelo://app?vid=de5a5de1-5fe5-42e3-9c3f-34e8b3df6b65"},"vehicle_type_id":"4","last_reported":1703632050,"current_range_meters":17200,"station_id":"ce4bgt92rcd13ifvqcg0","pricing_plan_id":"free"},{"bike_id":"52785944-f7ec-4d44-853a-c685a49aa2ff","system_id":"levelo_inurba_marseille","lat":43.311125,"lon":5.377624,"is_reserved":false,"is_disabled":false,"rental_uris":{"android":"levelo://app?vid=52785944-f7ec-4d44-853a-c685a49aa2ff","ios":"levelo://app?vid=52785944-f7ec-4d44-853a-c685a49aa2ff"},"vehicle_type_id":"4","last_reported":1703632050,"current_range_meters":30400,"station_id":"ce4bgt92rcd13ifvqcg0","pricing_plan_id":"free"},{"bike_id":"4d253966-2b1d-4f80-a6e0-281d872c687a","system_id":"levelo_inurba_marseille","lat":43.316939,"lon":5.37712,"is_reserved":false,"is_disabled":false,"rental_uris":{"android":"levelo://app?vid=4d253966-2b1d-4f80-a6e0-281d872c687a","ios":"levelo://app?vid=4d253966-2b1d-4f80-a6e0-281d872c687a"},"vehicle_type_id":"4","last_reported":1703632050,"current_range_meters":20000,"station_id":"ce4bgth2rcd13ifvqch0","pricing_plan_id":"free"},{"bike_id":"e8f88ded-13b6-489c-a6f9-afa444ec13d3","system_id":"levelo_inurba_marseille","lat":43.307945,"lon":5.376487,"is_reserved":false,"is_disabled":false,"rental_uris":{"android":"levelo://app?vid=e8f88ded-13b6-489c-a6f9-afa444ec13d3","ios":"levelo://app?vid=e8f88ded-13b6-489c-a6f9-afa444ec13d3"},"vehicle_type_id":"4","last_reported":1703632050,"current_range_meters":18800,"station_id":"ce4bgv92rcd13ifvqcq0","pricing_plan_id":"free"},{"bike_id":"45aa06a4-6207-41c0-90de-ff3c39911319","system_id":"levelo_inurba_marseille","lat":43.31528,"lon":5.38029,"is_reserved":false,"is_disabled":false,"rental_uris":{"android":"levelo://app?vid=45aa06a4-6207-41c0-90de-ff3c39911319","ios":"levelo://app?vid=45aa06a4-6207-41c0-90de-ff3c39911319"},"vehicle_type_id":"4","last_reported":1703632050,"current_range_meters":27600,"station_id":"ce4bhsp2rcd13ifvqi50","pricing_plan_id":"free"},{"bike_id":"e3ff6261-acbc-4588-9895-da94a6fdd93d","system_id":"levelo_inurba_marseille","lat":43.308012,"lon":5.381511,"is_reserved":false,"is_disabled":false,"rental_uris":{"android":"levelo://app?vid=e3ff6261-acbc-4588-9895-da94a6fdd93d","ios":"levelo://app?vid=e3ff6261-acbc-4588-9895-da94a6fdd93d"},"vehicle_type_id":"4","last_reported":1703632050,"current_range_meters":13200,"station_id":"ce4bgt12rcd13ifvqce0","pricing_plan_id":"free"},{"bike_id":"f5c0e4d6-16bd-47eb-ba92-aa201d0984ce","system_id":"levelo_inurba_marseille","lat":43.324771,"lon":5.36557,"is_reserved":false,"is_disabled":false,"rental_uris":{"android":"levelo://app?vid=f5c0e4d6-16bd-47eb-ba92-aa201d0984ce","ios":"levelo://app?vid=f5c0e4d6-16bd-47eb-ba92-aa201d0984ce"},"vehicle_type_id":"4","last_reported":1703632050,"current_range_meters":27600,"station_id":"ce4bhs12rcd13ifvqhvg","pricing_plan_id":"free"},{"bike_id":"e101af2c-c501-4e28-8d72-12ad3a8d21a2","system_id":"levelo_inurba_marseille","lat":43.324771,"lon":5.36557,"is_reserved":false,"is_disabled":false,"rental_uris":{"android":"levelo://app?vid=e101af2c-c501-4e28-8d72-12ad3a8d21a2","ios":"levelo://app?vid=e101af2c-c501-4e28-8d72-12ad3a8d21a2"},"vehicle_type_id":"4","last_reported":1703632050,"current_range_meters":21600,"station_id":"ce4bhs12rcd13ifvqhvg","pricing_plan_id":"free"},{"bike_id":"422f048e-8e72-4fee-b565-b5e05701ac60","system_id":"levelo_inurba_marseille","lat":43.301453,"lon":5.37416,"is_reserved":false,"is_disabled":false,"rental_uris":{"android":"levelo://app?vid=422f048e-8e72-4fee-b565-b5e05701ac60","ios":"levelo://app?vid=422f048e-8e72-4fee-b565-b5e05701ac60"},"vehicle_type_id":"4","last_reported":1703632050,"current_range_meters":12000,"station_id":"","pricing_plan_id":"free"},{"bike_id":"126ee154-7e97-4e4e-b497-e1972fa3c388","system_id":"levelo_inurba_marseille","lat":43.302784,"lon":5.377158,"is_reserved":false,"is_disabled":false,"rental_uris":{"android":"levelo://app?vid=126ee154-7e97-4e4e-b497-e1972fa3c388","ios":"levelo://app?vid=126ee154-7e97-4e4e-b497-e1972fa3c388"},"vehicle_type_id":"4","last_reported":1703632050,"current_range_meters":25600,"station_id":"ce4bguh2rcd13ifvqcj0","pricing_plan_id":"free"},{"bike_id":"38152aed-cf26-40c3-8064-a9769aeef244","system_id":"levelo_inurba_marseille","lat":43.302784,"lon":5.377158,"is_reserved":false,"is_disabled":false,"rental_uris":{"android":"levelo://app?vid=38152aed-cf26-40c3-8064-a9769aeef244","ios":"levelo://app?vid=38152aed-cf26-40c3-8064-a9769aeef244"},"vehicle_type_id":"4","last_reported":1703632050,"current_range_meters":21600,"station_id":"ce4bguh2rcd13ifvqcj0","pricing_plan_id":"free"},{"bike_id":"9331fef0-7278-4275-900b-d8ada6737113","system_id":"levelo_inurba_marseille","lat":43.30143,"lon":5.37413,"is_reserved":false,"is_disabled":false,"rental_uris":{"android":"levelo://app?vid=9331fef0-7278-4275-900b-d8ada6737113","ios":"levelo://app?vid=9331fef0-7278-4275-900b-d8ada6737113"},"vehicle_type_id":"4","last_reported":1703632050,"current_range_meters":31200,"station_id":"ce4bgs92rcd13ifvqcc0","pricing_plan_id":"free"},{"bike_id":"06a3d9f6-400b-4eee-93b3-92d7c0d966d0","system_id":"levelo_inurba_marseille","lat":43.30143,"lon":5.37413,"is_reserved":false,"is_disabled":false,"rental_uris":{"android":"levelo://app?vid=06a3d9f6-400b-4eee-93b3-92d7c0d966d0","ios":"levelo://app?vid=06a3d9f6-400b-4eee-93b3-92d7c0d966d0"},"vehicle_type_id":"4","last_reported":1703632050,"current_range_meters":29200,"station_id":"ce4bgs92rcd13ifvqcc0","pricing_plan_id":"free"},{"bike_id":"27d287b1-8fbc-47e4-8174-142405c1bb38","system_id":"levelo_inurba_marseille","lat":43.30143,"lon":5.37413,"is_reserved":false,"is_disabled":false,"rental_uris":{"android":"levelo://app?vid=27d287b1-8fbc-47e4-8174-142405c1bb38","ios":"levelo://app?vid=27d287b1-8fbc-47e4-8174-142405c1bb38"},"vehicle_type_id":"4","last_reported":1703632050,"current_range_meters":18800,"station_id":"ce4bgs92rcd13ifvqcc0","pricing_plan_id":"free"},{"bike_id":"c22649f3-1265-440c-a8ba-dd05dfaee232","system_id":"levelo_inurba_marseille","lat":43.301429,"lon":5.37413,"is_reserved":false,"is_disabled":false,"rental_uris":{"android":"levelo://app?vid=c22649f3-1265-440c-a8ba-dd05dfaee232","ios":"levelo://app?vid=c22649f3-1265-440c-a8ba-dd05dfaee232"},"vehicle_type_id":"4","last_reported":1703632050,"current_range_meters":24800,"station_id":"ce4bgs92rcd13ifvqcc0","pricing_plan_id":"free"},{"bike_id":"c7efac43-c91d-45f1-a0c5-9f371f878cc1","system_id":"levelo_inurba_marseille","lat":43.319935,"lon":5.381699,"is_reserved":false,"is_disabled":false,"rental_uris":{"android":"levelo://app?vid=c7efac43-c91d-45f1-a0c5-9f371f878cc1","ios":"levelo://app?vid=c7efac43-c91d-45f1-a0c5-9f371f878cc1"},"vehicle_type_id":"4","last_reported":1703632050,"current_range_meters":8000,"station_id":"ce4bhr12rcd13ifvqhpg","pricing_plan_id":"free"},{"bike_id":"8aba050a-8811-4086-b8e8-4572cc6fcac0","system_id":"levelo_inurba_marseille","lat":43.319935,"lon":5.381699,"is_reserved":false,"is_disabled":false,"rental_uris":{"android":"levelo://app?vid=8aba050a-8811-4086-b8e8-4572cc6fcac0","ios":"levelo://app?vid=8aba050a-8811-4086-b8e8-4572cc6fcac0"},"vehicle_type_id":"4","last_reported":1703632050,"current_range_meters":20800,"station_id":"ce4bhr12rcd13ifvqhpg","pricing_plan_id":"free"},{"bike_id":"49e756e1-b8ae-40b6-b316-e2468fba0cfe","system_id":"levelo_inurba_marseille","lat":43.32002,"lon":5.38154,"is_reserved":false,"is_disabled":false,"rental_uris":{"android":"levelo://app?vid=49e756e1-b8ae-40b6-b316-e2468fba0cfe","ios":"levelo://app?vid=49e756e1-b8ae-40b6-b316-e2468fba0cfe"},"vehicle_type_id":"4","last_reported":1703632050,"current_range_meters":2000,"station_id":"ce4bhr12rcd13ifvqhpg","pricing_plan_id":"free"},{"bike_id":"5c521df4-606b-455d-8167-e197a1f393bb","system_id":"levelo_inurba_marseille","lat":43.301048,"lon":5.374782,"is_reserved":false,"is_disabled":false,"rental_uris":{"android":"levelo://app?vid=5c521df4-606b-455d-8167-e197a1f393bb","ios":"levelo://app?vid=5c521df4-606b-455d-8167-e197a1f393bb"},"vehicle_type_id":"4","last_reported":1703632050,"current_range_meters":6000,"station_id":"","pricing_plan_id":"free"},{"bike_id":"3d038143-c550-4a30-b764-ca1a61881119","system_id":"levelo_inurba_marseille","lat":43.313571,"lon":5.384829,"is_reserved":false,"is_disabled":false,"rental_uris":{"android":"levelo://app?vid=3d038143-c550-4a30-b764-ca1a61881119","ios":"levelo://app?vid=3d038143-c550-4a30-b764-ca1a61881119"},"vehicle_type_id":"4","last_reported":1703632050,"current_range_meters":26000,"station_id":"ce4bgt92rcd13ifvqcf0","pricing_plan_id":"free"},{"bike_id":"07344338-2af1-4d10-86d1-fd0c93da72cb","system_id":"levelo_inurba_marseille","lat":43.299243,"lon":5.37481,"is_reserved":false,"is_disabled":false,"rental_uris":{"android":"levelo://app?vid=07344338-2af1-4d10-86d1-fd0c93da72cb","ios":"levelo://app?vid=07344338-2af1-4d10-86d1-fd0c93da72cb"},"vehicle_type_id":"4","last_reported":1703632050,"current_range_meters":27200,"station_id":"ce4bgjh2rcd13ifvqbg0","pricing_plan_id":"free"},{"bike_id":"b49e7f7f-0e70-4f51-8fce-4b42ee16ac2d","system_id":"levelo_inurba_marseille","lat":43.299243,"lon":5.374807,"is_reserved":false,"is_disabled":false,"rental_uris":{"android":"levelo://app?vid=b49e7f7f-0e70-4f51-8fce-4b42ee16ac2d","ios":"levelo://app?vid=b49e7f7f-0e70-4f51-8fce-4b42ee16ac2d"},"vehicle_type_id":"4","last_reported":1703632050,"current_range_meters":30000,"station_id":"ce4bgjh2rcd13ifvqbg0","pricing_plan_id":"free"},{"bike_id":"7b35961e-ce26-4a19-be21-bf42fab4fce9","system_id":"levelo_inurba_marseille","lat":43.32286,"lon":5.3827,"is_reserved":false,"is_disabled":false,"rental_uris":{"android":"levelo://app?vid=7b35961e-ce26-4a19-be21-bf42fab4fce9","ios":"levelo://app?vid=7b35961e-ce26-4a19-be21-bf42fab4fce9"},"vehicle_type_id":"4","last_reported":1703632050,"current_range_meters":28800,"station_id":"ce4bhr12rcd13ifvqhqg","pricing_plan_id":"free"},{"bike_id":"9f5a96a2-0db8-4b1c-8450-c51d03940f00","system_id":"levelo_inurba_marseille","lat":43.322872,"lon":5.382756,"is_reserved":false,"is_disabled":false,"rental_uris":{"android":"levelo://app?vid=9f5a96a2-0db8-4b1c-8450-c51d03940f00","ios":"levelo://app?vid=9f5a96a2-0db8-4b1c-8450-c51d03940f00"},"vehicle_type_id":"4","last_reported":1703632050,"current_range_meters":28800,"station_id":"ce4bhr12rcd13ifvqhqg","pricing_plan_id":"free"},{"bike_id":"1cecd7ec-d453-43c5-a38d-0ee14477aaf1","system_id":"levelo_inurba_marseille","lat":43.32286,"lon":5.38274,"is_reserved":false,"is_disabled":false,"rental_uris":{"android":"levelo://app?vid=1cecd7ec-d453-43c5-a38d-0ee14477aaf1","ios":"levelo://app?vid=1cecd7ec-d453-43c5-a38d-0ee14477aaf1"},"vehicle_type_id":"4","last_reported":1703632050,"current_range_meters":28000,"station_id":"ce4bhr12rcd13ifvqhqg","pricing_plan_id":"free"},{"bike_id":"5fed18d1-7f81-4167-a351-7c4be7bb7921","system_id":"levelo_inurba_marseille","lat":43.32826,"lon":5.36677,"is_reserved":false,"is_disabled":false,"rental_uris":{"android":"levelo://app?vid=5fed18d1-7f81-4167-a351-7c4be7bb7921","ios":"levelo://app?vid=5fed18d1-7f81-4167-a351-7c4be7bb7921"},"vehicle_type_id":"4","last_reported":1703632050,"current_range_meters":23600,"station_id":"ce4bhs92rcd13ifvqi0g","pricing_plan_id":"free"},{"bike_id":"51714c4a-3132-4951-88ec-80e85fa125e8","system_id":"levelo_inurba_marseille","lat":43.328262,"lon":5.366795,"is_reserved":false,"is_disabled":false,"rental_uris":{"android":"levelo://app?vid=51714c4a-3132-4951-88ec-80e85fa125e8","ios":"levelo://app?vid=51714c4a-3132-4951-88ec-80e85fa125e8"},"vehicle_type_id":"4","last_reported":1703632050,"current_range_meters":26400,"station_id":"ce4bhs92rcd13ifvqi0g","pricing_plan_id":"free"},{"bike_id":"5c89eee7-6e83-42b4-bd81-efdcf68f6666","system_id":"levelo_inurba_marseille","lat":43.328269,"lon":5.366854,"is_reserved":false,"is_disabled":false,"rental_uris":{"android":"levelo://app?vid=5c89eee7-6e83-42b4-bd81-efdcf68f6666","ios":"levelo://app?vid=5c89eee7-6e83-42b4-bd81-efdcf68f6666"},"vehicle_type_id":"4","last_reported":1703632050,"current_range_meters":28800,"station_id":"ce4bhs92rcd13ifvqi0g","pricing_plan_id":"free"},{"bike_id":"a448ca86-2b35-41e1-89c4-32a99bab0563","system_id":"levelo_inurba_marseille","lat":43.328371,"lon":5.366912,"is_reserved":false,"is_disabled":false,"rental_uris":{"android":"levelo://app?vid=a448ca86-2b35-41e1-89c4-32a99bab0563","ios":"levelo://app?vid=a448ca86-2b35-41e1-89c4-32a99bab0563"},"vehicle_type_id":"4","last_reported":1703632050,"current_range_meters":30400,"station_id":"ce4bhs92rcd13ifvqi0g","pricing_plan_id":"free"},{"bike_id":"be72c8fa-57ca-4b39-a06f-106528121e53","system_id":"levelo_inurba_marseille","lat":43.328371,"lon":5.366909,"is_reserved":false,"is_disabled":false,"rental_uris":{"android":"levelo://app?vid=be72c8fa-57ca-4b39-a06f-106528121e53","ios":"levelo://app?vid=be72c8fa-57ca-4b39-a06f-106528121e53"},"vehicle_type_id":"4","last_reported":1703632050,"current_range_meters":6800,"station_id":"ce4bhs92rcd13ifvqi0g","pricing_plan_id":"free"},{"bike_id":"904f83aa-e9ab-401d-84c1-9edfed82b884","system_id":"levelo_inurba_marseille","lat":43.328371,"lon":5.366909,"is_reserved":false,"is_disabled":false,"rental_uris":{"android":"levelo://app?vid=904f83aa-e9ab-401d-84c1-9edfed82b884","ios":"levelo://app?vid=904f83aa-e9ab-401d-84c1-9edfed82b884"},"vehicle_type_id":"4","last_reported":1703632050,"current_range_meters":17200,"station_id":"ce4bhs92rcd13ifvqi0g","pricing_plan_id":"free"},{"bike_id":"de708f00-7118-4d7c-9021-d7dcbd798473","system_id":"levelo_inurba_marseille","lat":43.328371,"lon":5.366909,"is_reserved":false,"is_disabled":false,"rental_uris":{"android":"levelo://app?vid=de708f00-7118-4d7c-9021-d7dcbd798473","ios":"levelo://app?vid=de708f00-7118-4d7c-9021-d7dcbd798473"},"vehicle_type_id":"4","last_reported":1703632050,"current_range_meters":23200,"station_id":"ce4bhs92rcd13ifvqi0g","pricing_plan_id":"free"},{"bike_id":"ea7074d7-b7c9-4941-82c2-dff391bae9cb","system_id":"levelo_inurba_marseille","lat":43.328371,"lon":5.366909,"is_reserved":false,"is_disabled":false,"rental_uris":{"android":"levelo://app?vid=ea7074d7-b7c9-4941-82c2-dff391bae9cb","ios":"levelo://app?vid=ea7074d7-b7c9-4941-82c2-dff391bae9cb"},"vehicle_type_id":"4","last_reported":1703632050,"current_range_meters":22400,"station_id":"ce4bhs92rcd13ifvqi0g","pricing_plan_id":"free"},{"bike_id":"6f67326a-1664-406f-9978-902e013e2357","system_id":"levelo_inurba_marseille","lat":43.328371,"lon":5.366909,"is_reserved":false,"is_disabled":false,"rental_uris":{"android":"levelo://app?vid=6f67326a-1664-406f-9978-902e013e2357","ios":"levelo://app?vid=6f67326a-1664-406f-9978-902e013e2357"},"vehicle_type_id":"4","last_reported":1703632050,"current_range_meters":30000,"station_id":"ce4bhs92rcd13ifvqi0g","pricing_plan_id":"free"},{"bike_id":"b33e79d7-85bd-413c-801b-bcd1df69d847","system_id":"levelo_inurba_marseille","lat":43.328371,"lon":5.366909,"is_reserved":false,"is_disabled":false,"rental_uris":{"android":"levelo://app?vid=b33e79d7-85bd-413c-801b-bcd1df69d847","ios":"levelo://app?vid=b33e79d7-85bd-413c-801b-bcd1df69d847"},"vehicle_type_id":"4","last_reported":1703632050,"current_range_meters":24400,"station_id":"ce4bhs92rcd13ifvqi0g","pricing_plan_id":"free"},{"bike_id":"1d297be8-dae3-43f1-ad40-8bbce2b15693","system_id":"levelo_inurba_marseille","lat":43.297163,"lon":5.365866,"is_reserved":false,"is_disabled":false,"rental_uris":{"android":"levelo://app?vid=1d297be8-dae3-43f1-ad40-8bbce2b15693","ios":"levelo://app?vid=1d297be8-dae3-43f1-ad40-8bbce2b15693"},"vehicle_type_id":"4","last_reported":1703632050,"current_range_meters":24400,"station_id":"ce4bgn12rcd13ifvqbt0","pricing_plan_id":"free"},{"bike_id":"0f98ad1f-98c5-4216-be21-1053c941867e","system_id":"levelo_inurba_marseille","lat":43.2968,"lon":5.37291,"is_reserved":false,"is_disabled":false,"rental_uris":{"android":"levelo://app?vid=0f98ad1f-98c5-4216-be21-1053c941867e","ios":"levelo://app?vid=0f98ad1f-98c5-4216-be21-1053c941867e"},"vehicle_type_id":"4","last_reported":1703632050,"current_range_meters":24000,"station_id":"ce4bgk12rcd13ifvqbj0","pricing_plan_id":"free"},{"bike_id":"921b424d-ad0d-4c7a-9d74-66e3a49bfa19","system_id":"levelo_inurba_marseille","lat":43.32934,"lon":5.36612,"is_reserved":false,"is_disabled":false,"rental_uris":{"android":"levelo://app?vid=921b424d-ad0d-4c7a-9d74-66e3a49bfa19","ios":"levelo://app?vid=921b424d-ad0d-4c7a-9d74-66e3a49bfa19"},"vehicle_type_id":"4","last_reported":1703632050,"current_range_meters":19600,"station_id":"","pricing_plan_id":"free"},{"bike_id":"b83c8fd4-a17a-4b11-9bb1-c71fbbfa6596","system_id":"levelo_inurba_marseille","lat":43.29614,"lon":5.3729,"is_reserved":false,"is_disabled":false,"rental_uris":{"android":"levelo://app?vid=b83c8fd4-a17a-4b11-9bb1-c71fbbfa6596","ios":"levelo://app?vid=b83c8fd4-a17a-4b11-9bb1-c71fbbfa6596"},"vehicle_type_id":"4","last_reported":1703632050,"current_range_meters":21600,"station_id":"","pricing_plan_id":"free"},{"bike_id":"11a450a5-1df3-45ed-90fc-ffc21ef858f6","system_id":"levelo_inurba_marseille","lat":43.304132,"lon":5.387798,"is_reserved":false,"is_disabled":false,"rental_uris":{"android":"levelo://app?vid=11a450a5-1df3-45ed-90fc-ffc21ef858f6","ios":"levelo://app?vid=11a450a5-1df3-45ed-90fc-ffc21ef858f6"},"vehicle_type_id":"4","last_reported":1703632050,"current_range_meters":20000,"station_id":"","pricing_plan_id":"free"},{"bike_id":"4b60e5e7-ce2d-4f0f-b31c-8b22c5927b85","system_id":"levelo_inurba_marseille","lat":43.317557,"lon":5.390173,"is_reserved":false,"is_disabled":false,"rental_uris":{"android":"levelo://app?vid=4b60e5e7-ce2d-4f0f-b31c-8b22c5927b85","ios":"levelo://app?vid=4b60e5e7-ce2d-4f0f-b31c-8b22c5927b85"},"vehicle_type_id":"4","last_reported":1703632050,"current_range_meters":24800,"station_id":"ce4bhqp2rcd13ifvqhng","pricing_plan_id":"free"},{"bike_id":"02b31deb-8d27-47bf-bbf0-4ae52b237d44","system_id":"levelo_inurba_marseille","lat":43.3176,"lon":5.39015,"is_reserved":false,"is_disabled":false,"rental_uris":{"android":"levelo://app?vid=02b31deb-8d27-47bf-bbf0-4ae52b237d44","ios":"levelo://app?vid=02b31deb-8d27-47bf-bbf0-4ae52b237d44"},"vehicle_type_id":"4","last_reported":1703632050,"current_range_meters":18000,"station_id":"ce4bhqp2rcd13ifvqhng","pricing_plan_id":"free"},{"bike_id":"d28b5595-c291-460b-b4be-bc10253cff55","system_id":"levelo_inurba_marseille","lat":43.317557,"lon":5.390173,"is_reserved":false,"is_disabled":false,"rental_uris":{"android":"levelo://app?vid=d28b5595-c291-460b-b4be-bc10253cff55","ios":"levelo://app?vid=d28b5595-c291-460b-b4be-bc10253cff55"},"vehicle_type_id":"4","last_reported":1703632050,"current_range_meters":27600,"station_id":"ce4bhqp2rcd13ifvqhng","pricing_plan_id":"free"},{"bike_id":"6630e8ed-1566-484d-9bc5-1cd9908d4453","system_id":"levelo_inurba_marseille","lat":43.317557,"lon":5.390173,"is_reserved":false,"is_disabled":false,"rental_uris":{"android":"levelo://app?vid=6630e8ed-1566-484d-9bc5-1cd9908d4453","ios":"levelo://app?vid=6630e8ed-1566-484d-9bc5-1cd9908d4453"},"vehicle_type_id":"4","last_reported":1703632050,"current_range_meters":31600,"station_id":"ce4bhqp2rcd13ifvqhng","pricing_plan_id":"free"},{"bike_id":"f192d185-78e6-4e96-a92a-a2efd4bee7fc","system_id":"levelo_inurba_marseille","lat":43.317557,"lon":5.390173,"is_reserved":false,"is_disabled":false,"rental_uris":{"android":"levelo://app?vid=f192d185-78e6-4e96-a92a-a2efd4bee7fc","ios":"levelo://app?vid=f192d185-78e6-4e96-a92a-a2efd4bee7fc"},"vehicle_type_id":"4","last_reported":1703632050,"current_range_meters":28000,"station_id":"ce4bhqp2rcd13ifvqhng","pricing_plan_id":"free"},{"bike_id":"159d2ac7-3c85-47dd-af80-bdeabf87acc2","system_id":"levelo_inurba_marseille","lat":43.304278,"lon":5.388868,"is_reserved":false,"is_disabled":false,"rental_uris":{"android":"levelo://app?vid=159d2ac7-3c85-47dd-af80-bdeabf87acc2","ios":"levelo://app?vid=159d2ac7-3c85-47dd-af80-bdeabf87acc2"},"vehicle_type_id":"4","last_reported":1703632050,"current_range_meters":18800,"station_id":"ce4bgk12rcd13ifvqbi0","pricing_plan_id":"free"},{"bike_id":"14953d89-cf84-4552-abfc-8d827137170d","system_id":"levelo_inurba_marseille","lat":43.296277,"lon":5.377108,"is_reserved":false,"is_disabled":false,"rental_uris":{"android":"levelo://app?vid=14953d89-cf84-4552-abfc-8d827137170d","ios":"levelo://app?vid=14953d89-cf84-4552-abfc-8d827137170d"},"vehicle_type_id":"4","last_reported":1703632050,"current_range_meters":13200,"station_id":"ce4bgi92rcd13ifvqb90","pricing_plan_id":"free"},{"bike_id":"ba60a7fd-b6ae-4676-b1e3-1e3a495e619d","system_id":"levelo_inurba_marseille","lat":43.32367,"lon":5.388836,"is_reserved":false,"is_disabled":false,"rental_uris":{"android":"levelo://app?vid=ba60a7fd-b6ae-4676-b1e3-1e3a495e619d","ios":"levelo://app?vid=ba60a7fd-b6ae-4676-b1e3-1e3a495e619d"},"vehicle_type_id":"4","last_reported":1703632050,"current_range_meters":15200,"station_id":"ce4bhqp2rcd13ifvqhog","pricing_plan_id":"free"},{"bike_id":"b28037bb-a9f5-4150-8758-7d7f6f529dac","system_id":"levelo_inurba_marseille","lat":43.32367,"lon":5.388836,"is_reserved":false,"is_disabled":false,"rental_uris":{"android":"levelo://app?vid=b28037bb-a9f5-4150-8758-7d7f6f529dac","ios":"levelo://app?vid=b28037bb-a9f5-4150-8758-7d7f6f529dac"},"vehicle_type_id":"4","last_reported":1703632050,"current_range_meters":11600,"station_id":"ce4bhqp2rcd13ifvqhog","pricing_plan_id":"free"},{"bike_id":"1f490a88-c0c6-4e08-9853-b79b8ffa03a6","system_id":"levelo_inurba_marseille","lat":43.32367,"lon":5.388836,"is_reserved":false,"is_disabled":false,"rental_uris":{"android":"levelo://app?vid=1f490a88-c0c6-4e08-9853-b79b8ffa03a6","ios":"levelo://app?vid=1f490a88-c0c6-4e08-9853-b79b8ffa03a6"},"vehicle_type_id":"4","last_reported":1703632050,"current_range_meters":17600,"station_id":"ce4bhqp2rcd13ifvqhog","pricing_plan_id":"free"},{"bike_id":"47a940c6-b7d9-4d89-8aca-1e0e957f8164","system_id":"levelo_inurba_marseille","lat":43.32367,"lon":5.388836,"is_reserved":false,"is_disabled":false,"rental_uris":{"android":"levelo://app?vid=47a940c6-b7d9-4d89-8aca-1e0e957f8164","ios":"levelo://app?vid=47a940c6-b7d9-4d89-8aca-1e0e957f8164"},"vehicle_type_id":"4","last_reported":1703632050,"current_range_meters":23600,"station_id":"ce4bhqp2rcd13ifvqhog","pricing_plan_id":"free"},{"bike_id":"6229a11e-67ff-4128-994f-a106996e1234","system_id":"levelo_inurba_marseille","lat":43.32367,"lon":5.388836,"is_reserved":false,"is_disabled":false,"rental_uris":{"android":"levelo://app?vid=6229a11e-67ff-4128-994f-a106996e1234","ios":"levelo://app?vid=6229a11e-67ff-4128-994f-a106996e1234"},"vehicle_type_id":"4","last_reported":1703632050,"current_range_meters":6800,"station_id":"ce4bhqp2rcd13ifvqhog","pricing_plan_id":"free"},{"bike_id":"0aeff03b-c088-4633-a9b9-ca0ac8a59c2c","system_id":"levelo_inurba_marseille","lat":43.3237,"lon":5.3888,"is_reserved":false,"is_disabled":false,"rental_uris":{"android":"levelo://app?vid=0aeff03b-c088-4633-a9b9-ca0ac8a59c2c","ios":"levelo://app?vid=0aeff03b-c088-4633-a9b9-ca0ac8a59c2c"},"vehicle_type_id":"4","last_reported":1703632050,"current_range_meters":4400,"station_id":"ce4bhqp2rcd13ifvqhog","pricing_plan_id":"free"},{"bike_id":"6ac0a58f-5c6d-4bb4-bf7d-7103a3029423","system_id":"levelo_inurba_marseille","lat":43.29602,"lon":5.381084,"is_reserved":false,"is_disabled":false,"rental_uris":{"android":"levelo://app?vid=6ac0a58f-5c6d-4bb4-bf7d-7103a3029423","ios":"levelo://app?vid=6ac0a58f-5c6d-4bb4-bf7d-7103a3029423"},"vehicle_type_id":"4","last_reported":1703632050,"current_range_meters":24000,"station_id":"ce4bgl12rcd13ifvqbo0","pricing_plan_id":"free"},{"bike_id":"16681594-5ff2-4adc-a951-7d200866541c","system_id":"levelo_inurba_marseille","lat":43.292749,"lon":5.368402,"is_reserved":false,"is_disabled":false,"rental_uris":{"android":"levelo://app?vid=16681594-5ff2-4adc-a951-7d200866541c","ios":"levelo://app?vid=16681594-5ff2-4adc-a951-7d200866541c"},"vehicle_type_id":"4","last_reported":1703632050,"current_range_meters":20400,"station_id":"ce4bhbp2rcd13ifvqesg","pricing_plan_id":"free"},{"bike_id":"de01398c-0c11-4fec-9181-03cfecd636be","system_id":"levelo_inurba_marseille","lat":43.305994,"lon":5.393687,"is_reserved":false,"is_disabled":false,"rental_uris":{"android":"levelo://app?vid=de01398c-0c11-4fec-9181-03cfecd636be","ios":"levelo://app?vid=de01398c-0c11-4fec-9181-03cfecd636be"},"vehicle_type_id":"4","last_reported":1703632050,"current_range_meters":26400,"station_id":"ce4bh0p2rcd13ifvqd80","pricing_plan_id":"free"},{"bike_id":"6bb2c49f-fc11-466a-9fad-99ac82701acb","system_id":"levelo_inurba_marseille","lat":43.303002,"lon":5.392142,"is_reserved":false,"is_disabled":false,"rental_uris":{"android":"levelo://app?vid=6bb2c49f-fc11-466a-9fad-99ac82701acb","ios":"levelo://app?vid=6bb2c49f-fc11-466a-9fad-99ac82701acb"},"vehicle_type_id":"4","last_reported":1703632050,"current_range_meters":5200,"station_id":"ce4bgkh2rcd13ifvqbk0","pricing_plan_id":"free"},{"bike_id":"436db56a-94cb-49ca-a488-c8d2f3352a9d","system_id":"levelo_inurba_marseille","lat":43.303002,"lon":5.392142,"is_reserved":false,"is_disabled":false,"rental_uris":{"android":"levelo://app?vid=436db56a-94cb-49ca-a488-c8d2f3352a9d","ios":"levelo://app?vid=436db56a-94cb-49ca-a488-c8d2f3352a9d"},"vehicle_type_id":"4","last_reported":1703632050,"current_range_meters":24400,"station_id":"ce4bgkh2rcd13ifvqbk0","pricing_plan_id":"free"},{"bike_id":"8b06a0ff-0759-4c0e-a0f6-c28d63cd18a3","system_id":"levelo_inurba_marseille","lat":43.302992,"lon":5.392136,"is_reserved":false,"is_disabled":false,"rental_uris":{"android":"levelo://app?vid=8b06a0ff-0759-4c0e-a0f6-c28d63cd18a3","ios":"levelo://app?vid=8b06a0ff-0759-4c0e-a0f6-c28d63cd18a3"},"vehicle_type_id":"4","last_reported":1703632050,"current_range_meters":29600,"station_id":"ce4bgkh2rcd13ifvqbk0","pricing_plan_id":"free"},{"bike_id":"f8ad87fb-faf9-4310-8434-bc415fdf4816","system_id":"levelo_inurba_marseille","lat":43.298642,"lon":5.389084,"is_reserved":false,"is_disabled":false,"rental_uris":{"android":"levelo://app?vid=f8ad87fb-faf9-4310-8434-bc415fdf4816","ios":"levelo://app?vid=f8ad87fb-faf9-4310-8434-bc415fdf4816"},"vehicle_type_id":"4","last_reported":1703632050,"current_range_meters":20800,"station_id":"","pricing_plan_id":"free"},{"bike_id":"dce5a95d-3708-473f-b69d-a5b6db17ba84","system_id":"levelo_inurba_marseille","lat":43.309047,"lon":5.396551,"is_reserved":false,"is_disabled":false,"rental_uris":{"android":"levelo://app?vid=dce5a95d-3708-473f-b69d-a5b6db17ba84","ios":"levelo://app?vid=dce5a95d-3708-473f-b69d-a5b6db17ba84"},"vehicle_type_id":"4","last_reported":1703632050,"current_range_meters":7200,"station_id":"ce4bh012rcd13ifvqcv0","pricing_plan_id":"free"},{"bike_id":"2a454ad5-f8e2-4128-a61f-1af5107f930f","system_id":"levelo_inurba_marseille","lat":43.291994,"lon":5.357886,"is_reserved":false,"is_disabled":false,"rental_uris":{"android":"levelo://app?vid=2a454ad5-f8e2-4128-a61f-1af5107f930f","ios":"levelo://app?vid=2a454ad5-f8e2-4128-a61f-1af5107f930f"},"vehicle_type_id":"4","last_reported":1703632050,"current_range_meters":6000,"station_id":"ce4bhb12rcd13ifvqel0","pricing_plan_id":"free"},{"bike_id":"c0dc9e5c-23f9-4653-bfc6-a2fb31a3502b","system_id":"levelo_inurba_marseille","lat":43.313291,"lon":5.396838,"is_reserved":false,"is_disabled":false,"rental_uris":{"android":"levelo://app?vid=c0dc9e5c-23f9-4653-bfc6-a2fb31a3502b","ios":"levelo://app?vid=c0dc9e5c-23f9-4653-bfc6-a2fb31a3502b"},"vehicle_type_id":"4","last_reported":1703632050,"current_range_meters":15200,"station_id":"ce4bgvp2rcd13ifvqcu0","pricing_plan_id":"free"},{"bike_id":"dee09a07-ccec-441d-b367-7f204fb72cf7","system_id":"levelo_inurba_marseille","lat":43.309038,"lon":5.396546,"is_reserved":false,"is_disabled":false,"rental_uris":{"android":"levelo://app?vid=dee09a07-ccec-441d-b367-7f204fb72cf7","ios":"levelo://app?vid=dee09a07-ccec-441d-b367-7f204fb72cf7"},"vehicle_type_id":"4","last_reported":1703632050,"current_range_meters":11200,"station_id":"ce4bh012rcd13ifvqcv0","pricing_plan_id":"free"},{"bike_id":"b87a0815-bf06-4fbd-b835-05212e5025d5","system_id":"levelo_inurba_marseille","lat":43.291994,"lon":5.357886,"is_reserved":false,"is_disabled":false,"rental_uris":{"android":"levelo://app?vid=b87a0815-bf06-4fbd-b835-05212e5025d5","ios":"levelo://app?vid=b87a0815-bf06-4fbd-b835-05212e5025d5"},"vehicle_type_id":"4","last_reported":1703632050,"current_range_meters":22400,"station_id":"ce4bhb12rcd13ifvqel0","pricing_plan_id":"free"},{"bike_id":"97a2f356-6685-491c-aa18-82dd916ccae2","system_id":"levelo_inurba_marseille","lat":43.309038,"lon":5.396546,"is_reserved":false,"is_disabled":false,"rental_uris":{"android":"levelo://app?vid=97a2f356-6685-491c-aa18-82dd916ccae2","ios":"levelo://app?vid=97a2f356-6685-491c-aa18-82dd916ccae2"},"vehicle_type_id":"4","last_reported":1703632050,"current_range_meters":4000,"station_id":"ce4bh012rcd13ifvqcv0","pricing_plan_id":"free"},{"bike_id":"83da56ef-c98e-4a29-9845-cefd5b085f83","system_id":"levelo_inurba_marseille","lat":43.309038,"lon":5.396546,"is_reserved":false,"is_disabled":false,"rental_uris":{"android":"levelo://app?vid=83da56ef-c98e-4a29-9845-cefd5b085f83","ios":"levelo://app?vid=83da56ef-c98e-4a29-9845-cefd5b085f83"},"vehicle_type_id":"4","last_reported":1703632050,"current_range_meters":31200,"station_id":"ce4bh012rcd13ifvqcv0","pricing_plan_id":"free"},{"bike_id":"94113dfe-1841-4eb4-a206-dfb275cb371b","system_id":"levelo_inurba_marseille","lat":43.309047,"lon":5.396551,"is_reserved":false,"is_disabled":false,"rental_uris":{"android":"levelo://app?vid=94113dfe-1841-4eb4-a206-dfb275cb371b","ios":"levelo://app?vid=94113dfe-1841-4eb4-a206-dfb275cb371b"},"vehicle_type_id":"4","last_reported":1703632050,"current_range_meters":28800,"station_id":"ce4bh012rcd13ifvqcv0","pricing_plan_id":"free"},{"bike_id":"8acb310c-7088-4601-85fb-5210e6f42113","system_id":"levelo_inurba_marseille","lat":43.309047,"lon":5.396551,"is_reserved":false,"is_disabled":false,"rental_uris":{"android":"levelo://app?vid=8acb310c-7088-4601-85fb-5210e6f42113","ios":"levelo://app?vid=8acb310c-7088-4601-85fb-5210e6f42113"},"vehicle_type_id":"4","last_reported":1703632050,"current_range_meters":18800,"station_id":"ce4bh012rcd13ifvqcv0","pricing_plan_id":"free"},{"bike_id":"89c7593f-0e5e-4384-9fca-ba1a79f4dcb2","system_id":"levelo_inurba_marseille","lat":43.309047,"lon":5.396551,"is_reserved":false,"is_disabled":false,"rental_uris":{"android":"levelo://app?vid=89c7593f-0e5e-4384-9fca-ba1a79f4dcb2","ios":"levelo://app?vid=89c7593f-0e5e-4384-9fca-ba1a79f4dcb2"},"vehicle_type_id":"4","last_reported":1703632050,"current_range_meters":14000,"station_id":"ce4bh012rcd13ifvqcv0","pricing_plan_id":"free"},{"bike_id":"2f95a8b0-736e-4d4e-9fa6-db27efb2a7b4","system_id":"levelo_inurba_marseille","lat":43.309047,"lon":5.396551,"is_reserved":false,"is_disabled":false,"rental_uris":{"android":"levelo://app?vid=2f95a8b0-736e-4d4e-9fa6-db27efb2a7b4","ios":"levelo://app?vid=2f95a8b0-736e-4d4e-9fa6-db27efb2a7b4"},"vehicle_type_id":"4","last_reported":1703632050,"current_range_meters":15200,"station_id":"ce4bh012rcd13ifvqcv0","pricing_plan_id":"free"},{"bike_id":"9e4bc56d-a514-4ab1-9f94-4e4707c369ce","system_id":"levelo_inurba_marseille","lat":43.309038,"lon":5.396546,"is_reserved":false,"is_disabled":false,"rental_uris":{"android":"levelo://app?vid=9e4bc56d-a514-4ab1-9f94-4e4707c369ce","ios":"levelo://app?vid=9e4bc56d-a514-4ab1-9f94-4e4707c369ce"},"vehicle_type_id":"4","last_reported":1703632050,"current_range_meters":20400,"station_id":"ce4bh012rcd13ifvqcv0","pricing_plan_id":"free"},{"bike_id":"9806dc3f-163a-4c87-945b-ff53b5b7e1d7","system_id":"levelo_inurba_marseille","lat":43.309038,"lon":5.396546,"is_reserved":false,"is_disabled":false,"rental_uris":{"android":"levelo://app?vid=9806dc3f-163a-4c87-945b-ff53b5b7e1d7","ios":"levelo://app?vid=9806dc3f-163a-4c87-945b-ff53b5b7e1d7"},"vehicle_type_id":"4","last_reported":1703632050,"current_range_meters":8400,"station_id":"ce4bh012rcd13ifvqcv0","pricing_plan_id":"free"},{"bike_id":"4890c375-2905-4048-9163-f9282a13436c","system_id":"levelo_inurba_marseille","lat":43.309047,"lon":5.396551,"is_reserved":false,"is_disabled":false,"rental_uris":{"android":"levelo://app?vid=4890c375-2905-4048-9163-f9282a13436c","ios":"levelo://app?vid=4890c375-2905-4048-9163-f9282a13436c"},"vehicle_type_id":"4","last_reported":1703632050,"current_range_meters":25600,"station_id":"ce4bh012rcd13ifvqcv0","pricing_plan_id":"free"},{"bike_id":"ddb5fa09-5d86-40ed-9c25-96fb5336975e","system_id":"levelo_inurba_marseille","lat":43.309038,"lon":5.396546,"is_reserved":false,"is_disabled":false,"rental_uris":{"android":"levelo://app?vid=ddb5fa09-5d86-40ed-9c25-96fb5336975e","ios":"levelo://app?vid=ddb5fa09-5d86-40ed-9c25-96fb5336975e"},"vehicle_type_id":"4","last_reported":1703632050,"current_range_meters":14000,"station_id":"ce4bh012rcd13ifvqcv0","pricing_plan_id":"free"},{"bike_id":"7246f3b1-d066-4a97-9f49-8f81f684b596","system_id":"levelo_inurba_marseille","lat":43.290624,"lon":5.359245,"is_reserved":false,"is_disabled":false,"rental_uris":{"android":"levelo://app?vid=7246f3b1-d066-4a97-9f49-8f81f684b596","ios":"levelo://app?vid=7246f3b1-d066-4a97-9f49-8f81f684b596"},"vehicle_type_id":"4","last_reported":1703632050,"current_range_meters":23200,"station_id":"ce4bha92rcd13ifvqeg0","pricing_plan_id":"free"},{"bike_id":"e8993941-c0bb-4dd1-8dc2-1ed268351c26","system_id":"levelo_inurba_marseille","lat":43.290631,"lon":5.359244,"is_reserved":false,"is_disabled":false,"rental_uris":{"android":"levelo://app?vid=e8993941-c0bb-4dd1-8dc2-1ed268351c26","ios":"levelo://app?vid=e8993941-c0bb-4dd1-8dc2-1ed268351c26"},"vehicle_type_id":"4","last_reported":1703632050,"current_range_meters":22800,"station_id":"ce4bha92rcd13ifvqeg0","pricing_plan_id":"free"},{"bike_id":"53ad5fcb-cd73-42ba-ad80-82813717b7b6","system_id":"levelo_inurba_marseille","lat":43.2904,"lon":5.35923,"is_reserved":false,"is_disabled":false,"rental_uris":{"android":"levelo://app?vid=53ad5fcb-cd73-42ba-ad80-82813717b7b6","ios":"levelo://app?vid=53ad5fcb-cd73-42ba-ad80-82813717b7b6"},"vehicle_type_id":"4","last_reported":1703632050,"current_range_meters":26400,"station_id":"ce4bha92rcd13ifvqeg0","pricing_plan_id":"free"},{"bike_id":"b016c3bd-81ad-4745-80fe-f28980cc9520","system_id":"levelo_inurba_marseille","lat":43.294153,"lon":5.386305,"is_reserved":false,"is_disabled":false,"rental_uris":{"android":"levelo://app?vid=b016c3bd-81ad-4745-80fe-f28980cc9520","ios":"levelo://app?vid=b016c3bd-81ad-4745-80fe-f28980cc9520"},"vehicle_type_id":"4","last_reported":1703632050,"current_range_meters":4800,"station_id":"ce4bh2h2rcd13ifvqdh0","pricing_plan_id":"free"},{"bike_id":"2b021dea-6079-4d69-8e57-58d6d221f9d7","system_id":"levelo_inurba_marseille","lat":43.294162,"lon":5.386292,"is_reserved":false,"is_disabled":false,"rental_uris":{"android":"levelo://app?vid=2b021dea-6079-4d69-8e57-58d6d221f9d7","ios":"levelo://app?vid=2b021dea-6079-4d69-8e57-58d6d221f9d7"},"vehicle_type_id":"4","last_reported":1703632050,"current_range_meters":29600,"station_id":"ce4bh2h2rcd13ifvqdh0","pricing_plan_id":"free"},{"bike_id":"969f8abe-d420-421c-b2fa-ee439fdacf59","system_id":"levelo_inurba_marseille","lat":43.29419,"lon":5.38627,"is_reserved":false,"is_disabled":false,"rental_uris":{"android":"levelo://app?vid=969f8abe-d420-421c-b2fa-ee439fdacf59","ios":"levelo://app?vid=969f8abe-d420-421c-b2fa-ee439fdacf59"},"vehicle_type_id":"4","last_reported":1703632050,"current_range_meters":17200,"station_id":"ce4bh2h2rcd13ifvqdh0","pricing_plan_id":"free"},{"bike_id":"042d7b24-7799-4db4-aab4-74f0fa8b35fa","system_id":"levelo_inurba_marseille","lat":43.290327,"lon":5.375711,"is_reserved":false,"is_disabled":false,"rental_uris":{"android":"levelo://app?vid=042d7b24-7799-4db4-aab4-74f0fa8b35fa","ios":"levelo://app?vid=042d7b24-7799-4db4-aab4-74f0fa8b35fa"},"vehicle_type_id":"4","last_reported":1703632050,"current_range_meters":15200,"station_id":"ce4bh692rcd13ifvqe90","pricing_plan_id":"free"},{"bike_id":"1f4911a2-6de4-47de-a3bc-171219826178","system_id":"levelo_inurba_marseille","lat":43.290327,"lon":5.375711,"is_reserved":false,"is_disabled":false,"rental_uris":{"android":"levelo://app?vid=1f4911a2-6de4-47de-a3bc-171219826178","ios":"levelo://app?vid=1f4911a2-6de4-47de-a3bc-171219826178"},"vehicle_type_id":"4","last_reported":1703632050,"current_range_meters":28400,"station_id":"ce4bh692rcd13ifvqe90","pricing_plan_id":"free"},{"bike_id":"fad7e873-d14f-49bd-a522-6c681de3707d","system_id":"levelo_inurba_marseille","lat":43.289468,"lon":5.363719,"is_reserved":false,"is_disabled":false,"rental_uris":{"android":"levelo://app?vid=fad7e873-d14f-49bd-a522-6c681de3707d","ios":"levelo://app?vid=fad7e873-d14f-49bd-a522-6c681de3707d"},"vehicle_type_id":"4","last_reported":1703632050,"current_range_meters":26400,"station_id":"ce4bhc92rcd13ifvqetg","pricing_plan_id":"free"},{"bike_id":"eb6e7bb8-b515-4977-a6cc-23e5407cc519","system_id":"levelo_inurba_marseille","lat":43.304274,"lon":5.397513,"is_reserved":false,"is_disabled":false,"rental_uris":{"android":"levelo://app?vid=eb6e7bb8-b515-4977-a6cc-23e5407cc519","ios":"levelo://app?vid=eb6e7bb8-b515-4977-a6cc-23e5407cc519"},"vehicle_type_id":"4","last_reported":1703632050,"current_range_meters":23200,"station_id":"ce4bh092rcd13ifvqd20","pricing_plan_id":"free"},{"bike_id":"d1d1c072-6b20-422d-8ac3-42900bbb0620","system_id":"levelo_inurba_marseille","lat":43.290104,"lon":5.356111,"is_reserved":false,"is_disabled":false,"rental_uris":{"android":"levelo://app?vid=d1d1c072-6b20-422d-8ac3-42900bbb0620","ios":"levelo://app?vid=d1d1c072-6b20-422d-8ac3-42900bbb0620"},"vehicle_type_id":"4","last_reported":1703632050,"current_range_meters":2400,"station_id":"ce4bhb92rcd13ifvqen0","pricing_plan_id":"free"},{"bike_id":"ea770e18-b6b7-413f-a8da-e4fb8cb724ca","system_id":"levelo_inurba_marseille","lat":43.289741,"lon":5.378306,"is_reserved":false,"is_disabled":false,"rental_uris":{"android":"levelo://app?vid=ea770e18-b6b7-413f-a8da-e4fb8cb724ca","ios":"levelo://app?vid=ea770e18-b6b7-413f-a8da-e4fb8cb724ca"},"vehicle_type_id":"4","last_reported":1703632050,"current_range_meters":27200,"station_id":"ce4bh9p2rcd13ifvqed0","pricing_plan_id":"free"},{"bike_id":"79cb188f-f44d-4894-b8d8-ba585adda99c","system_id":"levelo_inurba_marseille","lat":43.330442,"lon":5.389148,"is_reserved":false,"is_disabled":false,"rental_uris":{"android":"levelo://app?vid=79cb188f-f44d-4894-b8d8-ba585adda99c","ios":"levelo://app?vid=79cb188f-f44d-4894-b8d8-ba585adda99c"},"vehicle_type_id":"4","last_reported":1703632050,"current_range_meters":0,"station_id":"ce4bhr92rcd13ifvqhrg","pricing_plan_id":"free"},{"bike_id":"495faf64-a935-4c6e-b77f-2b296d14493a","system_id":"levelo_inurba_marseille","lat":43.331017,"lon":5.389194,"is_reserved":false,"is_disabled":false,"rental_uris":{"android":"levelo://app?vid=495faf64-a935-4c6e-b77f-2b296d14493a","ios":"levelo://app?vid=495faf64-a935-4c6e-b77f-2b296d14493a"},"vehicle_type_id":"4","last_reported":1703632050,"current_range_meters":19200,"station_id":"","pricing_plan_id":"free"},{"bike_id":"18ec1453-63e5-4b22-a54e-20e51e1a0d8d","system_id":"levelo_inurba_marseille","lat":43.33019,"lon":5.39043,"is_reserved":false,"is_disabled":false,"rental_uris":{"android":"levelo://app?vid=18ec1453-63e5-4b22-a54e-20e51e1a0d8d","ios":"levelo://app?vid=18ec1453-63e5-4b22-a54e-20e51e1a0d8d"},"vehicle_type_id":"4","last_reported":1703632050,"current_range_meters":18800,"station_id":"","pricing_plan_id":"free"},{"bike_id":"5d94fdb3-fca3-4009-9e79-b425b7366543","system_id":"levelo_inurba_marseille","lat":43.295169,"lon":5.390426,"is_reserved":false,"is_disabled":false,"rental_uris":{"android":"levelo://app?vid=5d94fdb3-fca3-4009-9e79-b425b7366543","ios":"levelo://app?vid=5d94fdb3-fca3-4009-9e79-b425b7366543"},"vehicle_type_id":"4","last_reported":1703632050,"current_range_meters":27600,"station_id":"ce4bh3p2rcd13ifvqdp0","pricing_plan_id":"free"},{"bike_id":"f3c63c7b-09e2-4734-8986-14ad4d133994","system_id":"levelo_inurba_marseille","lat":43.330244,"lon":5.39043,"is_reserved":false,"is_disabled":false,"rental_uris":{"android":"levelo://app?vid=f3c63c7b-09e2-4734-8986-14ad4d133994","ios":"levelo://app?vid=f3c63c7b-09e2-4734-8986-14ad4d133994"},"vehicle_type_id":"4","last_reported":1703632050,"current_range_meters":9200,"station_id":"","pricing_plan_id":"free"},{"bike_id":"6c1ab4bb-1329-46cf-8e1e-67b9fd9d38d1","system_id":"levelo_inurba_marseille","lat":43.295169,"lon":5.390426,"is_reserved":false,"is_disabled":false,"rental_uris":{"android":"levelo://app?vid=6c1ab4bb-1329-46cf-8e1e-67b9fd9d38d1","ios":"levelo://app?vid=6c1ab4bb-1329-46cf-8e1e-67b9fd9d38d1"},"vehicle_type_id":"4","last_reported":1703632050,"current_range_meters":25200,"station_id":"ce4bh3p2rcd13ifvqdp0","pricing_plan_id":"free"},{"bike_id":"d40c84ca-6ac7-43a3-a05e-0754c369c109","system_id":"levelo_inurba_marseille","lat":43.295169,"lon":5.390426,"is_reserved":false,"is_disabled":false,"rental_uris":{"android":"levelo://app?vid=d40c84ca-6ac7-43a3-a05e-0754c369c109","ios":"levelo://app?vid=d40c84ca-6ac7-43a3-a05e-0754c369c109"},"vehicle_type_id":"4","last_reported":1703632050,"current_range_meters":18000,"station_id":"ce4bh3p2rcd13ifvqdp0","pricing_plan_id":"free"},{"bike_id":"dc0ccc7c-ba1b-4cde-b242-23dbe62099b9","system_id":"levelo_inurba_marseille","lat":43.295169,"lon":5.390426,"is_reserved":false,"is_disabled":false,"rental_uris":{"android":"levelo://app?vid=dc0ccc7c-ba1b-4cde-b242-23dbe62099b9","ios":"levelo://app?vid=dc0ccc7c-ba1b-4cde-b242-23dbe62099b9"},"vehicle_type_id":"4","last_reported":1703632050,"current_range_meters":30800,"station_id":"ce4bh3p2rcd13ifvqdp0","pricing_plan_id":"free"},{"bike_id":"9d65c13f-9f89-4659-a516-6a4e9ea7bea3","system_id":"levelo_inurba_marseille","lat":43.289741,"lon":5.378306,"is_reserved":false,"is_disabled":false,"rental_uris":{"android":"levelo://app?vid=9d65c13f-9f89-4659-a516-6a4e9ea7bea3","ios":"levelo://app?vid=9d65c13f-9f89-4659-a516-6a4e9ea7bea3"},"vehicle_type_id":"4","last_reported":1703632050,"current_range_meters":30400,"station_id":"ce4bh9p2rcd13ifvqed0","pricing_plan_id":"free"},{"bike_id":"5c01749a-d7f3-41a4-a204-aac196e1cae0","system_id":"levelo_inurba_marseille","lat":43.295169,"lon":5.390426,"is_reserved":false,"is_disabled":false,"rental_uris":{"android":"levelo://app?vid=5c01749a-d7f3-41a4-a204-aac196e1cae0","ios":"levelo://app?vid=5c01749a-d7f3-41a4-a204-aac196e1cae0"},"vehicle_type_id":"4","last_reported":1703632050,"current_range_meters":11200,"station_id":"ce4bh3p2rcd13ifvqdp0","pricing_plan_id":"free"},{"bike_id":"01eec893-cb22-47ea-ba6f-18aee64380c7","system_id":"levelo_inurba_marseille","lat":43.330335,"lon":5.390883,"is_reserved":false,"is_disabled":false,"rental_uris":{"android":"levelo://app?vid=01eec893-cb22-47ea-ba6f-18aee64380c7","ios":"levelo://app?vid=01eec893-cb22-47ea-ba6f-18aee64380c7"},"vehicle_type_id":"4","last_reported":1703632050,"current_range_meters":7600,"station_id":"","pricing_plan_id":"free"},{"bike_id":"7a543b19-90cd-4a87-b80d-37f423d89307","system_id":"levelo_inurba_marseille","lat":43.330353,"lon":5.391297,"is_reserved":false,"is_disabled":false,"rental_uris":{"android":"levelo://app?vid=7a543b19-90cd-4a87-b80d-37f423d89307","ios":"levelo://app?vid=7a543b19-90cd-4a87-b80d-37f423d89307"},"vehicle_type_id":"4","last_reported":1703632050,"current_range_meters":6800,"station_id":"","pricing_plan_id":"free"},{"bike_id":"cd5fd400-a29e-4902-962a-4d43e6e03f56","system_id":"levelo_inurba_marseille","lat":43.28856,"lon":5.358371,"is_reserved":false,"is_disabled":false,"rental_uris":{"android":"levelo://app?vid=cd5fd400-a29e-4902-962a-4d43e6e03f56","ios":"levelo://app?vid=cd5fd400-a29e-4902-962a-4d43e6e03f56"},"vehicle_type_id":"4","last_reported":1703632050,"current_range_meters":0,"station_id":"ce4bhb12rcd13ifvqem0","pricing_plan_id":"free"},{"bike_id":"b8ad220d-c11d-4378-a8cf-420aaf9df86f","system_id":"levelo_inurba_marseille","lat":43.337367,"lon":5.374548,"is_reserved":false,"is_disabled":false,"rental_uris":{"android":"levelo://app?vid=b8ad220d-c11d-4378-a8cf-420aaf9df86f","ios":"levelo://app?vid=b8ad220d-c11d-4378-a8cf-420aaf9df86f"},"vehicle_type_id":"4","last_reported":1703632050,"current_range_meters":31200,"station_id":"","pricing_plan_id":"free"},{"bike_id":"6ea70d67-ec7b-4741-9252-48c7c0a9c6bd","system_id":"levelo_inurba_marseille","lat":43.312609,"lon":5.401662,"is_reserved":false,"is_disabled":false,"rental_uris":{"android":"levelo://app?vid=6ea70d67-ec7b-4741-9252-48c7c0a9c6bd","ios":"levelo://app?vid=6ea70d67-ec7b-4741-9252-48c7c0a9c6bd"},"vehicle_type_id":"4","last_reported":1703632050,"current_range_meters":18000,"station_id":"ce4bh092rcd13ifvqd30","pricing_plan_id":"free"},{"bike_id":"0b9b8d34-1aff-441e-9561-28bd1154a355","system_id":"levelo_inurba_marseille","lat":43.312609,"lon":5.401662,"is_reserved":false,"is_disabled":false,"rental_uris":{"android":"levelo://app?vid=0b9b8d34-1aff-441e-9561-28bd1154a355","ios":"levelo://app?vid=0b9b8d34-1aff-441e-9561-28bd1154a355"},"vehicle_type_id":"4","last_reported":1703632050,"current_range_meters":20400,"station_id":"ce4bh092rcd13ifvqd30","pricing_plan_id":"free"},{"bike_id":"eb72e6e2-2555-4c83-9a0b-0b7f6df4c805","system_id":"levelo_inurba_marseille","lat":43.312609,"lon":5.401662,"is_reserved":false,"is_disabled":false,"rental_uris":{"android":"levelo://app?vid=eb72e6e2-2555-4c83-9a0b-0b7f6df4c805","ios":"levelo://app?vid=eb72e6e2-2555-4c83-9a0b-0b7f6df4c805"},"vehicle_type_id":"4","last_reported":1703632050,"current_range_meters":22000,"station_id":"ce4bh092rcd13ifvqd30","pricing_plan_id":"free"},{"bike_id":"6e0375da-e3ad-4974-81d7-b669817c22f7","system_id":"levelo_inurba_marseille","lat":43.309371,"lon":5.401449,"is_reserved":false,"is_disabled":false,"rental_uris":{"android":"levelo://app?vid=6e0375da-e3ad-4974-81d7-b669817c22f7","ios":"levelo://app?vid=6e0375da-e3ad-4974-81d7-b669817c22f7"},"vehicle_type_id":"4","last_reported":1703632050,"current_range_meters":4800,"station_id":"ce4bgvp2rcd13ifvqct0","pricing_plan_id":"free"},{"bike_id":"bfea4373-68d7-4ffc-884c-d7e273317940","system_id":"levelo_inurba_marseille","lat":43.30935,"lon":5.40136,"is_reserved":false,"is_disabled":false,"rental_uris":{"android":"levelo://app?vid=bfea4373-68d7-4ffc-884c-d7e273317940","ios":"levelo://app?vid=bfea4373-68d7-4ffc-884c-d7e273317940"},"vehicle_type_id":"4","last_reported":1703632050,"current_range_meters":22400,"station_id":"ce4bgvp2rcd13ifvqct0","pricing_plan_id":"free"},{"bike_id":"690eccad-9069-43a9-a974-0f635be67caa","system_id":"levelo_inurba_marseille","lat":43.309371,"lon":5.401449,"is_reserved":false,"is_disabled":false,"rental_uris":{"android":"levelo://app?vid=690eccad-9069-43a9-a974-0f635be67caa","ios":"levelo://app?vid=690eccad-9069-43a9-a974-0f635be67caa"},"vehicle_type_id":"4","last_reported":1703632050,"current_range_meters":21600,"station_id":"ce4bgvp2rcd13ifvqct0","pricing_plan_id":"free"},{"bike_id":"ab67d1f4-6ff9-4d42-828d-b35f207922bf","system_id":"levelo_inurba_marseille","lat":43.309371,"lon":5.401449,"is_reserved":false,"is_disabled":false,"rental_uris":{"android":"levelo://app?vid=ab67d1f4-6ff9-4d42-828d-b35f207922bf","ios":"levelo://app?vid=ab67d1f4-6ff9-4d42-828d-b35f207922bf"},"vehicle_type_id":"4","last_reported":1703632050,"current_range_meters":12000,"station_id":"ce4bgvp2rcd13ifvqct0","pricing_plan_id":"free"},{"bike_id":"f9d09c26-936d-4f22-b7c5-2b95cbb8da91","system_id":"levelo_inurba_marseille","lat":43.312609,"lon":5.401662,"is_reserved":false,"is_disabled":false,"rental_uris":{"android":"levelo://app?vid=f9d09c26-936d-4f22-b7c5-2b95cbb8da91","ios":"levelo://app?vid=f9d09c26-936d-4f22-b7c5-2b95cbb8da91"},"vehicle_type_id":"4","last_reported":1703632050,"current_range_meters":14800,"station_id":"ce4bh092rcd13ifvqd30","pricing_plan_id":"free"},{"bike_id":"e80f0ed0-6a4e-405a-8da1-244c0c09f819","system_id":"levelo_inurba_marseille","lat":43.312609,"lon":5.401662,"is_reserved":false,"is_disabled":false,"rental_uris":{"android":"levelo://app?vid=e80f0ed0-6a4e-405a-8da1-244c0c09f819","ios":"levelo://app?vid=e80f0ed0-6a4e-405a-8da1-244c0c09f819"},"vehicle_type_id":"4","last_reported":1703632050,"current_range_meters":21600,"station_id":"ce4bh092rcd13ifvqd30","pricing_plan_id":"free"},{"bike_id":"ebfe6fb4-dca5-4644-983c-b19c6f78c74e","system_id":"levelo_inurba_marseille","lat":43.312609,"lon":5.401662,"is_reserved":false,"is_disabled":false,"rental_uris":{"android":"levelo://app?vid=ebfe6fb4-dca5-4644-983c-b19c6f78c74e","ios":"levelo://app?vid=ebfe6fb4-dca5-4644-983c-b19c6f78c74e"},"vehicle_type_id":"4","last_reported":1703632050,"current_range_meters":17200,"station_id":"ce4bh092rcd13ifvqd30","pricing_plan_id":"free"},{"bike_id":"190ce0f2-3c90-4d3d-94a0-eb4e6b273154","system_id":"levelo_inurba_marseille","lat":43.306412,"lon":5.401035,"is_reserved":false,"is_disabled":false,"rental_uris":{"android":"levelo://app?vid=190ce0f2-3c90-4d3d-94a0-eb4e6b273154","ios":"levelo://app?vid=190ce0f2-3c90-4d3d-94a0-eb4e6b273154"},"vehicle_type_id":"4","last_reported":1703632050,"current_range_meters":27200,"station_id":"ce4bh112rcd13ifvqda0","pricing_plan_id":"free"},{"bike_id":"8fbbbffa-7bee-4afd-8bd1-ac1734e61144","system_id":"levelo_inurba_marseille","lat":43.30642,"lon":5.401031,"is_reserved":false,"is_disabled":false,"rental_uris":{"android":"levelo://app?vid=8fbbbffa-7bee-4afd-8bd1-ac1734e61144","ios":"levelo://app?vid=8fbbbffa-7bee-4afd-8bd1-ac1734e61144"},"vehicle_type_id":"4","last_reported":1703632050,"current_range_meters":10000,"station_id":"ce4bh112rcd13ifvqda0","pricing_plan_id":"free"},{"bike_id":"be7018ef-6800-4949-bbff-57f6f7ea3f65","system_id":"levelo_inurba_marseille","lat":43.30642,"lon":5.401031,"is_reserved":false,"is_disabled":false,"rental_uris":{"android":"levelo://app?vid=be7018ef-6800-4949-bbff-57f6f7ea3f65","ios":"levelo://app?vid=be7018ef-6800-4949-bbff-57f6f7ea3f65"},"vehicle_type_id":"4","last_reported":1703632050,"current_range_meters":31200,"station_id":"ce4bh112rcd13ifvqda0","pricing_plan_id":"free"},{"bike_id":"088eacfa-022a-45c3-be1f-39a115813f60","system_id":"levelo_inurba_marseille","lat":43.306412,"lon":5.401035,"is_reserved":false,"is_disabled":false,"rental_uris":{"android":"levelo://app?vid=088eacfa-022a-45c3-be1f-39a115813f60","ios":"levelo://app?vid=088eacfa-022a-45c3-be1f-39a115813f60"},"vehicle_type_id":"4","last_reported":1703632050,"current_range_meters":31600,"station_id":"ce4bh112rcd13ifvqda0","pricing_plan_id":"free"},{"bike_id":"bb4dd9e4-f8da-46b7-80c4-0498655b61f0","system_id":"levelo_inurba_marseille","lat":43.33762,"lon":5.3743,"is_reserved":false,"is_disabled":false,"rental_uris":{"android":"levelo://app?vid=bb4dd9e4-f8da-46b7-80c4-0498655b61f0","ios":"levelo://app?vid=bb4dd9e4-f8da-46b7-80c4-0498655b61f0"},"vehicle_type_id":"4","last_reported":1703632050,"current_range_meters":27600,"station_id":"","pricing_plan_id":"free"},{"bike_id":"990249c1-31d5-4323-86fa-d90df9a357b6","system_id":"levelo_inurba_marseille","lat":43.299028,"lon":5.381509,"is_reserved":false,"is_disabled":false,"rental_uris":{"android":"levelo://app?vid=990249c1-31d5-4323-86fa-d90df9a357b6","ios":"levelo://app?vid=990249c1-31d5-4323-86fa-d90df9a357b6"},"vehicle_type_id":"4","last_reported":1703632050,"current_range_meters":26400,"station_id":"ce4bgj12rcd13ifvqbc0","pricing_plan_id":"free"},{"bike_id":"e8333dc6-0a00-4918-9bf4-210e7c543756","system_id":"levelo_inurba_marseille","lat":43.306412,"lon":5.401035,"is_reserved":false,"is_disabled":false,"rental_uris":{"android":"levelo://app?vid=e8333dc6-0a00-4918-9bf4-210e7c543756","ios":"levelo://app?vid=e8333dc6-0a00-4918-9bf4-210e7c543756"},"vehicle_type_id":"4","last_reported":1703632050,"current_range_meters":31600,"station_id":"ce4bh112rcd13ifvqda0","pricing_plan_id":"free"},{"bike_id":"00ddcf0c-781b-4ea3-8269-037c4537443b","system_id":"levelo_inurba_marseille","lat":43.306412,"lon":5.401035,"is_reserved":false,"is_disabled":false,"rental_uris":{"android":"levelo://app?vid=00ddcf0c-781b-4ea3-8269-037c4537443b","ios":"levelo://app?vid=00ddcf0c-781b-4ea3-8269-037c4537443b"},"vehicle_type_id":"4","last_reported":1703632050,"current_range_meters":29600,"station_id":"ce4bh112rcd13ifvqda0","pricing_plan_id":"free"},{"bike_id":"45deab79-ee96-43b5-a7dc-87e791be23ec","system_id":"levelo_inurba_marseille","lat":43.302759,"lon":5.400793,"is_reserved":false,"is_disabled":false,"rental_uris":{"android":"levelo://app?vid=45deab79-ee96-43b5-a7dc-87e791be23ec","ios":"levelo://app?vid=45deab79-ee96-43b5-a7dc-87e791be23ec"},"vehicle_type_id":"4","last_reported":1703632050,"current_range_meters":20400,"station_id":"ce4bgvh2rcd13ifvqcs0","pricing_plan_id":"free"},{"bike_id":"395b4c6b-2846-48f8-adf3-a7b6e4defa20","system_id":"levelo_inurba_marseille","lat":43.28727,"lon":5.36078,"is_reserved":false,"is_disabled":false,"rental_uris":{"android":"levelo://app?vid=395b4c6b-2846-48f8-adf3-a7b6e4defa20","ios":"levelo://app?vid=395b4c6b-2846-48f8-adf3-a7b6e4defa20"},"vehicle_type_id":"4","last_reported":1703632050,"current_range_meters":28000,"station_id":"cki0cbj6b192h4jlfktg","pricing_plan_id":"free"},{"bike_id":"aa743935-8558-45a1-aa4e-06dd50e5fa89","system_id":"levelo_inurba_marseille","lat":43.28727,"lon":5.36078,"is_reserved":false,"is_disabled":false,"rental_uris":{"android":"levelo://app?vid=aa743935-8558-45a1-aa4e-06dd50e5fa89","ios":"levelo://app?vid=aa743935-8558-45a1-aa4e-06dd50e5fa89"},"vehicle_type_id":"4","last_reported":1703632050,"current_range_meters":31200,"station_id":"cki0cbj6b192h4jlfktg","pricing_plan_id":"free"},{"bike_id":"edec2e24-ee2d-49e4-96e3-76108c19ef78","system_id":"levelo_inurba_marseille","lat":43.28727,"lon":5.36078,"is_reserved":false,"is_disabled":false,"rental_uris":{"android":"levelo://app?vid=edec2e24-ee2d-49e4-96e3-76108c19ef78","ios":"levelo://app?vid=edec2e24-ee2d-49e4-96e3-76108c19ef78"},"vehicle_type_id":"4","last_reported":1703632050,"current_range_meters":18800,"station_id":"cki0cbj6b192h4jlfktg","pricing_plan_id":"free"},{"bike_id":"08aaad16-2ca1-458f-ad16-c7eb64981357","system_id":"levelo_inurba_marseille","lat":43.28727,"lon":5.36078,"is_reserved":false,"is_disabled":false,"rental_uris":{"android":"levelo://app?vid=08aaad16-2ca1-458f-ad16-c7eb64981357","ios":"levelo://app?vid=08aaad16-2ca1-458f-ad16-c7eb64981357"},"vehicle_type_id":"4","last_reported":1703632050,"current_range_meters":23200,"station_id":"cki0cbj6b192h4jlfktg","pricing_plan_id":"free"},{"bike_id":"fcd105a0-6501-43c1-81a9-f95ab20bd9ed","system_id":"levelo_inurba_marseille","lat":43.286591,"lon":5.363346,"is_reserved":false,"is_disabled":false,"rental_uris":{"android":"levelo://app?vid=fcd105a0-6501-43c1-81a9-f95ab20bd9ed","ios":"levelo://app?vid=fcd105a0-6501-43c1-81a9-f95ab20bd9ed"},"vehicle_type_id":"4","last_reported":1703632050,"current_range_meters":9600,"station_id":"ce4bhah2rcd13ifvqej0","pricing_plan_id":"free"},{"bike_id":"8cdc7d34-397e-4039-982a-556a21f24ca4","system_id":"levelo_inurba_marseille","lat":43.29873,"lon":5.39738,"is_reserved":false,"is_disabled":false,"rental_uris":{"android":"levelo://app?vid=8cdc7d34-397e-4039-982a-556a21f24ca4","ios":"levelo://app?vid=8cdc7d34-397e-4039-982a-556a21f24ca4"},"vehicle_type_id":"4","last_reported":1703632050,"current_range_meters":24000,"station_id":"ce4bh0h2rcd13ifvqd50","pricing_plan_id":"free"},{"bike_id":"c9c9bda5-31b6-4788-b7e2-a35eab64ee2b","system_id":"levelo_inurba_marseille","lat":43.286989,"lon":5.373823,"is_reserved":false,"is_disabled":false,"rental_uris":{"android":"levelo://app?vid=c9c9bda5-31b6-4788-b7e2-a35eab64ee2b","ios":"levelo://app?vid=c9c9bda5-31b6-4788-b7e2-a35eab64ee2b"},"vehicle_type_id":"4","last_reported":1703632050,"current_range_meters":24000,"station_id":"ce4bh3p2rcd13ifvqdq0","pricing_plan_id":"free"},{"bike_id":"a7602855-6bc6-4d6b-b413-ef7af145da47","system_id":"levelo_inurba_marseille","lat":43.295196,"lon":5.39397,"is_reserved":false,"is_disabled":false,"rental_uris":{"android":"levelo://app?vid=a7602855-6bc6-4d6b-b413-ef7af145da47","ios":"levelo://app?vid=a7602855-6bc6-4d6b-b413-ef7af145da47"},"vehicle_type_id":"4","last_reported":1703632050,"current_range_meters":31200,"station_id":"ce4bh292rcd13ifvqdf0","pricing_plan_id":"free"},{"bike_id":"bc2883e3-84fa-451d-a8d6-84ef8f471b8a","system_id":"levelo_inurba_marseille","lat":43.302759,"lon":5.400793,"is_reserved":false,"is_disabled":false,"rental_uris":{"android":"levelo://app?vid=bc2883e3-84fa-451d-a8d6-84ef8f471b8a","ios":"levelo://app?vid=bc2883e3-84fa-451d-a8d6-84ef8f471b8a"},"vehicle_type_id":"4","last_reported":1703632050,"current_range_meters":14400,"station_id":"ce4bgvh2rcd13ifvqcs0","pricing_plan_id":"free"},{"bike_id":"bb5f6295-bdf1-4538-8428-09cc2b9aaa32","system_id":"levelo_inurba_marseille","lat":43.290345,"lon":5.38646,"is_reserved":false,"is_disabled":false,"rental_uris":{"android":"levelo://app?vid=bb5f6295-bdf1-4538-8428-09cc2b9aaa32","ios":"levelo://app?vid=bb5f6295-bdf1-4538-8428-09cc2b9aaa32"},"vehicle_type_id":"4","last_reported":1703632050,"current_range_meters":24800,"station_id":"ce4bh4p2rcd13ifvqe0g","pricing_plan_id":"free"},{"bike_id":"de50c71a-cb3f-4484-8ebf-081599aa4856","system_id":"levelo_inurba_marseille","lat":43.302759,"lon":5.400793,"is_reserved":false,"is_disabled":false,"rental_uris":{"android":"levelo://app?vid=de50c71a-cb3f-4484-8ebf-081599aa4856","ios":"levelo://app?vid=de50c71a-cb3f-4484-8ebf-081599aa4856"},"vehicle_type_id":"4","last_reported":1703632050,"current_range_meters":27600,"station_id":"ce4bgvh2rcd13ifvqcs0","pricing_plan_id":"free"},{"bike_id":"fc8211b7-3bd8-4f71-a464-a457cefeacc4","system_id":"levelo_inurba_marseille","lat":43.287184,"lon":5.37937,"is_reserved":false,"is_disabled":false,"rental_uris":{"android":"levelo://app?vid=fc8211b7-3bd8-4f71-a464-a457cefeacc4","ios":"levelo://app?vid=fc8211b7-3bd8-4f71-a464-a457cefeacc4"},"vehicle_type_id":"4","last_reported":1703632050,"current_range_meters":11200,"station_id":"ce4bh9p2rcd13ifvqec0","pricing_plan_id":"free"},{"bike_id":"3167b90a-ee6f-415c-a88b-71ffe1c52d0d","system_id":"levelo_inurba_marseille","lat":43.287184,"lon":5.37937,"is_reserved":false,"is_disabled":false,"rental_uris":{"android":"levelo://app?vid=3167b90a-ee6f-415c-a88b-71ffe1c52d0d","ios":"levelo://app?vid=3167b90a-ee6f-415c-a88b-71ffe1c52d0d"},"vehicle_type_id":"4","last_reported":1703632050,"current_range_meters":24000,"station_id":"ce4bh9p2rcd13ifvqec0","pricing_plan_id":"free"},{"bike_id":"32135eb6-3186-4d8c-9e86-9915041a5faf","system_id":"levelo_inurba_marseille","lat":43.287185,"lon":5.379373,"is_reserved":false,"is_disabled":false,"rental_uris":{"android":"levelo://app?vid=32135eb6-3186-4d8c-9e86-9915041a5faf","ios":"levelo://app?vid=32135eb6-3186-4d8c-9e86-9915041a5faf"},"vehicle_type_id":"4","last_reported":1703632050,"current_range_meters":19600,"station_id":"ce4bh9p2rcd13ifvqec0","pricing_plan_id":"free"},{"bike_id":"7ea986fb-6672-45c4-84dd-e98b256020a6","system_id":"levelo_inurba_marseille","lat":43.287184,"lon":5.37937,"is_reserved":false,"is_disabled":false,"rental_uris":{"android":"levelo://app?vid=7ea986fb-6672-45c4-84dd-e98b256020a6","ios":"levelo://app?vid=7ea986fb-6672-45c4-84dd-e98b256020a6"},"vehicle_type_id":"4","last_reported":1703632050,"current_range_meters":29600,"station_id":"ce4bh9p2rcd13ifvqec0","pricing_plan_id":"free"},{"bike_id":"47b716f5-8e75-4c4d-ad26-d15ea90f5f09","system_id":"levelo_inurba_marseille","lat":43.287185,"lon":5.379373,"is_reserved":false,"is_disabled":false,"rental_uris":{"android":"levelo://app?vid=47b716f5-8e75-4c4d-ad26-d15ea90f5f09","ios":"levelo://app?vid=47b716f5-8e75-4c4d-ad26-d15ea90f5f09"},"vehicle_type_id":"4","last_reported":1703632050,"current_range_meters":27600,"station_id":"ce4bh9p2rcd13ifvqec0","pricing_plan_id":"free"},{"bike_id":"aee3dddd-7cae-4b2c-a7c5-555bcdd84dde","system_id":"levelo_inurba_marseille","lat":43.287185,"lon":5.379373,"is_reserved":false,"is_disabled":false,"rental_uris":{"android":"levelo://app?vid=aee3dddd-7cae-4b2c-a7c5-555bcdd84dde","ios":"levelo://app?vid=aee3dddd-7cae-4b2c-a7c5-555bcdd84dde"},"vehicle_type_id":"4","last_reported":1703632050,"current_range_meters":31200,"station_id":"ce4bh9p2rcd13ifvqec0","pricing_plan_id":"free"},{"bike_id":"83142d7a-eeb3-4c4d-a5cc-7db26924a151","system_id":"levelo_inurba_marseille","lat":43.316828,"lon":5.404723,"is_reserved":false,"is_disabled":false,"rental_uris":{"android":"levelo://app?vid=83142d7a-eeb3-4c4d-a5cc-7db26924a151","ios":"levelo://app?vid=83142d7a-eeb3-4c4d-a5cc-7db26924a151"},"vehicle_type_id":"4","last_reported":1703632050,"current_range_meters":11200,"station_id":"ce4bh012rcd13ifvqd00","pricing_plan_id":"free"},{"bike_id":"5e1bdd99-1080-461e-96f0-736c094f9758","system_id":"levelo_inurba_marseille","lat":43.29197,"lon":5.39323,"is_reserved":false,"is_disabled":false,"rental_uris":{"android":"levelo://app?vid=5e1bdd99-1080-461e-96f0-736c094f9758","ios":"levelo://app?vid=5e1bdd99-1080-461e-96f0-736c094f9758"},"vehicle_type_id":"4","last_reported":1703632050,"current_range_meters":5200,"station_id":"ce4bh192rcd13ifvqdd0","pricing_plan_id":"free"},{"bike_id":"6eaa031f-1c12-4e13-8c29-868e6eafb553","system_id":"levelo_inurba_marseille","lat":43.291967,"lon":5.3933,"is_reserved":false,"is_disabled":false,"rental_uris":{"android":"levelo://app?vid=6eaa031f-1c12-4e13-8c29-868e6eafb553","ios":"levelo://app?vid=6eaa031f-1c12-4e13-8c29-868e6eafb553"},"vehicle_type_id":"4","last_reported":1703632050,"current_range_meters":26400,"station_id":"ce4bh192rcd13ifvqdd0","pricing_plan_id":"free"},{"bike_id":"bf5587c6-0562-49c6-a59c-ea8ae5c66a61","system_id":"levelo_inurba_marseille","lat":43.29198,"lon":5.393391,"is_reserved":false,"is_disabled":false,"rental_uris":{"android":"levelo://app?vid=bf5587c6-0562-49c6-a59c-ea8ae5c66a61","ios":"levelo://app?vid=bf5587c6-0562-49c6-a59c-ea8ae5c66a61"},"vehicle_type_id":"4","last_reported":1703632050,"current_range_meters":7200,"station_id":"ce4bh192rcd13ifvqdd0","pricing_plan_id":"free"},{"bike_id":"e2adfa7c-882e-48a1-9ee4-b36e6186ebbf","system_id":"levelo_inurba_marseille","lat":43.330912,"lon":5.396935,"is_reserved":false,"is_disabled":false,"rental_uris":{"android":"levelo://app?vid=e2adfa7c-882e-48a1-9ee4-b36e6186ebbf","ios":"levelo://app?vid=e2adfa7c-882e-48a1-9ee4-b36e6186ebbf"},"vehicle_type_id":"4","last_reported":1703632050,"current_range_meters":1600,"station_id":"","pricing_plan_id":"free"},{"bike_id":"4c681c43-4d37-4852-8f35-c53e3578b64f","system_id":"levelo_inurba_marseille","lat":43.284718,"lon":5.35884,"is_reserved":false,"is_disabled":false,"rental_uris":{"android":"levelo://app?vid=4c681c43-4d37-4852-8f35-c53e3578b64f","ios":"levelo://app?vid=4c681c43-4d37-4852-8f35-c53e3578b64f"},"vehicle_type_id":"4","last_reported":1703632050,"current_range_meters":15600,"station_id":"ce4bhah2rcd13ifvqei0","pricing_plan_id":"free"},{"bike_id":"ee34b0cb-3b36-4a75-b0a7-d9f1e13f004d","system_id":"levelo_inurba_marseille","lat":43.28467,"lon":5.35889,"is_reserved":false,"is_disabled":false,"rental_uris":{"android":"levelo://app?vid=ee34b0cb-3b36-4a75-b0a7-d9f1e13f004d","ios":"levelo://app?vid=ee34b0cb-3b36-4a75-b0a7-d9f1e13f004d"},"vehicle_type_id":"4","last_reported":1703632050,"current_range_meters":7200,"station_id":"ce4bhah2rcd13ifvqei0","pricing_plan_id":"free"},{"bike_id":"1e2dfc13-ec3b-448f-8f72-bb2795d1f710","system_id":"levelo_inurba_marseille","lat":43.28466,"lon":5.35891,"is_reserved":false,"is_disabled":false,"rental_uris":{"android":"levelo://app?vid=1e2dfc13-ec3b-448f-8f72-bb2795d1f710","ios":"levelo://app?vid=1e2dfc13-ec3b-448f-8f72-bb2795d1f710"},"vehicle_type_id":"4","last_reported":1703632050,"current_range_meters":2800,"station_id":"ce4bhah2rcd13ifvqei0","pricing_plan_id":"free"},{"bike_id":"9ce87c1a-4838-42e1-9d17-c131e2149896","system_id":"levelo_inurba_marseille","lat":43.284538,"lon":5.358657,"is_reserved":false,"is_disabled":false,"rental_uris":{"android":"levelo://app?vid=9ce87c1a-4838-42e1-9d17-c131e2149896","ios":"levelo://app?vid=9ce87c1a-4838-42e1-9d17-c131e2149896"},"vehicle_type_id":"4","last_reported":1703632050,"current_range_meters":24800,"station_id":"ce4bhah2rcd13ifvqei0","pricing_plan_id":"free"},{"bike_id":"a2f6f781-7f40-4eb5-a11d-1f7c6a276d53","system_id":"levelo_inurba_marseille","lat":43.284631,"lon":5.358896,"is_reserved":false,"is_disabled":false,"rental_uris":{"android":"levelo://app?vid=a2f6f781-7f40-4eb5-a11d-1f7c6a276d53","ios":"levelo://app?vid=a2f6f781-7f40-4eb5-a11d-1f7c6a276d53"},"vehicle_type_id":"4","last_reported":1703632050,"current_range_meters":25600,"station_id":"ce4bhah2rcd13ifvqei0","pricing_plan_id":"free"},{"bike_id":"5bd7cc53-592d-4a78-b096-77dd0b1e8462","system_id":"levelo_inurba_marseille","lat":43.2846,"lon":5.35891,"is_reserved":false,"is_disabled":false,"rental_uris":{"android":"levelo://app?vid=5bd7cc53-592d-4a78-b096-77dd0b1e8462","ios":"levelo://app?vid=5bd7cc53-592d-4a78-b096-77dd0b1e8462"},"vehicle_type_id":"4","last_reported":1703632050,"current_range_meters":10000,"station_id":"ce4bhah2rcd13ifvqei0","pricing_plan_id":"free"},{"bike_id":"ec5235d9-7d6f-4082-8172-2e3bfe7b18e3","system_id":"levelo_inurba_marseille","lat":43.284538,"lon":5.358657,"is_reserved":false,"is_disabled":false,"rental_uris":{"android":"levelo://app?vid=ec5235d9-7d6f-4082-8172-2e3bfe7b18e3","ios":"levelo://app?vid=ec5235d9-7d6f-4082-8172-2e3bfe7b18e3"},"vehicle_type_id":"4","last_reported":1703632050,"current_range_meters":18800,"station_id":"ce4bhah2rcd13ifvqei0","pricing_plan_id":"free"},{"bike_id":"4cd86e13-8bfc-45f2-9ab8-42e6de13b38c","system_id":"levelo_inurba_marseille","lat":43.294314,"lon":5.397498,"is_reserved":false,"is_disabled":false,"rental_uris":{"android":"levelo://app?vid=4cd86e13-8bfc-45f2-9ab8-42e6de13b38c","ios":"levelo://app?vid=4cd86e13-8bfc-45f2-9ab8-42e6de13b38c"},"vehicle_type_id":"4","last_reported":1703632050,"current_range_meters":31200,"station_id":"ce4bh3h2rcd13ifvqdo0","pricing_plan_id":"free"},{"bike_id":"af5398c9-a830-4575-9907-dc9ba8c9dda4","system_id":"levelo_inurba_marseille","lat":43.294314,"lon":5.397498,"is_reserved":false,"is_disabled":false,"rental_uris":{"android":"levelo://app?vid=af5398c9-a830-4575-9907-dc9ba8c9dda4","ios":"levelo://app?vid=af5398c9-a830-4575-9907-dc9ba8c9dda4"},"vehicle_type_id":"4","last_reported":1703632050,"current_range_meters":28400,"station_id":"ce4bh3h2rcd13ifvqdo0","pricing_plan_id":"free"},{"bike_id":"b0a651db-a682-425b-8acd-f98becee0181","system_id":"levelo_inurba_marseille","lat":43.284538,"lon":5.358657,"is_reserved":false,"is_disabled":false,"rental_uris":{"android":"levelo://app?vid=b0a651db-a682-425b-8acd-f98becee0181","ios":"levelo://app?vid=b0a651db-a682-425b-8acd-f98becee0181"},"vehicle_type_id":"4","last_reported":1703632050,"current_range_meters":21200,"station_id":"ce4bhah2rcd13ifvqei0","pricing_plan_id":"free"},{"bike_id":"a593d29a-a76a-4da7-bba7-981e9765359a","system_id":"levelo_inurba_marseille","lat":43.283998,"lon":5.375062,"is_reserved":false,"is_disabled":false,"rental_uris":{"android":"levelo://app?vid=a593d29a-a76a-4da7-bba7-981e9765359a","ios":"levelo://app?vid=a593d29a-a76a-4da7-bba7-981e9765359a"},"vehicle_type_id":"4","last_reported":1703632050,"current_range_meters":11200,"station_id":"ce4bh412rcd13ifvqds0","pricing_plan_id":"free"},{"bike_id":"16b3cce2-cf5a-4dee-a946-e4486b8806b1","system_id":"levelo_inurba_marseille","lat":43.283998,"lon":5.375062,"is_reserved":false,"is_disabled":false,"rental_uris":{"android":"levelo://app?vid=16b3cce2-cf5a-4dee-a946-e4486b8806b1","ios":"levelo://app?vid=16b3cce2-cf5a-4dee-a946-e4486b8806b1"},"vehicle_type_id":"4","last_reported":1703632050,"current_range_meters":20800,"station_id":"ce4bh412rcd13ifvqds0","pricing_plan_id":"free"},{"bike_id":"b3c74a90-056c-47f9-bf2e-21253b84e506","system_id":"levelo_inurba_marseille","lat":43.283998,"lon":5.375062,"is_reserved":false,"is_disabled":false,"rental_uris":{"android":"levelo://app?vid=b3c74a90-056c-47f9-bf2e-21253b84e506","ios":"levelo://app?vid=b3c74a90-056c-47f9-bf2e-21253b84e506"},"vehicle_type_id":"4","last_reported":1703632050,"current_range_meters":22000,"station_id":"ce4bh412rcd13ifvqds0","pricing_plan_id":"free"},{"bike_id":"eff8e6b1-6897-44cb-b7a8-5564f859677b","system_id":"levelo_inurba_marseille","lat":43.283998,"lon":5.375062,"is_reserved":false,"is_disabled":false,"rental_uris":{"android":"levelo://app?vid=eff8e6b1-6897-44cb-b7a8-5564f859677b","ios":"levelo://app?vid=eff8e6b1-6897-44cb-b7a8-5564f859677b"},"vehicle_type_id":"4","last_reported":1703632050,"current_range_meters":23200,"station_id":"ce4bh412rcd13ifvqds0","pricing_plan_id":"free"},{"bike_id":"b095594d-5fa8-4366-8ed7-03abd66821eb","system_id":"levelo_inurba_marseille","lat":43.29569,"lon":5.39981,"is_reserved":false,"is_disabled":false,"rental_uris":{"android":"levelo://app?vid=b095594d-5fa8-4366-8ed7-03abd66821eb","ios":"levelo://app?vid=b095594d-5fa8-4366-8ed7-03abd66821eb"},"vehicle_type_id":"4","last_reported":1703632050,"current_range_meters":10000,"station_id":"ce4bh312rcd13ifvqdj0","pricing_plan_id":"free"},{"bike_id":"769019c4-eb9e-4a31-95b4-3ef192cc753f","system_id":"levelo_inurba_marseille","lat":43.28741,"lon":5.38986,"is_reserved":false,"is_disabled":false,"rental_uris":{"android":"levelo://app?vid=769019c4-eb9e-4a31-95b4-3ef192cc753f","ios":"levelo://app?vid=769019c4-eb9e-4a31-95b4-3ef192cc753f"},"vehicle_type_id":"4","last_reported":1703632050,"current_range_meters":5200,"station_id":"","pricing_plan_id":"free"},{"bike_id":"12a9308a-c256-4c7c-bb4f-282531bfd213","system_id":"levelo_inurba_marseille","lat":43.297946,"lon":5.404063,"is_reserved":false,"is_disabled":false,"rental_uris":{"android":"levelo://app?vid=12a9308a-c256-4c7c-bb4f-282531bfd213","ios":"levelo://app?vid=12a9308a-c256-4c7c-bb4f-282531bfd213"},"vehicle_type_id":"4","last_reported":1703632050,"current_range_meters":24800,"station_id":"ce4bh112rcd13ifvqd90","pricing_plan_id":"free"},{"bike_id":"be22db94-b5fb-453b-8390-fde104cd249a","system_id":"levelo_inurba_marseille","lat":43.288633,"lon":5.393133,"is_reserved":false,"is_disabled":false,"rental_uris":{"android":"levelo://app?vid=be22db94-b5fb-453b-8390-fde104cd249a","ios":"levelo://app?vid=be22db94-b5fb-453b-8390-fde104cd249a"},"vehicle_type_id":"4","last_reported":1703632050,"current_range_meters":31200,"station_id":"ce4bh2p2rcd13ifvqdi0","pricing_plan_id":"free"},{"bike_id":"d4746151-bb8a-4a3c-9c4b-bda2709ab156","system_id":"levelo_inurba_marseille","lat":43.29795,"lon":5.404086,"is_reserved":false,"is_disabled":false,"rental_uris":{"android":"levelo://app?vid=d4746151-bb8a-4a3c-9c4b-bda2709ab156","ios":"levelo://app?vid=d4746151-bb8a-4a3c-9c4b-bda2709ab156"},"vehicle_type_id":"4","last_reported":1703632050,"current_range_meters":0,"station_id":"ce4bh112rcd13ifvqd90","pricing_plan_id":"free"},{"bike_id":"b122a54b-9bb8-4a7b-8c92-8097a869d9b1","system_id":"levelo_inurba_marseille","lat":43.288505,"lon":5.39304,"is_reserved":false,"is_disabled":false,"rental_uris":{"android":"levelo://app?vid=b122a54b-9bb8-4a7b-8c92-8097a869d9b1","ios":"levelo://app?vid=b122a54b-9bb8-4a7b-8c92-8097a869d9b1"},"vehicle_type_id":"4","last_reported":1703632050,"current_range_meters":31200,"station_id":"ce4bh2p2rcd13ifvqdi0","pricing_plan_id":"free"},{"bike_id":"4476b173-b352-4806-b932-9d2d5df4c516","system_id":"levelo_inurba_marseille","lat":43.288526,"lon":5.393128,"is_reserved":false,"is_disabled":false,"rental_uris":{"android":"levelo://app?vid=4476b173-b352-4806-b932-9d2d5df4c516","ios":"levelo://app?vid=4476b173-b352-4806-b932-9d2d5df4c516"},"vehicle_type_id":"4","last_reported":1703632050,"current_range_meters":19200,"station_id":"ce4bh2p2rcd13ifvqdi0","pricing_plan_id":"free"},{"bike_id":"b7561ccf-50f9-4f65-b83f-8f8f1158c04a","system_id":"levelo_inurba_marseille","lat":43.288545,"lon":5.393165,"is_reserved":false,"is_disabled":false,"rental_uris":{"android":"levelo://app?vid=b7561ccf-50f9-4f65-b83f-8f8f1158c04a","ios":"levelo://app?vid=b7561ccf-50f9-4f65-b83f-8f8f1158c04a"},"vehicle_type_id":"4","last_reported":1703632050,"current_range_meters":14800,"station_id":"ce4bh2p2rcd13ifvqdi0","pricing_plan_id":"free"},{"bike_id":"96f08949-9741-46b9-b3c5-0056fdb3c07d","system_id":"levelo_inurba_marseille","lat":43.283494,"lon":5.380945,"is_reserved":false,"is_disabled":false,"rental_uris":{"android":"levelo://app?vid=96f08949-9741-46b9-b3c5-0056fdb3c07d","ios":"levelo://app?vid=96f08949-9741-46b9-b3c5-0056fdb3c07d"},"vehicle_type_id":"4","last_reported":1703632050,"current_range_meters":17200,"station_id":"ce4bh412rcd13ifvqdr0","pricing_plan_id":"free"},{"bike_id":"8902e230-9f4b-427f-9057-c3638d029476","system_id":"levelo_inurba_marseille","lat":43.283494,"lon":5.380945,"is_reserved":false,"is_disabled":false,"rental_uris":{"android":"levelo://app?vid=8902e230-9f4b-427f-9057-c3638d029476","ios":"levelo://app?vid=8902e230-9f4b-427f-9057-c3638d029476"},"vehicle_type_id":"4","last_reported":1703632050,"current_range_meters":23200,"station_id":"ce4bh412rcd13ifvqdr0","pricing_plan_id":"free"},{"bike_id":"e0b68692-8b72-46fb-ac41-394761fb3425","system_id":"levelo_inurba_marseille","lat":43.283494,"lon":5.380945,"is_reserved":false,"is_disabled":false,"rental_uris":{"android":"levelo://app?vid=e0b68692-8b72-46fb-ac41-394761fb3425","ios":"levelo://app?vid=e0b68692-8b72-46fb-ac41-394761fb3425"},"vehicle_type_id":"4","last_reported":1703632050,"current_range_meters":31200,"station_id":"ce4bh412rcd13ifvqdr0","pricing_plan_id":"free"},{"bike_id":"f13ec3b6-4233-4299-8051-736bcb56f9bc","system_id":"levelo_inurba_marseille","lat":43.283498,"lon":5.380948,"is_reserved":false,"is_disabled":false,"rental_uris":{"android":"levelo://app?vid=f13ec3b6-4233-4299-8051-736bcb56f9bc","ios":"levelo://app?vid=f13ec3b6-4233-4299-8051-736bcb56f9bc"},"vehicle_type_id":"4","last_reported":1703632050,"current_range_meters":23200,"station_id":"ce4bh412rcd13ifvqdr0","pricing_plan_id":"free"},{"bike_id":"bd70cfc0-cbcf-4770-8b6c-efb9dbd68efa","system_id":"levelo_inurba_marseille","lat":43.283498,"lon":5.380948,"is_reserved":false,"is_disabled":false,"rental_uris":{"android":"levelo://app?vid=bd70cfc0-cbcf-4770-8b6c-efb9dbd68efa","ios":"levelo://app?vid=bd70cfc0-cbcf-4770-8b6c-efb9dbd68efa"},"vehicle_type_id":"4","last_reported":1703632050,"current_range_meters":22800,"station_id":"ce4bh412rcd13ifvqdr0","pricing_plan_id":"free"},{"bike_id":"8752f406-7ee5-452b-aa39-8aaf354476cc","system_id":"levelo_inurba_marseille","lat":43.283498,"lon":5.380948,"is_reserved":false,"is_disabled":false,"rental_uris":{"android":"levelo://app?vid=8752f406-7ee5-452b-aa39-8aaf354476cc","ios":"levelo://app?vid=8752f406-7ee5-452b-aa39-8aaf354476cc"},"vehicle_type_id":"4","last_reported":1703632050,"current_range_meters":15600,"station_id":"ce4bh412rcd13ifvqdr0","pricing_plan_id":"free"},{"bike_id":"ddedd4db-7bba-4397-8ccb-787f9d9ddabe","system_id":"levelo_inurba_marseille","lat":43.283498,"lon":5.380948,"is_reserved":false,"is_disabled":false,"rental_uris":{"android":"levelo://app?vid=ddedd4db-7bba-4397-8ccb-787f9d9ddabe","ios":"levelo://app?vid=ddedd4db-7bba-4397-8ccb-787f9d9ddabe"},"vehicle_type_id":"4","last_reported":1703632050,"current_range_meters":21200,"station_id":"ce4bh412rcd13ifvqdr0","pricing_plan_id":"free"},{"bike_id":"e485450b-2736-4f4c-b94b-0da5a69b88aa","system_id":"levelo_inurba_marseille","lat":43.33385,"lon":5.39822,"is_reserved":false,"is_disabled":false,"rental_uris":{"android":"levelo://app?vid=e485450b-2736-4f4c-b94b-0da5a69b88aa","ios":"levelo://app?vid=e485450b-2736-4f4c-b94b-0da5a69b88aa"},"vehicle_type_id":"4","last_reported":1703632050,"current_range_meters":20800,"station_id":"","pricing_plan_id":"free"},{"bike_id":"5c319470-2136-41a8-8b17-ba25991ba3e5","system_id":"levelo_inurba_marseille","lat":43.282754,"lon":5.350519,"is_reserved":false,"is_disabled":false,"rental_uris":{"android":"levelo://app?vid=5c319470-2136-41a8-8b17-ba25991ba3e5","ios":"levelo://app?vid=5c319470-2136-41a8-8b17-ba25991ba3e5"},"vehicle_type_id":"4","last_reported":1703632050,"current_range_meters":18800,"station_id":"ce4bhbp2rcd13ifvqerg","pricing_plan_id":"free"},{"bike_id":"af981f2c-aaee-4441-8c42-99a12e0aa8fc","system_id":"levelo_inurba_marseille","lat":43.289363,"lon":5.396322,"is_reserved":false,"is_disabled":false,"rental_uris":{"android":"levelo://app?vid=af981f2c-aaee-4441-8c42-99a12e0aa8fc","ios":"levelo://app?vid=af981f2c-aaee-4441-8c42-99a12e0aa8fc"},"vehicle_type_id":"4","last_reported":1703632050,"current_range_meters":28000,"station_id":"ce4bh3h2rcd13ifvqdn0","pricing_plan_id":"free"},{"bike_id":"b9d9c37d-61a1-4dd6-9c0e-b81396445f73","system_id":"levelo_inurba_marseille","lat":43.292724,"lon":5.401131,"is_reserved":false,"is_disabled":false,"rental_uris":{"android":"levelo://app?vid=b9d9c37d-61a1-4dd6-9c0e-b81396445f73","ios":"levelo://app?vid=b9d9c37d-61a1-4dd6-9c0e-b81396445f73"},"vehicle_type_id":"4","last_reported":1703632050,"current_range_meters":30000,"station_id":"ce4bh312rcd13ifvqdk0","pricing_plan_id":"free"},{"bike_id":"465ea278-bc3d-478d-a9fb-62e82d4632b0","system_id":"levelo_inurba_marseille","lat":43.292724,"lon":5.401131,"is_reserved":false,"is_disabled":false,"rental_uris":{"android":"levelo://app?vid=465ea278-bc3d-478d-a9fb-62e82d4632b0","ios":"levelo://app?vid=465ea278-bc3d-478d-a9fb-62e82d4632b0"},"vehicle_type_id":"4","last_reported":1703632050,"current_range_meters":25200,"station_id":"ce4bh312rcd13ifvqdk0","pricing_plan_id":"free"},{"bike_id":"578d9ea1-8b09-4876-8c3d-825b8f328b2e","system_id":"levelo_inurba_marseille","lat":43.282754,"lon":5.350519,"is_reserved":false,"is_disabled":false,"rental_uris":{"android":"levelo://app?vid=578d9ea1-8b09-4876-8c3d-825b8f328b2e","ios":"levelo://app?vid=578d9ea1-8b09-4876-8c3d-825b8f328b2e"},"vehicle_type_id":"4","last_reported":1703632050,"current_range_meters":20800,"station_id":"ce4bhbp2rcd13ifvqerg","pricing_plan_id":"free"},{"bike_id":"d5cabc3f-b5d6-49b2-bb07-ab95c9540664","system_id":"levelo_inurba_marseille","lat":43.282754,"lon":5.350519,"is_reserved":false,"is_disabled":false,"rental_uris":{"android":"levelo://app?vid=d5cabc3f-b5d6-49b2-bb07-ab95c9540664","ios":"levelo://app?vid=d5cabc3f-b5d6-49b2-bb07-ab95c9540664"},"vehicle_type_id":"4","last_reported":1703632050,"current_range_meters":21600,"station_id":"ce4bhbp2rcd13ifvqerg","pricing_plan_id":"free"},{"bike_id":"0dab775b-abea-4a3c-b2fa-96bd7ace7d55","system_id":"levelo_inurba_marseille","lat":43.283502,"lon":5.386471,"is_reserved":false,"is_disabled":false,"rental_uris":{"android":"levelo://app?vid=0dab775b-abea-4a3c-b2fa-96bd7ace7d55","ios":"levelo://app?vid=0dab775b-abea-4a3c-b2fa-96bd7ace7d55"},"vehicle_type_id":"4","last_reported":1703632050,"current_range_meters":19600,"station_id":"ce4bh492rcd13ifvqdvg","pricing_plan_id":"free"},{"bike_id":"46eb9a33-37b8-4d4c-bc79-22ac88812e45","system_id":"levelo_inurba_marseille","lat":43.282744,"lon":5.350533,"is_reserved":false,"is_disabled":false,"rental_uris":{"android":"levelo://app?vid=46eb9a33-37b8-4d4c-bc79-22ac88812e45","ios":"levelo://app?vid=46eb9a33-37b8-4d4c-bc79-22ac88812e45"},"vehicle_type_id":"4","last_reported":1703632050,"current_range_meters":24400,"station_id":"ce4bhbp2rcd13ifvqerg","pricing_plan_id":"free"},{"bike_id":"eaaf4325-4d88-477e-b3ad-a594392abc25","system_id":"levelo_inurba_marseille","lat":43.282744,"lon":5.350533,"is_reserved":false,"is_disabled":false,"rental_uris":{"android":"levelo://app?vid=eaaf4325-4d88-477e-b3ad-a594392abc25","ios":"levelo://app?vid=eaaf4325-4d88-477e-b3ad-a594392abc25"},"vehicle_type_id":"4","last_reported":1703632050,"current_range_meters":18400,"station_id":"ce4bhbp2rcd13ifvqerg","pricing_plan_id":"free"},{"bike_id":"4d948afd-1b6f-48ba-9cac-7e74ef43f648","system_id":"levelo_inurba_marseille","lat":43.283502,"lon":5.386471,"is_reserved":false,"is_disabled":false,"rental_uris":{"android":"levelo://app?vid=4d948afd-1b6f-48ba-9cac-7e74ef43f648","ios":"levelo://app?vid=4d948afd-1b6f-48ba-9cac-7e74ef43f648"},"vehicle_type_id":"4","last_reported":1703632050,"current_range_meters":25600,"station_id":"ce4bh492rcd13ifvqdvg","pricing_plan_id":"free"},{"bike_id":"1a95d4de-1fa3-4c2b-8aed-0dc809aa8770","system_id":"levelo_inurba_marseille","lat":43.28039,"lon":5.369297,"is_reserved":false,"is_disabled":false,"rental_uris":{"android":"levelo://app?vid=1a95d4de-1fa3-4c2b-8aed-0dc809aa8770","ios":"levelo://app?vid=1a95d4de-1fa3-4c2b-8aed-0dc809aa8770"},"vehicle_type_id":"4","last_reported":1703632050,"current_range_meters":28000,"station_id":"ce4bha12rcd13ifvqef0","pricing_plan_id":"free"},{"bike_id":"7be9038e-ef91-449b-ab66-c2e8d0831a21","system_id":"levelo_inurba_marseille","lat":43.28039,"lon":5.369297,"is_reserved":false,"is_disabled":false,"rental_uris":{"android":"levelo://app?vid=7be9038e-ef91-449b-ab66-c2e8d0831a21","ios":"levelo://app?vid=7be9038e-ef91-449b-ab66-c2e8d0831a21"},"vehicle_type_id":"4","last_reported":1703632050,"current_range_meters":20800,"station_id":"ce4bha12rcd13ifvqef0","pricing_plan_id":"free"},{"bike_id":"82e82882-60b9-45df-b7fa-e92852020baf","system_id":"levelo_inurba_marseille","lat":43.28039,"lon":5.369297,"is_reserved":false,"is_disabled":false,"rental_uris":{"android":"levelo://app?vid=82e82882-60b9-45df-b7fa-e92852020baf","ios":"levelo://app?vid=82e82882-60b9-45df-b7fa-e92852020baf"},"vehicle_type_id":"4","last_reported":1703632050,"current_range_meters":23600,"station_id":"ce4bha12rcd13ifvqef0","pricing_plan_id":"free"},{"bike_id":"24e2c243-d810-4cb0-bf16-4757ab160c8b","system_id":"levelo_inurba_marseille","lat":43.28039,"lon":5.369297,"is_reserved":false,"is_disabled":false,"rental_uris":{"android":"levelo://app?vid=24e2c243-d810-4cb0-bf16-4757ab160c8b","ios":"levelo://app?vid=24e2c243-d810-4cb0-bf16-4757ab160c8b"},"vehicle_type_id":"4","last_reported":1703632050,"current_range_meters":31600,"station_id":"ce4bha12rcd13ifvqef0","pricing_plan_id":"free"},{"bike_id":"f399473e-2f7b-40fe-8f80-2166bc8fdbb7","system_id":"levelo_inurba_marseille","lat":43.280382,"lon":5.369291,"is_reserved":false,"is_disabled":false,"rental_uris":{"android":"levelo://app?vid=f399473e-2f7b-40fe-8f80-2166bc8fdbb7","ios":"levelo://app?vid=f399473e-2f7b-40fe-8f80-2166bc8fdbb7"},"vehicle_type_id":"4","last_reported":1703632050,"current_range_meters":24800,"station_id":"ce4bha12rcd13ifvqef0","pricing_plan_id":"free"},{"bike_id":"874247a8-b851-4752-bb55-16e8eebdc42c","system_id":"levelo_inurba_marseille","lat":43.280382,"lon":5.369291,"is_reserved":false,"is_disabled":false,"rental_uris":{"android":"levelo://app?vid=874247a8-b851-4752-bb55-16e8eebdc42c","ios":"levelo://app?vid=874247a8-b851-4752-bb55-16e8eebdc42c"},"vehicle_type_id":"4","last_reported":1703632050,"current_range_meters":31200,"station_id":"ce4bha12rcd13ifvqef0","pricing_plan_id":"free"},{"bike_id":"21cdddc6-61d7-4c4d-8e98-9b6c2f0d4480","system_id":"levelo_inurba_marseille","lat":43.280382,"lon":5.369291,"is_reserved":false,"is_disabled":false,"rental_uris":{"android":"levelo://app?vid=21cdddc6-61d7-4c4d-8e98-9b6c2f0d4480","ios":"levelo://app?vid=21cdddc6-61d7-4c4d-8e98-9b6c2f0d4480"},"vehicle_type_id":"4","last_reported":1703632050,"current_range_meters":26800,"station_id":"ce4bha12rcd13ifvqef0","pricing_plan_id":"free"},{"bike_id":"33e92d55-ff45-4f69-b325-e16e2284e863","system_id":"levelo_inurba_marseille","lat":43.290412,"lon":5.399633,"is_reserved":false,"is_disabled":false,"rental_uris":{"android":"levelo://app?vid=33e92d55-ff45-4f69-b325-e16e2284e863","ios":"levelo://app?vid=33e92d55-ff45-4f69-b325-e16e2284e863"},"vehicle_type_id":"4","last_reported":1703632050,"current_range_meters":19200,"station_id":"ce4bh392rcd13ifvqdm0","pricing_plan_id":"free"},{"bike_id":"b0fe6e06-21dd-4544-937c-0593e88f5f6c","system_id":"levelo_inurba_marseille","lat":43.29041,"lon":5.399634,"is_reserved":false,"is_disabled":false,"rental_uris":{"android":"levelo://app?vid=b0fe6e06-21dd-4544-937c-0593e88f5f6c","ios":"levelo://app?vid=b0fe6e06-21dd-4544-937c-0593e88f5f6c"},"vehicle_type_id":"4","last_reported":1703632050,"current_range_meters":31200,"station_id":"ce4bh392rcd13ifvqdm0","pricing_plan_id":"free"},{"bike_id":"33e86e39-fe48-4a08-99d6-e72794ab6aa1","system_id":"levelo_inurba_marseille","lat":43.290412,"lon":5.399633,"is_reserved":false,"is_disabled":false,"rental_uris":{"android":"levelo://app?vid=33e86e39-fe48-4a08-99d6-e72794ab6aa1","ios":"levelo://app?vid=33e86e39-fe48-4a08-99d6-e72794ab6aa1"},"vehicle_type_id":"4","last_reported":1703632050,"current_range_meters":26000,"station_id":"ce4bh392rcd13ifvqdm0","pricing_plan_id":"free"},{"bike_id":"390db895-20ba-4962-ac68-dcc5cca2224d","system_id":"levelo_inurba_marseille","lat":43.29041,"lon":5.399634,"is_reserved":false,"is_disabled":false,"rental_uris":{"android":"levelo://app?vid=390db895-20ba-4962-ac68-dcc5cca2224d","ios":"levelo://app?vid=390db895-20ba-4962-ac68-dcc5cca2224d"},"vehicle_type_id":"4","last_reported":1703632050,"current_range_meters":21200,"station_id":"ce4bh392rcd13ifvqdm0","pricing_plan_id":"free"},{"bike_id":"1cc44341-335a-4afa-b4c4-2a5373f117c2","system_id":"levelo_inurba_marseille","lat":43.281044,"lon":5.378308,"is_reserved":false,"is_disabled":false,"rental_uris":{"android":"levelo://app?vid=1cc44341-335a-4afa-b4c4-2a5373f117c2","ios":"levelo://app?vid=1cc44341-335a-4afa-b4c4-2a5373f117c2"},"vehicle_type_id":"4","last_reported":1703632050,"current_range_meters":30400,"station_id":"ce4bha12rcd13ifvqee0","pricing_plan_id":"free"},{"bike_id":"23628f18-e09a-4bda-93fb-04dd206b0253","system_id":"levelo_inurba_marseille","lat":43.281044,"lon":5.378308,"is_reserved":false,"is_disabled":false,"rental_uris":{"android":"levelo://app?vid=23628f18-e09a-4bda-93fb-04dd206b0253","ios":"levelo://app?vid=23628f18-e09a-4bda-93fb-04dd206b0253"},"vehicle_type_id":"4","last_reported":1703632050,"current_range_meters":21600,"station_id":"ce4bha12rcd13ifvqee0","pricing_plan_id":"free"},{"bike_id":"4a1556c2-fabb-4c55-881b-27f53188df68","system_id":"levelo_inurba_marseille","lat":43.28101,"lon":5.37837,"is_reserved":false,"is_disabled":false,"rental_uris":{"android":"levelo://app?vid=4a1556c2-fabb-4c55-881b-27f53188df68","ios":"levelo://app?vid=4a1556c2-fabb-4c55-881b-27f53188df68"},"vehicle_type_id":"4","last_reported":1703632050,"current_range_meters":6800,"station_id":"ce4bha12rcd13ifvqee0","pricing_plan_id":"free"},{"bike_id":"ec9b7693-0b93-4672-b602-dbcf45a33324","system_id":"levelo_inurba_marseille","lat":43.284473,"lon":5.391923,"is_reserved":false,"is_disabled":false,"rental_uris":{"android":"levelo://app?vid=ec9b7693-0b93-4672-b602-dbcf45a33324","ios":"levelo://app?vid=ec9b7693-0b93-4672-b602-dbcf45a33324"},"vehicle_type_id":"4","last_reported":1703632050,"current_range_meters":800,"station_id":"ce4bhoh2rcd13ifvqh5g","pricing_plan_id":"free"},{"bike_id":"a4a5ccde-62af-4c28-95c1-d68b50703509","system_id":"levelo_inurba_marseille","lat":43.326693,"lon":5.410328,"is_reserved":false,"is_disabled":false,"rental_uris":{"android":"levelo://app?vid=a4a5ccde-62af-4c28-95c1-d68b50703509","ios":"levelo://app?vid=a4a5ccde-62af-4c28-95c1-d68b50703509"},"vehicle_type_id":"4","last_reported":1703632050,"current_range_meters":29600,"station_id":"ce4bhpp2rcd13ifvqhgg","pricing_plan_id":"free"},{"bike_id":"8f235b10-3f46-415f-920b-7830a8f31b9f","system_id":"levelo_inurba_marseille","lat":43.304188,"lon":5.412904,"is_reserved":false,"is_disabled":false,"rental_uris":{"android":"levelo://app?vid=8f235b10-3f46-415f-920b-7830a8f31b9f","ios":"levelo://app?vid=8f235b10-3f46-415f-920b-7830a8f31b9f"},"vehicle_type_id":"4","last_reported":1703632050,"current_range_meters":1200,"station_id":"ce4bhop2rcd13ifvqh8g","pricing_plan_id":"free"},{"bike_id":"23a18914-adeb-4148-a7d9-94eed249347d","system_id":"levelo_inurba_marseille","lat":43.304188,"lon":5.412904,"is_reserved":false,"is_disabled":false,"rental_uris":{"android":"levelo://app?vid=23a18914-adeb-4148-a7d9-94eed249347d","ios":"levelo://app?vid=23a18914-adeb-4148-a7d9-94eed249347d"},"vehicle_type_id":"4","last_reported":1703632050,"current_range_meters":31200,"station_id":"ce4bhop2rcd13ifvqh8g","pricing_plan_id":"free"},{"bike_id":"0f4a0dbb-d3b7-43b9-893d-8c4a30c4ffd9","system_id":"levelo_inurba_marseille","lat":43.287154,"lon":5.399979,"is_reserved":false,"is_disabled":false,"rental_uris":{"android":"levelo://app?vid=0f4a0dbb-d3b7-43b9-893d-8c4a30c4ffd9","ios":"levelo://app?vid=0f4a0dbb-d3b7-43b9-893d-8c4a30c4ffd9"},"vehicle_type_id":"4","last_reported":1703632050,"current_range_meters":23200,"station_id":"ce4bho92rcd13ifvqh3g","pricing_plan_id":"free"},{"bike_id":"23685469-4ba1-4493-ab94-d2bcbd8cb221","system_id":"levelo_inurba_marseille","lat":43.279087,"lon":5.380114,"is_reserved":false,"is_disabled":false,"rental_uris":{"android":"levelo://app?vid=23685469-4ba1-4493-ab94-d2bcbd8cb221","ios":"levelo://app?vid=23685469-4ba1-4493-ab94-d2bcbd8cb221"},"vehicle_type_id":"4","last_reported":1703632050,"current_range_meters":28400,"station_id":"ce4bhf92rcd13ifvqf50","pricing_plan_id":"free"},{"bike_id":"194ac230-b6b7-4b3a-8c4f-3087a5b86650","system_id":"levelo_inurba_marseille","lat":43.287154,"lon":5.399979,"is_reserved":false,"is_disabled":false,"rental_uris":{"android":"levelo://app?vid=194ac230-b6b7-4b3a-8c4f-3087a5b86650","ios":"levelo://app?vid=194ac230-b6b7-4b3a-8c4f-3087a5b86650"},"vehicle_type_id":"4","last_reported":1703632050,"current_range_meters":31200,"station_id":"ce4bho92rcd13ifvqh3g","pricing_plan_id":"free"},{"bike_id":"53c3f2fc-b8e1-47a8-b11a-c47985a37e62","system_id":"levelo_inurba_marseille","lat":43.287154,"lon":5.399979,"is_reserved":false,"is_disabled":false,"rental_uris":{"android":"levelo://app?vid=53c3f2fc-b8e1-47a8-b11a-c47985a37e62","ios":"levelo://app?vid=53c3f2fc-b8e1-47a8-b11a-c47985a37e62"},"vehicle_type_id":"4","last_reported":1703632050,"current_range_meters":21600,"station_id":"ce4bho92rcd13ifvqh3g","pricing_plan_id":"free"},{"bike_id":"520f6d38-7f75-4b7f-b1db-71ad68d9e6bc","system_id":"levelo_inurba_marseille","lat":43.320045,"lon":5.415048,"is_reserved":false,"is_disabled":false,"rental_uris":{"android":"levelo://app?vid=520f6d38-7f75-4b7f-b1db-71ad68d9e6bc","ios":"levelo://app?vid=520f6d38-7f75-4b7f-b1db-71ad68d9e6bc"},"vehicle_type_id":"4","last_reported":1703632050,"current_range_meters":29200,"station_id":"ce4bhq92rcd13ifvqhkg","pricing_plan_id":"free"},{"bike_id":"ac1d0848-b1ea-46cb-8369-abe3e59bbb1d","system_id":"levelo_inurba_marseille","lat":43.276179,"lon":5.361009,"is_reserved":false,"is_disabled":false,"rental_uris":{"android":"levelo://app?vid=ac1d0848-b1ea-46cb-8369-abe3e59bbb1d","ios":"levelo://app?vid=ac1d0848-b1ea-46cb-8369-abe3e59bbb1d"},"vehicle_type_id":"4","last_reported":1703632050,"current_range_meters":23200,"station_id":"ce4bgj92rcd13ifvqbe0","pricing_plan_id":"free"},{"bike_id":"f7ff1472-f7fe-4ac4-897e-17f440609c6e","system_id":"levelo_inurba_marseille","lat":43.280784,"lon":5.396622,"is_reserved":false,"is_disabled":false,"rental_uris":{"android":"levelo://app?vid=f7ff1472-f7fe-4ac4-897e-17f440609c6e","ios":"levelo://app?vid=f7ff1472-f7fe-4ac4-897e-17f440609c6e"},"vehicle_type_id":"4","last_reported":1703632050,"current_range_meters":29600,"station_id":"ce4bho12rcd13ifvqh2g","pricing_plan_id":"free"},{"bike_id":"ddf6ee76-df1d-4211-a047-b58bf2672a56","system_id":"levelo_inurba_marseille","lat":43.303837,"lon":5.418724,"is_reserved":false,"is_disabled":false,"rental_uris":{"android":"levelo://app?vid=ddf6ee76-df1d-4211-a047-b58bf2672a56","ios":"levelo://app?vid=ddf6ee76-df1d-4211-a047-b58bf2672a56"},"vehicle_type_id":"4","last_reported":1703632050,"current_range_meters":28000,"station_id":"ce4bhop2rcd13ifvqh7g","pricing_plan_id":"free"},{"bike_id":"e803d696-ba1e-416d-803e-52c7f1b5577d","system_id":"levelo_inurba_marseille","lat":43.278399,"lon":5.392139,"is_reserved":false,"is_disabled":false,"rental_uris":{"android":"levelo://app?vid=e803d696-ba1e-416d-803e-52c7f1b5577d","ios":"levelo://app?vid=e803d696-ba1e-416d-803e-52c7f1b5577d"},"vehicle_type_id":"4","last_reported":1703632050,"current_range_meters":30400,"station_id":"ce4bhjp2rcd13ifvqga0","pricing_plan_id":"free"},{"bike_id":"6785ff3c-e2fc-455c-922e-7405afb08f81","system_id":"levelo_inurba_marseille","lat":43.278401,"lon":5.392152,"is_reserved":false,"is_disabled":false,"rental_uris":{"android":"levelo://app?vid=6785ff3c-e2fc-455c-922e-7405afb08f81","ios":"levelo://app?vid=6785ff3c-e2fc-455c-922e-7405afb08f81"},"vehicle_type_id":"4","last_reported":1703632050,"current_range_meters":30400,"station_id":"ce4bhjp2rcd13ifvqga0","pricing_plan_id":"free"},{"bike_id":"b87a8d88-28db-483f-8488-2093cff6c511","system_id":"levelo_inurba_marseille","lat":43.273613,"lon":5.362705,"is_reserved":false,"is_disabled":false,"rental_uris":{"android":"levelo://app?vid=b87a8d88-28db-483f-8488-2093cff6c511","ios":"levelo://app?vid=b87a8d88-28db-483f-8488-2093cff6c511"},"vehicle_type_id":"4","last_reported":1703632050,"current_range_meters":24800,"station_id":"ce4bhbh2rcd13ifvqeo0","pricing_plan_id":"free"},{"bike_id":"5d5ca3ac-3be7-441d-b8ea-b4ea365ca249","system_id":"levelo_inurba_marseille","lat":43.273613,"lon":5.362705,"is_reserved":false,"is_disabled":false,"rental_uris":{"android":"levelo://app?vid=5d5ca3ac-3be7-441d-b8ea-b4ea365ca249","ios":"levelo://app?vid=5d5ca3ac-3be7-441d-b8ea-b4ea365ca249"},