{"last_updated":1770477246,"ttl":60,"version":"2.2","data":{"bikes":[{"bike_id":"d80d92c0-e8c3-4bd2-9272-a00aefbf4d79","system_id":"levelo_inurba_marseille","lat":43.23774,"lon":5.36605,"is_reserved":false,"is_disabled":false,"rental_uris":{"android":"levelo://app?vid=d80d92c0-e8c3-4bd2-9272-a00aefbf4d79","ios":"levelo://app?vid=d80d92c0-e8c3-4bd2-9272-a00aefbf4d79"},"vehicle_type_id":"4","last_reported":1770477247,"current_range_meters":2800,"station_id":"st_d3nk18o9ro0c73en2l3g","pricing_plan_id":"cebpf4jnsgd1na2vs0mg"},{"bike_id":"4b0dd509-8615-4710-a1b5-95adc8499462","system_id":"levelo_inurba_marseille","lat":43.26218,"lon":5.37439,"is_reserved":false,"is_disabled":false,"rental_uris":{"android":"levelo://app?vid=4b0dd509-8615-4710-a1b5-95adc8499462","ios":"levelo://app?vid=4b0dd509-8615-4710-a1b5-95adc8499462"},"vehicle_type_id":"4","last_reported":1770477247,"current_range_meters":2800,"station_id":"ce4bhgp2rcd13ifvqfc0","pricing_plan_id":"cebpf4jnsgd1na2vs0mg"},{"bike_id":"e1a6bf46-e00a-4020-8d71-4da619e32cc5","system_id":"levelo_inurba_marseille","lat":43.23985,"lon":5.36611,"is_reserved":false,"is_disabled":false,"rental_uris":{"android":"levelo://app?vid=e1a6bf46-e00a-4020-8d71-4da619e32cc5","ios":"levelo://app?vid=e1a6bf46-e00a-4020-8d71-4da619e32cc5"},"vehicle_type_id":"4","last_reported":1770477247,"current_range_meters":2800,"station_id":"ce4bhi12rcd13ifvqfp0","pricing_plan_id":"cebpf4jnsgd1na2vs0mg"},{"bike_id":"075734d3-36b5-48b1-9a54-639b5f3b3e53","system_id":"levelo_inurba_marseille","lat":43.2447,"lon":5.42554,"is_reserved":false,"is_disabled":false,"rental_uris":{"android":"levelo://app?vid=075734d3-36b5-48b1-9a54-639b5f3b3e53","ios":"levelo://app?vid=075734d3-36b5-48b1-9a54-639b5f3b3e53"},"vehicle_type_id":"4","last_reported":1770477247,"current_range_meters":3200,"station_id":"st_d4a3vfp97mjs738cd8kg","pricing_plan_id":"cebpf4jnsgd1na2vs0mg"},{"bike_id":"c4b19063-7b56-4a61-bf60-fb51f8257945","system_id":"levelo_inurba_marseille","lat":43.25821,"lon":5.39453,"is_reserved":false,"is_disabled":false,"rental_uris":{"android":"levelo://app?vid=c4b19063-7b56-4a61-bf60-fb51f8257945","ios":"levelo://app?vid=c4b19063-7b56-4a61-bf60-fb51f8257945"},"vehicle_type_id":"4","last_reported":1770477247,"current_range_meters":3200,"station_id":"ce4bhip2rcd13ifvqft0","pricing_plan_id":"cebpf4jnsgd1na2vs0mg"},{"bike_id":"f0d45e46-9d23-4329-92a4-e4ddc618e990","system_id":"levelo_inurba_marseille","lat":43.22944,"lon":5.35333,"is_reserved":false,"is_disabled":false,"rental_uris":{"android":"levelo://app?vid=f0d45e46-9d23-4329-92a4-e4ddc618e990","ios":"levelo://app?vid=f0d45e46-9d23-4329-92a4-e4ddc618e990"},"vehicle_type_id":"4","last_reported":1770477247,"current_range_meters":3200,"station_id":"cpo3532slgdg3j2ikp40","pricing_plan_id":"cebpf4jnsgd1na2vs0mg"},{"bike_id":"37e9c795-f53b-47bd-8c9b-e2c251d59572","system_id":"levelo_inurba_marseille","lat":43.26213,"lon":5.37445,"is_reserved":false,"is_disabled":false,"rental_uris":{"android":"levelo://app?vid=37e9c795-f53b-47bd-8c9b-e2c251d59572","ios":"levelo://app?vid=37e9c795-f53b-47bd-8c9b-e2c251d59572"},"vehicle_type_id":"4","last_reported":1770477247,"current_range_meters":3200,"station_id":"ce4bhgp2rcd13ifvqfc0","pricing_plan_id":"cebpf4jnsgd1na2vs0mg"},{"bike_id":"44df0d6d-61a2-46ab-9bf9-ae3cec90cb8f","system_id":"levelo_inurba_marseille","lat":43.25006,"lon":5.38903,"is_reserved":false,"is_disabled":true,"rental_uris":{"android":"levelo://app?vid=44df0d6d-61a2-46ab-9bf9-ae3cec90cb8f","ios":"levelo://app?vid=44df0d6d-61a2-46ab-9bf9-ae3cec90cb8f"},"vehicle_type_id":"4","last_reported":1770477247,"current_range_meters":3200,"station_id":"ce4bhgp2rcd13ifvqfd0","pricing_plan_id":"cebpf4jnsgd1na2vs0mg"},{"bike_id":"c8db9df5-f162-4acd-b67e-bbefa02b460f","system_id":"levelo_inurba_marseille","lat":43.246703,"lon":5.381341,"is_reserved":false,"is_disabled":false,"rental_uris":{"android":"levelo://app?vid=c8db9df5-f162-4acd-b67e-bbefa02b460f","ios":"levelo://app?vid=c8db9df5-f162-4acd-b67e-bbefa02b460f"},"vehicle_type_id":"4","last_reported":1770477247,"current_range_meters":3200,"station_id":"ce4bhih2rcd13ifvqfr0","pricing_plan_id":"cebpf4jnsgd1na2vs0mg"},{"bike_id":"c6782d87-e485-4a2c-b62b-9a52105fb0ef","system_id":"levelo_inurba_marseille","lat":43.25012,"lon":5.38896,"is_reserved":false,"is_disabled":false,"rental_uris":{"android":"levelo://app?vid=c6782d87-e485-4a2c-b62b-9a52105fb0ef","ios":"levelo://app?vid=c6782d87-e485-4a2c-b62b-9a52105fb0ef"},"vehicle_type_id":"4","last_reported":1770477247,"current_range_meters":3600,"station_id":"ce4bhgp2rcd13ifvqfd0","pricing_plan_id":"cebpf4jnsgd1na2vs0mg"},{"bike_id":"28038112-793b-4a40-88c6-af51aa30dc6d","system_id":"levelo_inurba_marseille","lat":43.232,"lon":5.35549,"is_reserved":false,"is_disabled":false,"rental_uris":{"android":"levelo://app?vid=28038112-793b-4a40-88c6-af51aa30dc6d","ios":"levelo://app?vid=28038112-793b-4a40-88c6-af51aa30dc6d"},"vehicle_type_id":"4","last_reported":1770477247,"current_range_meters":3600,"station_id":"ce4bhu92rcd13ifvqi70","pricing_plan_id":"cebpf4jnsgd1na2vs0mg"},{"bike_id":"36bac8f2-737f-4d23-9ff4-7678e5142d66","system_id":"levelo_inurba_marseille","lat":43.25515,"lon":5.37626,"is_reserved":false,"is_disabled":false,"rental_uris":{"android":"levelo://app?vid=36bac8f2-737f-4d23-9ff4-7678e5142d66","ios":"levelo://app?vid=36bac8f2-737f-4d23-9ff4-7678e5142d66"},"vehicle_type_id":"4","last_reported":1770477247,"current_range_meters":3600,"station_id":"ce4bhh12rcd13ifvqff0","pricing_plan_id":"cebpf4jnsgd1na2vs0mg"},{"bike_id":"29554745-e0e5-4276-b587-71d331cae345","system_id":"levelo_inurba_marseille","lat":43.29538,"lon":5.3903,"is_reserved":false,"is_disabled":true,"rental_uris":{"android":"levelo://app?vid=29554745-e0e5-4276-b587-71d331cae345","ios":"levelo://app?vid=29554745-e0e5-4276-b587-71d331cae345"},"vehicle_type_id":"4","last_reported":1770477247,"current_range_meters":3600,"station_id":"ce4bh3p2rcd13ifvqdp0","pricing_plan_id":"cebpf4jnsgd1na2vs0mg"},{"bike_id":"39d39c22-324f-48d6-9129-7f55fe04c2e6","system_id":"levelo_inurba_marseille","lat":43.24381,"lon":5.37072,"is_reserved":false,"is_disabled":false,"rental_uris":{"android":"levelo://app?vid=39d39c22-324f-48d6-9129-7f55fe04c2e6","ios":"levelo://app?vid=39d39c22-324f-48d6-9129-7f55fe04c2e6"},"vehicle_type_id":"4","last_reported":1770477247,"current_range_meters":4000,"station_id":"ce4bhhh2rcd13ifvqfk0","pricing_plan_id":"cebpf4jnsgd1na2vs0mg"},{"bike_id":"49bc0ac4-ec4c-46b4-bcba-c5b87d948aa1","system_id":"levelo_inurba_marseille","lat":43.2397,"lon":5.36598,"is_reserved":false,"is_disabled":false,"rental_uris":{"android":"levelo://app?vid=49bc0ac4-ec4c-46b4-bcba-c5b87d948aa1","ios":"levelo://app?vid=49bc0ac4-ec4c-46b4-bcba-c5b87d948aa1"},"vehicle_type_id":"4","last_reported":1770477247,"current_range_meters":4000,"station_id":"ce4bhi12rcd13ifvqfp0","pricing_plan_id":"cebpf4jnsgd1na2vs0mg"},{"bike_id":"c6e25874-c646-4223-9fb1-4a2c71cb2059","system_id":"levelo_inurba_marseille","lat":43.31218,"lon":5.36875,"is_reserved":false,"is_disabled":false,"rental_uris":{"android":"levelo://app?vid=c6e25874-c646-4223-9fb1-4a2c71cb2059","ios":"levelo://app?vid=c6e25874-c646-4223-9fb1-4a2c71cb2059"},"vehicle_type_id":"4","last_reported":1770477247,"current_range_meters":4000,"station_id":"ce4bgl92rcd13ifvqbq0","pricing_plan_id":"cebpf4jnsgd1na2vs0mg"},{"bike_id":"675ec433-caf3-4517-83f9-75769cd57605","system_id":"levelo_inurba_marseille","lat":43.32077,"lon":5.36761,"is_reserved":false,"is_disabled":false,"rental_uris":{"android":"levelo://app?vid=675ec433-caf3-4517-83f9-75769cd57605","ios":"levelo://app?vid=675ec433-caf3-4517-83f9-75769cd57605"},"vehicle_type_id":"4","last_reported":1770477247,"current_range_meters":4000,"station_id":"ce4bhrh2rcd13ifvqhug","pricing_plan_id":"cebpf4jnsgd1na2vs0mg"},{"bike_id":"142a21c2-9a29-466a-92f6-5ab3ecc5b60d","system_id":"levelo_inurba_marseille","lat":43.23793,"lon":5.36618,"is_reserved":false,"is_disabled":false,"rental_uris":{"android":"levelo://app?vid=142a21c2-9a29-466a-92f6-5ab3ecc5b60d","ios":"levelo://app?vid=142a21c2-9a29-466a-92f6-5ab3ecc5b60d"},"vehicle_type_id":"4","last_reported":1770477247,"current_range_meters":4000,"station_id":"st_d3nk18o9ro0c73en2l3g","pricing_plan_id":"cebpf4jnsgd1na2vs0mg"},{"bike_id":"a5faf7a6-7f2f-419a-b628-e8f939b70083","system_id":"levelo_inurba_marseille","lat":43.28526,"lon":5.44096,"is_reserved":false,"is_disabled":false,"rental_uris":{"android":"levelo://app?vid=a5faf7a6-7f2f-419a-b628-e8f939b70083","ios":"levelo://app?vid=a5faf7a6-7f2f-419a-b628-e8f939b70083"},"vehicle_type_id":"4","last_reported":1770477247,"current_range_meters":4000,"station_id":"st_d3j3df2ikq2c7380ej80","pricing_plan_id":"cebpf4jnsgd1na2vs0mg"},{"bike_id":"4573242e-b265-4331-b57e-964b4ba015f2","system_id":"levelo_inurba_marseille","lat":43.26208,"lon":5.37449,"is_reserved":false,"is_disabled":false,"rental_uris":{"android":"levelo://app?vid=4573242e-b265-4331-b57e-964b4ba015f2","ios":"levelo://app?vid=4573242e-b265-4331-b57e-964b4ba015f2"},"vehicle_type_id":"4","last_reported":1770477247,"current_range_meters":4000,"station_id":"ce4bhgp2rcd13ifvqfc0","pricing_plan_id":"cebpf4jnsgd1na2vs0mg"},{"bike_id":"734f2c8d-e45b-43cd-ba5a-232c0e2f3489","system_id":"levelo_inurba_marseille","lat":43.265633,"lon":5.403246,"is_reserved":false,"is_disabled":false,"rental_uris":{"android":"levelo://app?vid=734f2c8d-e45b-43cd-ba5a-232c0e2f3489","ios":"levelo://app?vid=734f2c8d-e45b-43cd-ba5a-232c0e2f3489"},"vehicle_type_id":"4","last_reported":1770477247,"current_range_meters":4000,"station_id":"ce4bhmp2rcd13ifvqgng","pricing_plan_id":"cebpf4jnsgd1na2vs0mg"},{"bike_id":"9f158661-abc5-41a6-ab15-00f3c0cc6530","system_id":"levelo_inurba_marseille","lat":43.28418,"lon":5.36093,"is_reserved":false,"is_disabled":false,"rental_uris":{"android":"levelo://app?vid=9f158661-abc5-41a6-ab15-00f3c0cc6530","ios":"levelo://app?vid=9f158661-abc5-41a6-ab15-00f3c0cc6530"},"vehicle_type_id":"4","last_reported":1770477247,"current_range_meters":4400,"station_id":"","pricing_plan_id":"cebpf4jnsgd1na2vs0mg"},{"bike_id":"936373b6-53c4-4814-9ba7-746cdddda6aa","system_id":"levelo_inurba_marseille","lat":43.25107,"lon":5.40322,"is_reserved":false,"is_disabled":false,"rental_uris":{"android":"levelo://app?vid=936373b6-53c4-4814-9ba7-746cdddda6aa","ios":"levelo://app?vid=936373b6-53c4-4814-9ba7-746cdddda6aa"},"vehicle_type_id":"4","last_reported":1770477247,"current_range_meters":4400,"station_id":"ce4bhlh2rcd13ifvqgig","pricing_plan_id":"cebpf4jnsgd1na2vs0mg"},{"bike_id":"5bbff642-0168-44b6-a018-2f4e649b181a","system_id":"levelo_inurba_marseille","lat":43.2904,"lon":5.3687,"is_reserved":false,"is_disabled":false,"rental_uris":{"android":"levelo://app?vid=5bbff642-0168-44b6-a018-2f4e649b181a","ios":"levelo://app?vid=5bbff642-0168-44b6-a018-2f4e649b181a"},"vehicle_type_id":"4","last_reported":1770477247,"current_range_meters":4400,"station_id":"ce4bhah2rcd13ifvqej0","pricing_plan_id":"cebpf4jnsgd1na2vs0mg"},{"bike_id":"98b89a63-b3c9-4748-8f93-0ccb5ab9560d","system_id":"levelo_inurba_marseille","lat":43.26571,"lon":5.37272,"is_reserved":false,"is_disabled":false,"rental_uris":{"android":"levelo://app?vid=98b89a63-b3c9-4748-8f93-0ccb5ab9560d","ios":"levelo://app?vid=98b89a63-b3c9-4748-8f93-0ccb5ab9560d"},"vehicle_type_id":"4","last_reported":1770477247,"current_range_meters":4400,"station_id":"ce4bhg12rcd13ifvqf70","pricing_plan_id":"cebpf4jnsgd1na2vs0mg"},{"bike_id":"f6535782-7058-41c0-acc7-a82d8080296b","system_id":"levelo_inurba_marseille","lat":43.28534,"lon":5.44097,"is_reserved":false,"is_disabled":false,"rental_uris":{"android":"levelo://app?vid=f6535782-7058-41c0-acc7-a82d8080296b","ios":"levelo://app?vid=f6535782-7058-41c0-acc7-a82d8080296b"},"vehicle_type_id":"4","last_reported":1770477247,"current_range_meters":4400,"station_id":"st_d3j3df2ikq2c7380ej80","pricing_plan_id":"cebpf4jnsgd1na2vs0mg"},{"bike_id":"3b0243a7-d2ce-4bc6-9d86-9216cc3b3554","system_id":"levelo_inurba_marseille","lat":43.24804,"lon":5.37453,"is_reserved":false,"is_disabled":false,"rental_uris":{"android":"levelo://app?vid=3b0243a7-d2ce-4bc6-9d86-9216cc3b3554","ios":"levelo://app?vid=3b0243a7-d2ce-4bc6-9d86-9216cc3b3554"},"vehicle_type_id":"4","last_reported":1770477247,"current_range_meters":4400,"station_id":"ce4bhgh2rcd13ifvqfb0","pricing_plan_id":"cebpf4jnsgd1na2vs0mg"},{"bike_id":"4c2b4b6a-a466-45ed-8a84-7e0dbc6887b9","system_id":"levelo_inurba_marseille","lat":43.31041,"lon":5.37177,"is_reserved":false,"is_disabled":false,"rental_uris":{"android":"levelo://app?vid=4c2b4b6a-a466-45ed-8a84-7e0dbc6887b9","ios":"levelo://app?vid=4c2b4b6a-a466-45ed-8a84-7e0dbc6887b9"},"vehicle_type_id":"4","last_reported":1770477247,"current_range_meters":4400,"station_id":"st_d4kl2rp97mjs73e7tdfg","pricing_plan_id":"cebpf4jnsgd1na2vs0mg"},{"bike_id":"7403105f-4bee-4529-9ff8-66d807eb18b2","system_id":"levelo_inurba_marseille","lat":43.319483,"lon":5.380737,"is_reserved":false,"is_disabled":false,"rental_uris":{"android":"levelo://app?vid=7403105f-4bee-4529-9ff8-66d807eb18b2","ios":"levelo://app?vid=7403105f-4bee-4529-9ff8-66d807eb18b2"},"vehicle_type_id":"4","last_reported":1770477247,"current_range_meters":4400,"station_id":"","pricing_plan_id":"cebpf4jnsgd1na2vs0mg"},{"bike_id":"0034d4fd-4b78-48fc-8d02-62ecd49e55ba","system_id":"levelo_inurba_marseille","lat":43.28935,"lon":5.36638,"is_reserved":false,"is_disabled":false,"rental_uris":{"android":"levelo://app?vid=0034d4fd-4b78-48fc-8d02-62ecd49e55ba","ios":"levelo://app?vid=0034d4fd-4b78-48fc-8d02-62ecd49e55ba"},"vehicle_type_id":"4","last_reported":1770477247,"current_range_meters":4800,"station_id":"ce4bhap2rcd13ifvqek0","pricing_plan_id":"cebpf4jnsgd1na2vs0mg"},{"bike_id":"6713819d-3a97-451d-bbf1-e90c1f67cc71","system_id":"levelo_inurba_marseille","lat":43.24156,"lon":5.36392,"is_reserved":false,"is_disabled":false,"rental_uris":{"android":"levelo://app?vid=6713819d-3a97-451d-bbf1-e90c1f67cc71","ios":"levelo://app?vid=6713819d-3a97-451d-bbf1-e90c1f67cc71"},"vehicle_type_id":"4","last_reported":1770477247,"current_range_meters":4800,"station_id":"cpo36qri1sfpv3e86is0","pricing_plan_id":"cebpf4jnsgd1na2vs0mg"},{"bike_id":"8f0bc1eb-8c74-4136-bf32-58c43239dfb6","system_id":"levelo_inurba_marseille","lat":43.24184,"lon":5.39715,"is_reserved":false,"is_disabled":false,"rental_uris":{"android":"levelo://app?vid=8f0bc1eb-8c74-4136-bf32-58c43239dfb6","ios":"levelo://app?vid=8f0bc1eb-8c74-4136-bf32-58c43239dfb6"},"vehicle_type_id":"4","last_reported":1770477247,"current_range_meters":4800,"station_id":"ce4bhn12rcd13ifvqgpg","pricing_plan_id":"cebpf4jnsgd1na2vs0mg"},{"bike_id":"02b84d9a-eaf6-4642-b4ea-c4aa75920743","system_id":"levelo_inurba_marseille","lat":43.27071,"lon":5.38302,"is_reserved":false,"is_disabled":false,"rental_uris":{"android":"levelo://app?vid=02b84d9a-eaf6-4642-b4ea-c4aa75920743","ios":"levelo://app?vid=02b84d9a-eaf6-4642-b4ea-c4aa75920743"},"vehicle_type_id":"4","last_reported":1770477247,"current_range_meters":4800,"station_id":"st_d3n2fo6cfp8s73cte1j0","pricing_plan_id":"cebpf4jnsgd1na2vs0mg"},{"bike_id":"0c612691-dc2e-4b8c-a828-2dec429e0473","system_id":"levelo_inurba_marseille","lat":43.22928,"lon":5.35399,"is_reserved":false,"is_disabled":false,"rental_uris":{"android":"levelo://app?vid=0c612691-dc2e-4b8c-a828-2dec429e0473","ios":"levelo://app?vid=0c612691-dc2e-4b8c-a828-2dec429e0473"},"vehicle_type_id":"4","last_reported":1770477247,"current_range_meters":4800,"station_id":"cpo3532slgdg3j2ikp40","pricing_plan_id":"cebpf4jnsgd1na2vs0mg"},{"bike_id":"339ca1a8-e8c7-42d2-91bb-70f21912efdd","system_id":"levelo_inurba_marseille","lat":43.21763,"lon":5.34603,"is_reserved":false,"is_disabled":false,"rental_uris":{"android":"levelo://app?vid=339ca1a8-e8c7-42d2-91bb-70f21912efdd","ios":"levelo://app?vid=339ca1a8-e8c7-42d2-91bb-70f21912efdd"},"vehicle_type_id":"4","last_reported":1770477247,"current_range_meters":4800,"station_id":"st_cvj6r9ubvosntc0bgbag","pricing_plan_id":"cebpf4jnsgd1na2vs0mg"},{"bike_id":"66ac484a-7a0c-4d64-bcea-4a863811aeba","system_id":"levelo_inurba_marseille","lat":43.29905,"lon":5.43675,"is_reserved":false,"is_disabled":true,"rental_uris":{"android":"levelo://app?vid=66ac484a-7a0c-4d64-bcea-4a863811aeba","ios":"levelo://app?vid=66ac484a-7a0c-4d64-bcea-4a863811aeba"},"vehicle_type_id":"4","last_reported":1770477247,"current_range_meters":4800,"station_id":"ce4bhpp2rcd13ifvqhfg","pricing_plan_id":"cebpf4jnsgd1na2vs0mg"},{"bike_id":"445447f4-f940-4f85-9727-f1026b8dfb6b","system_id":"levelo_inurba_marseille","lat":43.2635,"lon":5.41078,"is_reserved":false,"is_disabled":false,"rental_uris":{"android":"levelo://app?vid=445447f4-f940-4f85-9727-f1026b8dfb6b","ios":"levelo://app?vid=445447f4-f940-4f85-9727-f1026b8dfb6b"},"vehicle_type_id":"4","last_reported":1770477247,"current_range_meters":5600,"station_id":"st_d4e5ca6na9uc73bfl5fg","pricing_plan_id":"cebpf4jnsgd1na2vs0mg"},{"bike_id":"9d9ada7e-8bfb-4948-82e1-5314689a8b39","system_id":"levelo_inurba_marseille","lat":43.33541,"lon":5.37462,"is_reserved":false,"is_disabled":false,"rental_uris":{"android":"levelo://app?vid=9d9ada7e-8bfb-4948-82e1-5314689a8b39","ios":"levelo://app?vid=9d9ada7e-8bfb-4948-82e1-5314689a8b39"},"vehicle_type_id":"4","last_reported":1770477247,"current_range_meters":5600,"station_id":"st_d46tts09ee8s73dlu43g","pricing_plan_id":"cebpf4jnsgd1na2vs0mg"},{"bike_id":"c6f3c761-de0f-456d-aad1-843601547135","system_id":"levelo_inurba_marseille","lat":43.284216,"lon":5.349887,"is_reserved":false,"is_disabled":false,"rental_uris":{"android":"levelo://app?vid=c6f3c761-de0f-456d-aad1-843601547135","ios":"levelo://app?vid=c6f3c761-de0f-456d-aad1-843601547135"},"vehicle_type_id":"4","last_reported":1770477247,"current_range_meters":5600,"station_id":"ce4bhbh2rcd13ifvqepg","pricing_plan_id":"cebpf4jnsgd1na2vs0mg"},{"bike_id":"f5da9401-db7e-426f-9a0f-2330a30b8658","system_id":"levelo_inurba_marseille","lat":43.244,"lon":5.37068,"is_reserved":false,"is_disabled":true,"rental_uris":{"android":"levelo://app?vid=f5da9401-db7e-426f-9a0f-2330a30b8658","ios":"levelo://app?vid=f5da9401-db7e-426f-9a0f-2330a30b8658"},"vehicle_type_id":"4","last_reported":1770477247,"current_range_meters":5600,"station_id":"ce4bhhh2rcd13ifvqfk0","pricing_plan_id":"cebpf4jnsgd1na2vs0mg"},{"bike_id":"fbca3884-dc96-440f-8d36-fea821134d2b","system_id":"levelo_inurba_marseille","lat":43.297927,"lon":5.40417,"is_reserved":false,"is_disabled":false,"rental_uris":{"android":"levelo://app?vid=fbca3884-dc96-440f-8d36-fea821134d2b","ios":"levelo://app?vid=fbca3884-dc96-440f-8d36-fea821134d2b"},"vehicle_type_id":"4","last_reported":1770477247,"current_range_meters":5600,"station_id":"ce4bh112rcd13ifvqd90","pricing_plan_id":"cebpf4jnsgd1na2vs0mg"},{"bike_id":"2b0b559c-f74f-48e3-91e2-75c2c9d72419","system_id":"levelo_inurba_marseille","lat":43.29278,"lon":5.38434,"is_reserved":false,"is_disabled":false,"rental_uris":{"android":"levelo://app?vid=2b0b559c-f74f-48e3-91e2-75c2c9d72419","ios":"levelo://app?vid=2b0b559c-f74f-48e3-91e2-75c2c9d72419"},"vehicle_type_id":"4","last_reported":1770477247,"current_range_meters":5600,"station_id":"ce4bh692rcd13ifvqea0","pricing_plan_id":"cebpf4jnsgd1na2vs0mg"},{"bike_id":"5262cac5-cbb6-4e06-8396-e90b272d4163","system_id":"levelo_inurba_marseille","lat":43.29908,"lon":5.39733,"is_reserved":false,"is_disabled":false,"rental_uris":{"android":"levelo://app?vid=5262cac5-cbb6-4e06-8396-e90b272d4163","ios":"levelo://app?vid=5262cac5-cbb6-4e06-8396-e90b272d4163"},"vehicle_type_id":"4","last_reported":1770477247,"current_range_meters":5600,"station_id":"ce4bh0h2rcd13ifvqd50","pricing_plan_id":"cebpf4jnsgd1na2vs0mg"},{"bike_id":"287ec1ad-7529-4a47-9046-fa34841bee4b","system_id":"levelo_inurba_marseille","lat":43.281603,"lon":5.383872,"is_reserved":false,"is_disabled":false,"rental_uris":{"android":"levelo://app?vid=287ec1ad-7529-4a47-9046-fa34841bee4b","ios":"levelo://app?vid=287ec1ad-7529-4a47-9046-fa34841bee4b"},"vehicle_type_id":"4","last_reported":1770477247,"current_range_meters":5600,"station_id":"","pricing_plan_id":"cebpf4jnsgd1na2vs0mg"},{"bike_id":"9c39d9f6-d9da-4e77-8458-9331332cbe7c","system_id":"levelo_inurba_marseille","lat":43.27943,"lon":5.41034,"is_reserved":false,"is_disabled":false,"rental_uris":{"android":"levelo://app?vid=9c39d9f6-d9da-4e77-8458-9331332cbe7c","ios":"levelo://app?vid=9c39d9f6-d9da-4e77-8458-9331332cbe7c"},"vehicle_type_id":"4","last_reported":1770477247,"current_range_meters":5600,"station_id":"ce4bhnp2rcd13ifvqh0g","pricing_plan_id":"cebpf4jnsgd1na2vs0mg"},{"bike_id":"2645d702-9780-4155-954e-9ff091dcb668","system_id":"levelo_inurba_marseille","lat":43.24379,"lon":5.37048,"is_reserved":false,"is_disabled":false,"rental_uris":{"android":"levelo://app?vid=2645d702-9780-4155-954e-9ff091dcb668","ios":"levelo://app?vid=2645d702-9780-4155-954e-9ff091dcb668"},"vehicle_type_id":"4","last_reported":1770477247,"current_range_meters":5600,"station_id":"ce4bhhh2rcd13ifvqfk0","pricing_plan_id":"cebpf4jnsgd1na2vs0mg"},{"bike_id":"cc21637e-36ac-4ec7-8629-0a5b399cddca","system_id":"levelo_inurba_marseille","lat":43.30382,"lon":5.42466,"is_reserved":false,"is_disabled":false,"rental_uris":{"android":"levelo://app?vid=cc21637e-36ac-4ec7-8629-0a5b399cddca","ios":"levelo://app?vid=cc21637e-36ac-4ec7-8629-0a5b399cddca"},"vehicle_type_id":"4","last_reported":1770477247,"current_range_meters":5600,"station_id":"ce4bhoh2rcd13ifvqh6g","pricing_plan_id":"cebpf4jnsgd1na2vs0mg"},{"bike_id":"008887d1-b3a2-4aeb-b346-a79dd0b095e2","system_id":"levelo_inurba_marseille","lat":43.24181,"lon":5.397316,"is_reserved":false,"is_disabled":false,"rental_uris":{"android":"levelo://app?vid=008887d1-b3a2-4aeb-b346-a79dd0b095e2","ios":"levelo://app?vid=008887d1-b3a2-4aeb-b346-a79dd0b095e2"},"vehicle_type_id":"4","last_reported":1770477247,"current_range_meters":5600,"station_id":"ce4bhn12rcd13ifvqgpg","pricing_plan_id":"cebpf4jnsgd1na2vs0mg"},{"bike_id":"3926a99e-82ca-4ee7-a161-a486379736ee","system_id":"levelo_inurba_marseille","lat":43.29872,"lon":5.36877,"is_reserved":false,"is_disabled":false,"rental_uris":{"android":"levelo://app?vid=3926a99e-82ca-4ee7-a161-a486379736ee","ios":"levelo://app?vid=3926a99e-82ca-4ee7-a161-a486379736ee"},"vehicle_type_id":"4","last_reported":1770477247,"current_range_meters":6000,"station_id":"","pricing_plan_id":"cebpf4jnsgd1na2vs0mg"},{"bike_id":"d233aee4-eeb5-4037-b0d2-a88678e29fd3","system_id":"levelo_inurba_marseille","lat":43.26566,"lon":5.39022,"is_reserved":false,"is_disabled":false,"rental_uris":{"android":"levelo://app?vid=d233aee4-eeb5-4037-b0d2-a88678e29fd3","ios":"levelo://app?vid=d233aee4-eeb5-4037-b0d2-a88678e29fd3"},"vehicle_type_id":"4","last_reported":1770477247,"current_range_meters":6000,"station_id":"ce4bhe12rcd13ifvqf30","pricing_plan_id":"cebpf4jnsgd1na2vs0mg"},{"bike_id":"ab55cc20-b94d-45e5-879c-71ae04584b70","system_id":"levelo_inurba_marseille","lat":43.29553,"lon":5.42298,"is_reserved":false,"is_disabled":false,"rental_uris":{"android":"levelo://app?vid=ab55cc20-b94d-45e5-879c-71ae04584b70","ios":"levelo://app?vid=ab55cc20-b94d-45e5-879c-71ae04584b70"},"vehicle_type_id":"4","last_reported":1770477247,"current_range_meters":6000,"station_id":"ce4bhph2rcd13ifvqhdg","pricing_plan_id":"cebpf4jnsgd1na2vs0mg"},{"bike_id":"c5955de7-9ab5-4c95-be4c-788242dce2d4","system_id":"levelo_inurba_marseille","lat":43.32108,"lon":5.36787,"is_reserved":false,"is_disabled":false,"rental_uris":{"android":"levelo://app?vid=c5955de7-9ab5-4c95-be4c-788242dce2d4","ios":"levelo://app?vid=c5955de7-9ab5-4c95-be4c-788242dce2d4"},"vehicle_type_id":"4","last_reported":1770477247,"current_range_meters":6000,"station_id":"ce4bhrh2rcd13ifvqhug","pricing_plan_id":"cebpf4jnsgd1na2vs0mg"},{"bike_id":"695a138c-9117-4798-9030-e462ffee3fe5","system_id":"levelo_inurba_marseille","lat":43.24805,"lon":5.37462,"is_reserved":false,"is_disabled":false,"rental_uris":{"android":"levelo://app?vid=695a138c-9117-4798-9030-e462ffee3fe5","ios":"levelo://app?vid=695a138c-9117-4798-9030-e462ffee3fe5"},"vehicle_type_id":"4","last_reported":1770477247,"current_range_meters":6000,"station_id":"ce4bhgh2rcd13ifvqfb0","pricing_plan_id":"cebpf4jnsgd1na2vs0mg"},{"bike_id":"762d17af-af27-45ae-8011-3c290ff80fd9","system_id":"levelo_inurba_marseille","lat":43.24178,"lon":5.36396,"is_reserved":false,"is_disabled":false,"rental_uris":{"android":"levelo://app?vid=762d17af-af27-45ae-8011-3c290ff80fd9","ios":"levelo://app?vid=762d17af-af27-45ae-8011-3c290ff80fd9"},"vehicle_type_id":"4","last_reported":1770477247,"current_range_meters":6000,"station_id":"cpo36qri1sfpv3e86is0","pricing_plan_id":"cebpf4jnsgd1na2vs0mg"},{"bike_id":"2e215bae-e2d4-4a81-a07c-a7a4a0c0fd71","system_id":"levelo_inurba_marseille","lat":43.30899,"lon":5.3721,"is_reserved":false,"is_disabled":false,"rental_uris":{"android":"levelo://app?vid=2e215bae-e2d4-4a81-a07c-a7a4a0c0fd71","ios":"levelo://app?vid=2e215bae-e2d4-4a81-a07c-a7a4a0c0fd71"},"vehicle_type_id":"4","last_reported":1770477247,"current_range_meters":6000,"station_id":"ce4bguh2rcd13ifvqckg","pricing_plan_id":"cebpf4jnsgd1na2vs0mg"},{"bike_id":"427b4afc-b7dd-4e77-a7c1-6686018850e8","system_id":"levelo_inurba_marseille","lat":43.27935,"lon":5.41028,"is_reserved":false,"is_disabled":false,"rental_uris":{"android":"levelo://app?vid=427b4afc-b7dd-4e77-a7c1-6686018850e8","ios":"levelo://app?vid=427b4afc-b7dd-4e77-a7c1-6686018850e8"},"vehicle_type_id":"4","last_reported":1770477247,"current_range_meters":6400,"station_id":"ce4bhnp2rcd13ifvqh0g","pricing_plan_id":"cebpf4jnsgd1na2vs0mg"},{"bike_id":"4826a48d-4f00-4bee-8b54-1698990d0e5c","system_id":"levelo_inurba_marseille","lat":43.2986,"lon":5.36267,"is_reserved":false,"is_disabled":false,"rental_uris":{"android":"levelo://app?vid=4826a48d-4f00-4bee-8b54-1698990d0e5c","ios":"levelo://app?vid=4826a48d-4f00-4bee-8b54-1698990d0e5c"},"vehicle_type_id":"4","last_reported":1770477247,"current_range_meters":6400,"station_id":"ce4bgpp2rcd13ifvqc3g","pricing_plan_id":"cebpf4jnsgd1na2vs0mg"},{"bike_id":"3e8f969f-f505-4cac-b453-01240a0ec1b8","system_id":"levelo_inurba_marseille","lat":43.33027,"lon":5.39043,"is_reserved":false,"is_disabled":false,"rental_uris":{"android":"levelo://app?vid=3e8f969f-f505-4cac-b453-01240a0ec1b8","ios":"levelo://app?vid=3e8f969f-f505-4cac-b453-01240a0ec1b8"},"vehicle_type_id":"4","last_reported":1770477247,"current_range_meters":6400,"station_id":"ce4bhr92rcd13ifvqhrg","pricing_plan_id":"cebpf4jnsgd1na2vs0mg"},{"bike_id":"3123bbb5-61df-43d1-88da-3a7861d03bac","system_id":"levelo_inurba_marseille","lat":43.24169,"lon":5.36399,"is_reserved":false,"is_disabled":false,"rental_uris":{"android":"levelo://app?vid=3123bbb5-61df-43d1-88da-3a7861d03bac","ios":"levelo://app?vid=3123bbb5-61df-43d1-88da-3a7861d03bac"},"vehicle_type_id":"4","last_reported":1770477247,"current_range_meters":6400,"station_id":"cpo36qri1sfpv3e86is0","pricing_plan_id":"cebpf4jnsgd1na2vs0mg"},{"bike_id":"55e6acf3-2487-453e-b1e8-9b4bb25c70bc","system_id":"levelo_inurba_marseille","lat":43.31708,"lon":5.40468,"is_reserved":false,"is_disabled":false,"rental_uris":{"android":"levelo://app?vid=55e6acf3-2487-453e-b1e8-9b4bb25c70bc","ios":"levelo://app?vid=55e6acf3-2487-453e-b1e8-9b4bb25c70bc"},"vehicle_type_id":"4","last_reported":1770477247,"current_range_meters":6400,"station_id":"ce4bh012rcd13ifvqd00","pricing_plan_id":"cebpf4jnsgd1na2vs0mg"},{"bike_id":"c83db4e2-15a7-4fa6-a03a-6d3ac9b5fffa","system_id":"levelo_inurba_marseille","lat":43.29264,"lon":5.36749,"is_reserved":false,"is_disabled":false,"rental_uris":{"android":"levelo://app?vid=c83db4e2-15a7-4fa6-a03a-6d3ac9b5fffa","ios":"levelo://app?vid=c83db4e2-15a7-4fa6-a03a-6d3ac9b5fffa"},"vehicle_type_id":"4","last_reported":1770477247,"current_range_meters":6400,"station_id":"","pricing_plan_id":"cebpf4jnsgd1na2vs0mg"},{"bike_id":"d8d60020-76d7-43e7-bfed-223b2ee6a2c9","system_id":"levelo_inurba_marseille","lat":43.26567,"lon":5.39016,"is_reserved":false,"is_disabled":false,"rental_uris":{"android":"levelo://app?vid=d8d60020-76d7-43e7-bfed-223b2ee6a2c9","ios":"levelo://app?vid=d8d60020-76d7-43e7-bfed-223b2ee6a2c9"},"vehicle_type_id":"4","last_reported":1770477247,"current_range_meters":6400,"station_id":"ce4bhe12rcd13ifvqf30","pricing_plan_id":"cebpf4jnsgd1na2vs0mg"},{"bike_id":"93add877-ee9d-4ae2-87c0-e59246a2e4b1","system_id":"levelo_inurba_marseille","lat":43.22958,"lon":5.35374,"is_reserved":false,"is_disabled":false,"rental_uris":{"android":"levelo://app?vid=93add877-ee9d-4ae2-87c0-e59246a2e4b1","ios":"levelo://app?vid=93add877-ee9d-4ae2-87c0-e59246a2e4b1"},"vehicle_type_id":"4","last_reported":1770477247,"current_range_meters":6400,"station_id":"cpo3532slgdg3j2ikp40","pricing_plan_id":"cebpf4jnsgd1na2vs0mg"},{"bike_id":"88b63b60-0a77-4859-b4d2-ee54cca1b9f3","system_id":"levelo_inurba_marseille","lat":43.30538,"lon":5.36563,"is_reserved":false,"is_disabled":false,"rental_uris":{"android":"levelo://app?vid=88b63b60-0a77-4859-b4d2-ee54cca1b9f3","ios":"levelo://app?vid=88b63b60-0a77-4859-b4d2-ee54cca1b9f3"},"vehicle_type_id":"4","last_reported":1770477247,"current_range_meters":6400,"station_id":"ce4bgs12rcd13ifvqcag","pricing_plan_id":"cebpf4jnsgd1na2vs0mg"},{"bike_id":"082c6167-f943-4767-9df3-19b6044ff5f3","system_id":"levelo_inurba_marseille","lat":43.30616,"lon":5.37224,"is_reserved":false,"is_disabled":false,"rental_uris":{"android":"levelo://app?vid=082c6167-f943-4767-9df3-19b6044ff5f3","ios":"levelo://app?vid=082c6167-f943-4767-9df3-19b6044ff5f3"},"vehicle_type_id":"4","last_reported":1770477247,"current_range_meters":6400,"station_id":"ce4bgqh2rcd13ifvqc4g","pricing_plan_id":"cebpf4jnsgd1na2vs0mg"},{"bike_id":"5514686a-b854-4db2-9779-3506b95972b1","system_id":"levelo_inurba_marseille","lat":43.23158,"lon":5.43733,"is_reserved":false,"is_disabled":false,"rental_uris":{"android":"levelo://app?vid=5514686a-b854-4db2-9779-3506b95972b1","ios":"levelo://app?vid=5514686a-b854-4db2-9779-3506b95972b1"},"vehicle_type_id":"4","last_reported":1770477247,"current_range_meters":6400,"station_id":"ce4bhmp2rcd13ifvqgog","pricing_plan_id":"cebpf4jnsgd1na2vs0mg"},{"bike_id":"9c6a8984-8ee8-4ae5-a2ee-ca73b9867831","system_id":"levelo_inurba_marseille","lat":43.299593,"lon":5.365197,"is_reserved":false,"is_disabled":false,"rental_uris":{"android":"levelo://app?vid=9c6a8984-8ee8-4ae5-a2ee-ca73b9867831","ios":"levelo://app?vid=9c6a8984-8ee8-4ae5-a2ee-ca73b9867831"},"vehicle_type_id":"4","last_reported":1770477247,"current_range_meters":6400,"station_id":"ce4bgm92rcd13ifvqbr0","pricing_plan_id":"cebpf4jnsgd1na2vs0mg"},{"bike_id":"84c8699d-c437-4eea-b1ad-8edc224bad99","system_id":"levelo_inurba_marseille","lat":43.24943,"lon":5.40494,"is_reserved":false,"is_disabled":false,"rental_uris":{"android":"levelo://app?vid=84c8699d-c437-4eea-b1ad-8edc224bad99","ios":"levelo://app?vid=84c8699d-c437-4eea-b1ad-8edc224bad99"},"vehicle_type_id":"4","last_reported":1770477247,"current_range_meters":6400,"station_id":"st_d2ngiaodas8pm72gd1h0","pricing_plan_id":"cebpf4jnsgd1na2vs0mg"},{"bike_id":"4553b9ae-95be-4d03-9d86-2a4c79a4ffcc","system_id":"levelo_inurba_marseille","lat":43.28911,"lon":5.39844,"is_reserved":false,"is_disabled":false,"rental_uris":{"android":"levelo://app?vid=4553b9ae-95be-4d03-9d86-2a4c79a4ffcc","ios":"levelo://app?vid=4553b9ae-95be-4d03-9d86-2a4c79a4ffcc"},"vehicle_type_id":"4","last_reported":1770477247,"current_range_meters":6400,"station_id":"","pricing_plan_id":"cebpf4jnsgd1na2vs0mg"},{"bike_id":"4fd33ec2-191e-42f6-b2f1-474419accee2","system_id":"levelo_inurba_marseille","lat":43.26065,"lon":5.39407,"is_reserved":false,"is_disabled":false,"rental_uris":{"android":"levelo://app?vid=4fd33ec2-191e-42f6-b2f1-474419accee2","ios":"levelo://app?vid=4fd33ec2-191e-42f6-b2f1-474419accee2"},"vehicle_type_id":"4","last_reported":1770477247,"current_range_meters":6400,"station_id":"ce4bhh92rcd13ifvqfj0","pricing_plan_id":"cebpf4jnsgd1na2vs0mg"},{"bike_id":"2ce20688-0534-4877-aa02-a0d627f2384b","system_id":"levelo_inurba_marseille","lat":43.25849,"lon":5.39926,"is_reserved":false,"is_disabled":false,"rental_uris":{"android":"levelo://app?vid=2ce20688-0534-4877-aa02-a0d627f2384b","ios":"levelo://app?vid=2ce20688-0534-4877-aa02-a0d627f2384b"},"vehicle_type_id":"4","last_reported":1770477247,"current_range_meters":6400,"station_id":"ce4bhl92rcd13ifvqghg","pricing_plan_id":"cebpf4jnsgd1na2vs0mg"},{"bike_id":"580cd26c-8626-4806-8d31-d75263351a49","system_id":"levelo_inurba_marseille","lat":43.30919,"lon":5.36835,"is_reserved":false,"is_disabled":false,"rental_uris":{"android":"levelo://app?vid=580cd26c-8626-4806-8d31-d75263351a49","ios":"levelo://app?vid=580cd26c-8626-4806-8d31-d75263351a49"},"vehicle_type_id":"4","last_reported":1770477247,"current_range_meters":6400,"station_id":"ce4bgn92rcd13ifvqbvg","pricing_plan_id":"cebpf4jnsgd1na2vs0mg"},{"bike_id":"9cb51dcd-56ea-4959-91b3-2b1ac965b9ea","system_id":"levelo_inurba_marseille","lat":43.2509,"lon":5.39489,"is_reserved":false,"is_disabled":false,"rental_uris":{"android":"levelo://app?vid=9cb51dcd-56ea-4959-91b3-2b1ac965b9ea","ios":"levelo://app?vid=9cb51dcd-56ea-4959-91b3-2b1ac965b9ea"},"vehicle_type_id":"4","last_reported":1770477247,"current_range_meters":6400,"station_id":"ce4bhm12rcd13ifvqgkg","pricing_plan_id":"cebpf4jnsgd1na2vs0mg"},{"bike_id":"185af67f-d147-436a-9545-42bcc91c5e13","system_id":"levelo_inurba_marseille","lat":43.31478,"lon":5.37297,"is_reserved":false,"is_disabled":false,"rental_uris":{"android":"levelo://app?vid=185af67f-d147-436a-9545-42bcc91c5e13","ios":"levelo://app?vid=185af67f-d147-436a-9545-42bcc91c5e13"},"vehicle_type_id":"4","last_reported":1770477247,"current_range_meters":6400,"station_id":"ce4bgt12rcd13ifvqcd0","pricing_plan_id":"cebpf4jnsgd1na2vs0mg"},{"bike_id":"6c2b1cbd-a92c-4746-a2c9-9bbd3ead227d","system_id":"levelo_inurba_marseille","lat":43.24464,"lon":5.42535,"is_reserved":false,"is_disabled":false,"rental_uris":{"android":"levelo://app?vid=6c2b1cbd-a92c-4746-a2c9-9bbd3ead227d","ios":"levelo://app?vid=6c2b1cbd-a92c-4746-a2c9-9bbd3ead227d"},"vehicle_type_id":"4","last_reported":1770477247,"current_range_meters":6400,"station_id":"st_d4a3vfp97mjs738cd8kg","pricing_plan_id":"cebpf4jnsgd1na2vs0mg"},{"bike_id":"0d114921-3081-4842-963c-885b6e961311","system_id":"levelo_inurba_marseille","lat":43.29011,"lon":5.35605,"is_reserved":false,"is_disabled":false,"rental_uris":{"android":"levelo://app?vid=0d114921-3081-4842-963c-885b6e961311","ios":"levelo://app?vid=0d114921-3081-4842-963c-885b6e961311"},"vehicle_type_id":"4","last_reported":1770477247,"current_range_meters":6800,"station_id":"ce4bhb92rcd13ifvqen0","pricing_plan_id":"cebpf4jnsgd1na2vs0mg"},{"bike_id":"5acb17d3-f53d-4f90-8404-b0f032e6585a","system_id":"levelo_inurba_marseille","lat":43.29263,"lon":5.3845,"is_reserved":false,"is_disabled":false,"rental_uris":{"android":"levelo://app?vid=5acb17d3-f53d-4f90-8404-b0f032e6585a","ios":"levelo://app?vid=5acb17d3-f53d-4f90-8404-b0f032e6585a"},"vehicle_type_id":"4","last_reported":1770477247,"current_range_meters":6800,"station_id":"ce4bh692rcd13ifvqea0","pricing_plan_id":"cebpf4jnsgd1na2vs0mg"},{"bike_id":"55701a05-0afd-44f2-b5ec-65dd45bfe15c","system_id":"levelo_inurba_marseille","lat":43.23932,"lon":5.36651,"is_reserved":false,"is_disabled":false,"rental_uris":{"android":"levelo://app?vid=55701a05-0afd-44f2-b5ec-65dd45bfe15c","ios":"levelo://app?vid=55701a05-0afd-44f2-b5ec-65dd45bfe15c"},"vehicle_type_id":"4","last_reported":1770477247,"current_range_meters":6800,"station_id":"ce4bhi12rcd13ifvqfp0","pricing_plan_id":"cebpf4jnsgd1na2vs0mg"},{"bike_id":"28225147-0b90-4247-ae08-4bad3fc2ac6e","system_id":"levelo_inurba_marseille","lat":43.33613,"lon":5.41017,"is_reserved":false,"is_disabled":false,"rental_uris":{"android":"levelo://app?vid=28225147-0b90-4247-ae08-4bad3fc2ac6e","ios":"levelo://app?vid=28225147-0b90-4247-ae08-4bad3fc2ac6e"},"vehicle_type_id":"4","last_reported":1770477247,"current_range_meters":6800,"station_id":"ce4bhqh2rcd13ifvqhmg","pricing_plan_id":"cebpf4jnsgd1na2vs0mg"},{"bike_id":"6b6b3044-dd0e-4787-8945-aab93fdd08a2","system_id":"levelo_inurba_marseille","lat":43.29765,"lon":5.37091,"is_reserved":false,"is_disabled":false,"rental_uris":{"android":"levelo://app?vid=6b6b3044-dd0e-4787-8945-aab93fdd08a2","ios":"levelo://app?vid=6b6b3044-dd0e-4787-8945-aab93fdd08a2"},"vehicle_type_id":"4","last_reported":1770477247,"current_range_meters":6800,"station_id":"","pricing_plan_id":"cebpf4jnsgd1na2vs0mg"},{"bike_id":"6622ecdf-5979-47a5-b9a2-8e881f3db9ee","system_id":"levelo_inurba_marseille","lat":43.27996,"lon":5.39997,"is_reserved":false,"is_disabled":false,"rental_uris":{"android":"levelo://app?vid=6622ecdf-5979-47a5-b9a2-8e881f3db9ee","ios":"levelo://app?vid=6622ecdf-5979-47a5-b9a2-8e881f3db9ee"},"vehicle_type_id":"4","last_reported":1770477247,"current_range_meters":6800,"station_id":"ce4bho92rcd13ifvqh4g","pricing_plan_id":"cebpf4jnsgd1na2vs0mg"},{"bike_id":"34a55f58-a955-4283-bcd6-91c6f2bdcd18","system_id":"levelo_inurba_marseille","lat":43.26529,"lon":5.39344,"is_reserved":false,"is_disabled":false,"rental_uris":{"android":"levelo://app?vid=34a55f58-a955-4283-bcd6-91c6f2bdcd18","ios":"levelo://app?vid=34a55f58-a955-4283-bcd6-91c6f2bdcd18"},"vehicle_type_id":"4","last_reported":1770477247,"current_range_meters":6800,"station_id":"","pricing_plan_id":"cebpf4jnsgd1na2vs0mg"},{"bike_id":"b805cbda-0bcb-43b5-8f11-56fc15ee2f84","system_id":"levelo_inurba_marseille","lat":43.26195,"lon":5.37453,"is_reserved":false,"is_disabled":false,"rental_uris":{"android":"levelo://app?vid=b805cbda-0bcb-43b5-8f11-56fc15ee2f84","ios":"levelo://app?vid=b805cbda-0bcb-43b5-8f11-56fc15ee2f84"},"vehicle_type_id":"4","last_reported":1770477247,"current_range_meters":6800,"station_id":"ce4bhgp2rcd13ifvqfc0","pricing_plan_id":"cebpf4jnsgd1na2vs0mg"},{"bike_id":"37810020-311e-4142-81ed-743738c6fb89","system_id":"levelo_inurba_marseille","lat":43.30772,"lon":5.42451,"is_reserved":false,"is_disabled":false,"rental_uris":{"android":"levelo://app?vid=37810020-311e-4142-81ed-743738c6fb89","ios":"levelo://app?vid=37810020-311e-4142-81ed-743738c6fb89"},"vehicle_type_id":"4","last_reported":1770477247,"current_range_meters":6800,"station_id":"st_cvj6ca6bvosntc0bfgr0","pricing_plan_id":"cebpf4jnsgd1na2vs0mg"},{"bike_id":"22a18f5a-e84b-4706-acdf-fdede8aeea20","system_id":"levelo_inurba_marseille","lat":43.25867,"lon":5.39888,"is_reserved":false,"is_disabled":false,"rental_uris":{"android":"levelo://app?vid=22a18f5a-e84b-4706-acdf-fdede8aeea20","ios":"levelo://app?vid=22a18f5a-e84b-4706-acdf-fdede8aeea20"},"vehicle_type_id":"4","last_reported":1770477247,"current_range_meters":6800,"station_id":"ce4bhl92rcd13ifvqghg","pricing_plan_id":"cebpf4jnsgd1na2vs0mg"},{"bike_id":"b5ef2479-08bc-4926-bde6-95f0bd6a5a92","system_id":"levelo_inurba_marseille","lat":43.31483,"lon":5.37303,"is_reserved":false,"is_disabled":false,"rental_uris":{"android":"levelo://app?vid=b5ef2479-08bc-4926-bde6-95f0bd6a5a92","ios":"levelo://app?vid=b5ef2479-08bc-4926-bde6-95f0bd6a5a92"},"vehicle_type_id":"4","last_reported":1770477247,"current_range_meters":6800,"station_id":"ce4bgt12rcd13ifvqcd0","pricing_plan_id":"cebpf4jnsgd1na2vs0mg"},{"bike_id":"b7abb832-bbab-4817-9892-03cbb143d18b","system_id":"levelo_inurba_marseille","lat":43.2316,"lon":5.43705,"is_reserved":false,"is_disabled":false,"rental_uris":{"android":"levelo://app?vid=b7abb832-bbab-4817-9892-03cbb143d18b","ios":"levelo://app?vid=b7abb832-bbab-4817-9892-03cbb143d18b"},"vehicle_type_id":"4","last_reported":1770477247,"current_range_meters":7200,"station_id":"ce4bhmp2rcd13ifvqgog","pricing_plan_id":"cebpf4jnsgd1na2vs0mg"},{"bike_id":"029e8faf-ad41-48a5-bf54-36c8a1f5bf37","system_id":"levelo_inurba_marseille","lat":43.296,"lon":5.38083,"is_reserved":false,"is_disabled":false,"rental_uris":{"android":"levelo://app?vid=029e8faf-ad41-48a5-bf54-36c8a1f5bf37","ios":"levelo://app?vid=029e8faf-ad41-48a5-bf54-36c8a1f5bf37"},"vehicle_type_id":"4","last_reported":1770477247,"current_range_meters":7200,"station_id":"ce4bgl12rcd13ifvqbo0","pricing_plan_id":"cebpf4jnsgd1na2vs0mg"},{"bike_id":"b722b06e-1581-43d4-a81e-724a2dd2a220","system_id":"levelo_inurba_marseille","lat":43.29789,"lon":5.38082,"is_reserved":false,"is_disabled":false,"rental_uris":{"android":"levelo://app?vid=b722b06e-1581-43d4-a81e-724a2dd2a220","ios":"levelo://app?vid=b722b06e-1581-43d4-a81e-724a2dd2a220"},"vehicle_type_id":"4","last_reported":1770477247,"current_range_meters":7200,"station_id":"ce4bgip2rcd13ifvqbb0","pricing_plan_id":"cebpf4jnsgd1na2vs0mg"},{"bike_id":"7bddda00-b4a3-467e-857f-177f6c856946","system_id":"levelo_inurba_marseille","lat":43.27999,"lon":5.40012,"is_reserved":false,"is_disabled":false,"rental_uris":{"android":"levelo://app?vid=7bddda00-b4a3-467e-857f-177f6c856946","ios":"levelo://app?vid=7bddda00-b4a3-467e-857f-177f6c856946"},"vehicle_type_id":"4","last_reported":1770477247,"current_range_meters":7200,"station_id":"ce4bho92rcd13ifvqh4g","pricing_plan_id":"cebpf4jnsgd1na2vs0mg"},{"bike_id":"222003bc-a4d5-426c-9929-b263ad4b0210","system_id":"levelo_inurba_marseille","lat":43.28612,"lon":5.35104,"is_reserved":false,"is_disabled":false,"rental_uris":{"android":"levelo://app?vid=222003bc-a4d5-426c-9929-b263ad4b0210","ios":"levelo://app?vid=222003bc-a4d5-426c-9929-b263ad4b0210"},"vehicle_type_id":"4","last_reported":1770477247,"current_range_meters":7200,"station_id":"ce4bhch2rcd13ifvqeug","pricing_plan_id":"cebpf4jnsgd1na2vs0mg"},{"bike_id":"07fe9fa6-8ba5-4426-9dc7-81b5cb2cb051","system_id":"levelo_inurba_marseille","lat":43.26521,"lon":5.40345,"is_reserved":false,"is_disabled":false,"rental_uris":{"android":"levelo://app?vid=07fe9fa6-8ba5-4426-9dc7-81b5cb2cb051","ios":"levelo://app?vid=07fe9fa6-8ba5-4426-9dc7-81b5cb2cb051"},"vehicle_type_id":"4","last_reported":1770477247,"current_range_meters":7200,"station_id":"ce4bhmp2rcd13ifvqgng","pricing_plan_id":"cebpf4jnsgd1na2vs0mg"},{"bike_id":"95ddcd5a-bf89-4af0-8832-e9e870a74381","system_id":"levelo_inurba_marseille","lat":43.26223,"lon":5.388424,"is_reserved":false,"is_disabled":false,"rental_uris":{"android":"levelo://app?vid=95ddcd5a-bf89-4af0-8832-e9e870a74381","ios":"levelo://app?vid=95ddcd5a-bf89-4af0-8832-e9e870a74381"},"vehicle_type_id":"4","last_reported":1770477247,"current_range_meters":7200,"station_id":"","pricing_plan_id":"cebpf4jnsgd1na2vs0mg"},{"bike_id":"c2a8a439-33fe-49c7-8bf3-4333c7082516","system_id":"levelo_inurba_marseille","lat":43.27965,"lon":5.41032,"is_reserved":false,"is_disabled":false,"rental_uris":{"android":"levelo://app?vid=c2a8a439-33fe-49c7-8bf3-4333c7082516","ios":"levelo://app?vid=c2a8a439-33fe-49c7-8bf3-4333c7082516"},"vehicle_type_id":"4","last_reported":1770477247,"current_range_meters":7200,"station_id":"ce4bhnp2rcd13ifvqh0g","pricing_plan_id":"cebpf4jnsgd1na2vs0mg"},{"bike_id":"348640a0-eed2-41c4-9e8a-b981d1bd880b","system_id":"levelo_inurba_marseille","lat":43.2973,"lon":5.37682,"is_reserved":false,"is_disabled":false,"rental_uris":{"android":"levelo://app?vid=348640a0-eed2-41c4-9e8a-b981d1bd880b","ios":"levelo://app?vid=348640a0-eed2-41c4-9e8a-b981d1bd880b"},"vehicle_type_id":"4","last_reported":1770477247,"current_range_meters":7200,"station_id":"ce4bgkh2rcd13ifvqbl0","pricing_plan_id":"cebpf4jnsgd1na2vs0mg"},{"bike_id":"f5b3c0bc-b0db-4532-8e2f-eae93141d573","system_id":"levelo_inurba_marseille","lat":43.33543,"lon":5.37468,"is_reserved":false,"is_disabled":false,"rental_uris":{"android":"levelo://app?vid=f5b3c0bc-b0db-4532-8e2f-eae93141d573","ios":"levelo://app?vid=f5b3c0bc-b0db-4532-8e2f-eae93141d573"},"vehicle_type_id":"4","last_reported":1770477247,"current_range_meters":7200,"station_id":"st_d46tts09ee8s73dlu43g","pricing_plan_id":"cebpf4jnsgd1na2vs0mg"},{"bike_id":"2c09a0f9-e9a0-4d52-b227-0d1dbfce5311","system_id":"levelo_inurba_marseille","lat":43.23794,"lon":5.36626,"is_reserved":false,"is_disabled":false,"rental_uris":{"android":"levelo://app?vid=2c09a0f9-e9a0-4d52-b227-0d1dbfce5311","ios":"levelo://app?vid=2c09a0f9-e9a0-4d52-b227-0d1dbfce5311"},"vehicle_type_id":"4","last_reported":1770477247,"current_range_meters":7200,"station_id":"st_d3nk18o9ro0c73en2l3g","pricing_plan_id":"cebpf4jnsgd1na2vs0mg"},{"bike_id":"5005df1e-a5e0-4247-80e1-f8aff4acedfa","system_id":"levelo_inurba_marseille","lat":43.257373,"lon":5.410868,"is_reserved":false,"is_disabled":false,"rental_uris":{"android":"levelo://app?vid=5005df1e-a5e0-4247-80e1-f8aff4acedfa","ios":"levelo://app?vid=5005df1e-a5e0-4247-80e1-f8aff4acedfa"},"vehicle_type_id":"4","last_reported":1770477247,"current_range_meters":7200,"station_id":"ce4bhkp2rcd13ifvqgd0","pricing_plan_id":"cebpf4jnsgd1na2vs0mg"},{"bike_id":"1780f274-efef-4868-ad51-2e25c5373fc0","system_id":"levelo_inurba_marseille","lat":43.270785,"lon":5.422703,"is_reserved":false,"is_disabled":false,"rental_uris":{"android":"levelo://app?vid=1780f274-efef-4868-ad51-2e25c5373fc0","ios":"levelo://app?vid=1780f274-efef-4868-ad51-2e25c5373fc0"},"vehicle_type_id":"4","last_reported":1770477247,"current_range_meters":7200,"station_id":"ce4bhk92rcd13ifvqgb0","pricing_plan_id":"cebpf4jnsgd1na2vs0mg"},{"bike_id":"3b71a1ad-0888-4e5c-82a0-0dec693b29d4","system_id":"levelo_inurba_marseille","lat":43.31071,"lon":5.38185,"is_reserved":false,"is_disabled":false,"rental_uris":{"android":"levelo://app?vid=3b71a1ad-0888-4e5c-82a0-0dec693b29d4","ios":"levelo://app?vid=3b71a1ad-0888-4e5c-82a0-0dec693b29d4"},"vehicle_type_id":"4","last_reported":1770477247,"current_range_meters":7200,"station_id":"","pricing_plan_id":"cebpf4jnsgd1na2vs0mg"},{"bike_id":"9ba83d1b-f7bb-42d4-9de7-cbaf279c8ab2","system_id":"levelo_inurba_marseille","lat":43.31713,"lon":5.42398,"is_reserved":false,"is_disabled":false,"rental_uris":{"android":"levelo://app?vid=9ba83d1b-f7bb-42d4-9de7-cbaf279c8ab2","ios":"levelo://app?vid=9ba83d1b-f7bb-42d4-9de7-cbaf279c8ab2"},"vehicle_type_id":"4","last_reported":1770477247,"current_range_meters":7200,"station_id":"ce4bhp92rcd13ifvqhbg","pricing_plan_id":"cebpf4jnsgd1na2vs0mg"},{"bike_id":"c3cea571-fb42-4ad7-864e-47ef8f4c3f2d","system_id":"levelo_inurba_marseille","lat":43.23213,"lon":5.35532,"is_reserved":false,"is_disabled":false,"rental_uris":{"android":"levelo://app?vid=c3cea571-fb42-4ad7-864e-47ef8f4c3f2d","ios":"levelo://app?vid=c3cea571-fb42-4ad7-864e-47ef8f4c3f2d"},"vehicle_type_id":"4","last_reported":1770477247,"current_range_meters":7200,"station_id":"ce4bhu92rcd13ifvqi70","pricing_plan_id":"cebpf4jnsgd1na2vs0mg"},{"bike_id":"4308129b-6751-4273-bbe8-20208f30cb65","system_id":"levelo_inurba_marseille","lat":43.22939,"lon":5.3539,"is_reserved":false,"is_disabled":false,"rental_uris":{"android":"levelo://app?vid=4308129b-6751-4273-bbe8-20208f30cb65","ios":"levelo://app?vid=4308129b-6751-4273-bbe8-20208f30cb65"},"vehicle_type_id":"4","last_reported":1770477247,"current_range_meters":7200,"station_id":"cpo3532slgdg3j2ikp40","pricing_plan_id":"cebpf4jnsgd1na2vs0mg"},{"bike_id":"03414a6d-caa9-4966-8ffd-1cbcbc02f0d6","system_id":"levelo_inurba_marseille","lat":43.24406,"lon":5.3706,"is_reserved":false,"is_disabled":false,"rental_uris":{"android":"levelo://app?vid=03414a6d-caa9-4966-8ffd-1cbcbc02f0d6","ios":"levelo://app?vid=03414a6d-caa9-4966-8ffd-1cbcbc02f0d6"},"vehicle_type_id":"4","last_reported":1770477247,"current_range_meters":7200,"station_id":"ce4bhhh2rcd13ifvqfk0","pricing_plan_id":"cebpf4jnsgd1na2vs0mg"},{"bike_id":"d40a2097-74c0-4afa-a1d5-0e0c4bc9063d","system_id":"levelo_inurba_marseille","lat":43.27305,"lon":5.39112,"is_reserved":false,"is_disabled":false,"rental_uris":{"android":"levelo://app?vid=d40a2097-74c0-4afa-a1d5-0e0c4bc9063d","ios":"levelo://app?vid=d40a2097-74c0-4afa-a1d5-0e0c4bc9063d"},"vehicle_type_id":"4","last_reported":1770477247,"current_range_meters":7200,"station_id":"ce4bhgp2rcd13ifvqfe0","pricing_plan_id":"cebpf4jnsgd1na2vs0mg"},{"bike_id":"6520f320-dd4a-49f9-bc58-5c0912d4d3dd","system_id":"levelo_inurba_marseille","lat":43.299799,"lon":5.371677,"is_reserved":false,"is_disabled":false,"rental_uris":{"android":"levelo://app?vid=6520f320-dd4a-49f9-bc58-5c0912d4d3dd","ios":"levelo://app?vid=6520f320-dd4a-49f9-bc58-5c0912d4d3dd"},"vehicle_type_id":"4","last_reported":1770477247,"current_range_meters":7200,"station_id":"ce4bgr92rcd13ifvqc7g","pricing_plan_id":"cebpf4jnsgd1na2vs0mg"},{"bike_id":"b834e44c-7a6b-44e2-8b98-4864f68f72bc","system_id":"levelo_inurba_marseille","lat":43.25835,"lon":5.39446,"is_reserved":false,"is_disabled":false,"rental_uris":{"android":"levelo://app?vid=b834e44c-7a6b-44e2-8b98-4864f68f72bc","ios":"levelo://app?vid=b834e44c-7a6b-44e2-8b98-4864f68f72bc"},"vehicle_type_id":"4","last_reported":1770477247,"current_range_meters":8000,"station_id":"ce4bhip2rcd13ifvqft0","pricing_plan_id":"cebpf4jnsgd1na2vs0mg"},{"bike_id":"dbd1c194-03e4-49d3-b3d8-186d17378327","system_id":"levelo_inurba_marseille","lat":43.30177,"lon":5.38056,"is_reserved":false,"is_disabled":false,"rental_uris":{"android":"levelo://app?vid=dbd1c194-03e4-49d3-b3d8-186d17378327","ios":"levelo://app?vid=dbd1c194-03e4-49d3-b3d8-186d17378327"},"vehicle_type_id":"4","last_reported":1770477247,"current_range_meters":8000,"station_id":"ce4bgjp2rcd13ifvqbh0","pricing_plan_id":"cebpf4jnsgd1na2vs0mg"},{"bike_id":"3424fe65-7365-4a3d-b40c-9b25ec3af19d","system_id":"levelo_inurba_marseille","lat":43.31322,"lon":5.38722,"is_reserved":false,"is_disabled":false,"rental_uris":{"android":"levelo://app?vid=3424fe65-7365-4a3d-b40c-9b25ec3af19d","ios":"levelo://app?vid=3424fe65-7365-4a3d-b40c-9b25ec3af19d"},"vehicle_type_id":"4","last_reported":1770477247,"current_range_meters":8000,"station_id":"","pricing_plan_id":"cebpf4jnsgd1na2vs0mg"},{"bike_id":"82f38651-b135-48cf-bb30-2efbdc34233b","system_id":"levelo_inurba_marseille","lat":43.298236,"lon":5.440721,"is_reserved":false,"is_disabled":false,"rental_uris":{"android":"levelo://app?vid=82f38651-b135-48cf-bb30-2efbdc34233b","ios":"levelo://app?vid=82f38651-b135-48cf-bb30-2efbdc34233b"},"vehicle_type_id":"4","last_reported":1770477247,"current_range_meters":8000,"station_id":"st_d3jp68qikq2c7381ktn0","pricing_plan_id":"cebpf4jnsgd1na2vs0mg"},{"bike_id":"fffbd2e5-57b3-4a5a-ba4b-d42da1eefccd","system_id":"levelo_inurba_marseille","lat":43.290361,"lon":5.399603,"is_reserved":false,"is_disabled":false,"rental_uris":{"android":"levelo://app?vid=fffbd2e5-57b3-4a5a-ba4b-d42da1eefccd","ios":"levelo://app?vid=fffbd2e5-57b3-4a5a-ba4b-d42da1eefccd"},"vehicle_type_id":"4","last_reported":1770477247,"current_range_meters":8000,"station_id":"","pricing_plan_id":"cebpf4jnsgd1na2vs0mg"},{"bike_id":"aa387590-6213-4a02-8601-1d65b01a5e6c","system_id":"levelo_inurba_marseille","lat":43.26208,"lon":5.3745,"is_reserved":false,"is_disabled":false,"rental_uris":{"android":"levelo://app?vid=aa387590-6213-4a02-8601-1d65b01a5e6c","ios":"levelo://app?vid=aa387590-6213-4a02-8601-1d65b01a5e6c"},"vehicle_type_id":"4","last_reported":1770477247,"current_range_meters":8000,"station_id":"ce4bhgp2rcd13ifvqfc0","pricing_plan_id":"cebpf4jnsgd1na2vs0mg"},{"bike_id":"8aad744d-2c13-491d-a67d-437de1ad5e7f","system_id":"levelo_inurba_marseille","lat":43.24696,"lon":5.40093,"is_reserved":false,"is_disabled":false,"rental_uris":{"android":"levelo://app?vid=8aad744d-2c13-491d-a67d-437de1ad5e7f","ios":"levelo://app?vid=8aad744d-2c13-491d-a67d-437de1ad5e7f"},"vehicle_type_id":"4","last_reported":1770477247,"current_range_meters":8000,"station_id":"","pricing_plan_id":"cebpf4jnsgd1na2vs0mg"},{"bike_id":"cb8d11a1-74d8-47cd-90c0-e9b8071fcb0c","system_id":"levelo_inurba_marseille","lat":43.22935,"lon":5.35362,"is_reserved":false,"is_disabled":false,"rental_uris":{"android":"levelo://app?vid=cb8d11a1-74d8-47cd-90c0-e9b8071fcb0c","ios":"levelo://app?vid=cb8d11a1-74d8-47cd-90c0-e9b8071fcb0c"},"vehicle_type_id":"4","last_reported":1770477247,"current_range_meters":8000,"station_id":"cpo3532slgdg3j2ikp40","pricing_plan_id":"cebpf4jnsgd1na2vs0mg"},{"bike_id":"ec3ae6a0-3fc5-40fd-9a58-9e416885007b","system_id":"levelo_inurba_marseille","lat":43.29671,"lon":5.40556,"is_reserved":false,"is_disabled":false,"rental_uris":{"android":"levelo://app?vid=ec3ae6a0-3fc5-40fd-9a58-9e416885007b","ios":"levelo://app?vid=ec3ae6a0-3fc5-40fd-9a58-9e416885007b"},"vehicle_type_id":"4","last_reported":1770477247,"current_range_meters":8000,"station_id":"ce4bh0h2rcd13ifvqd60","pricing_plan_id":"cebpf4jnsgd1na2vs0mg"},{"bike_id":"b92cefea-b054-4668-8b8f-6f3d47fab6c0","system_id":"levelo_inurba_marseille","lat":43.32125,"lon":5.36754,"is_reserved":false,"is_disabled":false,"rental_uris":{"android":"levelo://app?vid=b92cefea-b054-4668-8b8f-6f3d47fab6c0","ios":"levelo://app?vid=b92cefea-b054-4668-8b8f-6f3d47fab6c0"},"vehicle_type_id":"4","last_reported":1770477247,"current_range_meters":8000,"station_id":"ce4bhrh2rcd13ifvqhug","pricing_plan_id":"cebpf4jnsgd1na2vs0mg"},{"bike_id":"811ecfab-1e6f-4cd1-8960-403c2a502307","system_id":"levelo_inurba_marseille","lat":43.229354,"lon":5.353896,"is_reserved":false,"is_disabled":false,"rental_uris":{"android":"levelo://app?vid=811ecfab-1e6f-4cd1-8960-403c2a502307","ios":"levelo://app?vid=811ecfab-1e6f-4cd1-8960-403c2a502307"},"vehicle_type_id":"4","last_reported":1770477247,"current_range_meters":8000,"station_id":"cpo3532slgdg3j2ikp40","pricing_plan_id":"cebpf4jnsgd1na2vs0mg"},{"bike_id":"4940192c-cd9e-43b0-a8dd-fd4c04e7805e","system_id":"levelo_inurba_marseille","lat":43.22557,"lon":5.4163,"is_reserved":false,"is_disabled":false,"rental_uris":{"android":"levelo://app?vid=4940192c-cd9e-43b0-a8dd-fd4c04e7805e","ios":"levelo://app?vid=4940192c-cd9e-43b0-a8dd-fd4c04e7805e"},"vehicle_type_id":"4","last_reported":1770477247,"current_range_meters":8000,"station_id":"st_d2o4gvlbi1j2169b742g","pricing_plan_id":"cebpf4jnsgd1na2vs0mg"},{"bike_id":"7ac610de-0f90-4c04-b733-6fdf87a62483","system_id":"levelo_inurba_marseille","lat":43.29939,"lon":5.36517,"is_reserved":false,"is_disabled":false,"rental_uris":{"android":"levelo://app?vid=7ac610de-0f90-4c04-b733-6fdf87a62483","ios":"levelo://app?vid=7ac610de-0f90-4c04-b733-6fdf87a62483"},"vehicle_type_id":"4","last_reported":1770477247,"current_range_meters":8000,"station_id":"ce4bgm92rcd13ifvqbr0","pricing_plan_id":"cebpf4jnsgd1na2vs0mg"},{"bike_id":"13a66910-aa65-4559-ba7a-e63b61e82f6f","system_id":"levelo_inurba_marseille","lat":43.29556,"lon":5.422792,"is_reserved":false,"is_disabled":false,"rental_uris":{"android":"levelo://app?vid=13a66910-aa65-4559-ba7a-e63b61e82f6f","ios":"levelo://app?vid=13a66910-aa65-4559-ba7a-e63b61e82f6f"},"vehicle_type_id":"4","last_reported":1770477247,"current_range_meters":8000,"station_id":"ce4bhph2rcd13ifvqhdg","pricing_plan_id":"cebpf4jnsgd1na2vs0mg"},{"bike_id":"a3340830-096a-47d3-9bae-c4650c595f56","system_id":"levelo_inurba_marseille","lat":43.2621,"lon":5.37452,"is_reserved":false,"is_disabled":false,"rental_uris":{"android":"levelo://app?vid=a3340830-096a-47d3-9bae-c4650c595f56","ios":"levelo://app?vid=a3340830-096a-47d3-9bae-c4650c595f56"},"vehicle_type_id":"4","last_reported":1770477247,"current_range_meters":8000,"station_id":"ce4bhgp2rcd13ifvqfc0","pricing_plan_id":"cebpf4jnsgd1na2vs0mg"},{"bike_id":"ea3cf1cf-21a4-42c3-8208-647b69047377","system_id":"levelo_inurba_marseille","lat":43.25858,"lon":5.39898,"is_reserved":false,"is_disabled":false,"rental_uris":{"android":"levelo://app?vid=ea3cf1cf-21a4-42c3-8208-647b69047377","ios":"levelo://app?vid=ea3cf1cf-21a4-42c3-8208-647b69047377"},"vehicle_type_id":"4","last_reported":1770477247,"current_range_meters":8000,"station_id":"ce4bhl92rcd13ifvqghg","pricing_plan_id":"cebpf4jnsgd1na2vs0mg"},{"bike_id":"638e6e87-79ce-413c-a285-649b6a6f8a6d","system_id":"levelo_inurba_marseille","lat":43.29544,"lon":5.37512,"is_reserved":false,"is_disabled":false,"rental_uris":{"android":"levelo://app?vid=638e6e87-79ce-413c-a285-649b6a6f8a6d","ios":"levelo://app?vid=638e6e87-79ce-413c-a285-649b6a6f8a6d"},"vehicle_type_id":"4","last_reported":1770477247,"current_range_meters":8000,"station_id":"ce4bgkp2rcd13ifvqbmg","pricing_plan_id":"cebpf4jnsgd1na2vs0mg"},{"bike_id":"e28e99f8-7d45-40f8-98b3-b070827fc4f2","system_id":"levelo_inurba_marseille","lat":43.22562,"lon":5.41619,"is_reserved":false,"is_disabled":false,"rental_uris":{"android":"levelo://app?vid=e28e99f8-7d45-40f8-98b3-b070827fc4f2","ios":"levelo://app?vid=e28e99f8-7d45-40f8-98b3-b070827fc4f2"},"vehicle_type_id":"4","last_reported":1770477247,"current_range_meters":8000,"station_id":"st_d2o4gvlbi1j2169b742g","pricing_plan_id":"cebpf4jnsgd1na2vs0mg"},{"bike_id":"ed45abda-ecf5-4137-85bd-6b0bc3b77ddf","system_id":"levelo_inurba_marseille","lat":43.26404,"lon":5.41123,"is_reserved":false,"is_disabled":false,"rental_uris":{"android":"levelo://app?vid=ed45abda-ecf5-4137-85bd-6b0bc3b77ddf","ios":"levelo://app?vid=ed45abda-ecf5-4137-85bd-6b0bc3b77ddf"},"vehicle_type_id":"4","last_reported":1770477247,"current_range_meters":8000,"station_id":"","pricing_plan_id":"cebpf4jnsgd1na2vs0mg"},{"bike_id":"a85d500c-1b7e-4b3f-bba8-c0b38aec10c6","system_id":"levelo_inurba_marseille","lat":43.25909,"lon":5.4088,"is_reserved":false,"is_disabled":false,"rental_uris":{"android":"levelo://app?vid=a85d500c-1b7e-4b3f-bba8-c0b38aec10c6","ios":"levelo://app?vid=a85d500c-1b7e-4b3f-bba8-c0b38aec10c6"},"vehicle_type_id":"4","last_reported":1770477247,"current_range_meters":8000,"station_id":"ce4bhm92rcd13ifvqglg","pricing_plan_id":"cebpf4jnsgd1na2vs0mg"},{"bike_id":"5ba2ceba-7c97-4077-a6f7-029721611517","system_id":"levelo_inurba_marseille","lat":43.28411,"lon":5.34987,"is_reserved":false,"is_disabled":false,"rental_uris":{"android":"levelo://app?vid=5ba2ceba-7c97-4077-a6f7-029721611517","ios":"levelo://app?vid=5ba2ceba-7c97-4077-a6f7-029721611517"},"vehicle_type_id":"4","last_reported":1770477247,"current_range_meters":8000,"station_id":"ce4bhbh2rcd13ifvqepg","pricing_plan_id":"cebpf4jnsgd1na2vs0mg"},{"bike_id":"3aed5847-38a3-483f-a302-c0e755a4674d","system_id":"levelo_inurba_marseille","lat":43.26386,"lon":5.4107,"is_reserved":false,"is_disabled":false,"rental_uris":{"android":"levelo://app?vid=3aed5847-38a3-483f-a302-c0e755a4674d","ios":"levelo://app?vid=3aed5847-38a3-483f-a302-c0e755a4674d"},"vehicle_type_id":"4","last_reported":1770477247,"current_range_meters":8000,"station_id":"st_d4e5ca6na9uc73bfl5fg","pricing_plan_id":"cebpf4jnsgd1na2vs0mg"},{"bike_id":"298d0965-a4a0-47f1-9ad4-21b6ae71366d","system_id":"levelo_inurba_marseille","lat":43.25071,"lon":5.39522,"is_reserved":false,"is_disabled":false,"rental_uris":{"android":"levelo://app?vid=298d0965-a4a0-47f1-9ad4-21b6ae71366d","ios":"levelo://app?vid=298d0965-a4a0-47f1-9ad4-21b6ae71366d"},"vehicle_type_id":"4","last_reported":1770477247,"current_range_meters":8000,"station_id":"ce4bhm12rcd13ifvqgkg","pricing_plan_id":"cebpf4jnsgd1na2vs0mg"},{"bike_id":"b0331170-4722-484f-85fa-ff26f59380f0","system_id":"levelo_inurba_marseille","lat":43.29494,"lon":5.43294,"is_reserved":false,"is_disabled":false,"rental_uris":{"android":"levelo://app?vid=b0331170-4722-484f-85fa-ff26f59380f0","ios":"levelo://app?vid=b0331170-4722-484f-85fa-ff26f59380f0"},"vehicle_type_id":"4","last_reported":1770477247,"current_range_meters":8000,"station_id":"st_d3j5ugp08ojc73fj9d10","pricing_plan_id":"cebpf4jnsgd1na2vs0mg"},{"bike_id":"e8b3f3bc-4896-4dbc-afc4-dfc343612c09","system_id":"levelo_inurba_marseille","lat":43.314387,"lon":5.366947,"is_reserved":false,"is_disabled":false,"rental_uris":{"android":"levelo://app?vid=e8b3f3bc-4896-4dbc-afc4-dfc343612c09","ios":"levelo://app?vid=e8b3f3bc-4896-4dbc-afc4-dfc343612c09"},"vehicle_type_id":"4","last_reported":1770477247,"current_range_meters":8400,"station_id":"","pricing_plan_id":"cebpf4jnsgd1na2vs0mg"},{"bike_id":"bb5cab08-186f-4af0-9cfa-2f009cafe5c6","system_id":"levelo_inurba_marseille","lat":43.22945,"lon":5.35371,"is_reserved":false,"is_disabled":false,"rental_uris":{"android":"levelo://app?vid=bb5cab08-186f-4af0-9cfa-2f009cafe5c6","ios":"levelo://app?vid=bb5cab08-186f-4af0-9cfa-2f009cafe5c6"},"vehicle_type_id":"4","last_reported":1770477247,"current_range_meters":8400,"station_id":"cpo3532slgdg3j2ikp40","pricing_plan_id":"cebpf4jnsgd1na2vs0mg"},{"bike_id":"5b8465fa-84c6-491c-9e0a-68c020cd0ea8","system_id":"levelo_inurba_marseille","lat":43.2888,"lon":5.42519,"is_reserved":false,"is_disabled":false,"rental_uris":{"android":"levelo://app?vid=5b8465fa-84c6-491c-9e0a-68c020cd0ea8","ios":"levelo://app?vid=5b8465fa-84c6-491c-9e0a-68c020cd0ea8"},"vehicle_type_id":"4","last_reported":1770477247,"current_range_meters":8400,"station_id":"st_d3b462108ojc7389ooeg","pricing_plan_id":"cebpf4jnsgd1na2vs0mg"},{"bike_id":"a8166b5b-d24f-4bfd-bc3a-e719ac9d4b2e","system_id":"levelo_inurba_marseille","lat":43.280263,"lon":5.408603,"is_reserved":false,"is_disabled":false,"rental_uris":{"android":"levelo://app?vid=a8166b5b-d24f-4bfd-bc3a-e719ac9d4b2e","ios":"levelo://app?vid=a8166b5b-d24f-4bfd-bc3a-e719ac9d4b2e"},"vehicle_type_id":"4","last_reported":1770477247,"current_range_meters":8400,"station_id":"","pricing_plan_id":"cebpf4jnsgd1na2vs0mg"},{"bike_id":"c9d2bfb2-7471-46bf-97d6-14603771c306","system_id":"levelo_inurba_marseille","lat":43.24391,"lon":5.37048,"is_reserved":false,"is_disabled":false,"rental_uris":{"android":"levelo://app?vid=c9d2bfb2-7471-46bf-97d6-14603771c306","ios":"levelo://app?vid=c9d2bfb2-7471-46bf-97d6-14603771c306"},"vehicle_type_id":"4","last_reported":1770477247,"current_range_meters":8400,"station_id":"ce4bhhh2rcd13ifvqfk0","pricing_plan_id":"cebpf4jnsgd1na2vs0mg"},{"bike_id":"88179044-3394-4b6a-8a49-5b55f27783b0","system_id":"levelo_inurba_marseille","lat":43.28706,"lon":5.37407,"is_reserved":false,"is_disabled":false,"rental_uris":{"android":"levelo://app?vid=88179044-3394-4b6a-8a49-5b55f27783b0","ios":"levelo://app?vid=88179044-3394-4b6a-8a49-5b55f27783b0"},"vehicle_type_id":"4","last_reported":1770477247,"current_range_meters":8400,"station_id":"ce4bh3p2rcd13ifvqdq0","pricing_plan_id":"cebpf4jnsgd1na2vs0mg"},{"bike_id":"597894f3-7a98-44e6-a514-e2fe50eba60f","system_id":"levelo_inurba_marseille","lat":43.28303,"lon":5.39712,"is_reserved":false,"is_disabled":false,"rental_uris":{"android":"levelo://app?vid=597894f3-7a98-44e6-a514-e2fe50eba60f","ios":"levelo://app?vid=597894f3-7a98-44e6-a514-e2fe50eba60f"},"vehicle_type_id":"4","last_reported":1770477247,"current_range_meters":8400,"station_id":"","pricing_plan_id":"cebpf4jnsgd1na2vs0mg"},{"bike_id":"cd48ca97-5d78-422e-ad10-59d2d65cc5ea","system_id":"levelo_inurba_marseille","lat":43.2379,"lon":5.36641,"is_reserved":false,"is_disabled":false,"rental_uris":{"android":"levelo://app?vid=cd48ca97-5d78-422e-ad10-59d2d65cc5ea","ios":"levelo://app?vid=cd48ca97-5d78-422e-ad10-59d2d65cc5ea"},"vehicle_type_id":"4","last_reported":1770477247,"current_range_meters":8400,"station_id":"st_d3nk18o9ro0c73en2l3g","pricing_plan_id":"cebpf4jnsgd1na2vs0mg"},{"bike_id":"006f45de-433c-4fe3-81a6-3dac1db63eac","system_id":"levelo_inurba_marseille","lat":43.24473,"lon":5.42538,"is_reserved":false,"is_disabled":false,"rental_uris":{"android":"levelo://app?vid=006f45de-433c-4fe3-81a6-3dac1db63eac","ios":"levelo://app?vid=006f45de-433c-4fe3-81a6-3dac1db63eac"},"vehicle_type_id":"4","last_reported":1770477247,"current_range_meters":8400,"station_id":"st_d4a3vfp97mjs738cd8kg","pricing_plan_id":"cebpf4jnsgd1na2vs0mg"},{"bike_id":"c5675e12-15a1-4461-967e-2b2be99c3137","system_id":"levelo_inurba_marseille","lat":43.282703,"lon":5.3508,"is_reserved":false,"is_disabled":false,"rental_uris":{"android":"levelo://app?vid=c5675e12-15a1-4461-967e-2b2be99c3137","ios":"levelo://app?vid=c5675e12-15a1-4461-967e-2b2be99c3137"},"vehicle_type_id":"4","last_reported":1770477247,"current_range_meters":8400,"station_id":"ce4bhbp2rcd13ifvqerg","pricing_plan_id":"cebpf4jnsgd1na2vs0mg"},{"bike_id":"9c27da16-0b95-483f-acc9-aaafd261f73e","system_id":"levelo_inurba_marseille","lat":43.30905,"lon":5.36852,"is_reserved":false,"is_disabled":false,"rental_uris":{"android":"levelo://app?vid=9c27da16-0b95-483f-acc9-aaafd261f73e","ios":"levelo://app?vid=9c27da16-0b95-483f-acc9-aaafd261f73e"},"vehicle_type_id":"4","last_reported":1770477247,"current_range_meters":8400,"station_id":"ce4bgn92rcd13ifvqbvg","pricing_plan_id":"cebpf4jnsgd1na2vs0mg"},{"bike_id":"09986119-327c-45bf-b6a8-e15c339167ea","system_id":"levelo_inurba_marseille","lat":43.28454,"lon":5.44039,"is_reserved":false,"is_disabled":false,"rental_uris":{"android":"levelo://app?vid=09986119-327c-45bf-b6a8-e15c339167ea","ios":"levelo://app?vid=09986119-327c-45bf-b6a8-e15c339167ea"},"vehicle_type_id":"4","last_reported":1770477247,"current_range_meters":8400,"station_id":"","pricing_plan_id":"cebpf4jnsgd1na2vs0mg"},{"bike_id":"d9d493c8-2229-4bda-a958-4c19d5464801","system_id":"levelo_inurba_marseille","lat":43.25886,"lon":5.39883,"is_reserved":false,"is_disabled":false,"rental_uris":{"android":"levelo://app?vid=d9d493c8-2229-4bda-a958-4c19d5464801","ios":"levelo://app?vid=d9d493c8-2229-4bda-a958-4c19d5464801"},"vehicle_type_id":"4","last_reported":1770477247,"current_range_meters":8400,"station_id":"ce4bhl92rcd13ifvqghg","pricing_plan_id":"cebpf4jnsgd1na2vs0mg"},{"bike_id":"5a2d5840-39e9-4c72-aa66-2b1fbea8cc45","system_id":"levelo_inurba_marseille","lat":43.24371,"lon":5.37048,"is_reserved":false,"is_disabled":false,"rental_uris":{"android":"levelo://app?vid=5a2d5840-39e9-4c72-aa66-2b1fbea8cc45","ios":"levelo://app?vid=5a2d5840-39e9-4c72-aa66-2b1fbea8cc45"},"vehicle_type_id":"4","last_reported":1770477247,"current_range_meters":8400,"station_id":"ce4bhhh2rcd13ifvqfk0","pricing_plan_id":"cebpf4jnsgd1na2vs0mg"},{"bike_id":"4c1d817c-2311-4829-b074-c35d06d3a077","system_id":"levelo_inurba_marseille","lat":43.2296,"lon":5.35362,"is_reserved":false,"is_disabled":false,"rental_uris":{"android":"levelo://app?vid=4c1d817c-2311-4829-b074-c35d06d3a077","ios":"levelo://app?vid=4c1d817c-2311-4829-b074-c35d06d3a077"},"vehicle_type_id":"4","last_reported":1770477247,"current_range_meters":8400,"station_id":"cpo3532slgdg3j2ikp40","pricing_plan_id":"cebpf4jnsgd1na2vs0mg"},{"bike_id":"d854da10-99f6-47d9-a682-de86b0df9682","system_id":"levelo_inurba_marseille","lat":43.29279,"lon":5.36835,"is_reserved":false,"is_disabled":false,"rental_uris":{"android":"levelo://app?vid=d854da10-99f6-47d9-a682-de86b0df9682","ios":"levelo://app?vid=d854da10-99f6-47d9-a682-de86b0df9682"},"vehicle_type_id":"4","last_reported":1770477247,"current_range_meters":8800,"station_id":"ce4bhbp2rcd13ifvqesg","pricing_plan_id":"cebpf4jnsgd1na2vs0mg"},{"bike_id":"386b4487-f2a2-455b-8ef5-022f78fae20f","system_id":"levelo_inurba_marseille","lat":43.24811,"lon":5.37459,"is_reserved":false,"is_disabled":false,"rental_uris":{"android":"levelo://app?vid=386b4487-f2a2-455b-8ef5-022f78fae20f","ios":"levelo://app?vid=386b4487-f2a2-455b-8ef5-022f78fae20f"},"vehicle_type_id":"4","last_reported":1770477247,"current_range_meters":8800,"station_id":"ce4bhgh2rcd13ifvqfb0","pricing_plan_id":"cebpf4jnsgd1na2vs0mg"},{"bike_id":"508fb8b9-4cee-4799-8b3b-fa3d800ff13e","system_id":"levelo_inurba_marseille","lat":43.33523,"lon":5.37443,"is_reserved":false,"is_disabled":false,"rental_uris":{"android":"levelo://app?vid=508fb8b9-4cee-4799-8b3b-fa3d800ff13e","ios":"levelo://app?vid=508fb8b9-4cee-4799-8b3b-fa3d800ff13e"},"vehicle_type_id":"4","last_reported":1770477247,"current_range_meters":8800,"station_id":"st_d46tts09ee8s73dlu43g","pricing_plan_id":"cebpf4jnsgd1na2vs0mg"},{"bike_id":"d0112a68-bd58-48a3-9ea0-c262e146333b","system_id":"levelo_inurba_marseille","lat":43.22926,"lon":5.35381,"is_reserved":false,"is_disabled":false,"rental_uris":{"android":"levelo://app?vid=d0112a68-bd58-48a3-9ea0-c262e146333b","ios":"levelo://app?vid=d0112a68-bd58-48a3-9ea0-c262e146333b"},"vehicle_type_id":"4","last_reported":1770477247,"current_range_meters":8800,"station_id":"cpo3532slgdg3j2ikp40","pricing_plan_id":"cebpf4jnsgd1na2vs0mg"},{"bike_id":"e8457bb3-f99d-40e0-aa19-6d3fdf1a5998","system_id":"levelo_inurba_marseille","lat":43.28108,"lon":5.42646,"is_reserved":false,"is_disabled":false,"rental_uris":{"android":"levelo://app?vid=e8457bb3-f99d-40e0-aa19-6d3fdf1a5998","ios":"levelo://app?vid=e8457bb3-f99d-40e0-aa19-6d3fdf1a5998"},"vehicle_type_id":"4","last_reported":1770477247,"current_range_meters":8800,"station_id":"","pricing_plan_id":"cebpf4jnsgd1na2vs0mg"},{"bike_id":"57fc64b8-c6b3-4cfa-afba-31af9f6b1aa1","system_id":"levelo_inurba_marseille","lat":43.29289,"lon":5.40119,"is_reserved":false,"is_disabled":false,"rental_uris":{"android":"levelo://app?vid=57fc64b8-c6b3-4cfa-afba-31af9f6b1aa1","ios":"levelo://app?vid=57fc64b8-c6b3-4cfa-afba-31af9f6b1aa1"},"vehicle_type_id":"4","last_reported":1770477247,"current_range_meters":8800,"station_id":"ce4bh312rcd13ifvqdk0","pricing_plan_id":"cebpf4jnsgd1na2vs0mg"},{"bike_id":"ea8c0580-dee3-43f3-bf01-1aa8969bd163","system_id":"levelo_inurba_marseille","lat":43.24176,"lon":5.36377,"is_reserved":false,"is_disabled":false,"rental_uris":{"android":"levelo://app?vid=ea8c0580-dee3-43f3-bf01-1aa8969bd163","ios":"levelo://app?vid=ea8c0580-dee3-43f3-bf01-1aa8969bd163"},"vehicle_type_id":"4","last_reported":1770477247,"current_range_meters":8800,"station_id":"cpo36qri1sfpv3e86is0","pricing_plan_id":"cebpf4jnsgd1na2vs0mg"},{"bike_id":"6216461a-536b-4362-ac08-815386365ad7","system_id":"levelo_inurba_marseille","lat":43.30126,"lon":5.43114,"is_reserved":false,"is_disabled":false,"rental_uris":{"android":"levelo://app?vid=6216461a-536b-4362-ac08-815386365ad7","ios":"levelo://app?vid=6216461a-536b-4362-ac08-815386365ad7"},"vehicle_type_id":"4","last_reported":1770477247,"current_range_meters":8800,"station_id":"st_d3js3co5814s73ftftug","pricing_plan_id":"cebpf4jnsgd1na2vs0mg"},{"bike_id":"842c1e00-8045-4cb7-854a-9ba7dca849da","system_id":"levelo_inurba_marseille","lat":43.32472,"lon":5.36709,"is_reserved":false,"is_disabled":false,"rental_uris":{"android":"levelo://app?vid=842c1e00-8045-4cb7-854a-9ba7dca849da","ios":"levelo://app?vid=842c1e00-8045-4cb7-854a-9ba7dca849da"},"vehicle_type_id":"4","last_reported":1770477247,"current_range_meters":8800,"station_id":"","pricing_plan_id":"cebpf4jnsgd1na2vs0mg"},{"bike_id":"6a144693-7691-4af0-a94f-86308d14d8c0","system_id":"levelo_inurba_marseille","lat":43.25953,"lon":5.40879,"is_reserved":false,"is_disabled":false,"rental_uris":{"android":"levelo://app?vid=6a144693-7691-4af0-a94f-86308d14d8c0","ios":"levelo://app?vid=6a144693-7691-4af0-a94f-86308d14d8c0"},"vehicle_type_id":"4","last_reported":1770477247,"current_range_meters":8800,"station_id":"ce4bhm92rcd13ifvqglg","pricing_plan_id":"cebpf4jnsgd1na2vs0mg"},{"bike_id":"99ebf718-780c-4ed6-a319-8cd345f77f60","system_id":"levelo_inurba_marseille","lat":43.33601,"lon":5.41033,"is_reserved":false,"is_disabled":false,"rental_uris":{"android":"levelo://app?vid=99ebf718-780c-4ed6-a319-8cd345f77f60","ios":"levelo://app?vid=99ebf718-780c-4ed6-a319-8cd345f77f60"},"vehicle_type_id":"4","last_reported":1770477247,"current_range_meters":8800,"station_id":"ce4bhqh2rcd13ifvqhmg","pricing_plan_id":"cebpf4jnsgd1na2vs0mg"},{"bike_id":"c370f72e-d896-4a5c-94eb-1e35d40d3494","system_id":"levelo_inurba_marseille","lat":43.30083,"lon":5.39091,"is_reserved":false,"is_disabled":false,"rental_uris":{"android":"levelo://app?vid=c370f72e-d896-4a5c-94eb-1e35d40d3494","ios":"levelo://app?vid=c370f72e-d896-4a5c-94eb-1e35d40d3494"},"vehicle_type_id":"4","last_reported":1770477247,"current_range_meters":8800,"station_id":"ce4bh192rcd13ifvqdb0","pricing_plan_id":"cebpf4jnsgd1na2vs0mg"},{"bike_id":"11616263-142c-4dd0-a9e9-585090690c40","system_id":"levelo_inurba_marseille","lat":43.2463,"lon":5.43127,"is_reserved":false,"is_disabled":false,"rental_uris":{"android":"levelo://app?vid=11616263-142c-4dd0-a9e9-585090690c40","ios":"levelo://app?vid=11616263-142c-4dd0-a9e9-585090690c40"},"vehicle_type_id":"4","last_reported":1770477247,"current_range_meters":9200,"station_id":"st_d2m6c4gdas8pm72e190g","pricing_plan_id":"cebpf4jnsgd1na2vs0mg"},{"bike_id":"9dadd4c2-97fc-4ce7-a20f-b7c55300a138","system_id":"levelo_inurba_marseille","lat":43.29814,"lon":5.4406,"is_reserved":false,"is_disabled":false,"rental_uris":{"android":"levelo://app?vid=9dadd4c2-97fc-4ce7-a20f-b7c55300a138","ios":"levelo://app?vid=9dadd4c2-97fc-4ce7-a20f-b7c55300a138"},"vehicle_type_id":"4","last_reported":1770477247,"current_range_meters":9200,"station_id":"st_d3jp68qikq2c7381ktn0","pricing_plan_id":"cebpf4jnsgd1na2vs0mg"},{"bike_id":"8c03db7d-1e98-4395-ac5e-39cc828db643","system_id":"levelo_inurba_marseille","lat":43.28005,"lon":5.39993,"is_reserved":false,"is_disabled":false,"rental_uris":{"android":"levelo://app?vid=8c03db7d-1e98-4395-ac5e-39cc828db643","ios":"levelo://app?vid=8c03db7d-1e98-4395-ac5e-39cc828db643"},"vehicle_type_id":"4","last_reported":1770477247,"current_range_meters":9200,"station_id":"ce4bho92rcd13ifvqh4g","pricing_plan_id":"cebpf4jnsgd1na2vs0mg"},{"bike_id":"ec530521-2795-4ff9-af45-352d2124398c","system_id":"levelo_inurba_marseille","lat":43.31376,"lon":5.36702,"is_reserved":false,"is_disabled":false,"rental_uris":{"android":"levelo://app?vid=ec530521-2795-4ff9-af45-352d2124398c","ios":"levelo://app?vid=ec530521-2795-4ff9-af45-352d2124398c"},"vehicle_type_id":"4","last_reported":1770477247,"current_range_meters":9200,"station_id":"ce4bgr92rcd13ifvqc6g","pricing_plan_id":"cebpf4jnsgd1na2vs0mg"},{"bike_id":"781e3167-75c5-4573-807b-ac232a303387","system_id":"levelo_inurba_marseille","lat":43.32359,"lon":5.36727,"is_reserved":false,"is_disabled":false,"rental_uris":{"android":"levelo://app?vid=781e3167-75c5-4573-807b-ac232a303387","ios":"levelo://app?vid=781e3167-75c5-4573-807b-ac232a303387"},"vehicle_type_id":"4","last_reported":1770477247,"current_range_meters":9200,"station_id":"ce4bhsh2rcd13ifvqi2g","pricing_plan_id":"cebpf4jnsgd1na2vs0mg"},{"bike_id":"47bd43a3-aa0b-4486-ab26-de9ccc9b7859","system_id":"levelo_inurba_marseille","lat":43.292587,"lon":5.384367,"is_reserved":false,"is_disabled":false,"rental_uris":{"android":"levelo://app?vid=47bd43a3-aa0b-4486-ab26-de9ccc9b7859","ios":"levelo://app?vid=47bd43a3-aa0b-4486-ab26-de9ccc9b7859"},"vehicle_type_id":"4","last_reported":1770477247,"current_range_meters":9600,"station_id":"ce4bh692rcd13ifvqea0","pricing_plan_id":"cebpf4jnsgd1na2vs0mg"},{"bike_id":"218d1fb6-2632-4b90-9b7d-80721fa9043b","system_id":"levelo_inurba_marseille","lat":43.29932,"lon":5.36508,"is_reserved":false,"is_disabled":false,"rental_uris":{"android":"levelo://app?vid=218d1fb6-2632-4b90-9b7d-80721fa9043b","ios":"levelo://app?vid=218d1fb6-2632-4b90-9b7d-80721fa9043b"},"vehicle_type_id":"4","last_reported":1770477247,"current_range_meters":9600,"station_id":"ce4bgm92rcd13ifvqbr0","pricing_plan_id":"cebpf4jnsgd1na2vs0mg"},{"bike_id":"ea608218-38d9-4ce3-ab0d-11f1621aff9f","system_id":"levelo_inurba_marseille","lat":43.29531,"lon":5.38543,"is_reserved":false,"is_disabled":false,"rental_uris":{"android":"levelo://app?vid=ea608218-38d9-4ce3-ab0d-11f1621aff9f","ios":"levelo://app?vid=ea608218-38d9-4ce3-ab0d-11f1621aff9f"},"vehicle_type_id":"4","last_reported":1770477247,"current_range_meters":9600,"station_id":"ce4bgih2rcd13ifvqba0","pricing_plan_id":"cebpf4jnsgd1na2vs0mg"},{"bike_id":"5d838c73-364e-4951-9977-ba6e1d3db85c","system_id":"levelo_inurba_marseille","lat":43.29198,"lon":5.35792,"is_reserved":false,"is_disabled":false,"rental_uris":{"android":"levelo://app?vid=5d838c73-364e-4951-9977-ba6e1d3db85c","ios":"levelo://app?vid=5d838c73-364e-4951-9977-ba6e1d3db85c"},"vehicle_type_id":"4","last_reported":1770477247,"current_range_meters":9600,"station_id":"ce4bhb12rcd13ifvqel0","pricing_plan_id":"cebpf4jnsgd1na2vs0mg"},{"bike_id":"6dfb2b73-9301-4d0c-b0c0-b7df23868696","system_id":"levelo_inurba_marseille","lat":43.26376,"lon":5.41065,"is_reserved":false,"is_disabled":false,"rental_uris":{"android":"levelo://app?vid=6dfb2b73-9301-4d0c-b0c0-b7df23868696","ios":"levelo://app?vid=6dfb2b73-9301-4d0c-b0c0-b7df23868696"},"vehicle_type_id":"4","last_reported":1770477247,"current_range_meters":9600,"station_id":"st_d4e5ca6na9uc73bfl5fg","pricing_plan_id":"cebpf4jnsgd1na2vs0mg"},{"bike_id":"e39637bb-fbf5-4d65-9116-22ed6cea2f79","system_id":"levelo_inurba_marseille","lat":43.29101,"lon":5.38147,"is_reserved":false,"is_disabled":false,"rental_uris":{"android":"levelo://app?vid=e39637bb-fbf5-4d65-9116-22ed6cea2f79","ios":"levelo://app?vid=e39637bb-fbf5-4d65-9116-22ed6cea2f79"},"vehicle_type_id":"4","last_reported":1770477247,"current_range_meters":9600,"station_id":"ce4bh512rcd13ifvqe2g","pricing_plan_id":"cebpf4jnsgd1na2vs0mg"},{"bike_id":"7eab44ae-ff53-42b3-a588-ec7e381d1ee8","system_id":"levelo_inurba_marseille","lat":43.25341,"lon":5.42164,"is_reserved":false,"is_disabled":false,"rental_uris":{"android":"levelo://app?vid=7eab44ae-ff53-42b3-a588-ec7e381d1ee8","ios":"levelo://app?vid=7eab44ae-ff53-42b3-a588-ec7e381d1ee8"},"vehicle_type_id":"4","last_reported":1770477247,"current_range_meters":9600,"station_id":"st_d2m65c5bi1j21697t3ng","pricing_plan_id":"cebpf4jnsgd1na2vs0mg"},{"bike_id":"0b84e61d-62ba-4706-80f1-3a72823c8089","system_id":"levelo_inurba_marseille","lat":43.25942,"lon":5.40907,"is_reserved":false,"is_disabled":false,"rental_uris":{"android":"levelo://app?vid=0b84e61d-62ba-4706-80f1-3a72823c8089","ios":"levelo://app?vid=0b84e61d-62ba-4706-80f1-3a72823c8089"},"vehicle_type_id":"4","last_reported":1770477247,"current_range_meters":10000,"station_id":"ce4bhm92rcd13ifvqglg","pricing_plan_id":"cebpf4jnsgd1na2vs0mg"},{"bike_id":"5cdd27df-1aa5-4830-b5fc-91672ce179d3","system_id":"levelo_inurba_marseille","lat":43.27955,"lon":5.41029,"is_reserved":false,"is_disabled":true,"rental_uris":{"android":"levelo://app?vid=5cdd27df-1aa5-4830-b5fc-91672ce179d3","ios":"levelo://app?vid=5cdd27df-1aa5-4830-b5fc-91672ce179d3"},"vehicle_type_id":"4","last_reported":1770477247,"current_range_meters":10000,"station_id":"ce4bhnp2rcd13ifvqh0g","pricing_plan_id":"cebpf4jnsgd1na2vs0mg"},{"bike_id":"56893961-8f3b-47c8-a24b-0a12834de0b5","system_id":"levelo_inurba_marseille","lat":43.32276,"lon":5.38283,"is_reserved":false,"is_disabled":false,"rental_uris":{"android":"levelo://app?vid=56893961-8f3b-47c8-a24b-0a12834de0b5","ios":"levelo://app?vid=56893961-8f3b-47c8-a24b-0a12834de0b5"},"vehicle_type_id":"4","last_reported":1770477247,"current_range_meters":10000,"station_id":"ce4bhr12rcd13ifvqhqg","pricing_plan_id":"cebpf4jnsgd1na2vs0mg"},{"bike_id":"1e7b775a-b2be-4ed9-9761-40a006b3dbcc","system_id":"levelo_inurba_marseille","lat":43.33017,"lon":5.39013,"is_reserved":false,"is_disabled":false,"rental_uris":{"android":"levelo://app?vid=1e7b775a-b2be-4ed9-9761-40a006b3dbcc","ios":"levelo://app?vid=1e7b775a-b2be-4ed9-9761-40a006b3dbcc"},"vehicle_type_id":"4","last_reported":1770477247,"current_range_meters":10000,"station_id":"ce4bhr92rcd13ifvqhrg","pricing_plan_id":"cebpf4jnsgd1na2vs0mg"},{"bike_id":"b1047b1e-8066-4d31-ad50-4bebcc0667b6","system_id":"levelo_inurba_marseille","lat":43.27572,"lon":5.38427,"is_reserved":false,"is_disabled":false,"rental_uris":{"android":"levelo://app?vid=b1047b1e-8066-4d31-ad50-4bebcc0667b6","ios":"levelo://app?vid=b1047b1e-8066-4d31-ad50-4bebcc0667b6"},"vehicle_type_id":"4","last_reported":1770477247,"current_range_meters":10000,"station_id":"ce4bhh92rcd13ifvqfi0","pricing_plan_id":"cebpf4jnsgd1na2vs0mg"},{"bike_id":"3bfbcaa6-9cc7-4f78-9525-559218f7d29d","system_id":"levelo_inurba_marseille","lat":43.24818,"lon":5.37447,"is_reserved":false,"is_disabled":false,"rental_uris":{"android":"levelo://app?vid=3bfbcaa6-9cc7-4f78-9525-559218f7d29d","ios":"levelo://app?vid=3bfbcaa6-9cc7-4f78-9525-559218f7d29d"},"vehicle_type_id":"4","last_reported":1770477247,"current_range_meters":10000,"station_id":"ce4bhgh2rcd13ifvqfb0","pricing_plan_id":"cebpf4jnsgd1na2vs0mg"},{"bike_id":"27e3548f-2e7f-4c60-a690-48429ad01b98","system_id":"levelo_inurba_marseille","lat":43.28556,"lon":5.3836,"is_reserved":false,"is_disabled":false,"rental_uris":{"android":"levelo://app?vid=27e3548f-2e7f-4c60-a690-48429ad01b98","ios":"levelo://app?vid=27e3548f-2e7f-4c60-a690-48429ad01b98"},"vehicle_type_id":"4","last_reported":1770477247,"current_range_meters":10000,"station_id":"","pricing_plan_id":"cebpf4jnsgd1na2vs0mg"},{"bike_id":"9c9db9d5-0e0c-47a3-a905-8fcf5962983e","system_id":"levelo_inurba_marseille","lat":43.23221,"lon":5.3555,"is_reserved":false,"is_disabled":false,"rental_uris":{"android":"levelo://app?vid=9c9db9d5-0e0c-47a3-a905-8fcf5962983e","ios":"levelo://app?vid=9c9db9d5-0e0c-47a3-a905-8fcf5962983e"},"vehicle_type_id":"4","last_reported":1770477247,"current_range_meters":10000,"station_id":"ce4bhu92rcd13ifvqi70","pricing_plan_id":"cebpf4jnsgd1na2vs0mg"},{"bike_id":"fbd8c4f9-3856-46a2-b291-e190e6907420","system_id":"levelo_inurba_marseille","lat":43.25003,"lon":5.38928,"is_reserved":false,"is_disabled":false,"rental_uris":{"android":"levelo://app?vid=fbd8c4f9-3856-46a2-b291-e190e6907420","ios":"levelo://app?vid=fbd8c4f9-3856-46a2-b291-e190e6907420"},"vehicle_type_id":"4","last_reported":1770477247,"current_range_meters":10000,"station_id":"ce4bhgp2rcd13ifvqfd0","pricing_plan_id":"cebpf4jnsgd1na2vs0mg"},{"bike_id":"1a1d969f-bada-4aaa-a461-ec3f4a01601c","system_id":"levelo_inurba_marseille","lat":43.33526,"lon":5.37468,"is_reserved":false,"is_disabled":false,"rental_uris":{"android":"levelo://app?vid=1a1d969f-bada-4aaa-a461-ec3f4a01601c","ios":"levelo://app?vid=1a1d969f-bada-4aaa-a461-ec3f4a01601c"},"vehicle_type_id":"4","last_reported":1770477247,"current_range_meters":10000,"station_id":"st_d46tts09ee8s73dlu43g","pricing_plan_id":"cebpf4jnsgd1na2vs0mg"},{"bike_id":"28ea6fbe-b592-43e0-b4f1-22356d5bc8f9","system_id":"levelo_inurba_marseille","lat":43.3355,"lon":5.3746,"is_reserved":false,"is_disabled":false,"rental_uris":{"android":"levelo://app?vid=28ea6fbe-b592-43e0-b4f1-22356d5bc8f9","ios":"levelo://app?vid=28ea6fbe-b592-43e0-b4f1-22356d5bc8f9"},"vehicle_type_id":"4","last_reported":1770477247,"current_range_meters":10000,"station_id":"st_d46tts09ee8s73dlu43g","pricing_plan_id":"cebpf4jnsgd1na2vs0mg"},{"bike_id":"d55392cd-6637-412f-aa69-af1ec6812566","system_id":"levelo_inurba_marseille","lat":43.33044,"lon":5.39029,"is_reserved":false,"is_disabled":false,"rental_uris":{"android":"levelo://app?vid=d55392cd-6637-412f-aa69-af1ec6812566","ios":"levelo://app?vid=d55392cd-6637-412f-aa69-af1ec6812566"},"vehicle_type_id":"4","last_reported":1770477247,"current_range_meters":10000,"station_id":"ce4bhr92rcd13ifvqhrg","pricing_plan_id":"cebpf4jnsgd1na2vs0mg"},{"bike_id":"058d7df6-fbe0-4373-9743-a36baea2f70c","system_id":"levelo_inurba_marseille","lat":43.30724,"lon":5.42484,"is_reserved":false,"is_disabled":false,"rental_uris":{"android":"levelo://app?vid=058d7df6-fbe0-4373-9743-a36baea2f70c","ios":"levelo://app?vid=058d7df6-fbe0-4373-9743-a36baea2f70c"},"vehicle_type_id":"4","last_reported":1770477247,"current_range_meters":10000,"station_id":"st_cvj6ca6bvosntc0bfgr0","pricing_plan_id":"cebpf4jnsgd1na2vs0mg"},{"bike_id":"b8e41160-bb57-4811-bdd6-34ec0ebb1f08","system_id":"levelo_inurba_marseille","lat":43.25334,"lon":5.42171,"is_reserved":false,"is_disabled":false,"rental_uris":{"android":"levelo://app?vid=b8e41160-bb57-4811-bdd6-34ec0ebb1f08","ios":"levelo://app?vid=b8e41160-bb57-4811-bdd6-34ec0ebb1f08"},"vehicle_type_id":"4","last_reported":1770477247,"current_range_meters":10800,"station_id":"st_d2m65c5bi1j21697t3ng","pricing_plan_id":"cebpf4jnsgd1na2vs0mg"},{"bike_id":"0f9398e4-1c51-403f-8553-7aa3b9b52ae1","system_id":"levelo_inurba_marseille","lat":43.2849,"lon":5.3842,"is_reserved":false,"is_disabled":false,"rental_uris":{"android":"levelo://app?vid=0f9398e4-1c51-403f-8553-7aa3b9b52ae1","ios":"levelo://app?vid=0f9398e4-1c51-403f-8553-7aa3b9b52ae1"},"vehicle_type_id":"4","last_reported":1770477247,"current_range_meters":10800,"station_id":"ce4bh512rcd13ifvqe3g","pricing_plan_id":"cebpf4jnsgd1na2vs0mg"},{"bike_id":"f8354ddb-017a-4bf2-8668-a39598178e17","system_id":"levelo_inurba_marseille","lat":43.30727,"lon":5.42443,"is_reserved":false,"is_disabled":false,"rental_uris":{"android":"levelo://app?vid=f8354ddb-017a-4bf2-8668-a39598178e17","ios":"levelo://app?vid=f8354ddb-017a-4bf2-8668-a39598178e17"},"vehicle_type_id":"4","last_reported":1770477247,"current_range_meters":10800,"station_id":"st_cvj6ca6bvosntc0bfgr0","pricing_plan_id":"cebpf4jnsgd1na2vs0mg"},{"bike_id":"433770bf-53fc-4c94-8ba4-b36ce565c98b","system_id":"levelo_inurba_marseille","lat":43.25013,"lon":5.38928,"is_reserved":false,"is_disabled":false,"rental_uris":{"android":"levelo://app?vid=433770bf-53fc-4c94-8ba4-b36ce565c98b","ios":"levelo://app?vid=433770bf-53fc-4c94-8ba4-b36ce565c98b"},"vehicle_type_id":"4","last_reported":1770477247,"current_range_meters":10800,"station_id":"ce4bhgp2rcd13ifvqfd0","pricing_plan_id":"cebpf4jnsgd1na2vs0mg"},{"bike_id":"b0e7feeb-1416-4406-b174-1e7f94d3553f","system_id":"levelo_inurba_marseille","lat":43.33551,"lon":5.3746,"is_reserved":false,"is_disabled":false,"rental_uris":{"android":"levelo://app?vid=b0e7feeb-1416-4406-b174-1e7f94d3553f","ios":"levelo://app?vid=b0e7feeb-1416-4406-b174-1e7f94d3553f"},"vehicle_type_id":"4","last_reported":1770477247,"current_range_meters":10800,"station_id":"","pricing_plan_id":"cebpf4jnsgd1na2vs0mg"},{"bike_id":"01e4d894-ffad-4064-a3df-cebf79965127","system_id":"levelo_inurba_marseille","lat":43.2974,"lon":5.37671,"is_reserved":false,"is_disabled":false,"rental_uris":{"android":"levelo://app?vid=01e4d894-ffad-4064-a3df-cebf79965127","ios":"levelo://app?vid=01e4d894-ffad-4064-a3df-cebf79965127"},"vehicle_type_id":"4","last_reported":1770477247,"current_range_meters":10800,"station_id":"ce4bgkh2rcd13ifvqbl0","pricing_plan_id":"cebpf4jnsgd1na2vs0mg"},{"bike_id":"131c8bc6-588e-4f5d-851b-303b7978f745","system_id":"levelo_inurba_marseille","lat":43.25952,"lon":5.40881,"is_reserved":false,"is_disabled":false,"rental_uris":{"android":"levelo://app?vid=131c8bc6-588e-4f5d-851b-303b7978f745","ios":"levelo://app?vid=131c8bc6-588e-4f5d-851b-303b7978f745"},"vehicle_type_id":"4","last_reported":1770477247,"current_range_meters":10800,"station_id":"ce4bhm92rcd13ifvqglg","pricing_plan_id":"cebpf4jnsgd1na2vs0mg"},{"bike_id":"7ef01393-1449-43e5-9e2b-d7d52f9773c6","system_id":"levelo_inurba_marseille","lat":43.30206,"lon":5.39472,"is_reserved":false,"is_disabled":false,"rental_uris":{"android":"levelo://app?vid=7ef01393-1449-43e5-9e2b-d7d52f9773c6","ios":"levelo://app?vid=7ef01393-1449-43e5-9e2b-d7d52f9773c6"},"vehicle_type_id":"4","last_reported":1770477247,"current_range_meters":10800,"station_id":"ce4bh0p2rcd13ifvqd70","pricing_plan_id":"cebpf4jnsgd1na2vs0mg"},{"bike_id":"d8ba07be-4909-4867-9013-61baab37ba2e","system_id":"levelo_inurba_marseille","lat":43.22576,"lon":5.41636,"is_reserved":false,"is_disabled":false,"rental_uris":{"android":"levelo://app?vid=d8ba07be-4909-4867-9013-61baab37ba2e","ios":"levelo://app?vid=d8ba07be-4909-4867-9013-61baab37ba2e"},"vehicle_type_id":"4","last_reported":1770477247,"current_range_meters":10800,"station_id":"st_d2o4gvlbi1j2169b742g","pricing_plan_id":"cebpf4jnsgd1na2vs0mg"},{"bike_id":"d96fa321-cc43-4d28-a99e-b49794bf7b3a","system_id":"levelo_inurba_marseille","lat":43.25954,"lon":5.40895,"is_reserved":false,"is_disabled":false,"rental_uris":{"android":"levelo://app?vid=d96fa321-cc43-4d28-a99e-b49794bf7b3a","ios":"levelo://app?vid=d96fa321-cc43-4d28-a99e-b49794bf7b3a"},"vehicle_type_id":"4","last_reported":1770477247,"current_range_meters":10800,"station_id":"ce4bhm92rcd13ifvqglg","pricing_plan_id":"cebpf4jnsgd1na2vs0mg"},{"bike_id":"7a2c796a-2c27-403d-a799-411424496833","system_id":"levelo_inurba_marseille","lat":43.26556,"lon":5.40289,"is_reserved":false,"is_disabled":false,"rental_uris":{"android":"levelo://app?vid=7a2c796a-2c27-403d-a799-411424496833","ios":"levelo://app?vid=7a2c796a-2c27-403d-a799-411424496833"},"vehicle_type_id":"4","last_reported":1770477247,"current_range_meters":11200,"station_id":"ce4bhmp2rcd13ifvqgng","pricing_plan_id":"cebpf4jnsgd1na2vs0mg"},{"bike_id":"2cb5a43b-e623-4a02-b02d-84a79ff3e02e","system_id":"levelo_inurba_marseille","lat":43.22559,"lon":5.41629,"is_reserved":false,"is_disabled":false,"rental_uris":{"android":"levelo://app?vid=2cb5a43b-e623-4a02-b02d-84a79ff3e02e","ios":"levelo://app?vid=2cb5a43b-e623-4a02-b02d-84a79ff3e02e"},"vehicle_type_id":"4","last_reported":1770477247,"current_range_meters":11200,"station_id":"st_d2o4gvlbi1j2169b742g","pricing_plan_id":"cebpf4jnsgd1na2vs0mg"},{"bike_id":"058d7c32-e155-42ec-8096-1257590682eb","system_id":"levelo_inurba_marseille","lat":43.25587,"lon":5.38232,"is_reserved":false,"is_disabled":false,"rental_uris":{"android":"levelo://app?vid=058d7c32-e155-42ec-8096-1257590682eb","ios":"levelo://app?vid=058d7c32-e155-42ec-8096-1257590682eb"},"vehicle_type_id":"4","last_reported":1770477247,"current_range_meters":11200,"station_id":"ce4bhih2rcd13ifvqfs0","pricing_plan_id":"cebpf4jnsgd1na2vs0mg"},{"bike_id":"867458d9-c09f-4165-b1af-e2013b3a197e","system_id":"levelo_inurba_marseille","lat":43.246394,"lon":5.389032,"is_reserved":false,"is_disabled":false,"rental_uris":{"android":"levelo://app?vid=867458d9-c09f-4165-b1af-e2013b3a197e","ios":"levelo://app?vid=867458d9-c09f-4165-b1af-e2013b3a197e"},"vehicle_type_id":"4","last_reported":1770477247,"current_range_meters":11200,"station_id":"ce4bhg12rcd13ifvqf60","pricing_plan_id":"cebpf4jnsgd1na2vs0mg"},{"bike_id":"a5fe7b14-3ced-4d6c-aab3-f34baaf11509","system_id":"levelo_inurba_marseille","lat":43.29869,"lon":5.38917,"is_reserved":false,"is_disabled":true,"rental_uris":{"android":"levelo://app?vid=a5fe7b14-3ced-4d6c-aab3-f34baaf11509","ios":"levelo://app?vid=a5fe7b14-3ced-4d6c-aab3-f34baaf11509"},"vehicle_type_id":"4","last_reported":1770477247,"current_range_meters":11200,"station_id":"ce4bh392rcd13ifvqdl0","pricing_plan_id":"cebpf4jnsgd1na2vs0mg"},{"bike_id":"322fde3a-ea73-4383-970a-9cf554d66e43","system_id":"levelo_inurba_marseille","lat":43.29526,"lon":5.38548,"is_reserved":false,"is_disabled":false,"rental_uris":{"android":"levelo://app?vid=322fde3a-ea73-4383-970a-9cf554d66e43","ios":"levelo://app?vid=322fde3a-ea73-4383-970a-9cf554d66e43"},"vehicle_type_id":"4","last_reported":1770477247,"current_range_meters":11200,"station_id":"ce4bgih2rcd13ifvqba0","pricing_plan_id":"cebpf4jnsgd1na2vs0mg"},{"bike_id":"a74bccc9-dd46-4352-a6fe-4ea5bae4449b","system_id":"levelo_inurba_marseille","lat":43.2379,"lon":5.36631,"is_reserved":false,"is_disabled":false,"rental_uris":{"android":"levelo://app?vid=a74bccc9-dd46-4352-a6fe-4ea5bae4449b","ios":"levelo://app?vid=a74bccc9-dd46-4352-a6fe-4ea5bae4449b"},"vehicle_type_id":"4","last_reported":1770477247,"current_range_meters":11200,"station_id":"st_d3nk18o9ro0c73en2l3g","pricing_plan_id":"cebpf4jnsgd1na2vs0mg"},{"bike_id":"a8e8aa90-66c9-4830-8a68-7bf50e940df7","system_id":"levelo_inurba_marseille","lat":43.23191,"lon":5.39981,"is_reserved":false,"is_disabled":false,"rental_uris":{"android":"levelo://app?vid=a8e8aa90-66c9-4830-8a68-7bf50e940df7","ios":"levelo://app?vid=a8e8aa90-66c9-4830-8a68-7bf50e940df7"},"vehicle_type_id":"4","last_reported":1770477247,"current_range_meters":11200,"station_id":"ce4bhn12rcd13ifvqgqg","pricing_plan_id":"cebpf4jnsgd1na2vs0mg"},{"bike_id":"1ea60dc0-7a32-4323-9458-3ce0044e2a51","system_id":"levelo_inurba_marseille","lat":43.33542,"lon":5.37482,"is_reserved":false,"is_disabled":false,"rental_uris":{"android":"levelo://app?vid=1ea60dc0-7a32-4323-9458-3ce0044e2a51","ios":"levelo://app?vid=1ea60dc0-7a32-4323-9458-3ce0044e2a51"},"vehicle_type_id":"4","last_reported":1770477247,"current_range_meters":11200,"station_id":"st_d46tts09ee8s73dlu43g","pricing_plan_id":"cebpf4jnsgd1na2vs0mg"},{"bike_id":"dd24189e-0ca5-42b2-a25c-59b99b80cd71","system_id":"levelo_inurba_marseille","lat":43.239633,"lon":5.366404,"is_reserved":false,"is_disabled":false,"rental_uris":{"android":"levelo://app?vid=dd24189e-0ca5-42b2-a25c-59b99b80cd71","ios":"levelo://app?vid=dd24189e-0ca5-42b2-a25c-59b99b80cd71"},"vehicle_type_id":"4","last_reported":1770477247,"current_range_meters":11200,"station_id":"ce4bhi12rcd13ifvqfp0","pricing_plan_id":"cebpf4jnsgd1na2vs0mg"},{"bike_id":"a0184d3f-78f1-4268-a6cf-5f856d8d5b3e","system_id":"levelo_inurba_marseille","lat":43.28269,"lon":5.35067,"is_reserved":false,"is_disabled":false,"rental_uris":{"android":"levelo://app?vid=a0184d3f-78f1-4268-a6cf-5f856d8d5b3e","ios":"levelo://app?vid=a0184d3f-78f1-4268-a6cf-5f856d8d5b3e"},"vehicle_type_id":"4","last_reported":1770477247,"current_range_meters":11600,"station_id":"ce4bhbp2rcd13ifvqerg","pricing_plan_id":"cebpf4jnsgd1na2vs0mg"},{"bike_id":"29eb65a8-3f92-46b3-ad80-3de9980af042","system_id":"levelo_inurba_marseille","lat":43.29529,"lon":5.39046,"is_reserved":false,"is_disabled":false,"rental_uris":{"android":"levelo://app?vid=29eb65a8-3f92-46b3-ad80-3de9980af042","ios":"levelo://app?vid=29eb65a8-3f92-46b3-ad80-3de9980af042"},"vehicle_type_id":"4","last_reported":1770477247,"current_range_meters":11600,"station_id":"","pricing_plan_id":"cebpf4jnsgd1na2vs0mg"},{"bike_id":"18193969-f4a0-4413-8fe1-fadaf0e35a4a","system_id":"levelo_inurba_marseille","lat":43.3354,"lon":5.37474,"is_reserved":false,"is_disabled":false,"rental_uris":{"android":"levelo://app?vid=18193969-f4a0-4413-8fe1-fadaf0e35a4a","ios":"levelo://app?vid=18193969-f4a0-4413-8fe1-fadaf0e35a4a"},"vehicle_type_id":"4","last_reported":1770477247,"current_range_meters":11600,"station_id":"st_d46tts09ee8s73dlu43g","pricing_plan_id":"cebpf4jnsgd1na2vs0mg"},{"bike_id":"b327d0f9-e910-4cd3-a345-f7ea449db020","system_id":"levelo_inurba_marseille","lat":43.24397,"lon":5.37065,"is_reserved":false,"is_disabled":false,"rental_uris":{"android":"levelo://app?vid=b327d0f9-e910-4cd3-a345-f7ea449db020","ios":"levelo://app?vid=b327d0f9-e910-4cd3-a345-f7ea449db020"},"vehicle_type_id":"4","last_reported":1770477247,"current_range_meters":11600,"station_id":"ce4bhhh2rcd13ifvqfk0","pricing_plan_id":"cebpf4jnsgd1na2vs0mg"},{"bike_id":"77043e35-db7d-4079-8073-27be85cbdd81","system_id":"levelo_inurba_marseille","lat":43.29042,"lon":5.3996,"is_reserved":false,"is_disabled":false,"rental_uris":{"android":"levelo://app?vid=77043e35-db7d-4079-8073-27be85cbdd81","ios":"levelo://app?vid=77043e35-db7d-4079-8073-27be85cbdd81"},"vehicle_type_id":"4","last_reported":1770477247,"current_range_meters":11600,"station_id":"ce4bh392rcd13ifvqdm0","pricing_plan_id":"cebpf4jnsgd1na2vs0mg"},{"bike_id":"a167c838-8e55-4aef-ad2e-a2050622813b","system_id":"levelo_inurba_marseille","lat":43.30149,"lon":5.38087,"is_reserved":false,"is_disabled":false,"rental_uris":{"android":"levelo://app?vid=a167c838-8e55-4aef-ad2e-a2050622813b","ios":"levelo://app?vid=a167c838-8e55-4aef-ad2e-a2050622813b"},"vehicle_type_id":"4","last_reported":1770477247,"current_range_meters":11600,"station_id":"ce4bgjp2rcd13ifvqbh0","pricing_plan_id":"cebpf4jnsgd1na2vs0mg"},{"bike_id":"3815fdf0-2ad4-4743-8c67-df782fd4761c","system_id":"levelo_inurba_marseille","lat":43.28675,"lon":5.38641,"is_reserved":false,"is_disabled":false,"rental_uris":{"android":"levelo://app?vid=3815fdf0-2ad4-4743-8c67-df782fd4761c","ios":"levelo://app?vid=3815fdf0-2ad4-4743-8c67-df782fd4761c"},"vehicle_type_id":"4","last_reported":1770477247,"current_range_meters":11600,"station_id":"ce4bh492rcd13ifvqdug","pricing_plan_id":"cebpf4jnsgd1na2vs0mg"},{"bike_id":"7e432d56-4167-484a-a6d0-1b8a4f18fe1c","system_id":"levelo_inurba_marseille","lat":43.22932,"lon":5.35374,"is_reserved":false,"is_disabled":false,"rental_uris":{"android":"levelo://app?vid=7e432d56-4167-484a-a6d0-1b8a4f18fe1c","ios":"levelo://app?vid=7e432d56-4167-484a-a6d0-1b8a4f18fe1c"},"vehicle_type_id":"4","last_reported":1770477247,"current_range_meters":11600,"station_id":"cpo3532slgdg3j2ikp40","pricing_plan_id":"cebpf4jnsgd1na2vs0mg"},{"bike_id":"64678126-6a78-46f3-b2dd-28e8e5ef9c36","system_id":"levelo_inurba_marseille","lat":43.323481,"lon":5.367393,"is_reserved":false,"is_disabled":false,"rental_uris":{"android":"levelo://app?vid=64678126-6a78-46f3-b2dd-28e8e5ef9c36","ios":"levelo://app?vid=64678126-6a78-46f3-b2dd-28e8e5ef9c36"},"vehicle_type_id":"4","last_reported":1770477247,"current_range_meters":11600,"station_id":"ce4bhsh2rcd13ifvqi2g","pricing_plan_id":"cebpf4jnsgd1na2vs0mg"},{"bike_id":"0e4d463a-acd0-423e-be4c-0d61b31d747e","system_id":"levelo_inurba_marseille","lat":43.29727,"lon":5.37681,"is_reserved":false,"is_disabled":false,"rental_uris":{"android":"levelo://app?vid=0e4d463a-acd0-423e-be4c-0d61b31d747e","ios":"levelo://app?vid=0e4d463a-acd0-423e-be4c-0d61b31d747e"},"vehicle_type_id":"4","last_reported":1770477247,"current_range_meters":11600,"station_id":"ce4bgkh2rcd13ifvqbl0","pricing_plan_id":"cebpf4jnsgd1na2vs0mg"},{"bike_id":"0d8030ff-f154-4dc2-9c11-f8844d422bb7","system_id":"levelo_inurba_marseille","lat":43.26051,"lon":5.37524,"is_reserved":false,"is_disabled":false,"rental_uris":{"android":"levelo://app?vid=0d8030ff-f154-4dc2-9c11-f8844d422bb7","ios":"levelo://app?vid=0d8030ff-f154-4dc2-9c11-f8844d422bb7"},"vehicle_type_id":"4","last_reported":1770477247,"current_range_meters":11600,"station_id":"ce4bhgh2rcd13ifvqfa0","pricing_plan_id":"cebpf4jnsgd1na2vs0mg"},{"bike_id":"b313141c-4d72-47d8-8b81-91813fc26b95","system_id":"levelo_inurba_marseille","lat":43.31037,"lon":5.37162,"is_reserved":false,"is_disabled":false,"rental_uris":{"android":"levelo://app?vid=b313141c-4d72-47d8-8b81-91813fc26b95","ios":"levelo://app?vid=b313141c-4d72-47d8-8b81-91813fc26b95"},"vehicle_type_id":"4","last_reported":1770477247,"current_range_meters":11600,"station_id":"st_d4kl2rp97mjs73e7tdfg","pricing_plan_id":"cebpf4jnsgd1na2vs0mg"},{"bike_id":"54a9192b-0dd6-49f6-978b-5e71126fb367","system_id":"levelo_inurba_marseille","lat":43.26203,"lon":5.37916,"is_reserved":false,"is_disabled":false,"rental_uris":{"android":"levelo://app?vid=54a9192b-0dd6-49f6-978b-5e71126fb367","ios":"levelo://app?vid=54a9192b-0dd6-49f6-978b-5e71126fb367"},"vehicle_type_id":"4","last_reported":1770477247,"current_range_meters":12000,"station_id":"ce4bhjp2rcd13ifvqg90","pricing_plan_id":"cebpf4jnsgd1na2vs0mg"},{"bike_id":"155a788c-3210-4e6a-b211-01617931334a","system_id":"levelo_inurba_marseille","lat":43.337444,"lon":5.374475,"is_reserved":false,"is_disabled":false,"rental_uris":{"android":"levelo://app?vid=155a788c-3210-4e6a-b211-01617931334a","ios":"levelo://app?vid=155a788c-3210-4e6a-b211-01617931334a"},"vehicle_type_id":"4","last_reported":1770477247,"current_range_meters":12000,"station_id":"","pricing_plan_id":"cebpf4jnsgd1na2vs0mg"},{"bike_id":"b9e8234b-eb92-40e9-bc4e-64ca3593c924","system_id":"levelo_inurba_marseille","lat":43.286212,"lon":5.351062,"is_reserved":false,"is_disabled":false,"rental_uris":{"android":"levelo://app?vid=b9e8234b-eb92-40e9-bc4e-64ca3593c924","ios":"levelo://app?vid=b9e8234b-eb92-40e9-bc4e-64ca3593c924"},"vehicle_type_id":"4","last_reported":1770477247,"current_range_meters":12000,"station_id":"ce4bhch2rcd13ifvqeug","pricing_plan_id":"cebpf4jnsgd1na2vs0mg"},{"bike_id":"364ea28f-7e20-4ad8-9bf1-69b2e8dad65e","system_id":"levelo_inurba_marseille","lat":43.28613,"lon":5.44316,"is_reserved":false,"is_disabled":false,"rental_uris":{"android":"levelo://app?vid=364ea28f-7e20-4ad8-9bf1-69b2e8dad65e","ios":"levelo://app?vid=364ea28f-7e20-4ad8-9bf1-69b2e8dad65e"},"vehicle_type_id":"4","last_reported":1770477247,"current_range_meters":12000,"station_id":"","pricing_plan_id":"cebpf4jnsgd1na2vs0mg"},{"bike_id":"3366a6b0-d827-46c1-865f-7631e8da0348","system_id":"levelo_inurba_marseille","lat":43.30114,"lon":5.39856,"is_reserved":false,"is_disabled":false,"rental_uris":{"android":"levelo://app?vid=3366a6b0-d827-46c1-865f-7631e8da0348","ios":"levelo://app?vid=3366a6b0-d827-46c1-865f-7631e8da0348"},"vehicle_type_id":"4","last_reported":1770477247,"current_range_meters":12000,"station_id":"ce4bh0h2rcd13ifvqd40","pricing_plan_id":"cebpf4jnsgd1na2vs0mg"},{"bike_id":"ba360bd5-e10a-4a25-b096-fd2ca26b2551","system_id":"levelo_inurba_marseille","lat":43.29731,"lon":5.37668,"is_reserved":false,"is_disabled":false,"rental_uris":{"android":"levelo://app?vid=ba360bd5-e10a-4a25-b096-fd2ca26b2551","ios":"levelo://app?vid=ba360bd5-e10a-4a25-b096-fd2ca26b2551"},