{"last_updated":1702962446,"ttl":30,"version":"2.2","data":{"bikes":[{"bike_id":"c0b4e16b-ad84-46dc-8a7a-3d865cf621d0","system_id":"levelo_inurba_marseille","lat":43.313391,"lon":5.36706,"is_reserved":false,"is_disabled":false,"rental_uris":{"android":"levelo://app?vid=c0b4e16b-ad84-46dc-8a7a-3d865cf621d0","ios":"levelo://app?vid=c0b4e16b-ad84-46dc-8a7a-3d865cf621d0"},"vehicle_type_id":"4","last_reported":1702962446,"current_range_meters":23200,"station_id":"ce4bgr92rcd13ifvqc6g","pricing_plan_id":"free"},{"bike_id":"8c25dac9-e56a-4ed1-b2f9-ab12206cc5ab","system_id":"levelo_inurba_marseille","lat":43.314811,"lon":5.373103,"is_reserved":false,"is_disabled":false,"rental_uris":{"android":"levelo://app?vid=8c25dac9-e56a-4ed1-b2f9-ab12206cc5ab","ios":"levelo://app?vid=8c25dac9-e56a-4ed1-b2f9-ab12206cc5ab"},"vehicle_type_id":"4","last_reported":1702962446,"current_range_meters":26800,"station_id":"ce4bgt12rcd13ifvqcd0","pricing_plan_id":"free"},{"bike_id":"505a9e4f-5d39-4c95-b6f4-c0e8386792fe","system_id":"levelo_inurba_marseille","lat":43.314811,"lon":5.373103,"is_reserved":false,"is_disabled":false,"rental_uris":{"android":"levelo://app?vid=505a9e4f-5d39-4c95-b6f4-c0e8386792fe","ios":"levelo://app?vid=505a9e4f-5d39-4c95-b6f4-c0e8386792fe"},"vehicle_type_id":"4","last_reported":1702962446,"current_range_meters":13600,"station_id":"ce4bgt12rcd13ifvqcd0","pricing_plan_id":"free"},{"bike_id":"b8e6fe9c-f0b8-40de-9546-9240e999823e","system_id":"levelo_inurba_marseille","lat":43.309039,"lon":5.371797,"is_reserved":false,"is_disabled":false,"rental_uris":{"android":"levelo://app?vid=b8e6fe9c-f0b8-40de-9546-9240e999823e","ios":"levelo://app?vid=b8e6fe9c-f0b8-40de-9546-9240e999823e"},"vehicle_type_id":"4","last_reported":1702962446,"current_range_meters":31600,"station_id":"ce4bguh2rcd13ifvqckg","pricing_plan_id":"free"},{"bike_id":"877e5899-4132-479d-8c93-7a53d0a95cd2","system_id":"levelo_inurba_marseille","lat":43.308909,"lon":5.371904,"is_reserved":false,"is_disabled":false,"rental_uris":{"android":"levelo://app?vid=877e5899-4132-479d-8c93-7a53d0a95cd2","ios":"levelo://app?vid=877e5899-4132-479d-8c93-7a53d0a95cd2"},"vehicle_type_id":"4","last_reported":1702962446,"current_range_meters":22800,"station_id":"ce4bguh2rcd13ifvqckg","pricing_plan_id":"free"},{"bike_id":"25226383-1d2d-4778-956d-505ed263d7e2","system_id":"levelo_inurba_marseille","lat":43.308945,"lon":5.371965,"is_reserved":false,"is_disabled":false,"rental_uris":{"android":"levelo://app?vid=25226383-1d2d-4778-956d-505ed263d7e2","ios":"levelo://app?vid=25226383-1d2d-4778-956d-505ed263d7e2"},"vehicle_type_id":"4","last_reported":1702962446,"current_range_meters":20000,"station_id":"ce4bguh2rcd13ifvqckg","pricing_plan_id":"free"},{"bike_id":"e2b3fe33-d19d-4b8c-96f9-083a84527f96","system_id":"levelo_inurba_marseille","lat":43.308877,"lon":5.371873,"is_reserved":false,"is_disabled":false,"rental_uris":{"android":"levelo://app?vid=e2b3fe33-d19d-4b8c-96f9-083a84527f96","ios":"levelo://app?vid=e2b3fe33-d19d-4b8c-96f9-083a84527f96"},"vehicle_type_id":"4","last_reported":1702962446,"current_range_meters":21600,"station_id":"ce4bguh2rcd13ifvqckg","pricing_plan_id":"free"},{"bike_id":"6eb42c3e-5a0f-4e54-8995-8ac87bb3bd89","system_id":"levelo_inurba_marseille","lat":43.309039,"lon":5.371797,"is_reserved":false,"is_disabled":false,"rental_uris":{"android":"levelo://app?vid=6eb42c3e-5a0f-4e54-8995-8ac87bb3bd89","ios":"levelo://app?vid=6eb42c3e-5a0f-4e54-8995-8ac87bb3bd89"},"vehicle_type_id":"4","last_reported":1702962446,"current_range_meters":28000,"station_id":"ce4bguh2rcd13ifvqckg","pricing_plan_id":"free"},{"bike_id":"909123a8-c497-4043-b5a3-50e3758d27d3","system_id":"levelo_inurba_marseille","lat":43.309039,"lon":5.371797,"is_reserved":false,"is_disabled":false,"rental_uris":{"android":"levelo://app?vid=909123a8-c497-4043-b5a3-50e3758d27d3","ios":"levelo://app?vid=909123a8-c497-4043-b5a3-50e3758d27d3"},"vehicle_type_id":"4","last_reported":1702962446,"current_range_meters":27200,"station_id":"ce4bguh2rcd13ifvqckg","pricing_plan_id":"free"},{"bike_id":"e00b404b-6938-4a20-8a4a-0d7def0571ad","system_id":"levelo_inurba_marseille","lat":43.305382,"lon":5.365389,"is_reserved":false,"is_disabled":false,"rental_uris":{"android":"levelo://app?vid=e00b404b-6938-4a20-8a4a-0d7def0571ad","ios":"levelo://app?vid=e00b404b-6938-4a20-8a4a-0d7def0571ad"},"vehicle_type_id":"4","last_reported":1702962446,"current_range_meters":5200,"station_id":"","pricing_plan_id":"free"},{"bike_id":"65b47587-eb09-42fd-bfe1-63a9e6f48657","system_id":"levelo_inurba_marseille","lat":43.305706,"lon":5.365654,"is_reserved":false,"is_disabled":false,"rental_uris":{"android":"levelo://app?vid=65b47587-eb09-42fd-bfe1-63a9e6f48657","ios":"levelo://app?vid=65b47587-eb09-42fd-bfe1-63a9e6f48657"},"vehicle_type_id":"4","last_reported":1702962446,"current_range_meters":28400,"station_id":"ce4bgs12rcd13ifvqcag","pricing_plan_id":"free"},{"bike_id":"c627989f-f5c5-4d4f-aaa0-ca3e2e06e83c","system_id":"levelo_inurba_marseille","lat":43.311125,"lon":5.377624,"is_reserved":false,"is_disabled":false,"rental_uris":{"android":"levelo://app?vid=c627989f-f5c5-4d4f-aaa0-ca3e2e06e83c","ios":"levelo://app?vid=c627989f-f5c5-4d4f-aaa0-ca3e2e06e83c"},"vehicle_type_id":"4","last_reported":1702962446,"current_range_meters":28800,"station_id":"ce4bgt92rcd13ifvqcg0","pricing_plan_id":"free"},{"bike_id":"32088b41-79d6-4497-afcd-d6481544bf72","system_id":"levelo_inurba_marseille","lat":43.311125,"lon":5.377624,"is_reserved":false,"is_disabled":false,"rental_uris":{"android":"levelo://app?vid=32088b41-79d6-4497-afcd-d6481544bf72","ios":"levelo://app?vid=32088b41-79d6-4497-afcd-d6481544bf72"},"vehicle_type_id":"4","last_reported":1702962446,"current_range_meters":29600,"station_id":"ce4bgt92rcd13ifvqcg0","pricing_plan_id":"free"},{"bike_id":"34abe5c5-eb37-48d6-890f-82e0fb18ff6e","system_id":"levelo_inurba_marseille","lat":43.311125,"lon":5.377624,"is_reserved":false,"is_disabled":false,"rental_uris":{"android":"levelo://app?vid=34abe5c5-eb37-48d6-890f-82e0fb18ff6e","ios":"levelo://app?vid=34abe5c5-eb37-48d6-890f-82e0fb18ff6e"},"vehicle_type_id":"4","last_reported":1702962446,"current_range_meters":26400,"station_id":"ce4bgt92rcd13ifvqcg0","pricing_plan_id":"free"},{"bike_id":"35de6f12-2138-4af6-8ef8-11eb319cfde2","system_id":"levelo_inurba_marseille","lat":43.307945,"lon":5.376487,"is_reserved":false,"is_disabled":false,"rental_uris":{"android":"levelo://app?vid=35de6f12-2138-4af6-8ef8-11eb319cfde2","ios":"levelo://app?vid=35de6f12-2138-4af6-8ef8-11eb319cfde2"},"vehicle_type_id":"4","last_reported":1702962446,"current_range_meters":31200,"station_id":"ce4bgv92rcd13ifvqcq0","pricing_plan_id":"free"},{"bike_id":"343cb9b8-10c6-4a0b-ad9f-4aca823b37f6","system_id":"levelo_inurba_marseille","lat":43.30783,"lon":5.37657,"is_reserved":false,"is_disabled":false,"rental_uris":{"android":"levelo://app?vid=343cb9b8-10c6-4a0b-ad9f-4aca823b37f6","ios":"levelo://app?vid=343cb9b8-10c6-4a0b-ad9f-4aca823b37f6"},"vehicle_type_id":"4","last_reported":1702962446,"current_range_meters":24800,"station_id":"ce4bgv92rcd13ifvqcq0","pricing_plan_id":"free"},{"bike_id":"97f9471b-099f-4a0a-b13e-386dc37addbd","system_id":"levelo_inurba_marseille","lat":43.315293,"lon":5.380349,"is_reserved":false,"is_disabled":false,"rental_uris":{"android":"levelo://app?vid=97f9471b-099f-4a0a-b13e-386dc37addbd","ios":"levelo://app?vid=97f9471b-099f-4a0a-b13e-386dc37addbd"},"vehicle_type_id":"4","last_reported":1702962446,"current_range_meters":18800,"station_id":"ce4bhsp2rcd13ifvqi50","pricing_plan_id":"free"},{"bike_id":"b2827851-3b7c-4bd0-bdbd-141e8c05584f","system_id":"levelo_inurba_marseille","lat":43.315293,"lon":5.380349,"is_reserved":false,"is_disabled":false,"rental_uris":{"android":"levelo://app?vid=b2827851-3b7c-4bd0-bdbd-141e8c05584f","ios":"levelo://app?vid=b2827851-3b7c-4bd0-bdbd-141e8c05584f"},"vehicle_type_id":"4","last_reported":1702962446,"current_range_meters":14000,"station_id":"ce4bhsp2rcd13ifvqi50","pricing_plan_id":"free"},{"bike_id":"61625ef4-cf7f-4727-a780-141b73cde05b","system_id":"levelo_inurba_marseille","lat":43.301939,"lon":5.366286,"is_reserved":false,"is_disabled":false,"rental_uris":{"android":"levelo://app?vid=61625ef4-cf7f-4727-a780-141b73cde05b","ios":"levelo://app?vid=61625ef4-cf7f-4727-a780-141b73cde05b"},"vehicle_type_id":"4","last_reported":1702962446,"current_range_meters":26800,"station_id":"ce4bgrh2rcd13ifvqc8g","pricing_plan_id":"free"},{"bike_id":"0cb8bb51-f33d-42cf-9cb6-e34b6a7315f6","system_id":"levelo_inurba_marseille","lat":43.308029,"lon":5.381536,"is_reserved":false,"is_disabled":false,"rental_uris":{"android":"levelo://app?vid=0cb8bb51-f33d-42cf-9cb6-e34b6a7315f6","ios":"levelo://app?vid=0cb8bb51-f33d-42cf-9cb6-e34b6a7315f6"},"vehicle_type_id":"4","last_reported":1702962446,"current_range_meters":30400,"station_id":"ce4bgt12rcd13ifvqce0","pricing_plan_id":"free"},{"bike_id":"97a0e8da-913a-4e61-99fd-9b347e4c9fbf","system_id":"levelo_inurba_marseille","lat":43.304606,"lon":5.379026,"is_reserved":false,"is_disabled":false,"rental_uris":{"android":"levelo://app?vid=97a0e8da-913a-4e61-99fd-9b347e4c9fbf","ios":"levelo://app?vid=97a0e8da-913a-4e61-99fd-9b347e4c9fbf"},"vehicle_type_id":"4","last_reported":1702962446,"current_range_meters":26400,"station_id":"ce4bgup2rcd13ifvqcn0","pricing_plan_id":"free"},{"bike_id":"48935852-203d-485b-96ef-1edbe0670dcb","system_id":"levelo_inurba_marseille","lat":43.30463,"lon":5.37899,"is_reserved":false,"is_disabled":false,"rental_uris":{"android":"levelo://app?vid=48935852-203d-485b-96ef-1edbe0670dcb","ios":"levelo://app?vid=48935852-203d-485b-96ef-1edbe0670dcb"},"vehicle_type_id":"4","last_reported":1702962446,"current_range_meters":29600,"station_id":"ce4bgup2rcd13ifvqcn0","pricing_plan_id":"free"},{"bike_id":"7033e122-196d-4bd7-bb12-e73717fee80f","system_id":"levelo_inurba_marseille","lat":43.30465,"lon":5.37902,"is_reserved":false,"is_disabled":false,"rental_uris":{"android":"levelo://app?vid=7033e122-196d-4bd7-bb12-e73717fee80f","ios":"levelo://app?vid=7033e122-196d-4bd7-bb12-e73717fee80f"},"vehicle_type_id":"4","last_reported":1702962446,"current_range_meters":13200,"station_id":"ce4bgup2rcd13ifvqcn0","pricing_plan_id":"free"},{"bike_id":"c7ed9b37-fecb-427b-91d7-b888d06415b1","system_id":"levelo_inurba_marseille","lat":43.304606,"lon":5.379026,"is_reserved":false,"is_disabled":false,"rental_uris":{"android":"levelo://app?vid=c7ed9b37-fecb-427b-91d7-b888d06415b1","ios":"levelo://app?vid=c7ed9b37-fecb-427b-91d7-b888d06415b1"},"vehicle_type_id":"4","last_reported":1702962446,"current_range_meters":24400,"station_id":"ce4bgup2rcd13ifvqcn0","pricing_plan_id":"free"},{"bike_id":"c6cb9eb7-49d3-4036-ba5d-ba9f1a001a60","system_id":"levelo_inurba_marseille","lat":43.304606,"lon":5.379026,"is_reserved":false,"is_disabled":false,"rental_uris":{"android":"levelo://app?vid=c6cb9eb7-49d3-4036-ba5d-ba9f1a001a60","ios":"levelo://app?vid=c6cb9eb7-49d3-4036-ba5d-ba9f1a001a60"},"vehicle_type_id":"4","last_reported":1702962446,"current_range_meters":29600,"station_id":"ce4bgup2rcd13ifvqcn0","pricing_plan_id":"free"},{"bike_id":"9b77e5f6-f964-412d-8d4a-9813d1093ce5","system_id":"levelo_inurba_marseille","lat":43.304606,"lon":5.379026,"is_reserved":false,"is_disabled":false,"rental_uris":{"android":"levelo://app?vid=9b77e5f6-f964-412d-8d4a-9813d1093ce5","ios":"levelo://app?vid=9b77e5f6-f964-412d-8d4a-9813d1093ce5"},"vehicle_type_id":"4","last_reported":1702962446,"current_range_meters":29200,"station_id":"ce4bgup2rcd13ifvqcn0","pricing_plan_id":"free"},{"bike_id":"ab55a8e5-a5b3-4382-87e1-9a751e70e7cc","system_id":"levelo_inurba_marseille","lat":43.304606,"lon":5.379026,"is_reserved":false,"is_disabled":false,"rental_uris":{"android":"levelo://app?vid=ab55a8e5-a5b3-4382-87e1-9a751e70e7cc","ios":"levelo://app?vid=ab55a8e5-a5b3-4382-87e1-9a751e70e7cc"},"vehicle_type_id":"4","last_reported":1702962446,"current_range_meters":18800,"station_id":"ce4bgup2rcd13ifvqcn0","pricing_plan_id":"free"},{"bike_id":"c9b01ed3-70ce-4aef-9a91-022c40a4b053","system_id":"levelo_inurba_marseille","lat":43.304606,"lon":5.379026,"is_reserved":false,"is_disabled":false,"rental_uris":{"android":"levelo://app?vid=c9b01ed3-70ce-4aef-9a91-022c40a4b053","ios":"levelo://app?vid=c9b01ed3-70ce-4aef-9a91-022c40a4b053"},"vehicle_type_id":"4","last_reported":1702962446,"current_range_meters":24400,"station_id":"ce4bgup2rcd13ifvqcn0","pricing_plan_id":"free"},{"bike_id":"44d478ea-cf8f-4760-ae04-af0dddea91f3","system_id":"levelo_inurba_marseille","lat":43.304606,"lon":5.379026,"is_reserved":false,"is_disabled":false,"rental_uris":{"android":"levelo://app?vid=44d478ea-cf8f-4760-ae04-af0dddea91f3","ios":"levelo://app?vid=44d478ea-cf8f-4760-ae04-af0dddea91f3"},"vehicle_type_id":"4","last_reported":1702962446,"current_range_meters":28800,"station_id":"ce4bgup2rcd13ifvqcn0","pricing_plan_id":"free"},{"bike_id":"33f0b5e6-70ed-4e2e-a102-21e0d9571c2c","system_id":"levelo_inurba_marseille","lat":43.324771,"lon":5.36557,"is_reserved":false,"is_disabled":false,"rental_uris":{"android":"levelo://app?vid=33f0b5e6-70ed-4e2e-a102-21e0d9571c2c","ios":"levelo://app?vid=33f0b5e6-70ed-4e2e-a102-21e0d9571c2c"},"vehicle_type_id":"4","last_reported":1702962446,"current_range_meters":13600,"station_id":"ce4bhs12rcd13ifvqhvg","pricing_plan_id":"free"},{"bike_id":"832a7b67-9ab5-4f39-b00b-3e2a390ccb5c","system_id":"levelo_inurba_marseille","lat":43.313571,"lon":5.384829,"is_reserved":false,"is_disabled":false,"rental_uris":{"android":"levelo://app?vid=832a7b67-9ab5-4f39-b00b-3e2a390ccb5c","ios":"levelo://app?vid=832a7b67-9ab5-4f39-b00b-3e2a390ccb5c"},"vehicle_type_id":"4","last_reported":1702962446,"current_range_meters":25600,"station_id":"ce4bgt92rcd13ifvqcf0","pricing_plan_id":"free"},{"bike_id":"6f0197ed-0968-4011-b7b2-ded0cbb9a81d","system_id":"levelo_inurba_marseille","lat":43.313616,"lon":5.384949,"is_reserved":false,"is_disabled":false,"rental_uris":{"android":"levelo://app?vid=6f0197ed-0968-4011-b7b2-ded0cbb9a81d","ios":"levelo://app?vid=6f0197ed-0968-4011-b7b2-ded0cbb9a81d"},"vehicle_type_id":"4","last_reported":1702962446,"current_range_meters":26000,"station_id":"ce4bgt92rcd13ifvqcf0","pricing_plan_id":"free"},{"bike_id":"cb1ab7b0-454f-4e79-aeaa-aa09727f169d","system_id":"levelo_inurba_marseille","lat":43.313571,"lon":5.384829,"is_reserved":false,"is_disabled":false,"rental_uris":{"android":"levelo://app?vid=cb1ab7b0-454f-4e79-aeaa-aa09727f169d","ios":"levelo://app?vid=cb1ab7b0-454f-4e79-aeaa-aa09727f169d"},"vehicle_type_id":"4","last_reported":1702962446,"current_range_meters":27600,"station_id":"ce4bgt92rcd13ifvqcf0","pricing_plan_id":"free"},{"bike_id":"ee192a0e-3e92-4387-9f2c-ff968d81ebdf","system_id":"levelo_inurba_marseille","lat":43.313619,"lon":5.384968,"is_reserved":false,"is_disabled":false,"rental_uris":{"android":"levelo://app?vid=ee192a0e-3e92-4387-9f2c-ff968d81ebdf","ios":"levelo://app?vid=ee192a0e-3e92-4387-9f2c-ff968d81ebdf"},"vehicle_type_id":"4","last_reported":1702962446,"current_range_meters":30800,"station_id":"ce4bgt92rcd13ifvqcf0","pricing_plan_id":"free"},{"bike_id":"8b408c7a-8f2a-4a67-99a5-726315c2a895","system_id":"levelo_inurba_marseille","lat":43.313622,"lon":5.384983,"is_reserved":false,"is_disabled":false,"rental_uris":{"android":"levelo://app?vid=8b408c7a-8f2a-4a67-99a5-726315c2a895","ios":"levelo://app?vid=8b408c7a-8f2a-4a67-99a5-726315c2a895"},"vehicle_type_id":"4","last_reported":1702962446,"current_range_meters":30000,"station_id":"ce4bgt92rcd13ifvqcf0","pricing_plan_id":"free"},{"bike_id":"0bc528e1-dfe0-4ad5-8619-6ac9be9629d9","system_id":"levelo_inurba_marseille","lat":43.31361,"lon":5.38501,"is_reserved":false,"is_disabled":false,"rental_uris":{"android":"levelo://app?vid=0bc528e1-dfe0-4ad5-8619-6ac9be9629d9","ios":"levelo://app?vid=0bc528e1-dfe0-4ad5-8619-6ac9be9629d9"},"vehicle_type_id":"4","last_reported":1702962446,"current_range_meters":26400,"station_id":"ce4bgt92rcd13ifvqcf0","pricing_plan_id":"free"},{"bike_id":"f84afe6a-fddf-4d2b-93cb-fb06c85e46db","system_id":"levelo_inurba_marseille","lat":43.31355,"lon":5.38504,"is_reserved":false,"is_disabled":false,"rental_uris":{"android":"levelo://app?vid=f84afe6a-fddf-4d2b-93cb-fb06c85e46db","ios":"levelo://app?vid=f84afe6a-fddf-4d2b-93cb-fb06c85e46db"},"vehicle_type_id":"4","last_reported":1702962446,"current_range_meters":27600,"station_id":"ce4bgt92rcd13ifvqcf0","pricing_plan_id":"free"},{"bike_id":"7ec0740f-cf62-4cc4-bc5d-d6058314ad41","system_id":"levelo_inurba_marseille","lat":43.313577,"lon":5.385043,"is_reserved":false,"is_disabled":false,"rental_uris":{"android":"levelo://app?vid=7ec0740f-cf62-4cc4-bc5d-d6058314ad41","ios":"levelo://app?vid=7ec0740f-cf62-4cc4-bc5d-d6058314ad41"},"vehicle_type_id":"4","last_reported":1702962446,"current_range_meters":29200,"station_id":"ce4bgt92rcd13ifvqcf0","pricing_plan_id":"free"},{"bike_id":"5c8217dc-1dfe-422e-a2c4-36694681eeba","system_id":"levelo_inurba_marseille","lat":43.29937,"lon":5.36545,"is_reserved":false,"is_disabled":false,"rental_uris":{"android":"levelo://app?vid=5c8217dc-1dfe-422e-a2c4-36694681eeba","ios":"levelo://app?vid=5c8217dc-1dfe-422e-a2c4-36694681eeba"},"vehicle_type_id":"4","last_reported":1702962446,"current_range_meters":29600,"station_id":"ce4bgm92rcd13ifvqbr0","pricing_plan_id":"free"},{"bike_id":"5127c3a2-23ba-48d0-9ddd-1a3d912513a4","system_id":"levelo_inurba_marseille","lat":43.299336,"lon":5.365406,"is_reserved":false,"is_disabled":false,"rental_uris":{"android":"levelo://app?vid=5127c3a2-23ba-48d0-9ddd-1a3d912513a4","ios":"levelo://app?vid=5127c3a2-23ba-48d0-9ddd-1a3d912513a4"},"vehicle_type_id":"4","last_reported":1702962446,"current_range_meters":31200,"station_id":"ce4bgm92rcd13ifvqbr0","pricing_plan_id":"free"},{"bike_id":"5f8ba925-52f6-4863-9759-4f06e9b18c6a","system_id":"levelo_inurba_marseille","lat":43.299222,"lon":5.365554,"is_reserved":false,"is_disabled":false,"rental_uris":{"android":"levelo://app?vid=5f8ba925-52f6-4863-9759-4f06e9b18c6a","ios":"levelo://app?vid=5f8ba925-52f6-4863-9759-4f06e9b18c6a"},"vehicle_type_id":"4","last_reported":1702962446,"current_range_meters":26800,"station_id":"ce4bgm92rcd13ifvqbr0","pricing_plan_id":"free"},{"bike_id":"e105b43d-c622-40c2-9856-de1c915bdc4f","system_id":"levelo_inurba_marseille","lat":43.299724,"lon":5.371829,"is_reserved":false,"is_disabled":false,"rental_uris":{"android":"levelo://app?vid=e105b43d-c622-40c2-9856-de1c915bdc4f","ios":"levelo://app?vid=e105b43d-c622-40c2-9856-de1c915bdc4f"},"vehicle_type_id":"4","last_reported":1702962446,"current_range_meters":27600,"station_id":"ce4bgr92rcd13ifvqc7g","pricing_plan_id":"free"},{"bike_id":"ca0834b0-077b-48e5-8d61-d563b65c06e3","system_id":"levelo_inurba_marseille","lat":43.305434,"lon":5.384359,"is_reserved":false,"is_disabled":false,"rental_uris":{"android":"levelo://app?vid=ca0834b0-077b-48e5-8d61-d563b65c06e3","ios":"levelo://app?vid=ca0834b0-077b-48e5-8d61-d563b65c06e3"},"vehicle_type_id":"4","last_reported":1702962446,"current_range_meters":4400,"station_id":"ce4bgg92rcd13ifvqb30","pricing_plan_id":"free"},{"bike_id":"fc1df640-5a78-420e-9a53-25e9287ef58a","system_id":"levelo_inurba_marseille","lat":43.311722,"lon":5.387247,"is_reserved":false,"is_disabled":false,"rental_uris":{"android":"levelo://app?vid=fc1df640-5a78-420e-9a53-25e9287ef58a","ios":"levelo://app?vid=fc1df640-5a78-420e-9a53-25e9287ef58a"},"vehicle_type_id":"4","last_reported":1702962446,"current_range_meters":28000,"station_id":"ce4bgv12rcd13ifvqcp0","pricing_plan_id":"free"},{"bike_id":"51d8d5ea-388b-4106-b7b6-0e44cf3173dc","system_id":"levelo_inurba_marseille","lat":43.311734,"lon":5.387113,"is_reserved":false,"is_disabled":false,"rental_uris":{"android":"levelo://app?vid=51d8d5ea-388b-4106-b7b6-0e44cf3173dc","ios":"levelo://app?vid=51d8d5ea-388b-4106-b7b6-0e44cf3173dc"},"vehicle_type_id":"4","last_reported":1702962446,"current_range_meters":30800,"station_id":"ce4bgv12rcd13ifvqcp0","pricing_plan_id":"free"},{"bike_id":"4d8ce9a9-10cd-4cd4-bc75-fa7732a2e727","system_id":"levelo_inurba_marseille","lat":43.311722,"lon":5.387247,"is_reserved":false,"is_disabled":false,"rental_uris":{"android":"levelo://app?vid=4d8ce9a9-10cd-4cd4-bc75-fa7732a2e727","ios":"levelo://app?vid=4d8ce9a9-10cd-4cd4-bc75-fa7732a2e727"},"vehicle_type_id":"4","last_reported":1702962446,"current_range_meters":18800,"station_id":"ce4bgv12rcd13ifvqcp0","pricing_plan_id":"free"},{"bike_id":"81a09b1c-df1d-4447-8cc4-cc6695b8c88c","system_id":"levelo_inurba_marseille","lat":43.311718,"lon":5.387131,"is_reserved":false,"is_disabled":false,"rental_uris":{"android":"levelo://app?vid=81a09b1c-df1d-4447-8cc4-cc6695b8c88c","ios":"levelo://app?vid=81a09b1c-df1d-4447-8cc4-cc6695b8c88c"},"vehicle_type_id":"4","last_reported":1702962446,"current_range_meters":14800,"station_id":"ce4bgv12rcd13ifvqcp0","pricing_plan_id":"free"},{"bike_id":"290fea32-ad6b-4821-8cc4-19b4d45bc44c","system_id":"levelo_inurba_marseille","lat":43.311722,"lon":5.387247,"is_reserved":false,"is_disabled":false,"rental_uris":{"android":"levelo://app?vid=290fea32-ad6b-4821-8cc4-19b4d45bc44c","ios":"levelo://app?vid=290fea32-ad6b-4821-8cc4-19b4d45bc44c"},"vehicle_type_id":"4","last_reported":1702962446,"current_range_meters":31600,"station_id":"ce4bgv12rcd13ifvqcp0","pricing_plan_id":"free"},{"bike_id":"ee5c0e2c-4f04-481f-838e-b1ede6632684","system_id":"levelo_inurba_marseille","lat":43.297804,"lon":5.371123,"is_reserved":false,"is_disabled":false,"rental_uris":{"android":"levelo://app?vid=ee5c0e2c-4f04-481f-838e-b1ede6632684","ios":"levelo://app?vid=ee5c0e2c-4f04-481f-838e-b1ede6632684"},"vehicle_type_id":"4","last_reported":1702962446,"current_range_meters":28800,"station_id":"ce4bgop2rcd13ifvqc1g","pricing_plan_id":"free"},{"bike_id":"5f8b1ba2-ace0-46c5-890c-8c0907d85f73","system_id":"levelo_inurba_marseille","lat":43.322872,"lon":5.382756,"is_reserved":false,"is_disabled":false,"rental_uris":{"android":"levelo://app?vid=5f8b1ba2-ace0-46c5-890c-8c0907d85f73","ios":"levelo://app?vid=5f8b1ba2-ace0-46c5-890c-8c0907d85f73"},"vehicle_type_id":"4","last_reported":1702962446,"current_range_meters":30000,"station_id":"ce4bhr12rcd13ifvqhqg","pricing_plan_id":"free"},{"bike_id":"d83fbae2-5f8f-42f4-8ccf-5b712fffb999","system_id":"levelo_inurba_marseille","lat":43.328371,"lon":5.366909,"is_reserved":false,"is_disabled":false,"rental_uris":{"android":"levelo://app?vid=d83fbae2-5f8f-42f4-8ccf-5b712fffb999","ios":"levelo://app?vid=d83fbae2-5f8f-42f4-8ccf-5b712fffb999"},"vehicle_type_id":"4","last_reported":1702962446,"current_range_meters":28400,"station_id":"ce4bhs92rcd13ifvqi0g","pricing_plan_id":"free"},{"bike_id":"532dcc8e-8d4b-4446-95bd-0bd90acb659b","system_id":"levelo_inurba_marseille","lat":43.328371,"lon":5.366909,"is_reserved":false,"is_disabled":false,"rental_uris":{"android":"levelo://app?vid=532dcc8e-8d4b-4446-95bd-0bd90acb659b","ios":"levelo://app?vid=532dcc8e-8d4b-4446-95bd-0bd90acb659b"},"vehicle_type_id":"4","last_reported":1702962446,"current_range_meters":30800,"station_id":"ce4bhs92rcd13ifvqi0g","pricing_plan_id":"free"},{"bike_id":"37da06f2-9f0e-419d-bfcd-7a5587668db6","system_id":"levelo_inurba_marseille","lat":43.297163,"lon":5.365866,"is_reserved":false,"is_disabled":false,"rental_uris":{"android":"levelo://app?vid=37da06f2-9f0e-419d-bfcd-7a5587668db6","ios":"levelo://app?vid=37da06f2-9f0e-419d-bfcd-7a5587668db6"},"vehicle_type_id":"4","last_reported":1702962446,"current_range_meters":30400,"station_id":"ce4bgn12rcd13ifvqbt0","pricing_plan_id":"free"},{"bike_id":"4e437d14-2344-478c-a76e-9e0a7bd9e517","system_id":"levelo_inurba_marseille","lat":43.296921,"lon":5.376579,"is_reserved":false,"is_disabled":false,"rental_uris":{"android":"levelo://app?vid=4e437d14-2344-478c-a76e-9e0a7bd9e517","ios":"levelo://app?vid=4e437d14-2344-478c-a76e-9e0a7bd9e517"},"vehicle_type_id":"4","last_reported":1702962446,"current_range_meters":20000,"station_id":"ce4bgkh2rcd13ifvqbl0","pricing_plan_id":"free"},{"bike_id":"1a92faeb-9939-4722-8a2d-f8cab83323d5","system_id":"levelo_inurba_marseille","lat":43.299028,"lon":5.381509,"is_reserved":false,"is_disabled":false,"rental_uris":{"android":"levelo://app?vid=1a92faeb-9939-4722-8a2d-f8cab83323d5","ios":"levelo://app?vid=1a92faeb-9939-4722-8a2d-f8cab83323d5"},"vehicle_type_id":"4","last_reported":1702962446,"current_range_meters":30400,"station_id":"ce4bgj12rcd13ifvqbc0","pricing_plan_id":"free"},{"bike_id":"78ff23d8-d547-47d7-a30a-ba2163476720","system_id":"levelo_inurba_marseille","lat":43.299028,"lon":5.381509,"is_reserved":false,"is_disabled":false,"rental_uris":{"android":"levelo://app?vid=78ff23d8-d547-47d7-a30a-ba2163476720","ios":"levelo://app?vid=78ff23d8-d547-47d7-a30a-ba2163476720"},"vehicle_type_id":"4","last_reported":1702962446,"current_range_meters":29600,"station_id":"ce4bgj12rcd13ifvqbc0","pricing_plan_id":"free"},{"bike_id":"01963889-b9b7-44e5-8c86-9454ed3bae5f","system_id":"levelo_inurba_marseille","lat":43.309589,"lon":5.390258,"is_reserved":false,"is_disabled":false,"rental_uris":{"android":"levelo://app?vid=01963889-b9b7-44e5-8c86-9454ed3bae5f","ios":"levelo://app?vid=01963889-b9b7-44e5-8c86-9454ed3bae5f"},"vehicle_type_id":"4","last_reported":1702962446,"current_range_meters":31200,"station_id":"ce4bgup2rcd13ifvqco0","pricing_plan_id":"free"},{"bike_id":"6c28bcfe-40b3-4e89-9f3f-214b7a40df8c","system_id":"levelo_inurba_marseille","lat":43.309589,"lon":5.390258,"is_reserved":false,"is_disabled":false,"rental_uris":{"android":"levelo://app?vid=6c28bcfe-40b3-4e89-9f3f-214b7a40df8c","ios":"levelo://app?vid=6c28bcfe-40b3-4e89-9f3f-214b7a40df8c"},"vehicle_type_id":"4","last_reported":1702962446,"current_range_meters":30000,"station_id":"ce4bgup2rcd13ifvqco0","pricing_plan_id":"free"},{"bike_id":"b792d58e-e325-47af-aa36-8626ebd43464","system_id":"levelo_inurba_marseille","lat":43.317557,"lon":5.390173,"is_reserved":false,"is_disabled":false,"rental_uris":{"android":"levelo://app?vid=b792d58e-e325-47af-aa36-8626ebd43464","ios":"levelo://app?vid=b792d58e-e325-47af-aa36-8626ebd43464"},"vehicle_type_id":"4","last_reported":1702962446,"current_range_meters":27600,"station_id":"ce4bhqp2rcd13ifvqhng","pricing_plan_id":"free"},{"bike_id":"680ef04c-cf67-4d47-bcb7-c26482cc5f4e","system_id":"levelo_inurba_marseille","lat":43.317604,"lon":5.390119,"is_reserved":false,"is_disabled":false,"rental_uris":{"android":"levelo://app?vid=680ef04c-cf67-4d47-bcb7-c26482cc5f4e","ios":"levelo://app?vid=680ef04c-cf67-4d47-bcb7-c26482cc5f4e"},"vehicle_type_id":"4","last_reported":1702962446,"current_range_meters":28800,"station_id":"ce4bhqp2rcd13ifvqhng","pricing_plan_id":"free"},{"bike_id":"693b55d5-69cb-4eeb-bae1-f6abcf24b6d3","system_id":"levelo_inurba_marseille","lat":43.317569,"lon":5.390146,"is_reserved":false,"is_disabled":false,"rental_uris":{"android":"levelo://app?vid=693b55d5-69cb-4eeb-bae1-f6abcf24b6d3","ios":"levelo://app?vid=693b55d5-69cb-4eeb-bae1-f6abcf24b6d3"},"vehicle_type_id":"4","last_reported":1702962446,"current_range_meters":13200,"station_id":"ce4bhqp2rcd13ifvqhng","pricing_plan_id":"free"},{"bike_id":"5e5486d3-b2b6-4622-8a55-f0a3913f9a35","system_id":"levelo_inurba_marseille","lat":43.3176,"lon":5.39015,"is_reserved":false,"is_disabled":false,"rental_uris":{"android":"levelo://app?vid=5e5486d3-b2b6-4622-8a55-f0a3913f9a35","ios":"levelo://app?vid=5e5486d3-b2b6-4622-8a55-f0a3913f9a35"},"vehicle_type_id":"4","last_reported":1702962446,"current_range_meters":30800,"station_id":"ce4bhqp2rcd13ifvqhng","pricing_plan_id":"free"},{"bike_id":"40554fe8-87bf-41d5-b75a-7fd0e2ec929c","system_id":"levelo_inurba_marseille","lat":43.31757,"lon":5.3902,"is_reserved":false,"is_disabled":false,"rental_uris":{"android":"levelo://app?vid=40554fe8-87bf-41d5-b75a-7fd0e2ec929c","ios":"levelo://app?vid=40554fe8-87bf-41d5-b75a-7fd0e2ec929c"},"vehicle_type_id":"4","last_reported":1702962446,"current_range_meters":31200,"station_id":"ce4bhqp2rcd13ifvqhng","pricing_plan_id":"free"},{"bike_id":"09d0028e-5059-45f8-961d-6e1e33c18afb","system_id":"levelo_inurba_marseille","lat":43.295764,"lon":5.374991,"is_reserved":false,"is_disabled":false,"rental_uris":{"android":"levelo://app?vid=09d0028e-5059-45f8-961d-6e1e33c18afb","ios":"levelo://app?vid=09d0028e-5059-45f8-961d-6e1e33c18afb"},"vehicle_type_id":"4","last_reported":1702962446,"current_range_meters":13200,"station_id":"ce4bgh92rcd13ifvqb50","pricing_plan_id":"free"},{"bike_id":"ec651dee-22d6-4a55-87f3-20273554f69d","system_id":"levelo_inurba_marseille","lat":43.304337,"lon":5.388802,"is_reserved":false,"is_disabled":false,"rental_uris":{"android":"levelo://app?vid=ec651dee-22d6-4a55-87f3-20273554f69d","ios":"levelo://app?vid=ec651dee-22d6-4a55-87f3-20273554f69d"},"vehicle_type_id":"4","last_reported":1702962446,"current_range_meters":30400,"station_id":"ce4bgk12rcd13ifvqbi0","pricing_plan_id":"free"},{"bike_id":"9cadf4ae-3519-413c-9c9a-8dff16111f18","system_id":"levelo_inurba_marseille","lat":43.295723,"lon":5.375065,"is_reserved":false,"is_disabled":false,"rental_uris":{"android":"levelo://app?vid=9cadf4ae-3519-413c-9c9a-8dff16111f18","ios":"levelo://app?vid=9cadf4ae-3519-413c-9c9a-8dff16111f18"},"vehicle_type_id":"4","last_reported":1702962446,"current_range_meters":12800,"station_id":"ce4bgh92rcd13ifvqb50","pricing_plan_id":"free"},{"bike_id":"7c88525f-0cf3-4741-9989-3df6f5a1efdd","system_id":"levelo_inurba_marseille","lat":43.30429,"lon":5.38881,"is_reserved":false,"is_disabled":false,"rental_uris":{"android":"levelo://app?vid=7c88525f-0cf3-4741-9989-3df6f5a1efdd","ios":"levelo://app?vid=7c88525f-0cf3-4741-9989-3df6f5a1efdd"},"vehicle_type_id":"4","last_reported":1702962446,"current_range_meters":30000,"station_id":"ce4bgk12rcd13ifvqbi0","pricing_plan_id":"free"},{"bike_id":"6f97a82d-bf7f-45b7-9e89-c9ed2030134f","system_id":"levelo_inurba_marseille","lat":43.296363,"lon":5.379985,"is_reserved":false,"is_disabled":false,"rental_uris":{"android":"levelo://app?vid=6f97a82d-bf7f-45b7-9e89-c9ed2030134f","ios":"levelo://app?vid=6f97a82d-bf7f-45b7-9e89-c9ed2030134f"},"vehicle_type_id":"4","last_reported":1702962446,"current_range_meters":18400,"station_id":"","pricing_plan_id":"free"},{"bike_id":"50a98337-847a-44cc-8434-eafc2f1292e3","system_id":"levelo_inurba_marseille","lat":43.32368,"lon":5.38882,"is_reserved":false,"is_disabled":false,"rental_uris":{"android":"levelo://app?vid=50a98337-847a-44cc-8434-eafc2f1292e3","ios":"levelo://app?vid=50a98337-847a-44cc-8434-eafc2f1292e3"},"vehicle_type_id":"4","last_reported":1702962446,"current_range_meters":29600,"station_id":"ce4bhqp2rcd13ifvqhog","pricing_plan_id":"free"},{"bike_id":"fa687276-c119-4920-a684-a28c28aff065","system_id":"levelo_inurba_marseille","lat":43.292749,"lon":5.368402,"is_reserved":false,"is_disabled":false,"rental_uris":{"android":"levelo://app?vid=fa687276-c119-4920-a684-a28c28aff065","ios":"levelo://app?vid=fa687276-c119-4920-a684-a28c28aff065"},"vehicle_type_id":"4","last_reported":1702962446,"current_range_meters":30400,"station_id":"ce4bhbp2rcd13ifvqesg","pricing_plan_id":"free"},{"bike_id":"9c0fa15c-c98b-4235-8ddd-ee9b711cbf6d","system_id":"levelo_inurba_marseille","lat":43.303002,"lon":5.392142,"is_reserved":false,"is_disabled":false,"rental_uris":{"android":"levelo://app?vid=9c0fa15c-c98b-4235-8ddd-ee9b711cbf6d","ios":"levelo://app?vid=9c0fa15c-c98b-4235-8ddd-ee9b711cbf6d"},"vehicle_type_id":"4","last_reported":1702962446,"current_range_meters":27600,"station_id":"ce4bgkh2rcd13ifvqbk0","pricing_plan_id":"free"},{"bike_id":"71f59629-6aa3-4621-a836-93c1bba93a51","system_id":"levelo_inurba_marseille","lat":43.292311,"lon":5.360731,"is_reserved":false,"is_disabled":false,"rental_uris":{"android":"levelo://app?vid=71f59629-6aa3-4621-a836-93c1bba93a51","ios":"levelo://app?vid=71f59629-6aa3-4621-a836-93c1bba93a51"},"vehicle_type_id":"4","last_reported":1702962446,"current_range_meters":27600,"station_id":"ce4bhbh2rcd13ifvqeqg","pricing_plan_id":"free"},{"bike_id":"4588b48c-c5b5-4251-b103-4206742977b7","system_id":"levelo_inurba_marseille","lat":43.30094,"lon":5.39087,"is_reserved":false,"is_disabled":false,"rental_uris":{"android":"levelo://app?vid=4588b48c-c5b5-4251-b103-4206742977b7","ios":"levelo://app?vid=4588b48c-c5b5-4251-b103-4206742977b7"},"vehicle_type_id":"4","last_reported":1702962446,"current_range_meters":30000,"station_id":"ce4bh192rcd13ifvqdb0","pricing_plan_id":"free"},{"bike_id":"06a19166-90bb-4768-a5b1-dbcc5fc927a0","system_id":"levelo_inurba_marseille","lat":43.291994,"lon":5.357886,"is_reserved":false,"is_disabled":false,"rental_uris":{"android":"levelo://app?vid=06a19166-90bb-4768-a5b1-dbcc5fc927a0","ios":"levelo://app?vid=06a19166-90bb-4768-a5b1-dbcc5fc927a0"},"vehicle_type_id":"4","last_reported":1702962446,"current_range_meters":18000,"station_id":"ce4bhb12rcd13ifvqel0","pricing_plan_id":"free"},{"bike_id":"511bb33a-d6ad-4043-8743-68a0109344db","system_id":"levelo_inurba_marseille","lat":43.29195,"lon":5.35804,"is_reserved":false,"is_disabled":false,"rental_uris":{"android":"levelo://app?vid=511bb33a-d6ad-4043-8743-68a0109344db","ios":"levelo://app?vid=511bb33a-d6ad-4043-8743-68a0109344db"},"vehicle_type_id":"4","last_reported":1702962446,"current_range_meters":28400,"station_id":"ce4bhb12rcd13ifvqel0","pricing_plan_id":"free"},{"bike_id":"b6c1a649-b0d0-4dae-a7e6-506a9f00de4f","system_id":"levelo_inurba_marseille","lat":43.309047,"lon":5.396551,"is_reserved":false,"is_disabled":false,"rental_uris":{"android":"levelo://app?vid=b6c1a649-b0d0-4dae-a7e6-506a9f00de4f","ios":"levelo://app?vid=b6c1a649-b0d0-4dae-a7e6-506a9f00de4f"},"vehicle_type_id":"4","last_reported":1702962446,"current_range_meters":19200,"station_id":"ce4bh012rcd13ifvqcv0","pricing_plan_id":"free"},{"bike_id":"f8465f83-d50f-4c23-b55a-6dcade612c71","system_id":"levelo_inurba_marseille","lat":43.313291,"lon":5.396838,"is_reserved":false,"is_disabled":false,"rental_uris":{"android":"levelo://app?vid=f8465f83-d50f-4c23-b55a-6dcade612c71","ios":"levelo://app?vid=f8465f83-d50f-4c23-b55a-6dcade612c71"},"vehicle_type_id":"4","last_reported":1702962446,"current_range_meters":27200,"station_id":"ce4bgvp2rcd13ifvqcu0","pricing_plan_id":"free"},{"bike_id":"8c324abb-df36-4c6d-8863-9c86a90de621","system_id":"levelo_inurba_marseille","lat":43.309038,"lon":5.396546,"is_reserved":false,"is_disabled":false,"rental_uris":{"android":"levelo://app?vid=8c324abb-df36-4c6d-8863-9c86a90de621","ios":"levelo://app?vid=8c324abb-df36-4c6d-8863-9c86a90de621"},"vehicle_type_id":"4","last_reported":1702962446,"current_range_meters":29600,"station_id":"ce4bh012rcd13ifvqcv0","pricing_plan_id":"free"},{"bike_id":"c83beced-ca39-4bc6-9b40-fa215e81ee67","system_id":"levelo_inurba_marseille","lat":43.291994,"lon":5.357886,"is_reserved":false,"is_disabled":false,"rental_uris":{"android":"levelo://app?vid=c83beced-ca39-4bc6-9b40-fa215e81ee67","ios":"levelo://app?vid=c83beced-ca39-4bc6-9b40-fa215e81ee67"},"vehicle_type_id":"4","last_reported":1702962446,"current_range_meters":9200,"station_id":"ce4bhb12rcd13ifvqel0","pricing_plan_id":"free"},{"bike_id":"f2838911-ce19-42ac-928a-a17b426877e2","system_id":"levelo_inurba_marseille","lat":43.309038,"lon":5.396546,"is_reserved":false,"is_disabled":false,"rental_uris":{"android":"levelo://app?vid=f2838911-ce19-42ac-928a-a17b426877e2","ios":"levelo://app?vid=f2838911-ce19-42ac-928a-a17b426877e2"},"vehicle_type_id":"4","last_reported":1702962446,"current_range_meters":31600,"station_id":"ce4bh012rcd13ifvqcv0","pricing_plan_id":"free"},{"bike_id":"d1d5171a-f7c4-4037-9d77-2ea2aff433ff","system_id":"levelo_inurba_marseille","lat":43.313291,"lon":5.396838,"is_reserved":false,"is_disabled":false,"rental_uris":{"android":"levelo://app?vid=d1d5171a-f7c4-4037-9d77-2ea2aff433ff","ios":"levelo://app?vid=d1d5171a-f7c4-4037-9d77-2ea2aff433ff"},"vehicle_type_id":"4","last_reported":1702962446,"current_range_meters":31600,"station_id":"ce4bgvp2rcd13ifvqcu0","pricing_plan_id":"free"},{"bike_id":"1348a7b4-4c36-4b46-963e-898a1712db0e","system_id":"levelo_inurba_marseille","lat":43.309038,"lon":5.396546,"is_reserved":false,"is_disabled":false,"rental_uris":{"android":"levelo://app?vid=1348a7b4-4c36-4b46-963e-898a1712db0e","ios":"levelo://app?vid=1348a7b4-4c36-4b46-963e-898a1712db0e"},"vehicle_type_id":"4","last_reported":1702962446,"current_range_meters":16800,"station_id":"ce4bh012rcd13ifvqcv0","pricing_plan_id":"free"},{"bike_id":"08f48a37-a0ae-4562-9e21-8e006cc35e85","system_id":"levelo_inurba_marseille","lat":43.309038,"lon":5.396546,"is_reserved":false,"is_disabled":false,"rental_uris":{"android":"levelo://app?vid=08f48a37-a0ae-4562-9e21-8e006cc35e85","ios":"levelo://app?vid=08f48a37-a0ae-4562-9e21-8e006cc35e85"},"vehicle_type_id":"4","last_reported":1702962446,"current_range_meters":28800,"station_id":"ce4bh012rcd13ifvqcv0","pricing_plan_id":"free"},{"bike_id":"f5382ae6-08f8-4653-8a5e-ec32bf4ce7e3","system_id":"levelo_inurba_marseille","lat":43.31329,"lon":5.39693,"is_reserved":false,"is_disabled":false,"rental_uris":{"android":"levelo://app?vid=f5382ae6-08f8-4653-8a5e-ec32bf4ce7e3","ios":"levelo://app?vid=f5382ae6-08f8-4653-8a5e-ec32bf4ce7e3"},"vehicle_type_id":"4","last_reported":1702962446,"current_range_meters":30000,"station_id":"ce4bgvp2rcd13ifvqcu0","pricing_plan_id":"free"},{"bike_id":"e59d46a7-96a2-41d1-96ea-00fa90f6eaf3","system_id":"levelo_inurba_marseille","lat":43.309047,"lon":5.396551,"is_reserved":false,"is_disabled":false,"rental_uris":{"android":"levelo://app?vid=e59d46a7-96a2-41d1-96ea-00fa90f6eaf3","ios":"levelo://app?vid=e59d46a7-96a2-41d1-96ea-00fa90f6eaf3"},"vehicle_type_id":"4","last_reported":1702962446,"current_range_meters":30400,"station_id":"ce4bh012rcd13ifvqcv0","pricing_plan_id":"free"},{"bike_id":"cdcf396e-ce96-49f7-a0ea-25a7636b3d95","system_id":"levelo_inurba_marseille","lat":43.309047,"lon":5.396551,"is_reserved":false,"is_disabled":false,"rental_uris":{"android":"levelo://app?vid=cdcf396e-ce96-49f7-a0ea-25a7636b3d95","ios":"levelo://app?vid=cdcf396e-ce96-49f7-a0ea-25a7636b3d95"},"vehicle_type_id":"4","last_reported":1702962446,"current_range_meters":23200,"station_id":"ce4bh012rcd13ifvqcv0","pricing_plan_id":"free"},{"bike_id":"e5c08a0a-4dc8-488a-9bd9-f9c2607ef4b4","system_id":"levelo_inurba_marseille","lat":43.313291,"lon":5.396838,"is_reserved":false,"is_disabled":false,"rental_uris":{"android":"levelo://app?vid=e5c08a0a-4dc8-488a-9bd9-f9c2607ef4b4","ios":"levelo://app?vid=e5c08a0a-4dc8-488a-9bd9-f9c2607ef4b4"},"vehicle_type_id":"4","last_reported":1702962446,"current_range_meters":28400,"station_id":"ce4bgvp2rcd13ifvqcu0","pricing_plan_id":"free"},{"bike_id":"2efd277d-ae9b-4afb-9eef-d1c819fb24d2","system_id":"levelo_inurba_marseille","lat":43.309038,"lon":5.396546,"is_reserved":false,"is_disabled":false,"rental_uris":{"android":"levelo://app?vid=2efd277d-ae9b-4afb-9eef-d1c819fb24d2","ios":"levelo://app?vid=2efd277d-ae9b-4afb-9eef-d1c819fb24d2"},"vehicle_type_id":"4","last_reported":1702962446,"current_range_meters":27600,"station_id":"ce4bh012rcd13ifvqcv0","pricing_plan_id":"free"},{"bike_id":"f98a27d2-6531-4402-b026-9e7608bcf61e","system_id":"levelo_inurba_marseille","lat":43.313291,"lon":5.396838,"is_reserved":false,"is_disabled":false,"rental_uris":{"android":"levelo://app?vid=f98a27d2-6531-4402-b026-9e7608bcf61e","ios":"levelo://app?vid=f98a27d2-6531-4402-b026-9e7608bcf61e"},"vehicle_type_id":"4","last_reported":1702962446,"current_range_meters":14800,"station_id":"ce4bgvp2rcd13ifvqcu0","pricing_plan_id":"free"},{"bike_id":"e2840dbf-173c-420f-9f17-ca7d8e17a96e","system_id":"levelo_inurba_marseille","lat":43.313291,"lon":5.396838,"is_reserved":false,"is_disabled":false,"rental_uris":{"android":"levelo://app?vid=e2840dbf-173c-420f-9f17-ca7d8e17a96e","ios":"levelo://app?vid=e2840dbf-173c-420f-9f17-ca7d8e17a96e"},"vehicle_type_id":"4","last_reported":1702962446,"current_range_meters":31200,"station_id":"ce4bgvp2rcd13ifvqcu0","pricing_plan_id":"free"},{"bike_id":"4fcd61f6-9f4f-4103-a966-d88aba210592","system_id":"levelo_inurba_marseille","lat":43.309047,"lon":5.396551,"is_reserved":false,"is_disabled":false,"rental_uris":{"android":"levelo://app?vid=4fcd61f6-9f4f-4103-a966-d88aba210592","ios":"levelo://app?vid=4fcd61f6-9f4f-4103-a966-d88aba210592"},"vehicle_type_id":"4","last_reported":1702962446,"current_range_meters":31600,"station_id":"ce4bh012rcd13ifvqcv0","pricing_plan_id":"free"},{"bike_id":"14eee24c-1e86-4bc1-b5cc-65870b8c2e35","system_id":"levelo_inurba_marseille","lat":43.313291,"lon":5.396838,"is_reserved":false,"is_disabled":false,"rental_uris":{"android":"levelo://app?vid=14eee24c-1e86-4bc1-b5cc-65870b8c2e35","ios":"levelo://app?vid=14eee24c-1e86-4bc1-b5cc-65870b8c2e35"},"vehicle_type_id":"4","last_reported":1702962446,"current_range_meters":29600,"station_id":"ce4bgvp2rcd13ifvqcu0","pricing_plan_id":"free"},{"bike_id":"361efef5-ab66-43d4-bcbd-209ab6fd9f0b","system_id":"levelo_inurba_marseille","lat":43.290779,"lon":5.371482,"is_reserved":false,"is_disabled":false,"rental_uris":{"android":"levelo://app?vid=361efef5-ab66-43d4-bcbd-209ab6fd9f0b","ios":"levelo://app?vid=361efef5-ab66-43d4-bcbd-209ab6fd9f0b"},"vehicle_type_id":"4","last_reported":1702962446,"current_range_meters":29600,"station_id":"ce4bh5p2rcd13ifvqe4g","pricing_plan_id":"free"},{"bike_id":"9bde08fd-ef69-436c-80b8-9618ad042d16","system_id":"levelo_inurba_marseille","lat":43.290526,"lon":5.359212,"is_reserved":false,"is_disabled":false,"rental_uris":{"android":"levelo://app?vid=9bde08fd-ef69-436c-80b8-9618ad042d16","ios":"levelo://app?vid=9bde08fd-ef69-436c-80b8-9618ad042d16"},"vehicle_type_id":"4","last_reported":1702962446,"current_range_meters":31200,"station_id":"ce4bha92rcd13ifvqeg0","pricing_plan_id":"free"},{"bike_id":"6e3f145f-5dce-46dc-90e6-fbd99e7fb5de","system_id":"levelo_inurba_marseille","lat":43.290631,"lon":5.359244,"is_reserved":false,"is_disabled":false,"rental_uris":{"android":"levelo://app?vid=6e3f145f-5dce-46dc-90e6-fbd99e7fb5de","ios":"levelo://app?vid=6e3f145f-5dce-46dc-90e6-fbd99e7fb5de"},"vehicle_type_id":"4","last_reported":1702962446,"current_range_meters":24800,"station_id":"ce4bha92rcd13ifvqeg0","pricing_plan_id":"free"},{"bike_id":"b05a4441-6db9-4979-ad31-889f36bebc7a","system_id":"levelo_inurba_marseille","lat":43.290631,"lon":5.359244,"is_reserved":false,"is_disabled":false,"rental_uris":{"android":"levelo://app?vid=b05a4441-6db9-4979-ad31-889f36bebc7a","ios":"levelo://app?vid=b05a4441-6db9-4979-ad31-889f36bebc7a"},"vehicle_type_id":"4","last_reported":1702962446,"current_range_meters":26800,"station_id":"ce4bha92rcd13ifvqeg0","pricing_plan_id":"free"},{"bike_id":"6877a7fc-f7e3-4f81-ac23-00bb159d4ca4","system_id":"levelo_inurba_marseille","lat":43.289468,"lon":5.363719,"is_reserved":false,"is_disabled":false,"rental_uris":{"android":"levelo://app?vid=6877a7fc-f7e3-4f81-ac23-00bb159d4ca4","ios":"levelo://app?vid=6877a7fc-f7e3-4f81-ac23-00bb159d4ca4"},"vehicle_type_id":"4","last_reported":1702962446,"current_range_meters":29600,"station_id":"ce4bhc92rcd13ifvqetg","pricing_plan_id":"free"},{"bike_id":"59d6fb19-6150-4e3a-902a-20e6ff04703b","system_id":"levelo_inurba_marseille","lat":43.289184,"lon":5.366408,"is_reserved":false,"is_disabled":false,"rental_uris":{"android":"levelo://app?vid=59d6fb19-6150-4e3a-902a-20e6ff04703b","ios":"levelo://app?vid=59d6fb19-6150-4e3a-902a-20e6ff04703b"},"vehicle_type_id":"4","last_reported":1702962446,"current_range_meters":29200,"station_id":"ce4bhap2rcd13ifvqek0","pricing_plan_id":"free"},{"bike_id":"b5e1fbbd-d17c-4653-b07c-d78986f012a6","system_id":"levelo_inurba_marseille","lat":43.289468,"lon":5.363719,"is_reserved":false,"is_disabled":false,"rental_uris":{"android":"levelo://app?vid=b5e1fbbd-d17c-4653-b07c-d78986f012a6","ios":"levelo://app?vid=b5e1fbbd-d17c-4653-b07c-d78986f012a6"},"vehicle_type_id":"4","last_reported":1702962446,"current_range_meters":31200,"station_id":"ce4bhc92rcd13ifvqetg","pricing_plan_id":"free"},{"bike_id":"fcd6e49e-f1f9-437c-9ae5-84aab9c07a1b","system_id":"levelo_inurba_marseille","lat":43.289468,"lon":5.363719,"is_reserved":false,"is_disabled":false,"rental_uris":{"android":"levelo://app?vid=fcd6e49e-f1f9-437c-9ae5-84aab9c07a1b","ios":"levelo://app?vid=fcd6e49e-f1f9-437c-9ae5-84aab9c07a1b"},"vehicle_type_id":"4","last_reported":1702962446,"current_range_meters":18800,"station_id":"ce4bhc92rcd13ifvqetg","pricing_plan_id":"free"},{"bike_id":"cb9850ff-114c-4fb0-b4cd-3a63a0ecfa75","system_id":"levelo_inurba_marseille","lat":43.304274,"lon":5.397513,"is_reserved":false,"is_disabled":false,"rental_uris":{"android":"levelo://app?vid=cb9850ff-114c-4fb0-b4cd-3a63a0ecfa75","ios":"levelo://app?vid=cb9850ff-114c-4fb0-b4cd-3a63a0ecfa75"},"vehicle_type_id":"4","last_reported":1702962446,"current_range_meters":30000,"station_id":"ce4bh092rcd13ifvqd20","pricing_plan_id":"free"},{"bike_id":"5d5921d7-f487-44a5-aab9-c27738199fa5","system_id":"levelo_inurba_marseille","lat":43.330442,"lon":5.389148,"is_reserved":false,"is_disabled":false,"rental_uris":{"android":"levelo://app?vid=5d5921d7-f487-44a5-aab9-c27738199fa5","ios":"levelo://app?vid=5d5921d7-f487-44a5-aab9-c27738199fa5"},"vehicle_type_id":"4","last_reported":1702962446,"current_range_meters":30800,"station_id":"ce4bhr92rcd13ifvqhrg","pricing_plan_id":"free"},{"bike_id":"1b9fc5bf-3def-4ca2-9a00-9b46359290e7","system_id":"levelo_inurba_marseille","lat":43.330442,"lon":5.389148,"is_reserved":false,"is_disabled":false,"rental_uris":{"android":"levelo://app?vid=1b9fc5bf-3def-4ca2-9a00-9b46359290e7","ios":"levelo://app?vid=1b9fc5bf-3def-4ca2-9a00-9b46359290e7"},"vehicle_type_id":"4","last_reported":1702962446,"current_range_meters":31200,"station_id":"ce4bhr92rcd13ifvqhrg","pricing_plan_id":"free"},{"bike_id":"05726f57-52f8-4a7e-acad-ae02b2c7fb79","system_id":"levelo_inurba_marseille","lat":43.330442,"lon":5.389148,"is_reserved":false,"is_disabled":false,"rental_uris":{"android":"levelo://app?vid=05726f57-52f8-4a7e-acad-ae02b2c7fb79","ios":"levelo://app?vid=05726f57-52f8-4a7e-acad-ae02b2c7fb79"},"vehicle_type_id":"4","last_reported":1702962446,"current_range_meters":19200,"station_id":"ce4bhr92rcd13ifvqhrg","pricing_plan_id":"free"},{"bike_id":"7269fc81-2794-4e90-abe7-3469bc2c2ea4","system_id":"levelo_inurba_marseille","lat":43.330442,"lon":5.389148,"is_reserved":false,"is_disabled":false,"rental_uris":{"android":"levelo://app?vid=7269fc81-2794-4e90-abe7-3469bc2c2ea4","ios":"levelo://app?vid=7269fc81-2794-4e90-abe7-3469bc2c2ea4"},"vehicle_type_id":"4","last_reported":1702962446,"current_range_meters":25600,"station_id":"ce4bhr92rcd13ifvqhrg","pricing_plan_id":"free"},{"bike_id":"1764b086-029e-4f0f-8d78-237ee17794c9","system_id":"levelo_inurba_marseille","lat":43.330442,"lon":5.389148,"is_reserved":false,"is_disabled":false,"rental_uris":{"android":"levelo://app?vid=1764b086-029e-4f0f-8d78-237ee17794c9","ios":"levelo://app?vid=1764b086-029e-4f0f-8d78-237ee17794c9"},"vehicle_type_id":"4","last_reported":1702962446,"current_range_meters":30400,"station_id":"ce4bhr92rcd13ifvqhrg","pricing_plan_id":"free"},{"bike_id":"ae62fdb1-3fb8-4dbe-9885-18949cb09074","system_id":"levelo_inurba_marseille","lat":43.29524,"lon":5.39039,"is_reserved":false,"is_disabled":false,"rental_uris":{"android":"levelo://app?vid=ae62fdb1-3fb8-4dbe-9885-18949cb09074","ios":"levelo://app?vid=ae62fdb1-3fb8-4dbe-9885-18949cb09074"},"vehicle_type_id":"4","last_reported":1702962446,"current_range_meters":30400,"station_id":"ce4bh3p2rcd13ifvqdp0","pricing_plan_id":"free"},{"bike_id":"9435a7bd-d4ba-4f0d-a8ff-942ea1883818","system_id":"levelo_inurba_marseille","lat":43.309371,"lon":5.401449,"is_reserved":false,"is_disabled":false,"rental_uris":{"android":"levelo://app?vid=9435a7bd-d4ba-4f0d-a8ff-942ea1883818","ios":"levelo://app?vid=9435a7bd-d4ba-4f0d-a8ff-942ea1883818"},"vehicle_type_id":"4","last_reported":1702962446,"current_range_meters":17600,"station_id":"ce4bgvp2rcd13ifvqct0","pricing_plan_id":"free"},{"bike_id":"fb94f0fe-9ca1-4784-a022-987a7ebabd5d","system_id":"levelo_inurba_marseille","lat":43.309371,"lon":5.401449,"is_reserved":false,"is_disabled":false,"rental_uris":{"android":"levelo://app?vid=fb94f0fe-9ca1-4784-a022-987a7ebabd5d","ios":"levelo://app?vid=fb94f0fe-9ca1-4784-a022-987a7ebabd5d"},"vehicle_type_id":"4","last_reported":1702962446,"current_range_meters":29200,"station_id":"ce4bgvp2rcd13ifvqct0","pricing_plan_id":"free"},{"bike_id":"c472eeb3-ae00-4658-a997-176bf6acfd01","system_id":"levelo_inurba_marseille","lat":43.309371,"lon":5.401449,"is_reserved":false,"is_disabled":false,"rental_uris":{"android":"levelo://app?vid=c472eeb3-ae00-4658-a997-176bf6acfd01","ios":"levelo://app?vid=c472eeb3-ae00-4658-a997-176bf6acfd01"},"vehicle_type_id":"4","last_reported":1702962446,"current_range_meters":29200,"station_id":"ce4bgvp2rcd13ifvqct0","pricing_plan_id":"free"},{"bike_id":"8ede15a5-6b47-44bd-a400-2a88396bb2fd","system_id":"levelo_inurba_marseille","lat":43.309371,"lon":5.401449,"is_reserved":false,"is_disabled":false,"rental_uris":{"android":"levelo://app?vid=8ede15a5-6b47-44bd-a400-2a88396bb2fd","ios":"levelo://app?vid=8ede15a5-6b47-44bd-a400-2a88396bb2fd"},"vehicle_type_id":"4","last_reported":1702962446,"current_range_meters":24400,"station_id":"ce4bgvp2rcd13ifvqct0","pricing_plan_id":"free"},{"bike_id":"b7fe17eb-49b3-4efa-8418-968181b059ee","system_id":"levelo_inurba_marseille","lat":43.309371,"lon":5.401449,"is_reserved":false,"is_disabled":false,"rental_uris":{"android":"levelo://app?vid=b7fe17eb-49b3-4efa-8418-968181b059ee","ios":"levelo://app?vid=b7fe17eb-49b3-4efa-8418-968181b059ee"},"vehicle_type_id":"4","last_reported":1702962446,"current_range_meters":30000,"station_id":"ce4bgvp2rcd13ifvqct0","pricing_plan_id":"free"},{"bike_id":"39331a86-19b1-4cea-98c7-34e27a11793a","system_id":"levelo_inurba_marseille","lat":43.309371,"lon":5.401449,"is_reserved":false,"is_disabled":false,"rental_uris":{"android":"levelo://app?vid=39331a86-19b1-4cea-98c7-34e27a11793a","ios":"levelo://app?vid=39331a86-19b1-4cea-98c7-34e27a11793a"},"vehicle_type_id":"4","last_reported":1702962446,"current_range_meters":29600,"station_id":"ce4bgvp2rcd13ifvqct0","pricing_plan_id":"free"},{"bike_id":"9df3ad0e-eb97-4ba1-b418-ff2e8868ec67","system_id":"levelo_inurba_marseille","lat":43.33762,"lon":5.37439,"is_reserved":false,"is_disabled":false,"rental_uris":{"android":"levelo://app?vid=9df3ad0e-eb97-4ba1-b418-ff2e8868ec67","ios":"levelo://app?vid=9df3ad0e-eb97-4ba1-b418-ff2e8868ec67"},"vehicle_type_id":"4","last_reported":1702962446,"current_range_meters":14800,"station_id":"","pricing_plan_id":"free"},{"bike_id":"c3c3cbbb-aa08-4874-94d9-d40777882ceb","system_id":"levelo_inurba_marseille","lat":43.337649,"lon":5.37433,"is_reserved":false,"is_disabled":false,"rental_uris":{"android":"levelo://app?vid=c3c3cbbb-aa08-4874-94d9-d40777882ceb","ios":"levelo://app?vid=c3c3cbbb-aa08-4874-94d9-d40777882ceb"},"vehicle_type_id":"4","last_reported":1702962446,"current_range_meters":10400,"station_id":"","pricing_plan_id":"free"},{"bike_id":"e15613d9-6773-401d-b1b2-9f87c9cf287e","system_id":"levelo_inurba_marseille","lat":43.337623,"lon":5.374587,"is_reserved":false,"is_disabled":false,"rental_uris":{"android":"levelo://app?vid=e15613d9-6773-401d-b1b2-9f87c9cf287e","ios":"levelo://app?vid=e15613d9-6773-401d-b1b2-9f87c9cf287e"},"vehicle_type_id":"4","last_reported":1702962446,"current_range_meters":26400,"station_id":"","pricing_plan_id":"free"},{"bike_id":"507aa332-bee5-4063-8218-8307d5c922a0","system_id":"levelo_inurba_marseille","lat":43.30642,"lon":5.401031,"is_reserved":false,"is_disabled":false,"rental_uris":{"android":"levelo://app?vid=507aa332-bee5-4063-8218-8307d5c922a0","ios":"levelo://app?vid=507aa332-bee5-4063-8218-8307d5c922a0"},"vehicle_type_id":"4","last_reported":1702962446,"current_range_meters":28400,"station_id":"ce4bh112rcd13ifvqda0","pricing_plan_id":"free"},{"bike_id":"d97e9ded-c342-4846-b6ad-489767095f03","system_id":"levelo_inurba_marseille","lat":43.301117,"lon":5.398795,"is_reserved":false,"is_disabled":false,"rental_uris":{"android":"levelo://app?vid=d97e9ded-c342-4846-b6ad-489767095f03","ios":"levelo://app?vid=d97e9ded-c342-4846-b6ad-489767095f03"},"vehicle_type_id":"4","last_reported":1702962446,"current_range_meters":31600,"station_id":"ce4bh0h2rcd13ifvqd40","pricing_plan_id":"free"},{"bike_id":"ab44b239-00f7-4a61-8888-a8a75222b7dc","system_id":"levelo_inurba_marseille","lat":43.301117,"lon":5.398795,"is_reserved":false,"is_disabled":false,"rental_uris":{"android":"levelo://app?vid=ab44b239-00f7-4a61-8888-a8a75222b7dc","ios":"levelo://app?vid=ab44b239-00f7-4a61-8888-a8a75222b7dc"},"vehicle_type_id":"4","last_reported":1702962446,"current_range_meters":23200,"station_id":"ce4bh0h2rcd13ifvqd40","pricing_plan_id":"free"},{"bike_id":"7c3aae00-3ca8-470c-b055-5a0713e7e36a","system_id":"levelo_inurba_marseille","lat":43.301433,"lon":5.398779,"is_reserved":false,"is_disabled":false,"rental_uris":{"android":"levelo://app?vid=7c3aae00-3ca8-470c-b055-5a0713e7e36a","ios":"levelo://app?vid=7c3aae00-3ca8-470c-b055-5a0713e7e36a"},"vehicle_type_id":"4","last_reported":1702962446,"current_range_meters":25200,"station_id":"ce4bh0h2rcd13ifvqd40","pricing_plan_id":"free"},{"bike_id":"9a34662e-7672-4bde-b7ba-140022d0d98c","system_id":"levelo_inurba_marseille","lat":43.28727,"lon":5.36078,"is_reserved":false,"is_disabled":false,"rental_uris":{"android":"levelo://app?vid=9a34662e-7672-4bde-b7ba-140022d0d98c","ios":"levelo://app?vid=9a34662e-7672-4bde-b7ba-140022d0d98c"},"vehicle_type_id":"4","last_reported":1702962446,"current_range_meters":30000,"station_id":"cki0cbj6b192h4jlfktg","pricing_plan_id":"free"},{"bike_id":"ffd9737e-c00c-40a3-a7e9-5d02f30c6105","system_id":"levelo_inurba_marseille","lat":43.28727,"lon":5.360927,"is_reserved":false,"is_disabled":false,"rental_uris":{"android":"levelo://app?vid=ffd9737e-c00c-40a3-a7e9-5d02f30c6105","ios":"levelo://app?vid=ffd9737e-c00c-40a3-a7e9-5d02f30c6105"},"vehicle_type_id":"4","last_reported":1702962446,"current_range_meters":28000,"station_id":"cki0cbj6b192h4jlfktg","pricing_plan_id":"free"},{"bike_id":"7c201bb1-9f38-4e3e-a349-4458434d0c69","system_id":"levelo_inurba_marseille","lat":43.28727,"lon":5.36078,"is_reserved":false,"is_disabled":false,"rental_uris":{"android":"levelo://app?vid=7c201bb1-9f38-4e3e-a349-4458434d0c69","ios":"levelo://app?vid=7c201bb1-9f38-4e3e-a349-4458434d0c69"},"vehicle_type_id":"4","last_reported":1702962446,"current_range_meters":30000,"station_id":"cki0cbj6b192h4jlfktg","pricing_plan_id":"free"},{"bike_id":"026ef091-f336-469a-b39c-3d8609e5bc5d","system_id":"levelo_inurba_marseille","lat":43.28727,"lon":5.36078,"is_reserved":false,"is_disabled":false,"rental_uris":{"android":"levelo://app?vid=026ef091-f336-469a-b39c-3d8609e5bc5d","ios":"levelo://app?vid=026ef091-f336-469a-b39c-3d8609e5bc5d"},"vehicle_type_id":"4","last_reported":1702962446,"current_range_meters":18400,"station_id":"cki0cbj6b192h4jlfktg","pricing_plan_id":"free"},{"bike_id":"c5272d7a-2fee-49bd-bff7-bdb1432ab2ff","system_id":"levelo_inurba_marseille","lat":43.28727,"lon":5.36078,"is_reserved":false,"is_disabled":false,"rental_uris":{"android":"levelo://app?vid=c5272d7a-2fee-49bd-bff7-bdb1432ab2ff","ios":"levelo://app?vid=c5272d7a-2fee-49bd-bff7-bdb1432ab2ff"},"vehicle_type_id":"4","last_reported":1702962446,"current_range_meters":31600,"station_id":"cki0cbj6b192h4jlfktg","pricing_plan_id":"free"},{"bike_id":"68db378a-73d0-43bd-a4b2-0722c53a46b3","system_id":"levelo_inurba_marseille","lat":43.28727,"lon":5.36078,"is_reserved":false,"is_disabled":false,"rental_uris":{"android":"levelo://app?vid=68db378a-73d0-43bd-a4b2-0722c53a46b3","ios":"levelo://app?vid=68db378a-73d0-43bd-a4b2-0722c53a46b3"},"vehicle_type_id":"4","last_reported":1702962446,"current_range_meters":28400,"station_id":"cki0cbj6b192h4jlfktg","pricing_plan_id":"free"},{"bike_id":"007670f4-056e-4fb6-81d9-96212b150ad5","system_id":"levelo_inurba_marseille","lat":43.301117,"lon":5.398795,"is_reserved":false,"is_disabled":false,"rental_uris":{"android":"levelo://app?vid=007670f4-056e-4fb6-81d9-96212b150ad5","ios":"levelo://app?vid=007670f4-056e-4fb6-81d9-96212b150ad5"},"vehicle_type_id":"4","last_reported":1702962446,"current_range_meters":27600,"station_id":"ce4bh0h2rcd13ifvqd40","pricing_plan_id":"free"},{"bike_id":"86eef6bf-0858-4d3e-824a-c69e0bd0d4d1","system_id":"levelo_inurba_marseille","lat":43.298681,"lon":5.397225,"is_reserved":false,"is_disabled":false,"rental_uris":{"android":"levelo://app?vid=86eef6bf-0858-4d3e-824a-c69e0bd0d4d1","ios":"levelo://app?vid=86eef6bf-0858-4d3e-824a-c69e0bd0d4d1"},"vehicle_type_id":"4","last_reported":1702962446,"current_range_meters":28400,"station_id":"ce4bh0h2rcd13ifvqd50","pricing_plan_id":"free"},{"bike_id":"dd1cc998-31c6-4305-842f-f01842ea11a7","system_id":"levelo_inurba_marseille","lat":43.286593,"lon":5.363346,"is_reserved":false,"is_disabled":false,"rental_uris":{"android":"levelo://app?vid=dd1cc998-31c6-4305-842f-f01842ea11a7","ios":"levelo://app?vid=dd1cc998-31c6-4305-842f-f01842ea11a7"},"vehicle_type_id":"4","last_reported":1702962446,"current_range_meters":30000,"station_id":"ce4bhah2rcd13ifvqej0","pricing_plan_id":"free"},{"bike_id":"a6e6ee75-0145-4e2e-ada0-af40b9b4953a","system_id":"levelo_inurba_marseille","lat":43.286591,"lon":5.363346,"is_reserved":false,"is_disabled":false,"rental_uris":{"android":"levelo://app?vid=a6e6ee75-0145-4e2e-ada0-af40b9b4953a","ios":"levelo://app?vid=a6e6ee75-0145-4e2e-ada0-af40b9b4953a"},"vehicle_type_id":"4","last_reported":1702962446,"current_range_meters":31200,"station_id":"ce4bhah2rcd13ifvqej0","pricing_plan_id":"free"},{"bike_id":"14b7241e-b61f-45e4-858c-b53864d4d419","system_id":"levelo_inurba_marseille","lat":43.286961,"lon":5.373785,"is_reserved":false,"is_disabled":false,"rental_uris":{"android":"levelo://app?vid=14b7241e-b61f-45e4-858c-b53864d4d419","ios":"levelo://app?vid=14b7241e-b61f-45e4-858c-b53864d4d419"},"vehicle_type_id":"4","last_reported":1702962446,"current_range_meters":29600,"station_id":"ce4bh3p2rcd13ifvqdq0","pricing_plan_id":"free"},{"bike_id":"afebd83d-2ac2-41e6-99cb-769d3b05df74","system_id":"levelo_inurba_marseille","lat":43.295194,"lon":5.39397,"is_reserved":false,"is_disabled":false,"rental_uris":{"android":"levelo://app?vid=afebd83d-2ac2-41e6-99cb-769d3b05df74","ios":"levelo://app?vid=afebd83d-2ac2-41e6-99cb-769d3b05df74"},"vehicle_type_id":"4","last_reported":1702962446,"current_range_meters":30400,"station_id":"ce4bh292rcd13ifvqdf0","pricing_plan_id":"free"},{"bike_id":"30921b70-c373-4903-be51-efb95df4deed","system_id":"levelo_inurba_marseille","lat":43.295194,"lon":5.39397,"is_reserved":false,"is_disabled":false,"rental_uris":{"android":"levelo://app?vid=30921b70-c373-4903-be51-efb95df4deed","ios":"levelo://app?vid=30921b70-c373-4903-be51-efb95df4deed"},"vehicle_type_id":"4","last_reported":1702962446,"current_range_meters":30800,"station_id":"ce4bh292rcd13ifvqdf0","pricing_plan_id":"free"},{"bike_id":"2479800c-f715-4277-9669-0183fe4b2282","system_id":"levelo_inurba_marseille","lat":43.302759,"lon":5.400793,"is_reserved":false,"is_disabled":false,"rental_uris":{"android":"levelo://app?vid=2479800c-f715-4277-9669-0183fe4b2282","ios":"levelo://app?vid=2479800c-f715-4277-9669-0183fe4b2282"},"vehicle_type_id":"4","last_reported":1702962446,"current_range_meters":30400,"station_id":"ce4bgvh2rcd13ifvqcs0","pricing_plan_id":"free"},{"bike_id":"41501bbc-b034-45ad-b316-c32409342290","system_id":"levelo_inurba_marseille","lat":43.286039,"lon":5.370679,"is_reserved":false,"is_disabled":false,"rental_uris":{"android":"levelo://app?vid=41501bbc-b034-45ad-b316-c32409342290","ios":"levelo://app?vid=41501bbc-b034-45ad-b316-c32409342290"},"vehicle_type_id":"4","last_reported":1702962446,"current_range_meters":30400,"station_id":"ce4bht12rcd13ifvqi60","pricing_plan_id":"free"},{"bike_id":"62109967-fb31-42d5-81ad-6177a02eabb8","system_id":"levelo_inurba_marseille","lat":43.314044,"lon":5.403983,"is_reserved":false,"is_disabled":false,"rental_uris":{"android":"levelo://app?vid=62109967-fb31-42d5-81ad-6177a02eabb8","ios":"levelo://app?vid=62109967-fb31-42d5-81ad-6177a02eabb8"},"vehicle_type_id":"4","last_reported":1702962446,"current_range_meters":20800,"station_id":"","pricing_plan_id":"free"},{"bike_id":"f56186b7-8610-4fe9-9232-4819e5e57226","system_id":"levelo_inurba_marseille","lat":43.291994,"lon":5.392907,"is_reserved":false,"is_disabled":false,"rental_uris":{"android":"levelo://app?vid=f56186b7-8610-4fe9-9232-4819e5e57226","ios":"levelo://app?vid=f56186b7-8610-4fe9-9232-4819e5e57226"},"vehicle_type_id":"4","last_reported":1702962446,"current_range_meters":28000,"station_id":"ce4bh192rcd13ifvqdd0","pricing_plan_id":"free"},{"bike_id":"280c294d-0da1-423d-bf75-a7eff002c375","system_id":"levelo_inurba_marseille","lat":43.291994,"lon":5.392907,"is_reserved":false,"is_disabled":false,"rental_uris":{"android":"levelo://app?vid=280c294d-0da1-423d-bf75-a7eff002c375","ios":"levelo://app?vid=280c294d-0da1-423d-bf75-a7eff002c375"},"vehicle_type_id":"4","last_reported":1702962446,"current_range_meters":26400,"station_id":"ce4bh192rcd13ifvqdd0","pricing_plan_id":"free"},{"bike_id":"4d5c7227-cbc3-41ae-8e3b-4ff06b6986df","system_id":"levelo_inurba_marseille","lat":43.291994,"lon":5.392907,"is_reserved":false,"is_disabled":false,"rental_uris":{"android":"levelo://app?vid=4d5c7227-cbc3-41ae-8e3b-4ff06b6986df","ios":"levelo://app?vid=4d5c7227-cbc3-41ae-8e3b-4ff06b6986df"},"vehicle_type_id":"4","last_reported":1702962446,"current_range_meters":27600,"station_id":"ce4bh192rcd13ifvqdd0","pricing_plan_id":"free"},{"bike_id":"5597c04c-4f02-40c7-a228-eb0ab5596efb","system_id":"levelo_inurba_marseille","lat":43.284644,"lon":5.358935,"is_reserved":false,"is_disabled":false,"rental_uris":{"android":"levelo://app?vid=5597c04c-4f02-40c7-a228-eb0ab5596efb","ios":"levelo://app?vid=5597c04c-4f02-40c7-a228-eb0ab5596efb"},"vehicle_type_id":"4","last_reported":1702962446,"current_range_meters":23600,"station_id":"ce4bhah2rcd13ifvqei0","pricing_plan_id":"free"},{"bike_id":"e81debd9-f676-4d4f-9212-a3a8466321dd","system_id":"levelo_inurba_marseille","lat":43.284538,"lon":5.358657,"is_reserved":false,"is_disabled":false,"rental_uris":{"android":"levelo://app?vid=e81debd9-f676-4d4f-9212-a3a8466321dd","ios":"levelo://app?vid=e81debd9-f676-4d4f-9212-a3a8466321dd"},"vehicle_type_id":"4","last_reported":1702962446,"current_range_meters":29200,"station_id":"ce4bhah2rcd13ifvqei0","pricing_plan_id":"free"},{"bike_id":"2401fedc-d0d2-491e-842f-28afddd3465e","system_id":"levelo_inurba_marseille","lat":43.284538,"lon":5.358657,"is_reserved":false,"is_disabled":false,"rental_uris":{"android":"levelo://app?vid=2401fedc-d0d2-491e-842f-28afddd3465e","ios":"levelo://app?vid=2401fedc-d0d2-491e-842f-28afddd3465e"},"vehicle_type_id":"4","last_reported":1702962446,"current_range_meters":20400,"station_id":"ce4bhah2rcd13ifvqei0","pricing_plan_id":"free"},{"bike_id":"ea7ec58c-6151-4f47-ae9c-9b42a8d866b9","system_id":"levelo_inurba_marseille","lat":43.284538,"lon":5.358657,"is_reserved":false,"is_disabled":false,"rental_uris":{"android":"levelo://app?vid=ea7ec58c-6151-4f47-ae9c-9b42a8d866b9","ios":"levelo://app?vid=ea7ec58c-6151-4f47-ae9c-9b42a8d866b9"},"vehicle_type_id":"4","last_reported":1702962446,"current_range_meters":31600,"station_id":"ce4bhah2rcd13ifvqei0","pricing_plan_id":"free"},{"bike_id":"94fd9471-6e1d-45e5-adce-6821b33e447a","system_id":"levelo_inurba_marseille","lat":43.284538,"lon":5.358657,"is_reserved":false,"is_disabled":false,"rental_uris":{"android":"levelo://app?vid=94fd9471-6e1d-45e5-adce-6821b33e447a","ios":"levelo://app?vid=94fd9471-6e1d-45e5-adce-6821b33e447a"},"vehicle_type_id":"4","last_reported":1702962446,"current_range_meters":20400,"station_id":"ce4bhah2rcd13ifvqei0","pricing_plan_id":"free"},{"bike_id":"ffc6d312-0a02-410f-a1ca-e32b9f88423f","system_id":"levelo_inurba_marseille","lat":43.284534,"lon":5.358662,"is_reserved":false,"is_disabled":false,"rental_uris":{"android":"levelo://app?vid=ffc6d312-0a02-410f-a1ca-e32b9f88423f","ios":"levelo://app?vid=ffc6d312-0a02-410f-a1ca-e32b9f88423f"},"vehicle_type_id":"4","last_reported":1702962446,"current_range_meters":31200,"station_id":"ce4bhah2rcd13ifvqei0","pricing_plan_id":"free"},{"bike_id":"0c58fb9e-1bca-4d0a-8fe9-88bea04ab447","system_id":"levelo_inurba_marseille","lat":43.284538,"lon":5.358657,"is_reserved":false,"is_disabled":false,"rental_uris":{"android":"levelo://app?vid=0c58fb9e-1bca-4d0a-8fe9-88bea04ab447","ios":"levelo://app?vid=0c58fb9e-1bca-4d0a-8fe9-88bea04ab447"},"vehicle_type_id":"4","last_reported":1702962446,"current_range_meters":30000,"station_id":"ce4bhah2rcd13ifvqei0","pricing_plan_id":"free"},{"bike_id":"d726aa56-ccdf-45b0-8464-f07cfa5c9034","system_id":"levelo_inurba_marseille","lat":43.284534,"lon":5.358662,"is_reserved":false,"is_disabled":false,"rental_uris":{"android":"levelo://app?vid=d726aa56-ccdf-45b0-8464-f07cfa5c9034","ios":"levelo://app?vid=d726aa56-ccdf-45b0-8464-f07cfa5c9034"},"vehicle_type_id":"4","last_reported":1702962446,"current_range_meters":31200,"station_id":"ce4bhah2rcd13ifvqei0","pricing_plan_id":"free"},{"bike_id":"28b01e59-ef33-495a-a891-b6984b87f246","system_id":"levelo_inurba_marseille","lat":43.284534,"lon":5.358662,"is_reserved":false,"is_disabled":false,"rental_uris":{"android":"levelo://app?vid=28b01e59-ef33-495a-a891-b6984b87f246","ios":"levelo://app?vid=28b01e59-ef33-495a-a891-b6984b87f246"},"vehicle_type_id":"4","last_reported":1702962446,"current_range_meters":31200,"station_id":"ce4bhah2rcd13ifvqei0","pricing_plan_id":"free"},{"bike_id":"8698dfd8-c3fb-40d3-af4e-6070685bb6e1","system_id":"levelo_inurba_marseille","lat":43.284538,"lon":5.358657,"is_reserved":false,"is_disabled":false,"rental_uris":{"android":"levelo://app?vid=8698dfd8-c3fb-40d3-af4e-6070685bb6e1","ios":"levelo://app?vid=8698dfd8-c3fb-40d3-af4e-6070685bb6e1"},"vehicle_type_id":"4","last_reported":1702962446,"current_range_meters":14800,"station_id":"ce4bhah2rcd13ifvqei0","pricing_plan_id":"free"},{"bike_id":"db1640e1-2a39-406f-8fb0-2f64b3f1530b","system_id":"levelo_inurba_marseille","lat":43.284534,"lon":5.358662,"is_reserved":false,"is_disabled":false,"rental_uris":{"android":"levelo://app?vid=db1640e1-2a39-406f-8fb0-2f64b3f1530b","ios":"levelo://app?vid=db1640e1-2a39-406f-8fb0-2f64b3f1530b"},"vehicle_type_id":"4","last_reported":1702962446,"current_range_meters":14000,"station_id":"ce4bhah2rcd13ifvqei0","pricing_plan_id":"free"},{"bike_id":"abfca168-618c-422a-9406-3027e03f3a0e","system_id":"levelo_inurba_marseille","lat":43.284538,"lon":5.358657,"is_reserved":false,"is_disabled":false,"rental_uris":{"android":"levelo://app?vid=abfca168-618c-422a-9406-3027e03f3a0e","ios":"levelo://app?vid=abfca168-618c-422a-9406-3027e03f3a0e"},"vehicle_type_id":"4","last_reported":1702962446,"current_range_meters":31600,"station_id":"ce4bhah2rcd13ifvqei0","pricing_plan_id":"free"},{"bike_id":"e45047bd-1300-4c9c-b276-bf7f5188a581","system_id":"levelo_inurba_marseille","lat":43.284543,"lon":5.35897,"is_reserved":false,"is_disabled":false,"rental_uris":{"android":"levelo://app?vid=e45047bd-1300-4c9c-b276-bf7f5188a581","ios":"levelo://app?vid=e45047bd-1300-4c9c-b276-bf7f5188a581"},"vehicle_type_id":"4","last_reported":1702962446,"current_range_meters":29600,"station_id":"ce4bhah2rcd13ifvqei0","pricing_plan_id":"free"},{"bike_id":"e716b856-27d5-4194-860e-fa2a934eb2ff","system_id":"levelo_inurba_marseille","lat":43.285848,"lon":5.350787,"is_reserved":false,"is_disabled":false,"rental_uris":{"android":"levelo://app?vid=e716b856-27d5-4194-860e-fa2a934eb2ff","ios":"levelo://app?vid=e716b856-27d5-4194-860e-fa2a934eb2ff"},"vehicle_type_id":"4","last_reported":1702962446,"current_range_meters":31200,"station_id":"ce4bhch2rcd13ifvqeug","pricing_plan_id":"free"},{"bike_id":"e20e166b-263c-4063-b1e1-4e61a6bfba50","system_id":"levelo_inurba_marseille","lat":43.285848,"lon":5.350787,"is_reserved":false,"is_disabled":false,"rental_uris":{"android":"levelo://app?vid=e20e166b-263c-4063-b1e1-4e61a6bfba50","ios":"levelo://app?vid=e20e166b-263c-4063-b1e1-4e61a6bfba50"},"vehicle_type_id":"4","last_reported":1702962446,"current_range_meters":29200,"station_id":"ce4bhch2rcd13ifvqeug","pricing_plan_id":"free"},{"bike_id":"6035fb5e-98e2-4845-b1eb-c1e292f871a9","system_id":"levelo_inurba_marseille","lat":43.285856,"lon":5.350771,"is_reserved":false,"is_disabled":false,"rental_uris":{"android":"levelo://app?vid=6035fb5e-98e2-4845-b1eb-c1e292f871a9","ios":"levelo://app?vid=6035fb5e-98e2-4845-b1eb-c1e292f871a9"},"vehicle_type_id":"4","last_reported":1702962446,"current_range_meters":29600,"station_id":"ce4bhch2rcd13ifvqeug","pricing_plan_id":"free"},{"bike_id":"a14fa1d3-c499-4f96-aeb5-6ff88e1d2544","system_id":"levelo_inurba_marseille","lat":43.283998,"lon":5.375062,"is_reserved":false,"is_disabled":false,"rental_uris":{"android":"levelo://app?vid=a14fa1d3-c499-4f96-aeb5-6ff88e1d2544","ios":"levelo://app?vid=a14fa1d3-c499-4f96-aeb5-6ff88e1d2544"},"vehicle_type_id":"4","last_reported":1702962446,"current_range_meters":31200,"station_id":"ce4bh412rcd13ifvqds0","pricing_plan_id":"free"},{"bike_id":"58b73a26-ce48-4c24-aba4-e41bfbc3338e","system_id":"levelo_inurba_marseille","lat":43.283998,"lon":5.375062,"is_reserved":false,"is_disabled":false,"rental_uris":{"android":"levelo://app?vid=58b73a26-ce48-4c24-aba4-e41bfbc3338e","ios":"levelo://app?vid=58b73a26-ce48-4c24-aba4-e41bfbc3338e"},"vehicle_type_id":"4","last_reported":1702962446,"current_range_meters":15600,"station_id":"ce4bh412rcd13ifvqds0","pricing_plan_id":"free"},{"bike_id":"5ff3cee6-baca-4b2d-be0b-adebf0964c44","system_id":"levelo_inurba_marseille","lat":43.284078,"lon":5.375177,"is_reserved":false,"is_disabled":false,"rental_uris":{"android":"levelo://app?vid=5ff3cee6-baca-4b2d-be0b-adebf0964c44","ios":"levelo://app?vid=5ff3cee6-baca-4b2d-be0b-adebf0964c44"},"vehicle_type_id":"4","last_reported":1702962446,"current_range_meters":18000,"station_id":"ce4bh412rcd13ifvqds0","pricing_plan_id":"free"},{"bike_id":"12ddac80-d080-4bce-9de6-4bede85d8205","system_id":"levelo_inurba_marseille","lat":43.295713,"lon":5.399639,"is_reserved":false,"is_disabled":false,"rental_uris":{"android":"levelo://app?vid=12ddac80-d080-4bce-9de6-4bede85d8205","ios":"levelo://app?vid=12ddac80-d080-4bce-9de6-4bede85d8205"},"vehicle_type_id":"4","last_reported":1702962446,"current_range_meters":24800,"station_id":"ce4bh312rcd13ifvqdj0","pricing_plan_id":"free"},{"bike_id":"8538e6dd-dbef-4a5a-a119-9a857fd021ad","system_id":"levelo_inurba_marseille","lat":43.33218,"lon":5.397067,"is_reserved":false,"is_disabled":false,"rental_uris":{"android":"levelo://app?vid=8538e6dd-dbef-4a5a-a119-9a857fd021ad","ios":"levelo://app?vid=8538e6dd-dbef-4a5a-a119-9a857fd021ad"},"vehicle_type_id":"4","last_reported":1702962446,"current_range_meters":2800,"station_id":"","pricing_plan_id":"free"},{"bike_id":"e4304c4b-a0aa-4411-82c6-5274d41af797","system_id":"levelo_inurba_marseille","lat":43.295713,"lon":5.399639,"is_reserved":false,"is_disabled":false,"rental_uris":{"android":"levelo://app?vid=e4304c4b-a0aa-4411-82c6-5274d41af797","ios":"levelo://app?vid=e4304c4b-a0aa-4411-82c6-5274d41af797"},"vehicle_type_id":"4","last_reported":1702962446,"current_range_meters":30000,"station_id":"ce4bh312rcd13ifvqdj0","pricing_plan_id":"free"},{"bike_id":"a928caf6-6692-4747-9a87-6d17c15517b1","system_id":"levelo_inurba_marseille","lat":43.323464,"lon":5.406297,"is_reserved":false,"is_disabled":false,"rental_uris":{"android":"levelo://app?vid=a928caf6-6692-4747-9a87-6d17c15517b1","ios":"levelo://app?vid=a928caf6-6692-4747-9a87-6d17c15517b1"},"vehicle_type_id":"4","last_reported":1702962446,"current_range_meters":22000,"station_id":"ce4bhq92rcd13ifvqhjg","pricing_plan_id":"free"},{"bike_id":"6ef61fad-a186-4f16-b238-060b73663567","system_id":"levelo_inurba_marseille","lat":43.323464,"lon":5.406297,"is_reserved":false,"is_disabled":false,"rental_uris":{"android":"levelo://app?vid=6ef61fad-a186-4f16-b238-060b73663567","ios":"levelo://app?vid=6ef61fad-a186-4f16-b238-060b73663567"},"vehicle_type_id":"4","last_reported":1702962446,"current_range_meters":31200,"station_id":"ce4bhq92rcd13ifvqhjg","pricing_plan_id":"free"},{"bike_id":"18e7facd-1023-4c6b-85b7-81049600964e","system_id":"levelo_inurba_marseille","lat":43.323464,"lon":5.406297,"is_reserved":false,"is_disabled":false,"rental_uris":{"android":"levelo://app?vid=18e7facd-1023-4c6b-85b7-81049600964e","ios":"levelo://app?vid=18e7facd-1023-4c6b-85b7-81049600964e"},"vehicle_type_id":"4","last_reported":1702962446,"current_range_meters":31200,"station_id":"ce4bhq92rcd13ifvqhjg","pricing_plan_id":"free"},{"bike_id":"5be60017-d2e1-4256-9c11-66c17e032b85","system_id":"levelo_inurba_marseille","lat":43.323464,"lon":5.406297,"is_reserved":false,"is_disabled":false,"rental_uris":{"android":"levelo://app?vid=5be60017-d2e1-4256-9c11-66c17e032b85","ios":"levelo://app?vid=5be60017-d2e1-4256-9c11-66c17e032b85"},"vehicle_type_id":"4","last_reported":1702962446,"current_range_meters":28000,"station_id":"ce4bhq92rcd13ifvqhjg","pricing_plan_id":"free"},{"bike_id":"65ffdd0f-c51c-409e-8447-8af22222a32b","system_id":"levelo_inurba_marseille","lat":43.304296,"lon":5.397513,"is_reserved":false,"is_disabled":false,"rental_uris":{"android":"levelo://app?vid=65ffdd0f-c51c-409e-8447-8af22222a32b","ios":"levelo://app?vid=65ffdd0f-c51c-409e-8447-8af22222a32b"},"vehicle_type_id":"4","last_reported":1702962446,"current_range_meters":26000,"station_id":"ce4bh092rcd13ifvqd20","pricing_plan_id":"free"},{"bike_id":"8d3b5ca2-25e8-4c0c-b6b4-eaa12d7b4387","system_id":"levelo_inurba_marseille","lat":43.29795,"lon":5.404086,"is_reserved":false,"is_disabled":false,"rental_uris":{"android":"levelo://app?vid=8d3b5ca2-25e8-4c0c-b6b4-eaa12d7b4387","ios":"levelo://app?vid=8d3b5ca2-25e8-4c0c-b6b4-eaa12d7b4387"},"vehicle_type_id":"4","last_reported":1702962446,"current_range_meters":2400,"station_id":"ce4bh112rcd13ifvqd90","pricing_plan_id":"free"},{"bike_id":"ccb5080c-49d6-40d9-8d31-1351879c5d60","system_id":"levelo_inurba_marseille","lat":43.29795,"lon":5.404086,"is_reserved":false,"is_disabled":false,"rental_uris":{"android":"levelo://app?vid=ccb5080c-49d6-40d9-8d31-1351879c5d60","ios":"levelo://app?vid=ccb5080c-49d6-40d9-8d31-1351879c5d60"},"vehicle_type_id":"4","last_reported":1702962446,"current_range_meters":29600,"station_id":"ce4bh112rcd13ifvqd90","pricing_plan_id":"free"},{"bike_id":"a87e94a3-4c57-402f-a326-3cdec034ed0c","system_id":"levelo_inurba_marseille","lat":43.283494,"lon":5.380945,"is_reserved":false,"is_disabled":false,"rental_uris":{"android":"levelo://app?vid=a87e94a3-4c57-402f-a326-3cdec034ed0c","ios":"levelo://app?vid=a87e94a3-4c57-402f-a326-3cdec034ed0c"},"vehicle_type_id":"4","last_reported":1702962446,"current_range_meters":27200,"station_id":"ce4bh412rcd13ifvqdr0","pricing_plan_id":"free"},{"bike_id":"35e5c977-c3ec-4302-85e4-7f44ba15ca6f","system_id":"levelo_inurba_marseille","lat":43.306412,"lon":5.401035,"is_reserved":false,"is_disabled":false,"rental_uris":{"android":"levelo://app?vid=35e5c977-c3ec-4302-85e4-7f44ba15ca6f","ios":"levelo://app?vid=35e5c977-c3ec-4302-85e4-7f44ba15ca6f"},"vehicle_type_id":"4","last_reported":1702962446,"current_range_meters":24400,"station_id":"ce4bh112rcd13ifvqda0","pricing_plan_id":"free"},{"bike_id":"7af47120-81af-414f-b572-381f9a6338bc","system_id":"levelo_inurba_marseille","lat":43.292724,"lon":5.401131,"is_reserved":false,"is_disabled":false,"rental_uris":{"android":"levelo://app?vid=7af47120-81af-414f-b572-381f9a6338bc","ios":"levelo://app?vid=7af47120-81af-414f-b572-381f9a6338bc"},"vehicle_type_id":"4","last_reported":1702962446,"current_range_meters":26800,"station_id":"ce4bh312rcd13ifvqdk0","pricing_plan_id":"free"},{"bike_id":"b9def988-9d82-4635-b0e1-b7f83faf43e9","system_id":"levelo_inurba_marseille","lat":43.292781,"lon":5.401254,"is_reserved":false,"is_disabled":false,"rental_uris":{"android":"levelo://app?vid=b9def988-9d82-4635-b0e1-b7f83faf43e9","ios":"levelo://app?vid=b9def988-9d82-4635-b0e1-b7f83faf43e9"},"vehicle_type_id":"4","last_reported":1702962446,"current_range_meters":3200,"station_id":"ce4bh312rcd13ifvqdk0","pricing_plan_id":"free"},{"bike_id":"0e295547-7c3a-41b7-b100-5cc34e9d9a27","system_id":"levelo_inurba_marseille","lat":43.292724,"lon":5.401131,"is_reserved":false,"is_disabled":false,"rental_uris":{"android":"levelo://app?vid=0e295547-7c3a-41b7-b100-5cc34e9d9a27","ios":"levelo://app?vid=0e295547-7c3a-41b7-b100-5cc34e9d9a27"},"vehicle_type_id":"4","last_reported":1702962446,"current_range_meters":31200,"station_id":"ce4bh312rcd13ifvqdk0","pricing_plan_id":"free"},{"bike_id":"96aa4a73-56d2-4f7c-ba8a-a64633a55b35","system_id":"levelo_inurba_marseille","lat":43.282744,"lon":5.350533,"is_reserved":false,"is_disabled":false,"rental_uris":{"android":"levelo://app?vid=96aa4a73-56d2-4f7c-ba8a-a64633a55b35","ios":"levelo://app?vid=96aa4a73-56d2-4f7c-ba8a-a64633a55b35"},"vehicle_type_id":"4","last_reported":1702962446,"current_range_meters":30000,"station_id":"ce4bhbp2rcd13ifvqerg","pricing_plan_id":"free"},{"bike_id":"a5d67dbf-0ebe-4708-ba5e-495f891f2faf","system_id":"levelo_inurba_marseille","lat":43.28039,"lon":5.369297,"is_reserved":false,"is_disabled":false,"rental_uris":{"android":"levelo://app?vid=a5d67dbf-0ebe-4708-ba5e-495f891f2faf","ios":"levelo://app?vid=a5d67dbf-0ebe-4708-ba5e-495f891f2faf"},"vehicle_type_id":"4","last_reported":1702962446,"current_range_meters":30800,"station_id":"ce4bha12rcd13ifvqef0","pricing_plan_id":"free"},{"bike_id":"0f4b3701-45ad-47a6-b51c-148814cb7027","system_id":"levelo_inurba_marseille","lat":43.28039,"lon":5.369297,"is_reserved":false,"is_disabled":false,"rental_uris":{"android":"levelo://app?vid=0f4b3701-45ad-47a6-b51c-148814cb7027","ios":"levelo://app?vid=0f4b3701-45ad-47a6-b51c-148814cb7027"},"vehicle_type_id":"4","last_reported":1702962446,"current_range_meters":19200,"station_id":"ce4bha12rcd13ifvqef0","pricing_plan_id":"free"},{"bike_id":"66c731f4-edb2-4555-89c0-208b59c345f8","system_id":"levelo_inurba_marseille","lat":43.280382,"lon":5.369291,"is_reserved":false,"is_disabled":false,"rental_uris":{"android":"levelo://app?vid=66c731f4-edb2-4555-89c0-208b59c345f8","ios":"levelo://app?vid=66c731f4-edb2-4555-89c0-208b59c345f8"},"vehicle_type_id":"4","last_reported":1702962446,"current_range_meters":27200,"station_id":"ce4bha12rcd13ifvqef0","pricing_plan_id":"free"},{"bike_id":"5b3af113-5880-4973-a267-879613100678","system_id":"levelo_inurba_marseille","lat":43.29041,"lon":5.399634,"is_reserved":false,"is_disabled":false,"rental_uris":{"android":"levelo://app?vid=5b3af113-5880-4973-a267-879613100678","ios":"levelo://app?vid=5b3af113-5880-4973-a267-879613100678"},"vehicle_type_id":"4","last_reported":1702962446,"current_range_meters":28000,"station_id":"ce4bh392rcd13ifvqdm0","pricing_plan_id":"free"},{"bike_id":"941a2c51-81cd-4912-8f8f-c1a817b49507","system_id":"levelo_inurba_marseille","lat":43.281044,"lon":5.378308,"is_reserved":false,"is_disabled":false,"rental_uris":{"android":"levelo://app?vid=941a2c51-81cd-4912-8f8f-c1a817b49507","ios":"levelo://app?vid=941a2c51-81cd-4912-8f8f-c1a817b49507"},"vehicle_type_id":"4","last_reported":1702962446,"current_range_meters":31600,"station_id":"ce4bha12rcd13ifvqee0","pricing_plan_id":"free"},{"bike_id":"fa824c7f-698d-459b-bb98-9c7e13d5d3d3","system_id":"levelo_inurba_marseille","lat":43.281044,"lon":5.378308,"is_reserved":false,"is_disabled":false,"rental_uris":{"android":"levelo://app?vid=fa824c7f-698d-459b-bb98-9c7e13d5d3d3","ios":"levelo://app?vid=fa824c7f-698d-459b-bb98-9c7e13d5d3d3"},"vehicle_type_id":"4","last_reported":1702962446,"current_range_meters":30000,"station_id":"ce4bha12rcd13ifvqee0","pricing_plan_id":"free"},{"bike_id":"df667ce7-861b-4645-9da0-64be3943c887","system_id":"levelo_inurba_marseille","lat":43.281044,"lon":5.378308,"is_reserved":false,"is_disabled":false,"rental_uris":{"android":"levelo://app?vid=df667ce7-861b-4645-9da0-64be3943c887","ios":"levelo://app?vid=df667ce7-861b-4645-9da0-64be3943c887"},"vehicle_type_id":"4","last_reported":1702962446,"current_range_meters":30400,"station_id":"ce4bha12rcd13ifvqee0","pricing_plan_id":"free"},{"bike_id":"62fb25e5-2342-4ff4-9fbd-99be4c2736ab","system_id":"levelo_inurba_marseille","lat":43.281044,"lon":5.378308,"is_reserved":false,"is_disabled":false,"rental_uris":{"android":"levelo://app?vid=62fb25e5-2342-4ff4-9fbd-99be4c2736ab","ios":"levelo://app?vid=62fb25e5-2342-4ff4-9fbd-99be4c2736ab"},"vehicle_type_id":"4","last_reported":1702962446,"current_range_meters":30400,"station_id":"ce4bha12rcd13ifvqee0","pricing_plan_id":"free"},{"bike_id":"1e61c6cf-8656-47d0-b335-879748a660e0","system_id":"levelo_inurba_marseille","lat":43.281044,"lon":5.378308,"is_reserved":false,"is_disabled":false,"rental_uris":{"android":"levelo://app?vid=1e61c6cf-8656-47d0-b335-879748a660e0","ios":"levelo://app?vid=1e61c6cf-8656-47d0-b335-879748a660e0"},"vehicle_type_id":"4","last_reported":1702962446,"current_range_meters":28800,"station_id":"ce4bha12rcd13ifvqee0","pricing_plan_id":"free"},{"bike_id":"6c70e31b-4275-4d81-95ec-873decc8e0d7","system_id":"levelo_inurba_marseille","lat":43.296263,"lon":5.40601,"is_reserved":false,"is_disabled":false,"rental_uris":{"android":"levelo://app?vid=6c70e31b-4275-4d81-95ec-873decc8e0d7","ios":"levelo://app?vid=6c70e31b-4275-4d81-95ec-873decc8e0d7"},"vehicle_type_id":"4","last_reported":1702962446,"current_range_meters":18000,"station_id":"ce4bh0h2rcd13ifvqd60","pricing_plan_id":"free"},{"bike_id":"46b203b6-4dab-4050-9c7b-e75ce42cd21e","system_id":"levelo_inurba_marseille","lat":43.290197,"lon":5.399707,"is_reserved":false,"is_disabled":false,"rental_uris":{"android":"levelo://app?vid=46b203b6-4dab-4050-9c7b-e75ce42cd21e","ios":"levelo://app?vid=46b203b6-4dab-4050-9c7b-e75ce42cd21e"},"vehicle_type_id":"4","last_reported":1702962446,"current_range_meters":28800,"station_id":"ce4bh392rcd13ifvqdm0","pricing_plan_id":"free"},{"bike_id":"e4d45c23-d63a-4672-a031-cf01e22137ff","system_id":"levelo_inurba_marseille","lat":43.2963,"lon":5.40597,"is_reserved":false,"is_disabled":false,"rental_uris":{"android":"levelo://app?vid=e4d45c23-d63a-4672-a031-cf01e22137ff","ios":"levelo://app?vid=e4d45c23-d63a-4672-a031-cf01e22137ff"},"vehicle_type_id":"4","last_reported":1702962446,"current_range_meters":30000,"station_id":"ce4bh0h2rcd13ifvqd60","pricing_plan_id":"free"},{"bike_id":"90216c5e-2193-4d97-b9c4-bba1b9336294","system_id":"levelo_inurba_marseille","lat":43.28573,"lon":5.394992,"is_reserved":false,"is_disabled":false,"rental_uris":{"android":"levelo://app?vid=90216c5e-2193-4d97-b9c4-bba1b9336294","ios":"levelo://app?vid=90216c5e-2193-4d97-b9c4-bba1b9336294"},"vehicle_type_id":"4","last_reported":1702962446,"current_range_meters":31200,"station_id":"ce4bh292rcd13ifvqdg0","pricing_plan_id":"free"},{"bike_id":"1747d0be-3f49-4f99-9143-5c2e3cc096a6","system_id":"levelo_inurba_marseille","lat":43.304188,"lon":5.412904,"is_reserved":false,"is_disabled":false,"rental_uris":{"android":"levelo://app?vid=1747d0be-3f49-4f99-9143-5c2e3cc096a6","ios":"levelo://app?vid=1747d0be-3f49-4f99-9143-5c2e3cc096a6"},"vehicle_type_id":"4","last_reported":1702962446,"current_range_meters":19600,"station_id":"ce4bhop2rcd13ifvqh8g","pricing_plan_id":"free"},{"bike_id":"31a79384-b95f-4ca5-b533-9b47f852a4cc","system_id":"levelo_inurba_marseille","lat":43.304188,"lon":5.412904,"is_reserved":false,"is_disabled":false,"rental_uris":{"android":"levelo://app?vid=31a79384-b95f-4ca5-b533-9b47f852a4cc","ios":"levelo://app?vid=31a79384-b95f-4ca5-b533-9b47f852a4cc"},"vehicle_type_id":"4","last_reported":1702962446,"current_range_meters":31200,"station_id":"ce4bhop2rcd13ifvqh8g","pricing_plan_id":"free"},{"bike_id":"0b046885-e5aa-46c3-b63b-1ce658d7b2b6","system_id":"levelo_inurba_marseille","lat":43.304188,"lon":5.412904,"is_reserved":false,"is_disabled":false,"rental_uris":{"android":"levelo://app?vid=0b046885-e5aa-46c3-b63b-1ce658d7b2b6","ios":"levelo://app?vid=0b046885-e5aa-46c3-b63b-1ce658d7b2b6"},"vehicle_type_id":"4","last_reported":1702962446,"current_range_meters":26000,"station_id":"ce4bhop2rcd13ifvqh8g","pricing_plan_id":"free"},{"bike_id":"268ef7c2-c243-494a-a56f-aca6ab063c15","system_id":"levelo_inurba_marseille","lat":43.304188,"lon":5.412904,"is_reserved":false,"is_disabled":false,"rental_uris":{"android":"levelo://app?vid=268ef7c2-c243-494a-a56f-aca6ab063c15","ios":"levelo://app?vid=268ef7c2-c243-494a-a56f-aca6ab063c15"},"vehicle_type_id":"4","last_reported":1702962446,"current_range_meters":31600,"station_id":"ce4bhop2rcd13ifvqh8g","pricing_plan_id":"free"},{"bike_id":"c1a892fa-ea3b-4308-8ab6-cf6502b6027c","system_id":"levelo_inurba_marseille","lat":43.287154,"lon":5.399979,"is_reserved":false,"is_disabled":false,"rental_uris":{"android":"levelo://app?vid=c1a892fa-ea3b-4308-8ab6-cf6502b6027c","ios":"levelo://app?vid=c1a892fa-ea3b-4308-8ab6-cf6502b6027c"},"vehicle_type_id":"4","last_reported":1702962446,"current_range_meters":31200,"station_id":"ce4bho92rcd13ifvqh3g","pricing_plan_id":"free"},{"bike_id":"2bbfe932-524c-4962-9e47-c95036c37112","system_id":"levelo_inurba_marseille","lat":43.299579,"lon":5.413255,"is_reserved":false,"is_disabled":false,"rental_uris":{"android":"levelo://app?vid=2bbfe932-524c-4962-9e47-c95036c37112","ios":"levelo://app?vid=2bbfe932-524c-4962-9e47-c95036c37112"},"vehicle_type_id":"4","last_reported":1702962446,"current_range_meters":28800,"station_id":"ce4bhp12rcd13ifvqh9g","pricing_plan_id":"free"},{"bike_id":"89508d0f-e74e-43de-9316-936ef4bd1896","system_id":"levelo_inurba_marseille","lat":43.299579,"lon":5.413255,"is_reserved":false,"is_disabled":false,"rental_uris":{"android":"levelo://app?vid=89508d0f-e74e-43de-9316-936ef4bd1896","ios":"levelo://app?vid=89508d0f-e74e-43de-9316-936ef4bd1896"},"vehicle_type_id":"4","last_reported":1702962446,"current_range_meters":31200,"station_id":"ce4bhp12rcd13ifvqh9g","pricing_plan_id":"free"},{"bike_id":"1a6e150a-bd8c-4eb2-ad97-c6b085c1d495","system_id":"levelo_inurba_marseille","lat":43.292571,"lon":5.409107,"is_reserved":false,"is_disabled":false,"rental_uris":{"android":"levelo://app?vid=1a6e150a-bd8c-4eb2-ad97-c6b085c1d495","ios":"levelo://app?vid=1a6e150a-bd8c-4eb2-ad97-c6b085c1d495"},"vehicle_type_id":"4","last_reported":1702962446,"current_range_meters":24000,"station_id":"ce4bh192rcd13ifvqdc0","pricing_plan_id":"free"},{"bike_id":"d74a7ffa-1774-4299-863a-49095cdb3463","system_id":"levelo_inurba_marseille","lat":43.292569,"lon":5.409107,"is_reserved":false,"is_disabled":false,"rental_uris":{"android":"levelo://app?vid=d74a7ffa-1774-4299-863a-49095cdb3463","ios":"levelo://app?vid=d74a7ffa-1774-4299-863a-49095cdb3463"},"vehicle_type_id":"4","last_reported":1702962446,"current_range_meters":31200,"station_id":"ce4bh192rcd13ifvqdc0","pricing_plan_id":"free"},{"bike_id":"5bbff7a4-70f1-4a10-b207-d9ae9531b5bc","system_id":"levelo_inurba_marseille","lat":43.292524,"lon":5.40907,"is_reserved":false,"is_disabled":false,"rental_uris":{"android":"levelo://app?vid=5bbff7a4-70f1-4a10-b207-d9ae9531b5bc","ios":"levelo://app?vid=5bbff7a4-70f1-4a10-b207-d9ae9531b5bc"},"vehicle_type_id":"4","last_reported":1702962446,"current_range_meters":30800,"station_id":"ce4bh192rcd13ifvqdc0","pricing_plan_id":"free"},{"bike_id":"c5dcbd5a-0763-49e1-be7f-724129c74ec9","system_id":"levelo_inurba_marseille","lat":43.292579,"lon":5.409137,"is_reserved":false,"is_disabled":false,"rental_uris":{"android":"levelo://app?vid=c5dcbd5a-0763-49e1-be7f-724129c74ec9","ios":"levelo://app?vid=c5dcbd5a-0763-49e1-be7f-724129c74ec9"},"vehicle_type_id":"4","last_reported":1702962446,"current_range_meters":31200,"station_id":"ce4bh192rcd13ifvqdc0","pricing_plan_id":"free"},{"bike_id":"449d0cfe-789a-401d-827a-8b2a41fd710e","system_id":"levelo_inurba_marseille","lat":43.292569,"lon":5.409107,"is_reserved":false,"is_disabled":false,"rental_uris":{"android":"levelo://app?vid=449d0cfe-789a-401d-827a-8b2a41fd710e","ios":"levelo://app?vid=449d0cfe-789a-401d-827a-8b2a41fd710e"},"vehicle_type_id":"4","last_reported":1702962446,"current_range_meters":26800,"station_id":"ce4bh192rcd13ifvqdc0","pricing_plan_id":"free"},{"bike_id":"b73b1dc9-66f1-4f8b-9dc1-65b99e7137a5","system_id":"levelo_inurba_marseille","lat":43.325233,"lon":5.414318,"is_reserved":false,"is_disabled":false,"rental_uris":{"android":"levelo://app?vid=b73b1dc9-66f1-4f8b-9dc1-65b99e7137a5","ios":"levelo://app?vid=b73b1dc9-66f1-4f8b-9dc1-65b99e7137a5"},"vehicle_type_id":"4","last_reported":1702962446,"current_range_meters":30000,"station_id":"ce4bhq12rcd13ifvqhhg","pricing_plan_id":"free"},{"bike_id":"c6c2626a-c95f-4aa0-b696-4a5e8e83d1d9","system_id":"levelo_inurba_marseille","lat":43.276179,"lon":5.361009,"is_reserved":false,"is_disabled":false,"rental_uris":{"android":"levelo://app?vid=c6c2626a-c95f-4aa0-b696-4a5e8e83d1d9","ios":"levelo://app?vid=c6c2626a-c95f-4aa0-b696-4a5e8e83d1d9"},"vehicle_type_id":"4","last_reported":1702962446,"current_range_meters":30800,"station_id":"ce4bgj92rcd13ifvqbe0","pricing_plan_id":"free"},{"bike_id":"5c16e7b1-ad3c-415e-9c50-38d7e7b2caf0","system_id":"levelo_inurba_marseille","lat":43.283225,"lon":5.399928,"is_reserved":false,"is_disabled":false,"rental_uris":{"android":"levelo://app?vid=5c16e7b1-ad3c-415e-9c50-38d7e7b2caf0","ios":"levelo://app?vid=5c16e7b1-ad3c-415e-9c50-38d7e7b2caf0"},"vehicle_type_id":"4","last_reported":1702962446,"current_range_meters":5600,"station_id":"","pricing_plan_id":"free"},{"bike_id":"f29640c0-786e-494c-878e-fbbb4327ee64","system_id":"levelo_inurba_marseille","lat":43.280784,"lon":5.396622,"is_reserved":false,"is_disabled":false,"rental_uris":{"android":"levelo://app?vid=f29640c0-786e-494c-878e-fbbb4327ee64","ios":"levelo://app?vid=f29640c0-786e-494c-878e-fbbb4327ee64"},"vehicle_type_id":"4","last_reported":1702962446,"current_range_meters":30800,"station_id":"ce4bho12rcd13ifvqh2g","pricing_plan_id":"free"},{"bike_id":"0181ab59-0d44-41b9-8508-edccf0ff6457","system_id":"levelo_inurba_marseille","lat":43.280784,"lon":5.396622,"is_reserved":false,"is_disabled":false,"rental_uris":{"android":"levelo://app?vid=0181ab59-0d44-41b9-8508-edccf0ff6457","ios":"levelo://app?vid=0181ab59-0d44-41b9-8508-edccf0ff6457"},"vehicle_type_id":"4","last_reported":1702962446,"current_range_meters":26000,"station_id":"ce4bho12rcd13ifvqh2g","pricing_plan_id":"free"},{"bike_id":"8b1851da-d66b-45ec-9353-58aa2160164c","system_id":"levelo_inurba_marseille","lat":43.303837,"lon":5.418724,"is_reserved":false,"is_disabled":false,"rental_uris":{"android":"levelo://app?vid=8b1851da-d66b-45ec-9353-58aa2160164c","ios":"levelo://app?vid=8b1851da-d66b-45ec-9353-58aa2160164c"},"vehicle_type_id":"4","last_reported":1702962446,"current_range_meters":7200,"station_id":"ce4bhop2rcd13ifvqh7g","pricing_plan_id":"free"},{"bike_id":"e94e13f3-f594-4acd-aa05-5e1d8486471b","system_id":"levelo_inurba_marseille","lat":43.273613,"lon":5.362705,"is_reserved":false,"is_disabled":false,"rental_uris":{"android":"levelo://app?vid=e94e13f3-f594-4acd-aa05-5e1d8486471b","ios":"levelo://app?vid=e94e13f3-f594-4acd-aa05-5e1d8486471b"},"vehicle_type_id":"4","last_reported":1702962446,"current_range_meters":25200,"station_id":"ce4bhbh2rcd13ifvqeo0","pricing_plan_id":"free"},{"bike_id":"f996f3ce-2216-4c22-9db2-07da66ae9a3f","system_id":"levelo_inurba_marseille","lat":43.275625,"lon":5.384392,"is_reserved":false,"is_disabled":false,"rental_uris":{"android":"levelo://app?vid=f996f3ce-2216-4c22-9db2-07da66ae9a3f","ios":"levelo://app?vid=f996f3ce-2216-4c22-9db2-07da66ae9a3f"},"vehicle_type_id":"4","last_reported":1702962446,"current_range_meters":24800,"station_id":"ce4bhh92rcd13ifvqfi0","pricing_plan_id":"free"},{"bike_id":"f6cd6077-b59c-4daf-968f-1a651ace9597","system_id":"levelo_inurba_marseille","lat":43.273609,"lon":5.362708,"is_reserved":false,"is_disabled":false,"rental_uris":{"android":"levelo://app?vid=f6cd6077-b59c-4daf-968f-1a651ace9597","ios":"levelo://app?vid=f6cd6077-b59c-4daf-968f-1a651ace9597"},"vehicle_type_id":"4","last_reported":1702962446,"current_range_meters":28400,"station_id":"ce4bhbh2rcd13ifvqeo0","pricing_plan_id":"free"},{"bike_id":"3ae68a8e-ba89-47c0-8ae4-e34cd027ed44","system_id":"levelo_inurba_marseille","lat":43.275625,"lon":5.384392,"is_reserved":false,"is_disabled":false,"rental_uris":{"android":"levelo://app?vid=3ae68a8e-ba89-47c0-8ae4-e34cd027ed44","ios":"levelo://app?vid=3ae68a8e-ba89-47c0-8ae4-e34cd027ed44"},"vehicle_type_id":"4","last_reported":1702962446,"current_range_meters":30400,"station_id":"ce4bhh92rcd13ifvqfi0","pricing_plan_id":"free"},{"bike_id":"45b971d8-3326-42fc-8bd8-0ea0ae119c67","system_id":"levelo_inurba_marseille","lat":43.275625,"lon":5.384392,"is_reserved":false,"is_disabled":false,"rental_uris":{"android":"levelo://app?vid=45b971d8-3326-42fc-8bd8-0ea0ae119c67","ios":"levelo://app?vid=45b971d8-3326-42fc-8bd8-0ea0ae119c67"},"vehicle_type_id":"4","last_reported":1702962446,"current_range_meters":26400,"station_id":"ce4bhh92rcd13ifvqfi0","pricing_plan_id":"free"},{"bike_id":"82b9e3e2-fc9c-4cda-b49b-c24e8b7bdbc3","system_id":"levelo_inurba_marseille","lat":43.275625,"lon":5.384392,"is_reserved":false,"is_disabled":false,"rental_uris":{"android":"levelo://app?vid=82b9e3e2-fc9c-4cda-b49b-c24e8b7bdbc3","ios":"levelo://app?vid=82b9e3e2-fc9c-4cda-b49b-c24e8b7bdbc3"},"vehicle_type_id":"4","last_reported":1702962446,"current_range_meters":26000,"station_id":"ce4bhh92rcd13ifvqfi0","pricing_plan_id":"free"},{"bike_id":"52b8022a-e222-4c84-a794-bdc0da738d26","system_id":"levelo_inurba_marseille","lat":43.33609,"lon":5.41021,"is_reserved":false,"is_disabled":false,"rental_uris":{"android":"levelo://app?vid=52b8022a-e222-4c84-a794-bdc0da738d26","ios":"levelo://app?vid=52b8022a-e222-4c84-a794-bdc0da738d26"},"vehicle_type_id":"4","last_reported":1702962446,"current_range_meters":26000,"station_id":"","pricing_plan_id":"free"},{"bike_id":"30088e7d-507c-4de8-9333-54f57ee138d7","system_id":"levelo_inurba_marseille","lat":43.275625,"lon":5.384392,"is_reserved":false,"is_disabled":false,"rental_uris":{"android":"levelo://app?vid=30088e7d-507c-4de8-9333-54f57ee138d7","ios":"levelo://app?vid=30088e7d-507c-4de8-9333-54f57ee138d7"},"vehicle_type_id":"4","last_reported":1702962446,"current_range_meters":400,"station_id":"ce4bhh92rcd13ifvqfi0","pricing_plan_id":"free"},{"bike_id":"31105b0d-9caa-458e-be21-970bd74394ad","system_id":"levelo_inurba_marseille","lat":43.32409,"lon":5.42,"is_reserved":false,"is_disabled":false,"rental_uris":{"android":"levelo://app?vid=31105b0d-9caa-458e-be21-970bd74394ad","ios":"levelo://app?vid=31105b0d-9caa-458e-be21-970bd74394ad"},"vehicle_type_id":"4","last_reported":1702962446,"current_range_meters":30000,"station_id":"","pricing_plan_id":"free"},{"bike_id":"fb498f2c-2db4-4c98-8923-a005d38221d2","system_id":"levelo_inurba_marseille","lat":43.279952,"lon":5.400085,"is_reserved":false,"is_disabled":false,"rental_uris":{"android":"levelo://app?vid=fb498f2c-2db4-4c98-8923-a005d38221d2","ios":"levelo://app?vid=fb498f2c-2db4-4c98-8923-a005d38221d2"},"vehicle_type_id":"4","last_reported":1702962446,"current_range_meters":28800,"station_id":"ce4bho92rcd13ifvqh4g","pricing_plan_id":"free"},{"bike_id":"cae25428-d9bf-485f-81f8-16fff4106245","system_id":"levelo_inurba_marseille","lat":43.279952,"lon":5.400085,"is_reserved":false,"is_disabled":false,"rental_uris":{"android":"levelo://app?vid=cae25428-d9bf-485f-81f8-16fff4106245","ios":"levelo://app?vid=cae25428-d9bf-485f-81f8-16fff4106245"},"vehicle_type_id":"4","last_reported":1702962446,"current_range_meters":24800,"station_id":"ce4bho92rcd13ifvqh4g","pricing_plan_id":"free"},{"bike_id":"0133b275-2bf9-4cc6-952a-68cc5f44ce46","system_id":"levelo_inurba_marseille","lat":43.317121,"lon":5.423936,"is_reserved":false,"is_disabled":false,"rental_uris":{"android":"levelo://app?vid=0133b275-2bf9-4cc6-952a-68cc5f44ce46","ios":"levelo://app?vid=0133b275-2bf9-4cc6-952a-68cc5f44ce46"},"vehicle_type_id":"4","last_reported":1702962446,"current_range_meters":30000,"station_id":"ce4bhp92rcd13ifvqhbg","pricing_plan_id":"free"},{"bike_id":"5038e607-b989-41bb-9c54-ed2ea5c90042","system_id":"levelo_inurba_marseille","lat":43.317121,"lon":5.423936,"is_reserved":false,"is_disabled":false,"rental_uris":{"android":"levelo://app?vid=5038e607-b989-41bb-9c54-ed2ea5c90042","ios":"levelo://app?vid=5038e607-b989-41bb-9c54-ed2ea5c90042"},"vehicle_type_id":"4","last_reported":1702962446,"current_range_meters":30800,"station_id":"ce4bhp92rcd13ifvqhbg","pricing_plan_id":"free"},{"bike_id":"b5c8bc8c-2110-4f47-9c40-399eb17ff193","system_id":"levelo_inurba_marseille","lat":43.317121,"lon":5.423936,"is_reserved":false,"is_disabled":false,"rental_uris":{"android":"levelo://app?vid=b5c8bc8c-2110-4f47-9c40-399eb17ff193","ios":"levelo://app?vid=b5c8bc8c-2110-4f47-9c40-399eb17ff193"},"vehicle_type_id":"4","last_reported":1702962446,"current_range_meters":31200,"station_id":"ce4bhp92rcd13ifvqhbg","pricing_plan_id":"free"},{"bike_id":"c4a5c924-f3eb-4034-998e-839c0ed11382","system_id":"levelo_inurba_marseille","lat":43.340804,"lon":5.410219,"is_reserved":false,"is_disabled":false,"rental_uris":{"android":"levelo://app?vid=c4a5c924-f3eb-4034-998e-839c0ed11382","ios":"levelo://app?vid=c4a5c924-f3eb-4034-998e-839c0ed11382"},"vehicle_type_id":"4","last_reported":1702962446,"current_range_meters":28000,"station_id":"ce4bhqh2rcd13ifvqhlg","pricing_plan_id":"free"},{"bike_id":"e6c9fe07-39dc-43bf-9fee-d6709efac1ef","system_id":"levelo_inurba_marseille","lat":43.340804,"lon":5.410219,"is_reserved":false,"is_disabled":false,"rental_uris":{"android":"levelo://app?vid=e6c9fe07-39dc-43bf-9fee-d6709efac1ef","ios":"levelo://app?vid=e6c9fe07-39dc-43bf-9fee-d6709efac1ef"},"vehicle_type_id":"4","last_reported":1702962446,"current_range_meters":3200,"station_id":"ce4bhqh2rcd13ifvqhlg","pricing_plan_id":"free"},{"bike_id":"974dc7db-ff3c-4554-8964-132f9db52d9b","system_id":"levelo_inurba_marseille","lat":43.276092,"lon":5.395289,"is_reserved":false,"is_disabled":false,"rental_uris":{"android":"levelo://app?vid=974dc7db-ff3c-4554-8964-132f9db52d9b","ios":"levelo://app?vid=974dc7db-ff3c-4554-8964-132f9db52d9b"},"vehicle_type_id":"4","last_reported":1702962446,"current_range_meters":9200,"station_id":"","pricing_plan_id":"free"},{"bike_id":"fd98eaf7-5fda-4f94-b1c2-8ddba9ff4778","system_id":"levelo_inurba_marseille","lat":43.27316,"lon":5.39081,"is_reserved":false,"is_disabled":false,"rental_uris":{"android":"levelo://app?vid=fd98eaf7-5fda-4f94-b1c2-8ddba9ff4778","ios":"levelo://app?vid=fd98eaf7-5fda-4f94-b1c2-8ddba9ff4778"},"vehicle_type_id":"4","last_reported":1702962446,"current_range_meters":28800,"station_id":"","pricing_plan_id":"free"},{"bike_id":"3cfccba8-f3c6-422f-bec0-1d7a4825ad24","system_id":"levelo_inurba_marseille","lat":43.304096,"lon":5.425385,"is_reserved":false,"is_disabled":false,"rental_uris":{"android":"levelo://app?vid=3cfccba8-f3c6-422f-bec0-1d7a4825ad24","ios":"levelo://app?vid=3cfccba8-f3c6-422f-bec0-1d7a4825ad24"},"vehicle_type_id":"4","last_reported":1702962446,"current_range_meters":30800,"station_id":"ce4bhoh2rcd13ifvqh6g","pricing_plan_id":"free"},{"bike_id":"5259d34a-d8f2-47e1-9b2f-e2f2c6ed23b7","system_id":"levelo_inurba_marseille","lat":43.304096,"lon":5.425385,"is_reserved":false,"is_disabled":false,"rental_uris":{"android":"levelo://app?vid=5259d34a-d8f2-47e1-9b2f-e2f2c6ed23b7","ios":"levelo://app?vid=5259d34a-d8f2-47e1-9b2f-e2f2c6ed23b7"},"vehicle_type_id":"4","last_reported":1702962446,"current_range_meters":28000,"station_id":"ce4bhoh2rcd13ifvqh6g","pricing_plan_id":"free"},{"bike_id":"482a9634-d9cd-42c0-91c0-891ae6e2ea6a","system_id":"levelo_inurba_marseille","lat":43.304096,"lon":5.425385,"is_reserved":false,"is_disabled":false,"rental_uris":{"android":"levelo://app?vid=482a9634-d9cd-42c0-91c0-891ae6e2ea6a","ios":"levelo://app?vid=482a9634-d9cd-42c0-91c0-891ae6e2ea6a"},"vehicle_type_id":"4","last_reported":1702962446,"current_range_meters":30000,"station_id":"ce4bhoh2rcd13ifvqh6g","pricing_plan_id":"free"},