{"last_updated":1766221871,"ttl":60,"version":"2.2","data":{"bikes":[{"bike_id":"40c51ff6-bcdf-4189-b2f9-53259a9dc236","system_id":"levelo_inurba_marseille","lat":43.28306,"lon":5.38919,"is_reserved":false,"is_disabled":true,"rental_uris":{"android":"levelo://app?vid=40c51ff6-bcdf-4189-b2f9-53259a9dc236","ios":"levelo://app?vid=40c51ff6-bcdf-4189-b2f9-53259a9dc236"},"vehicle_type_id":"4","last_reported":1766221872,"current_range_meters":2800,"station_id":"","pricing_plan_id":"cebpf4jnsgd1na2vs0mg"},{"bike_id":"9549e986-9478-4186-9dd6-3e135359aabe","system_id":"levelo_inurba_marseille","lat":43.29547,"lon":5.42293,"is_reserved":false,"is_disabled":false,"rental_uris":{"android":"levelo://app?vid=9549e986-9478-4186-9dd6-3e135359aabe","ios":"levelo://app?vid=9549e986-9478-4186-9dd6-3e135359aabe"},"vehicle_type_id":"4","last_reported":1766221872,"current_range_meters":2800,"station_id":"ce4bhph2rcd13ifvqhdg","pricing_plan_id":"cebpf4jnsgd1na2vs0mg"},{"bike_id":"29254e99-95a8-40dc-a988-e7b45985d869","system_id":"levelo_inurba_marseille","lat":43.275707,"lon":5.384227,"is_reserved":false,"is_disabled":false,"rental_uris":{"android":"levelo://app?vid=29254e99-95a8-40dc-a988-e7b45985d869","ios":"levelo://app?vid=29254e99-95a8-40dc-a988-e7b45985d869"},"vehicle_type_id":"4","last_reported":1766221872,"current_range_meters":3200,"station_id":"ce4bhh92rcd13ifvqfi0","pricing_plan_id":"cebpf4jnsgd1na2vs0mg"},{"bike_id":"9dda9b0f-3aee-451b-807e-9b7f2564409f","system_id":"levelo_inurba_marseille","lat":43.29522,"lon":5.37519,"is_reserved":false,"is_disabled":false,"rental_uris":{"android":"levelo://app?vid=9dda9b0f-3aee-451b-807e-9b7f2564409f","ios":"levelo://app?vid=9dda9b0f-3aee-451b-807e-9b7f2564409f"},"vehicle_type_id":"4","last_reported":1766221872,"current_range_meters":3600,"station_id":"ce4bgkp2rcd13ifvqbmg","pricing_plan_id":"cebpf4jnsgd1na2vs0mg"},{"bike_id":"32a86173-dd95-47e6-b324-ae371da8b423","system_id":"levelo_inurba_marseille","lat":43.29596,"lon":5.38103,"is_reserved":false,"is_disabled":false,"rental_uris":{"android":"levelo://app?vid=32a86173-dd95-47e6-b324-ae371da8b423","ios":"levelo://app?vid=32a86173-dd95-47e6-b324-ae371da8b423"},"vehicle_type_id":"4","last_reported":1766221872,"current_range_meters":3600,"station_id":"ce4bgl12rcd13ifvqbo0","pricing_plan_id":"cebpf4jnsgd1na2vs0mg"},{"bike_id":"cf0e2dfe-8751-4251-bbd3-3ad00be9f3ad","system_id":"levelo_inurba_marseille","lat":43.28472,"lon":5.48399,"is_reserved":false,"is_disabled":false,"rental_uris":{"android":"levelo://app?vid=cf0e2dfe-8751-4251-bbd3-3ad00be9f3ad","ios":"levelo://app?vid=cf0e2dfe-8751-4251-bbd3-3ad00be9f3ad"},"vehicle_type_id":"4","last_reported":1766221872,"current_range_meters":3600,"station_id":"","pricing_plan_id":"cebpf4jnsgd1na2vs0mg"},{"bike_id":"1818541f-8e74-41e7-b7cb-57e7d6fa274f","system_id":"levelo_inurba_marseille","lat":43.24527,"lon":5.39129,"is_reserved":false,"is_disabled":false,"rental_uris":{"android":"levelo://app?vid=1818541f-8e74-41e7-b7cb-57e7d6fa274f","ios":"levelo://app?vid=1818541f-8e74-41e7-b7cb-57e7d6fa274f"},"vehicle_type_id":"4","last_reported":1766221872,"current_range_meters":4000,"station_id":"","pricing_plan_id":"cebpf4jnsgd1na2vs0mg"},{"bike_id":"bf880f0d-3fee-4d7b-a187-038ad765e571","system_id":"levelo_inurba_marseille","lat":43.2657,"lon":5.390114,"is_reserved":false,"is_disabled":false,"rental_uris":{"android":"levelo://app?vid=bf880f0d-3fee-4d7b-a187-038ad765e571","ios":"levelo://app?vid=bf880f0d-3fee-4d7b-a187-038ad765e571"},"vehicle_type_id":"4","last_reported":1766221872,"current_range_meters":4000,"station_id":"ce4bhe12rcd13ifvqf30","pricing_plan_id":"cebpf4jnsgd1na2vs0mg"},{"bike_id":"42f91fd2-a74d-47c0-ac9b-88a8b6f0d009","system_id":"levelo_inurba_marseille","lat":43.29941,"lon":5.36557,"is_reserved":false,"is_disabled":false,"rental_uris":{"android":"levelo://app?vid=42f91fd2-a74d-47c0-ac9b-88a8b6f0d009","ios":"levelo://app?vid=42f91fd2-a74d-47c0-ac9b-88a8b6f0d009"},"vehicle_type_id":"4","last_reported":1766221872,"current_range_meters":4400,"station_id":"ce4bgm92rcd13ifvqbr0","pricing_plan_id":"cebpf4jnsgd1na2vs0mg"},{"bike_id":"0f0ba93b-2f84-46c7-a059-9539de548098","system_id":"levelo_inurba_marseille","lat":43.30142,"lon":5.38102,"is_reserved":false,"is_disabled":true,"rental_uris":{"android":"levelo://app?vid=0f0ba93b-2f84-46c7-a059-9539de548098","ios":"levelo://app?vid=0f0ba93b-2f84-46c7-a059-9539de548098"},"vehicle_type_id":"4","last_reported":1766221872,"current_range_meters":4400,"station_id":"ce4bgjp2rcd13ifvqbh0","pricing_plan_id":"cebpf4jnsgd1na2vs0mg"},{"bike_id":"36e2e30c-331c-4425-a7b0-bcef0ceb5d91","system_id":"levelo_inurba_marseille","lat":43.29477,"lon":5.43334,"is_reserved":false,"is_disabled":false,"rental_uris":{"android":"levelo://app?vid=36e2e30c-331c-4425-a7b0-bcef0ceb5d91","ios":"levelo://app?vid=36e2e30c-331c-4425-a7b0-bcef0ceb5d91"},"vehicle_type_id":"4","last_reported":1766221872,"current_range_meters":4400,"station_id":"st_d3j5ugp08ojc73fj9d10","pricing_plan_id":"cebpf4jnsgd1na2vs0mg"},{"bike_id":"4a614ce4-d61c-499d-8955-0569e02f377b","system_id":"levelo_inurba_marseille","lat":43.27513,"lon":5.37274,"is_reserved":false,"is_disabled":false,"rental_uris":{"android":"levelo://app?vid=4a614ce4-d61c-499d-8955-0569e02f377b","ios":"levelo://app?vid=4a614ce4-d61c-499d-8955-0569e02f377b"},"vehicle_type_id":"4","last_reported":1766221872,"current_range_meters":4800,"station_id":"","pricing_plan_id":"cebpf4jnsgd1na2vs0mg"},{"bike_id":"88df1327-3e39-4011-ab9e-af1689e9a2e5","system_id":"levelo_inurba_marseille","lat":43.292954,"lon":5.374673,"is_reserved":false,"is_disabled":false,"rental_uris":{"android":"levelo://app?vid=88df1327-3e39-4011-ab9e-af1689e9a2e5","ios":"levelo://app?vid=88df1327-3e39-4011-ab9e-af1689e9a2e5"},"vehicle_type_id":"4","last_reported":1766221872,"current_range_meters":4800,"station_id":"ce4bgi12rcd13ifvqb70","pricing_plan_id":"cebpf4jnsgd1na2vs0mg"},{"bike_id":"f408897b-6500-4db6-a2d6-ce4f49d24364","system_id":"levelo_inurba_marseille","lat":43.29088,"lon":5.35943,"is_reserved":false,"is_disabled":false,"rental_uris":{"android":"levelo://app?vid=f408897b-6500-4db6-a2d6-ce4f49d24364","ios":"levelo://app?vid=f408897b-6500-4db6-a2d6-ce4f49d24364"},"vehicle_type_id":"4","last_reported":1766221872,"current_range_meters":4800,"station_id":"ce4bha92rcd13ifvqeg0","pricing_plan_id":"cebpf4jnsgd1na2vs0mg"},{"bike_id":"5023147f-93c6-47f6-81bc-9ecae08e8b6c","system_id":"levelo_inurba_marseille","lat":43.2556,"lon":5.38266,"is_reserved":false,"is_disabled":false,"rental_uris":{"android":"levelo://app?vid=5023147f-93c6-47f6-81bc-9ecae08e8b6c","ios":"levelo://app?vid=5023147f-93c6-47f6-81bc-9ecae08e8b6c"},"vehicle_type_id":"4","last_reported":1766221872,"current_range_meters":4800,"station_id":"ce4bhih2rcd13ifvqfs0","pricing_plan_id":"cebpf4jnsgd1na2vs0mg"},{"bike_id":"c1eac660-65fe-4ccb-b9be-41112b290c03","system_id":"levelo_inurba_marseille","lat":43.297975,"lon":5.381171,"is_reserved":false,"is_disabled":false,"rental_uris":{"android":"levelo://app?vid=c1eac660-65fe-4ccb-b9be-41112b290c03","ios":"levelo://app?vid=c1eac660-65fe-4ccb-b9be-41112b290c03"},"vehicle_type_id":"4","last_reported":1766221872,"current_range_meters":4800,"station_id":"ce4bgjp2rcd13ifvqbh0","pricing_plan_id":"cebpf4jnsgd1na2vs0mg"},{"bike_id":"2e88a400-e501-4b69-b0e8-c5bde19d70f7","system_id":"levelo_inurba_marseille","lat":43.29309,"lon":5.37181,"is_reserved":false,"is_disabled":false,"rental_uris":{"android":"levelo://app?vid=2e88a400-e501-4b69-b0e8-c5bde19d70f7","ios":"levelo://app?vid=2e88a400-e501-4b69-b0e8-c5bde19d70f7"},"vehicle_type_id":"4","last_reported":1766221872,"current_range_meters":4800,"station_id":"ce4bgh92rcd13ifvqb40","pricing_plan_id":"cebpf4jnsgd1na2vs0mg"},{"bike_id":"0e705fc8-73b5-428e-b6ad-b8cc3f5fad0c","system_id":"levelo_inurba_marseille","lat":43.25574,"lon":5.38236,"is_reserved":false,"is_disabled":false,"rental_uris":{"android":"levelo://app?vid=0e705fc8-73b5-428e-b6ad-b8cc3f5fad0c","ios":"levelo://app?vid=0e705fc8-73b5-428e-b6ad-b8cc3f5fad0c"},"vehicle_type_id":"4","last_reported":1766221872,"current_range_meters":4800,"station_id":"ce4bhih2rcd13ifvqfs0","pricing_plan_id":"cebpf4jnsgd1na2vs0mg"},{"bike_id":"436e467e-3ef8-4484-b12e-82fd46509f97","system_id":"levelo_inurba_marseille","lat":43.23298,"lon":5.4441,"is_reserved":false,"is_disabled":false,"rental_uris":{"android":"levelo://app?vid=436e467e-3ef8-4484-b12e-82fd46509f97","ios":"levelo://app?vid=436e467e-3ef8-4484-b12e-82fd46509f97"},"vehicle_type_id":"4","last_reported":1766221872,"current_range_meters":5600,"station_id":"","pricing_plan_id":"cebpf4jnsgd1na2vs0mg"},{"bike_id":"6ae5c5d7-9508-4aff-bf6b-f54c64146479","system_id":"levelo_inurba_marseille","lat":43.298418,"lon":5.405605,"is_reserved":false,"is_disabled":false,"rental_uris":{"android":"levelo://app?vid=6ae5c5d7-9508-4aff-bf6b-f54c64146479","ios":"levelo://app?vid=6ae5c5d7-9508-4aff-bf6b-f54c64146479"},"vehicle_type_id":"4","last_reported":1766221872,"current_range_meters":5600,"station_id":"","pricing_plan_id":"cebpf4jnsgd1na2vs0mg"},{"bike_id":"89756c06-0681-4f7b-a419-2fe2621485f7","system_id":"levelo_inurba_marseille","lat":43.276383,"lon":5.399226,"is_reserved":false,"is_disabled":false,"rental_uris":{"android":"levelo://app?vid=89756c06-0681-4f7b-a419-2fe2621485f7","ios":"levelo://app?vid=89756c06-0681-4f7b-a419-2fe2621485f7"},"vehicle_type_id":"4","last_reported":1766221872,"current_range_meters":5600,"station_id":"","pricing_plan_id":"cebpf4jnsgd1na2vs0mg"},{"bike_id":"5c82aa5d-e9af-478b-9ffa-e9de9eb19a05","system_id":"levelo_inurba_marseille","lat":43.24799,"lon":5.37469,"is_reserved":false,"is_disabled":false,"rental_uris":{"android":"levelo://app?vid=5c82aa5d-e9af-478b-9ffa-e9de9eb19a05","ios":"levelo://app?vid=5c82aa5d-e9af-478b-9ffa-e9de9eb19a05"},"vehicle_type_id":"4","last_reported":1766221872,"current_range_meters":5600,"station_id":"ce4bhgh2rcd13ifvqfb0","pricing_plan_id":"cebpf4jnsgd1na2vs0mg"},{"bike_id":"2d860b81-0081-47f0-80fb-7e4c62824916","system_id":"levelo_inurba_marseille","lat":43.30093,"lon":5.43161,"is_reserved":false,"is_disabled":false,"rental_uris":{"android":"levelo://app?vid=2d860b81-0081-47f0-80fb-7e4c62824916","ios":"levelo://app?vid=2d860b81-0081-47f0-80fb-7e4c62824916"},"vehicle_type_id":"4","last_reported":1766221872,"current_range_meters":6000,"station_id":"st_d3js3co5814s73ftftug","pricing_plan_id":"cebpf4jnsgd1na2vs0mg"},{"bike_id":"1a965e1b-41ad-4142-80e2-8d7c8565603d","system_id":"levelo_inurba_marseille","lat":43.26485,"lon":5.39546,"is_reserved":false,"is_disabled":true,"rental_uris":{"android":"levelo://app?vid=1a965e1b-41ad-4142-80e2-8d7c8565603d","ios":"levelo://app?vid=1a965e1b-41ad-4142-80e2-8d7c8565603d"},"vehicle_type_id":"4","last_reported":1766221872,"current_range_meters":6000,"station_id":"ce4bhi12rcd13ifvqfq0","pricing_plan_id":"cebpf4jnsgd1na2vs0mg"},{"bike_id":"c5365846-c619-4f12-8c92-97c9f9725a15","system_id":"levelo_inurba_marseille","lat":43.29506,"lon":5.3795,"is_reserved":false,"is_disabled":false,"rental_uris":{"android":"levelo://app?vid=c5365846-c619-4f12-8c92-97c9f9725a15","ios":"levelo://app?vid=c5365846-c619-4f12-8c92-97c9f9725a15"},"vehicle_type_id":"4","last_reported":1766221872,"current_range_meters":6000,"station_id":"","pricing_plan_id":"cebpf4jnsgd1na2vs0mg"},{"bike_id":"79520371-9671-444e-9152-ce0505c96ff9","system_id":"levelo_inurba_marseille","lat":43.30145,"lon":5.38087,"is_reserved":false,"is_disabled":false,"rental_uris":{"android":"levelo://app?vid=79520371-9671-444e-9152-ce0505c96ff9","ios":"levelo://app?vid=79520371-9671-444e-9152-ce0505c96ff9"},"vehicle_type_id":"4","last_reported":1766221872,"current_range_meters":6000,"station_id":"ce4bgjp2rcd13ifvqbh0","pricing_plan_id":"cebpf4jnsgd1na2vs0mg"},{"bike_id":"a3b88a57-9d06-4c52-97e4-1f5c2e42f298","system_id":"levelo_inurba_marseille","lat":43.296344,"lon":5.405876,"is_reserved":false,"is_disabled":false,"rental_uris":{"android":"levelo://app?vid=a3b88a57-9d06-4c52-97e4-1f5c2e42f298","ios":"levelo://app?vid=a3b88a57-9d06-4c52-97e4-1f5c2e42f298"},"vehicle_type_id":"4","last_reported":1766221872,"current_range_meters":6400,"station_id":"ce4bh0h2rcd13ifvqd60","pricing_plan_id":"cebpf4jnsgd1na2vs0mg"},{"bike_id":"2e7dc1ab-5624-44a1-98cc-138e4f1d28a0","system_id":"levelo_inurba_marseille","lat":43.265549,"lon":5.403238,"is_reserved":false,"is_disabled":false,"rental_uris":{"android":"levelo://app?vid=2e7dc1ab-5624-44a1-98cc-138e4f1d28a0","ios":"levelo://app?vid=2e7dc1ab-5624-44a1-98cc-138e4f1d28a0"},"vehicle_type_id":"4","last_reported":1766221872,"current_range_meters":6400,"station_id":"ce4bhmp2rcd13ifvqgng","pricing_plan_id":"cebpf4jnsgd1na2vs0mg"},{"bike_id":"c989796d-dcc1-4fc7-b147-6dbca1d74de3","system_id":"levelo_inurba_marseille","lat":43.2814,"lon":5.38334,"is_reserved":false,"is_disabled":false,"rental_uris":{"android":"levelo://app?vid=c989796d-dcc1-4fc7-b147-6dbca1d74de3","ios":"levelo://app?vid=c989796d-dcc1-4fc7-b147-6dbca1d74de3"},"vehicle_type_id":"4","last_reported":1766221872,"current_range_meters":6400,"station_id":"","pricing_plan_id":"cebpf4jnsgd1na2vs0mg"},{"bike_id":"f3a4c2fd-c27a-4ca6-bbe5-3949d2a88808","system_id":"levelo_inurba_marseille","lat":43.285769,"lon":5.429827,"is_reserved":false,"is_disabled":false,"rental_uris":{"android":"levelo://app?vid=f3a4c2fd-c27a-4ca6-bbe5-3949d2a88808","ios":"levelo://app?vid=f3a4c2fd-c27a-4ca6-bbe5-3949d2a88808"},"vehicle_type_id":"4","last_reported":1766221872,"current_range_meters":6400,"station_id":"","pricing_plan_id":"cebpf4jnsgd1na2vs0mg"},{"bike_id":"0b108b81-f345-42d5-8251-d1bd70b3bac8","system_id":"levelo_inurba_marseille","lat":43.22928,"lon":5.35375,"is_reserved":false,"is_disabled":false,"rental_uris":{"android":"levelo://app?vid=0b108b81-f345-42d5-8251-d1bd70b3bac8","ios":"levelo://app?vid=0b108b81-f345-42d5-8251-d1bd70b3bac8"},"vehicle_type_id":"4","last_reported":1766221872,"current_range_meters":6400,"station_id":"cpo3532slgdg3j2ikp40","pricing_plan_id":"cebpf4jnsgd1na2vs0mg"},{"bike_id":"17a49efb-d179-4b85-b20c-4afe87c0613f","system_id":"levelo_inurba_marseille","lat":43.3106,"lon":5.37182,"is_reserved":false,"is_disabled":true,"rental_uris":{"android":"levelo://app?vid=17a49efb-d179-4b85-b20c-4afe87c0613f","ios":"levelo://app?vid=17a49efb-d179-4b85-b20c-4afe87c0613f"},"vehicle_type_id":"4","last_reported":1766221872,"current_range_meters":6400,"station_id":"st_d4kl2rp97mjs73e7tdfg","pricing_plan_id":"cebpf4jnsgd1na2vs0mg"},{"bike_id":"374a0371-4968-4fe9-88a9-ac5ffa94b236","system_id":"levelo_inurba_marseille","lat":43.31456,"lon":5.45373,"is_reserved":false,"is_disabled":false,"rental_uris":{"android":"levelo://app?vid=374a0371-4968-4fe9-88a9-ac5ffa94b236","ios":"levelo://app?vid=374a0371-4968-4fe9-88a9-ac5ffa94b236"},"vehicle_type_id":"4","last_reported":1766221872,"current_range_meters":6400,"station_id":"","pricing_plan_id":"cebpf4jnsgd1na2vs0mg"},{"bike_id":"cde75731-be94-4954-af76-b79651b240b9","system_id":"levelo_inurba_marseille","lat":43.29929,"lon":5.39392,"is_reserved":false,"is_disabled":false,"rental_uris":{"android":"levelo://app?vid=cde75731-be94-4954-af76-b79651b240b9","ios":"levelo://app?vid=cde75731-be94-4954-af76-b79651b240b9"},"vehicle_type_id":"4","last_reported":1766221872,"current_range_meters":6800,"station_id":"","pricing_plan_id":"cebpf4jnsgd1na2vs0mg"},{"bike_id":"42f3d177-2c64-42aa-9df9-a8c5fb0c9f28","system_id":"levelo_inurba_marseille","lat":43.25012,"lon":5.38929,"is_reserved":false,"is_disabled":false,"rental_uris":{"android":"levelo://app?vid=42f3d177-2c64-42aa-9df9-a8c5fb0c9f28","ios":"levelo://app?vid=42f3d177-2c64-42aa-9df9-a8c5fb0c9f28"},"vehicle_type_id":"4","last_reported":1766221872,"current_range_meters":6800,"station_id":"ce4bhgp2rcd13ifvqfd0","pricing_plan_id":"cebpf4jnsgd1na2vs0mg"},{"bike_id":"9c9ba0f1-d906-4d43-a01d-b5ab5d0412ea","system_id":"levelo_inurba_marseille","lat":43.284852,"lon":5.385533,"is_reserved":false,"is_disabled":false,"rental_uris":{"android":"levelo://app?vid=9c9ba0f1-d906-4d43-a01d-b5ab5d0412ea","ios":"levelo://app?vid=9c9ba0f1-d906-4d43-a01d-b5ab5d0412ea"},"vehicle_type_id":"4","last_reported":1766221872,"current_range_meters":6800,"station_id":"ce4bh8p2rcd13ifvqeb0","pricing_plan_id":"cebpf4jnsgd1na2vs0mg"},{"bike_id":"2c2969fa-feff-4190-9bce-e7023f11afc5","system_id":"levelo_inurba_marseille","lat":43.2976,"lon":5.37106,"is_reserved":false,"is_disabled":false,"rental_uris":{"android":"levelo://app?vid=2c2969fa-feff-4190-9bce-e7023f11afc5","ios":"levelo://app?vid=2c2969fa-feff-4190-9bce-e7023f11afc5"},"vehicle_type_id":"4","last_reported":1766221872,"current_range_meters":6800,"station_id":"ce4bgop2rcd13ifvqc1g","pricing_plan_id":"cebpf4jnsgd1na2vs0mg"},{"bike_id":"1f8bf9e3-c9bd-4c05-9201-34f9580d25af","system_id":"levelo_inurba_marseille","lat":43.211911,"lon":5.350733,"is_reserved":false,"is_disabled":false,"rental_uris":{"android":"levelo://app?vid=1f8bf9e3-c9bd-4c05-9201-34f9580d25af","ios":"levelo://app?vid=1f8bf9e3-c9bd-4c05-9201-34f9580d25af"},"vehicle_type_id":"4","last_reported":1766221872,"current_range_meters":6800,"station_id":"st_cvj6sg6p6f1abm77japg","pricing_plan_id":"cebpf4jnsgd1na2vs0mg"},{"bike_id":"e84d9385-0a7d-4bf7-99ed-b77bbc4ae04a","system_id":"levelo_inurba_marseille","lat":43.25102,"lon":5.39527,"is_reserved":false,"is_disabled":false,"rental_uris":{"android":"levelo://app?vid=e84d9385-0a7d-4bf7-99ed-b77bbc4ae04a","ios":"levelo://app?vid=e84d9385-0a7d-4bf7-99ed-b77bbc4ae04a"},"vehicle_type_id":"4","last_reported":1766221872,"current_range_meters":6800,"station_id":"ce4bhm12rcd13ifvqgkg","pricing_plan_id":"cebpf4jnsgd1na2vs0mg"},{"bike_id":"ee6f7e5c-24b4-4046-a3ec-072080785116","system_id":"levelo_inurba_marseille","lat":43.21753,"lon":5.34594,"is_reserved":false,"is_disabled":false,"rental_uris":{"android":"levelo://app?vid=ee6f7e5c-24b4-4046-a3ec-072080785116","ios":"levelo://app?vid=ee6f7e5c-24b4-4046-a3ec-072080785116"},"vehicle_type_id":"4","last_reported":1766221872,"current_range_meters":6800,"station_id":"st_cvj6r9ubvosntc0bgbag","pricing_plan_id":"cebpf4jnsgd1na2vs0mg"},{"bike_id":"67cd554e-f241-4807-8b64-6a81f12da0c2","system_id":"levelo_inurba_marseille","lat":43.30941,"lon":5.36867,"is_reserved":false,"is_disabled":false,"rental_uris":{"android":"levelo://app?vid=67cd554e-f241-4807-8b64-6a81f12da0c2","ios":"levelo://app?vid=67cd554e-f241-4807-8b64-6a81f12da0c2"},"vehicle_type_id":"4","last_reported":1766221872,"current_range_meters":6800,"station_id":"ce4bgn92rcd13ifvqbvg","pricing_plan_id":"cebpf4jnsgd1na2vs0mg"},{"bike_id":"40e8f907-bd56-4733-828e-32a13e0db71f","system_id":"levelo_inurba_marseille","lat":43.29288,"lon":5.37447,"is_reserved":false,"is_disabled":false,"rental_uris":{"android":"levelo://app?vid=40e8f907-bd56-4733-828e-32a13e0db71f","ios":"levelo://app?vid=40e8f907-bd56-4733-828e-32a13e0db71f"},"vehicle_type_id":"4","last_reported":1766221872,"current_range_meters":6800,"station_id":"ce4bgi12rcd13ifvqb70","pricing_plan_id":"cebpf4jnsgd1na2vs0mg"},{"bike_id":"2a7ace86-79e3-414e-bec6-2f2ac2a70a88","system_id":"levelo_inurba_marseille","lat":43.25634,"lon":5.38645,"is_reserved":false,"is_disabled":false,"rental_uris":{"android":"levelo://app?vid=2a7ace86-79e3-414e-bec6-2f2ac2a70a88","ios":"levelo://app?vid=2a7ace86-79e3-414e-bec6-2f2ac2a70a88"},"vehicle_type_id":"4","last_reported":1766221872,"current_range_meters":6800,"station_id":"","pricing_plan_id":"cebpf4jnsgd1na2vs0mg"},{"bike_id":"e4b02c9d-c28f-40f6-a1ae-2d4355067cb5","system_id":"levelo_inurba_marseille","lat":43.30905,"lon":5.3686,"is_reserved":false,"is_disabled":false,"rental_uris":{"android":"levelo://app?vid=e4b02c9d-c28f-40f6-a1ae-2d4355067cb5","ios":"levelo://app?vid=e4b02c9d-c28f-40f6-a1ae-2d4355067cb5"},"vehicle_type_id":"4","last_reported":1766221872,"current_range_meters":7200,"station_id":"ce4bgn92rcd13ifvqbvg","pricing_plan_id":"cebpf4jnsgd1na2vs0mg"},{"bike_id":"b0d73770-4332-4e17-9699-6a066a9df6b8","system_id":"levelo_inurba_marseille","lat":43.2773,"lon":5.38867,"is_reserved":false,"is_disabled":true,"rental_uris":{"android":"levelo://app?vid=b0d73770-4332-4e17-9699-6a066a9df6b8","ios":"levelo://app?vid=b0d73770-4332-4e17-9699-6a066a9df6b8"},"vehicle_type_id":"4","last_reported":1766221872,"current_range_meters":7200,"station_id":"","pricing_plan_id":"cebpf4jnsgd1na2vs0mg"},{"bike_id":"649c6a1b-5432-4600-8609-7dcaf5aee063","system_id":"levelo_inurba_marseille","lat":43.29886,"lon":5.38906,"is_reserved":false,"is_disabled":false,"rental_uris":{"android":"levelo://app?vid=649c6a1b-5432-4600-8609-7dcaf5aee063","ios":"levelo://app?vid=649c6a1b-5432-4600-8609-7dcaf5aee063"},"vehicle_type_id":"4","last_reported":1766221872,"current_range_meters":7200,"station_id":"ce4bh392rcd13ifvqdl0","pricing_plan_id":"cebpf4jnsgd1na2vs0mg"},{"bike_id":"81db0fb1-7863-4976-a656-0dfa32e075d1","system_id":"levelo_inurba_marseille","lat":43.225392,"lon":5.348257,"is_reserved":false,"is_disabled":false,"rental_uris":{"android":"levelo://app?vid=81db0fb1-7863-4976-a656-0dfa32e075d1","ios":"levelo://app?vid=81db0fb1-7863-4976-a656-0dfa32e075d1"},"vehicle_type_id":"4","last_reported":1766221872,"current_range_meters":7200,"station_id":"","pricing_plan_id":"cebpf4jnsgd1na2vs0mg"},{"bike_id":"48e30a46-3a61-4ed5-93c8-2b0ee8661bac","system_id":"levelo_inurba_marseille","lat":43.29817,"lon":5.37788,"is_reserved":false,"is_disabled":false,"rental_uris":{"android":"levelo://app?vid=48e30a46-3a61-4ed5-93c8-2b0ee8661bac","ios":"levelo://app?vid=48e30a46-3a61-4ed5-93c8-2b0ee8661bac"},"vehicle_type_id":"4","last_reported":1766221872,"current_range_meters":7200,"station_id":"","pricing_plan_id":"cebpf4jnsgd1na2vs0mg"},{"bike_id":"700442f5-a082-454e-8bc7-ab3bbb77bfce","system_id":"levelo_inurba_marseille","lat":43.26647,"lon":5.37457,"is_reserved":false,"is_disabled":false,"rental_uris":{"android":"levelo://app?vid=700442f5-a082-454e-8bc7-ab3bbb77bfce","ios":"levelo://app?vid=700442f5-a082-454e-8bc7-ab3bbb77bfce"},"vehicle_type_id":"4","last_reported":1766221872,"current_range_meters":7200,"station_id":"","pricing_plan_id":"cebpf4jnsgd1na2vs0mg"},{"bike_id":"305412fd-41fd-4f48-b0ce-d25b5a7eb63f","system_id":"levelo_inurba_marseille","lat":43.3256,"lon":5.38942,"is_reserved":false,"is_disabled":true,"rental_uris":{"android":"levelo://app?vid=305412fd-41fd-4f48-b0ce-d25b5a7eb63f","ios":"levelo://app?vid=305412fd-41fd-4f48-b0ce-d25b5a7eb63f"},"vehicle_type_id":"4","last_reported":1766221872,"current_range_meters":8000,"station_id":"","pricing_plan_id":"cebpf4jnsgd1na2vs0mg"},{"bike_id":"d796ac3e-d924-4d00-9348-0900ac0099ff","system_id":"levelo_inurba_marseille","lat":43.24466,"lon":5.42548,"is_reserved":false,"is_disabled":false,"rental_uris":{"android":"levelo://app?vid=d796ac3e-d924-4d00-9348-0900ac0099ff","ios":"levelo://app?vid=d796ac3e-d924-4d00-9348-0900ac0099ff"},"vehicle_type_id":"4","last_reported":1766221872,"current_range_meters":8000,"station_id":"st_d4a3vfp97mjs738cd8kg","pricing_plan_id":"cebpf4jnsgd1na2vs0mg"},{"bike_id":"18050aa1-4e81-42ec-8730-743b69330ab2","system_id":"levelo_inurba_marseille","lat":43.25566,"lon":5.38232,"is_reserved":false,"is_disabled":false,"rental_uris":{"android":"levelo://app?vid=18050aa1-4e81-42ec-8730-743b69330ab2","ios":"levelo://app?vid=18050aa1-4e81-42ec-8730-743b69330ab2"},"vehicle_type_id":"4","last_reported":1766221872,"current_range_meters":8000,"station_id":"ce4bhih2rcd13ifvqfs0","pricing_plan_id":"cebpf4jnsgd1na2vs0mg"},{"bike_id":"43b73d10-2c68-446f-a5e8-06f042e6a42a","system_id":"levelo_inurba_marseille","lat":43.25333,"lon":5.4218,"is_reserved":false,"is_disabled":false,"rental_uris":{"android":"levelo://app?vid=43b73d10-2c68-446f-a5e8-06f042e6a42a","ios":"levelo://app?vid=43b73d10-2c68-446f-a5e8-06f042e6a42a"},"vehicle_type_id":"4","last_reported":1766221872,"current_range_meters":8000,"station_id":"st_d2m65c5bi1j21697t3ng","pricing_plan_id":"cebpf4jnsgd1na2vs0mg"},{"bike_id":"22427a63-f3ec-4b99-836b-262688f03dbd","system_id":"levelo_inurba_marseille","lat":43.30651,"lon":5.40082,"is_reserved":false,"is_disabled":false,"rental_uris":{"android":"levelo://app?vid=22427a63-f3ec-4b99-836b-262688f03dbd","ios":"levelo://app?vid=22427a63-f3ec-4b99-836b-262688f03dbd"},"vehicle_type_id":"4","last_reported":1766221872,"current_range_meters":8000,"station_id":"ce4bh112rcd13ifvqda0","pricing_plan_id":"cebpf4jnsgd1na2vs0mg"},{"bike_id":"7bc8d603-102d-4033-b3a6-87238067bcbb","system_id":"levelo_inurba_marseille","lat":43.281247,"lon":5.378641,"is_reserved":false,"is_disabled":false,"rental_uris":{"android":"levelo://app?vid=7bc8d603-102d-4033-b3a6-87238067bcbb","ios":"levelo://app?vid=7bc8d603-102d-4033-b3a6-87238067bcbb"},"vehicle_type_id":"4","last_reported":1766221872,"current_range_meters":8000,"station_id":"ce4bha12rcd13ifvqee0","pricing_plan_id":"cebpf4jnsgd1na2vs0mg"},{"bike_id":"1c79eb29-135e-40c1-8651-901759d4aaa6","system_id":"levelo_inurba_marseille","lat":43.28587,"lon":5.35299,"is_reserved":false,"is_disabled":false,"rental_uris":{"android":"levelo://app?vid=1c79eb29-135e-40c1-8651-901759d4aaa6","ios":"levelo://app?vid=1c79eb29-135e-40c1-8651-901759d4aaa6"},"vehicle_type_id":"4","last_reported":1766221872,"current_range_meters":8400,"station_id":"","pricing_plan_id":"cebpf4jnsgd1na2vs0mg"},{"bike_id":"962c0dfa-72d9-4ab7-9214-d6954b74de38","system_id":"levelo_inurba_marseille","lat":43.29521,"lon":5.38552,"is_reserved":false,"is_disabled":false,"rental_uris":{"android":"levelo://app?vid=962c0dfa-72d9-4ab7-9214-d6954b74de38","ios":"levelo://app?vid=962c0dfa-72d9-4ab7-9214-d6954b74de38"},"vehicle_type_id":"4","last_reported":1766221872,"current_range_meters":8400,"station_id":"ce4bgih2rcd13ifvqba0","pricing_plan_id":"cebpf4jnsgd1na2vs0mg"},{"bike_id":"81cdd19c-9eb0-4b68-8437-f268e3e9b7c5","system_id":"levelo_inurba_marseille","lat":43.26478,"lon":5.39546,"is_reserved":false,"is_disabled":false,"rental_uris":{"android":"levelo://app?vid=81cdd19c-9eb0-4b68-8437-f268e3e9b7c5","ios":"levelo://app?vid=81cdd19c-9eb0-4b68-8437-f268e3e9b7c5"},"vehicle_type_id":"4","last_reported":1766221872,"current_range_meters":8800,"station_id":"ce4bhi12rcd13ifvqfq0","pricing_plan_id":"cebpf4jnsgd1na2vs0mg"},{"bike_id":"8670d596-6bf6-4127-a1f1-affbffd3c0e5","system_id":"levelo_inurba_marseille","lat":43.301506,"lon":5.381039,"is_reserved":false,"is_disabled":true,"rental_uris":{"android":"levelo://app?vid=8670d596-6bf6-4127-a1f1-affbffd3c0e5","ios":"levelo://app?vid=8670d596-6bf6-4127-a1f1-affbffd3c0e5"},"vehicle_type_id":"4","last_reported":1766221872,"current_range_meters":8800,"station_id":"","pricing_plan_id":"cebpf4jnsgd1na2vs0mg"},{"bike_id":"128f68df-e6c8-471d-bf6e-3a9c347712de","system_id":"levelo_inurba_marseille","lat":43.29234,"lon":5.40898,"is_reserved":false,"is_disabled":false,"rental_uris":{"android":"levelo://app?vid=128f68df-e6c8-471d-bf6e-3a9c347712de","ios":"levelo://app?vid=128f68df-e6c8-471d-bf6e-3a9c347712de"},"vehicle_type_id":"4","last_reported":1766221872,"current_range_meters":8800,"station_id":"ce4bh192rcd13ifvqdc0","pricing_plan_id":"cebpf4jnsgd1na2vs0mg"},{"bike_id":"9bf89e5f-aaa6-4ccd-bcf3-970eda9694d1","system_id":"levelo_inurba_marseille","lat":43.337444,"lon":5.374475,"is_reserved":false,"is_disabled":false,"rental_uris":{"android":"levelo://app?vid=9bf89e5f-aaa6-4ccd-bcf3-970eda9694d1","ios":"levelo://app?vid=9bf89e5f-aaa6-4ccd-bcf3-970eda9694d1"},"vehicle_type_id":"4","last_reported":1766221872,"current_range_meters":8800,"station_id":"ce4bgv92rcd13ifvqcq0","pricing_plan_id":"cebpf4jnsgd1na2vs0mg"},{"bike_id":"a1fd8253-edff-49f6-95c0-f7c7da314418","system_id":"levelo_inurba_marseille","lat":43.29792,"lon":5.39346,"is_reserved":false,"is_disabled":false,"rental_uris":{"android":"levelo://app?vid=a1fd8253-edff-49f6-95c0-f7c7da314418","ios":"levelo://app?vid=a1fd8253-edff-49f6-95c0-f7c7da314418"},"vehicle_type_id":"4","last_reported":1766221872,"current_range_meters":8800,"station_id":"chh1huq6cuj3fo74tm60","pricing_plan_id":"cebpf4jnsgd1na2vs0mg"},{"bike_id":"d98240ac-5162-4acd-8319-0f17cd0e2178","system_id":"levelo_inurba_marseille","lat":43.28853,"lon":5.35863,"is_reserved":false,"is_disabled":false,"rental_uris":{"android":"levelo://app?vid=d98240ac-5162-4acd-8319-0f17cd0e2178","ios":"levelo://app?vid=d98240ac-5162-4acd-8319-0f17cd0e2178"},"vehicle_type_id":"4","last_reported":1766221872,"current_range_meters":8800,"station_id":"ce4bhb12rcd13ifvqem0","pricing_plan_id":"cebpf4jnsgd1na2vs0mg"},{"bike_id":"ea6a862f-741e-4383-9442-86ee897e4887","system_id":"levelo_inurba_marseille","lat":43.24152,"lon":5.39764,"is_reserved":false,"is_disabled":false,"rental_uris":{"android":"levelo://app?vid=ea6a862f-741e-4383-9442-86ee897e4887","ios":"levelo://app?vid=ea6a862f-741e-4383-9442-86ee897e4887"},"vehicle_type_id":"4","last_reported":1766221872,"current_range_meters":8800,"station_id":"ce4bhn12rcd13ifvqgpg","pricing_plan_id":"cebpf4jnsgd1na2vs0mg"},{"bike_id":"a4d7c751-6e4e-449e-8b0c-f6b7a7209501","system_id":"levelo_inurba_marseille","lat":43.31024,"lon":5.37169,"is_reserved":false,"is_disabled":false,"rental_uris":{"android":"levelo://app?vid=a4d7c751-6e4e-449e-8b0c-f6b7a7209501","ios":"levelo://app?vid=a4d7c751-6e4e-449e-8b0c-f6b7a7209501"},"vehicle_type_id":"4","last_reported":1766221872,"current_range_meters":8800,"station_id":"st_d4kl2rp97mjs73e7tdfg","pricing_plan_id":"cebpf4jnsgd1na2vs0mg"},{"bike_id":"7f889525-944d-4f66-a793-f62cef883342","system_id":"levelo_inurba_marseille","lat":43.25,"lon":5.38913,"is_reserved":false,"is_disabled":false,"rental_uris":{"android":"levelo://app?vid=7f889525-944d-4f66-a793-f62cef883342","ios":"levelo://app?vid=7f889525-944d-4f66-a793-f62cef883342"},"vehicle_type_id":"4","last_reported":1766221872,"current_range_meters":8800,"station_id":"ce4bhgp2rcd13ifvqfd0","pricing_plan_id":"cebpf4jnsgd1na2vs0mg"},{"bike_id":"9bd4261f-3c41-4eca-b791-4729436e9b50","system_id":"levelo_inurba_marseille","lat":43.28614,"lon":5.37078,"is_reserved":false,"is_disabled":false,"rental_uris":{"android":"levelo://app?vid=9bd4261f-3c41-4eca-b791-4729436e9b50","ios":"levelo://app?vid=9bd4261f-3c41-4eca-b791-4729436e9b50"},"vehicle_type_id":"4","last_reported":1766221872,"current_range_meters":8800,"station_id":"ce4bht12rcd13ifvqi60","pricing_plan_id":"cebpf4jnsgd1na2vs0mg"},{"bike_id":"e4cd5307-2aeb-45c6-b17a-888b082a3559","system_id":"levelo_inurba_marseille","lat":43.30252,"lon":5.400788,"is_reserved":false,"is_disabled":false,"rental_uris":{"android":"levelo://app?vid=e4cd5307-2aeb-45c6-b17a-888b082a3559","ios":"levelo://app?vid=e4cd5307-2aeb-45c6-b17a-888b082a3559"},"vehicle_type_id":"4","last_reported":1766221872,"current_range_meters":9200,"station_id":"","pricing_plan_id":"cebpf4jnsgd1na2vs0mg"},{"bike_id":"fcd75001-1344-42ec-a013-2f4c6240ace8","system_id":"levelo_inurba_marseille","lat":43.29823,"lon":5.38632,"is_reserved":false,"is_disabled":false,"rental_uris":{"android":"levelo://app?vid=fcd75001-1344-42ec-a013-2f4c6240ace8","ios":"levelo://app?vid=fcd75001-1344-42ec-a013-2f4c6240ace8"},"vehicle_type_id":"4","last_reported":1766221872,"current_range_meters":9200,"station_id":"","pricing_plan_id":"cebpf4jnsgd1na2vs0mg"},{"bike_id":"0792b884-26df-417f-8d22-567bf0d2088d","system_id":"levelo_inurba_marseille","lat":43.30359,"lon":5.42503,"is_reserved":false,"is_disabled":false,"rental_uris":{"android":"levelo://app?vid=0792b884-26df-417f-8d22-567bf0d2088d","ios":"levelo://app?vid=0792b884-26df-417f-8d22-567bf0d2088d"},"vehicle_type_id":"4","last_reported":1766221872,"current_range_meters":9200,"station_id":"ce4bhoh2rcd13ifvqh6g","pricing_plan_id":"cebpf4jnsgd1na2vs0mg"},{"bike_id":"f76f9e4d-d309-41e5-bccd-e5b55b3c97ca","system_id":"levelo_inurba_marseille","lat":43.286141,"lon":5.351044,"is_reserved":false,"is_disabled":false,"rental_uris":{"android":"levelo://app?vid=f76f9e4d-d309-41e5-bccd-e5b55b3c97ca","ios":"levelo://app?vid=f76f9e4d-d309-41e5-bccd-e5b55b3c97ca"},"vehicle_type_id":"4","last_reported":1766221872,"current_range_meters":9200,"station_id":"ce4bhch2rcd13ifvqeug","pricing_plan_id":"cebpf4jnsgd1na2vs0mg"},{"bike_id":"dcf784f4-8fb6-484a-a880-b53a6c3cae38","system_id":"levelo_inurba_marseille","lat":43.24467,"lon":5.42534,"is_reserved":false,"is_disabled":false,"rental_uris":{"android":"levelo://app?vid=dcf784f4-8fb6-484a-a880-b53a6c3cae38","ios":"levelo://app?vid=dcf784f4-8fb6-484a-a880-b53a6c3cae38"},"vehicle_type_id":"4","last_reported":1766221872,"current_range_meters":9200,"station_id":"st_d4a3vfp97mjs738cd8kg","pricing_plan_id":"cebpf4jnsgd1na2vs0mg"},{"bike_id":"75446ebb-48c4-4780-9b01-a1b7249fcdeb","system_id":"levelo_inurba_marseille","lat":43.25328,"lon":5.42175,"is_reserved":false,"is_disabled":true,"rental_uris":{"android":"levelo://app?vid=75446ebb-48c4-4780-9b01-a1b7249fcdeb","ios":"levelo://app?vid=75446ebb-48c4-4780-9b01-a1b7249fcdeb"},"vehicle_type_id":"4","last_reported":1766221872,"current_range_meters":9200,"station_id":"st_d2m65c5bi1j21697t3ng","pricing_plan_id":"cebpf4jnsgd1na2vs0mg"},{"bike_id":"8ca42c75-83fc-47f3-8798-7bc1fc1f198d","system_id":"levelo_inurba_marseille","lat":43.28891,"lon":5.42476,"is_reserved":false,"is_disabled":false,"rental_uris":{"android":"levelo://app?vid=8ca42c75-83fc-47f3-8798-7bc1fc1f198d","ios":"levelo://app?vid=8ca42c75-83fc-47f3-8798-7bc1fc1f198d"},"vehicle_type_id":"4","last_reported":1766221872,"current_range_meters":9200,"station_id":"","pricing_plan_id":"cebpf4jnsgd1na2vs0mg"},{"bike_id":"bf7aa59c-08ec-41dc-a229-5fe9de14dc22","system_id":"levelo_inurba_marseille","lat":43.29614,"lon":5.37172,"is_reserved":false,"is_disabled":false,"rental_uris":{"android":"levelo://app?vid=bf7aa59c-08ec-41dc-a229-5fe9de14dc22","ios":"levelo://app?vid=bf7aa59c-08ec-41dc-a229-5fe9de14dc22"},"vehicle_type_id":"4","last_reported":1766221872,"current_range_meters":9200,"station_id":"ce4bgnh2rcd13ifvqc0g","pricing_plan_id":"cebpf4jnsgd1na2vs0mg"},{"bike_id":"6ec9a6be-eed9-4adb-a34f-9a64c85ea37b","system_id":"levelo_inurba_marseille","lat":43.30635,"lon":5.37569,"is_reserved":false,"is_disabled":false,"rental_uris":{"android":"levelo://app?vid=6ec9a6be-eed9-4adb-a34f-9a64c85ea37b","ios":"levelo://app?vid=6ec9a6be-eed9-4adb-a34f-9a64c85ea37b"},"vehicle_type_id":"4","last_reported":1766221872,"current_range_meters":9200,"station_id":"","pricing_plan_id":"cebpf4jnsgd1na2vs0mg"},{"bike_id":"d49815ca-6c79-4618-afdc-b693c03146d9","system_id":"levelo_inurba_marseille","lat":43.24804,"lon":5.37471,"is_reserved":false,"is_disabled":false,"rental_uris":{"android":"levelo://app?vid=d49815ca-6c79-4618-afdc-b693c03146d9","ios":"levelo://app?vid=d49815ca-6c79-4618-afdc-b693c03146d9"},"vehicle_type_id":"4","last_reported":1766221872,"current_range_meters":9200,"station_id":"ce4bhgh2rcd13ifvqfb0","pricing_plan_id":"cebpf4jnsgd1na2vs0mg"},{"bike_id":"35a097a7-89d1-40d3-9783-9d3d9a5a97f8","system_id":"levelo_inurba_marseille","lat":43.29611,"lon":5.37721,"is_reserved":false,"is_disabled":true,"rental_uris":{"android":"levelo://app?vid=35a097a7-89d1-40d3-9783-9d3d9a5a97f8","ios":"levelo://app?vid=35a097a7-89d1-40d3-9783-9d3d9a5a97f8"},"vehicle_type_id":"4","last_reported":1766221872,"current_range_meters":9600,"station_id":"ce4bgi92rcd13ifvqb90","pricing_plan_id":"cebpf4jnsgd1na2vs0mg"},{"bike_id":"49eaeb99-01db-4a25-87fd-cb6c87f1647c","system_id":"levelo_inurba_marseille","lat":43.301237,"lon":5.431194,"is_reserved":false,"is_disabled":false,"rental_uris":{"android":"levelo://app?vid=49eaeb99-01db-4a25-87fd-cb6c87f1647c","ios":"levelo://app?vid=49eaeb99-01db-4a25-87fd-cb6c87f1647c"},"vehicle_type_id":"4","last_reported":1766221872,"current_range_meters":9600,"station_id":"st_d3js3co5814s73ftftug","pricing_plan_id":"cebpf4jnsgd1na2vs0mg"},{"bike_id":"342f1aab-f383-4095-9af9-476f39ec27e6","system_id":"levelo_inurba_marseille","lat":43.22561,"lon":5.41631,"is_reserved":false,"is_disabled":false,"rental_uris":{"android":"levelo://app?vid=342f1aab-f383-4095-9af9-476f39ec27e6","ios":"levelo://app?vid=342f1aab-f383-4095-9af9-476f39ec27e6"},"vehicle_type_id":"4","last_reported":1766221872,"current_range_meters":9600,"station_id":"st_d2o4gvlbi1j2169b742g","pricing_plan_id":"cebpf4jnsgd1na2vs0mg"},{"bike_id":"657677ff-bd0f-45b9-a985-0cee09b5fde2","system_id":"levelo_inurba_marseille","lat":43.3169,"lon":5.43706,"is_reserved":false,"is_disabled":false,"rental_uris":{"android":"levelo://app?vid=657677ff-bd0f-45b9-a985-0cee09b5fde2","ios":"levelo://app?vid=657677ff-bd0f-45b9-a985-0cee09b5fde2"},"vehicle_type_id":"4","last_reported":1766221872,"current_range_meters":9600,"station_id":"ce4bhp92rcd13ifvqhcg","pricing_plan_id":"cebpf4jnsgd1na2vs0mg"},{"bike_id":"342831ac-e927-49d6-8b43-22fa72e5bef8","system_id":"levelo_inurba_marseille","lat":43.28038,"lon":5.38706,"is_reserved":false,"is_disabled":false,"rental_uris":{"android":"levelo://app?vid=342831ac-e927-49d6-8b43-22fa72e5bef8","ios":"levelo://app?vid=342831ac-e927-49d6-8b43-22fa72e5bef8"},"vehicle_type_id":"4","last_reported":1766221872,"current_range_meters":9600,"station_id":"","pricing_plan_id":"cebpf4jnsgd1na2vs0mg"},{"bike_id":"ddeb044e-67bd-438d-99c6-746858cb4126","system_id":"levelo_inurba_marseille","lat":43.299084,"lon":5.365482,"is_reserved":false,"is_disabled":false,"rental_uris":{"android":"levelo://app?vid=ddeb044e-67bd-438d-99c6-746858cb4126","ios":"levelo://app?vid=ddeb044e-67bd-438d-99c6-746858cb4126"},"vehicle_type_id":"4","last_reported":1766221872,"current_range_meters":9600,"station_id":"ce4bgm92rcd13ifvqbr0","pricing_plan_id":"cebpf4jnsgd1na2vs0mg"},{"bike_id":"bbe6d64f-2cb1-409d-ba24-ff27de876e43","system_id":"levelo_inurba_marseille","lat":43.2853,"lon":5.44122,"is_reserved":false,"is_disabled":false,"rental_uris":{"android":"levelo://app?vid=bbe6d64f-2cb1-409d-ba24-ff27de876e43","ios":"levelo://app?vid=bbe6d64f-2cb1-409d-ba24-ff27de876e43"},"vehicle_type_id":"4","last_reported":1766221872,"current_range_meters":10000,"station_id":"st_d3j3df2ikq2c7380ej80","pricing_plan_id":"cebpf4jnsgd1na2vs0mg"},{"bike_id":"61400083-f616-4ed1-b9c8-dd52c9c8a6c7","system_id":"levelo_inurba_marseille","lat":43.24163,"lon":5.39738,"is_reserved":false,"is_disabled":false,"rental_uris":{"android":"levelo://app?vid=61400083-f616-4ed1-b9c8-dd52c9c8a6c7","ios":"levelo://app?vid=61400083-f616-4ed1-b9c8-dd52c9c8a6c7"},"vehicle_type_id":"4","last_reported":1766221872,"current_range_meters":10000,"station_id":"ce4bhn12rcd13ifvqgpg","pricing_plan_id":"cebpf4jnsgd1na2vs0mg"},{"bike_id":"207776d7-b88e-48a6-b74f-2b1aae5e54c7","system_id":"levelo_inurba_marseille","lat":43.268961,"lon":5.387159,"is_reserved":false,"is_disabled":true,"rental_uris":{"android":"levelo://app?vid=207776d7-b88e-48a6-b74f-2b1aae5e54c7","ios":"levelo://app?vid=207776d7-b88e-48a6-b74f-2b1aae5e54c7"},"vehicle_type_id":"4","last_reported":1766221872,"current_range_meters":10000,"station_id":"","pricing_plan_id":"cebpf4jnsgd1na2vs0mg"},{"bike_id":"bb67b255-5e37-444f-b7a3-316dd67e2430","system_id":"levelo_inurba_marseille","lat":43.29177,"lon":5.35789,"is_reserved":false,"is_disabled":false,"rental_uris":{"android":"levelo://app?vid=bb67b255-5e37-444f-b7a3-316dd67e2430","ios":"levelo://app?vid=bb67b255-5e37-444f-b7a3-316dd67e2430"},"vehicle_type_id":"4","last_reported":1766221872,"current_range_meters":10000,"station_id":"ce4bgh92rcd13ifvqb40","pricing_plan_id":"cebpf4jnsgd1na2vs0mg"},{"bike_id":"8ddf5f0b-8638-4227-b0ee-efe27c023df6","system_id":"levelo_inurba_marseille","lat":43.308014,"lon":5.381433,"is_reserved":false,"is_disabled":true,"rental_uris":{"android":"levelo://app?vid=8ddf5f0b-8638-4227-b0ee-efe27c023df6","ios":"levelo://app?vid=8ddf5f0b-8638-4227-b0ee-efe27c023df6"},"vehicle_type_id":"4","last_reported":1766221872,"current_range_meters":10000,"station_id":"ce4bgjp2rcd13ifvqbh0","pricing_plan_id":"cebpf4jnsgd1na2vs0mg"},{"bike_id":"6244ba23-4432-4050-a6de-b074545c45d3","system_id":"levelo_inurba_marseille","lat":43.24167,"lon":5.36405,"is_reserved":false,"is_disabled":false,"rental_uris":{"android":"levelo://app?vid=6244ba23-4432-4050-a6de-b074545c45d3","ios":"levelo://app?vid=6244ba23-4432-4050-a6de-b074545c45d3"},"vehicle_type_id":"4","last_reported":1766221872,"current_range_meters":10000,"station_id":"cpo36qri1sfpv3e86is0","pricing_plan_id":"cebpf4jnsgd1na2vs0mg"},{"bike_id":"365ad53f-cb3b-420d-a376-f0f84e839076","system_id":"levelo_inurba_marseille","lat":43.29906,"lon":5.375,"is_reserved":false,"is_disabled":false,"rental_uris":{"android":"levelo://app?vid=365ad53f-cb3b-420d-a376-f0f84e839076","ios":"levelo://app?vid=365ad53f-cb3b-420d-a376-f0f84e839076"},"vehicle_type_id":"4","last_reported":1766221872,"current_range_meters":10000,"station_id":"ce4bgjh2rcd13ifvqbg0","pricing_plan_id":"cebpf4jnsgd1na2vs0mg"},{"bike_id":"47d5e399-8de7-409c-b13c-e212984da2dc","system_id":"levelo_inurba_marseille","lat":43.29045,"lon":5.359,"is_reserved":false,"is_disabled":false,"rental_uris":{"android":"levelo://app?vid=47d5e399-8de7-409c-b13c-e212984da2dc","ios":"levelo://app?vid=47d5e399-8de7-409c-b13c-e212984da2dc"},"vehicle_type_id":"4","last_reported":1766221872,"current_range_meters":10000,"station_id":"ce4bha92rcd13ifvqeg0","pricing_plan_id":"cebpf4jnsgd1na2vs0mg"},{"bike_id":"a155df3e-4b60-4af2-bb99-ef9672812592","system_id":"levelo_inurba_marseille","lat":43.31203,"lon":5.38154,"is_reserved":false,"is_disabled":false,"rental_uris":{"android":"levelo://app?vid=a155df3e-4b60-4af2-bb99-ef9672812592","ios":"levelo://app?vid=a155df3e-4b60-4af2-bb99-ef9672812592"},"vehicle_type_id":"4","last_reported":1766221872,"current_range_meters":10000,"station_id":"","pricing_plan_id":"cebpf4jnsgd1na2vs0mg"},{"bike_id":"025bcf3c-9127-4e0c-b7ed-8709d35ce958","system_id":"levelo_inurba_marseille","lat":43.31741,"lon":5.37215,"is_reserved":false,"is_disabled":false,"rental_uris":{"android":"levelo://app?vid=025bcf3c-9127-4e0c-b7ed-8709d35ce958","ios":"levelo://app?vid=025bcf3c-9127-4e0c-b7ed-8709d35ce958"},"vehicle_type_id":"4","last_reported":1766221872,"current_range_meters":10800,"station_id":"","pricing_plan_id":"cebpf4jnsgd1na2vs0mg"},{"bike_id":"1d20ee3d-5c43-43a2-bd2d-9cbba5bed977","system_id":"levelo_inurba_marseille","lat":43.32686,"lon":5.41024,"is_reserved":false,"is_disabled":false,"rental_uris":{"android":"levelo://app?vid=1d20ee3d-5c43-43a2-bd2d-9cbba5bed977","ios":"levelo://app?vid=1d20ee3d-5c43-43a2-bd2d-9cbba5bed977"},"vehicle_type_id":"4","last_reported":1766221872,"current_range_meters":10800,"station_id":"ce4bhpp2rcd13ifvqhgg","pricing_plan_id":"cebpf4jnsgd1na2vs0mg"},{"bike_id":"f1c6ef30-df40-4531-b632-19b3b8de3f93","system_id":"levelo_inurba_marseille","lat":43.337444,"lon":5.374475,"is_reserved":false,"is_disabled":false,"rental_uris":{"android":"levelo://app?vid=f1c6ef30-df40-4531-b632-19b3b8de3f93","ios":"levelo://app?vid=f1c6ef30-df40-4531-b632-19b3b8de3f93"},"vehicle_type_id":"4","last_reported":1766221872,"current_range_meters":10800,"station_id":"","pricing_plan_id":"cebpf4jnsgd1na2vs0mg"},{"bike_id":"b9cb3bf3-00fb-441a-ba6d-542e2e974911","system_id":"levelo_inurba_marseille","lat":43.28942,"lon":5.39615,"is_reserved":false,"is_disabled":false,"rental_uris":{"android":"levelo://app?vid=b9cb3bf3-00fb-441a-ba6d-542e2e974911","ios":"levelo://app?vid=b9cb3bf3-00fb-441a-ba6d-542e2e974911"},"vehicle_type_id":"4","last_reported":1766221872,"current_range_meters":10800,"station_id":"ce4bh3h2rcd13ifvqdn0","pricing_plan_id":"cebpf4jnsgd1na2vs0mg"},{"bike_id":"e4c1e4b8-20c3-403d-b299-c80acc21f5f9","system_id":"levelo_inurba_marseille","lat":43.29481,"lon":5.39752,"is_reserved":false,"is_disabled":false,"rental_uris":{"android":"levelo://app?vid=e4c1e4b8-20c3-403d-b299-c80acc21f5f9","ios":"levelo://app?vid=e4c1e4b8-20c3-403d-b299-c80acc21f5f9"},"vehicle_type_id":"4","last_reported":1766221872,"current_range_meters":10800,"station_id":"","pricing_plan_id":"cebpf4jnsgd1na2vs0mg"},{"bike_id":"960000b9-5f6a-4874-8ba2-61bf0329fc25","system_id":"levelo_inurba_marseille","lat":43.306455,"lon":5.410049,"is_reserved":false,"is_disabled":false,"rental_uris":{"android":"levelo://app?vid=960000b9-5f6a-4874-8ba2-61bf0329fc25","ios":"levelo://app?vid=960000b9-5f6a-4874-8ba2-61bf0329fc25"},"vehicle_type_id":"4","last_reported":1766221872,"current_range_meters":10800,"station_id":"","pricing_plan_id":"cebpf4jnsgd1na2vs0mg"},{"bike_id":"dd02578a-3ce3-4a5b-a150-72db34f2d7af","system_id":"levelo_inurba_marseille","lat":43.281497,"lon":5.426462,"is_reserved":false,"is_disabled":false,"rental_uris":{"android":"levelo://app?vid=dd02578a-3ce3-4a5b-a150-72db34f2d7af","ios":"levelo://app?vid=dd02578a-3ce3-4a5b-a150-72db34f2d7af"},"vehicle_type_id":"4","last_reported":1766221872,"current_range_meters":10800,"station_id":"ce4bhnh2rcd13ifvqgug","pricing_plan_id":"cebpf4jnsgd1na2vs0mg"},{"bike_id":"bcb638ec-1f7a-45bb-913f-62a7a0a453a1","system_id":"levelo_inurba_marseille","lat":43.29835,"lon":5.38574,"is_reserved":false,"is_disabled":false,"rental_uris":{"android":"levelo://app?vid=bcb638ec-1f7a-45bb-913f-62a7a0a453a1","ios":"levelo://app?vid=bcb638ec-1f7a-45bb-913f-62a7a0a453a1"},"vehicle_type_id":"4","last_reported":1766221872,"current_range_meters":10800,"station_id":"","pricing_plan_id":"cebpf4jnsgd1na2vs0mg"},{"bike_id":"b32c1713-556c-499e-84fe-450eb46ed9de","system_id":"levelo_inurba_marseille","lat":43.237786,"lon":5.366296,"is_reserved":false,"is_disabled":false,"rental_uris":{"android":"levelo://app?vid=b32c1713-556c-499e-84fe-450eb46ed9de","ios":"levelo://app?vid=b32c1713-556c-499e-84fe-450eb46ed9de"},"vehicle_type_id":"4","last_reported":1766221872,"current_range_meters":10800,"station_id":"st_d3nk18o9ro0c73en2l3g","pricing_plan_id":"cebpf4jnsgd1na2vs0mg"},{"bike_id":"ff400a14-182c-4479-9723-f211d61c81db","system_id":"levelo_inurba_marseille","lat":43.31987,"lon":5.40403,"is_reserved":false,"is_disabled":false,"rental_uris":{"android":"levelo://app?vid=ff400a14-182c-4479-9723-f211d61c81db","ios":"levelo://app?vid=ff400a14-182c-4479-9723-f211d61c81db"},"vehicle_type_id":"4","last_reported":1766221872,"current_range_meters":10800,"station_id":"","pricing_plan_id":"cebpf4jnsgd1na2vs0mg"},{"bike_id":"3d8062de-4bd0-49c7-86a6-7bf3b5df4845","system_id":"levelo_inurba_marseille","lat":43.284812,"lon":5.483954,"is_reserved":false,"is_disabled":false,"rental_uris":{"android":"levelo://app?vid=3d8062de-4bd0-49c7-86a6-7bf3b5df4845","ios":"levelo://app?vid=3d8062de-4bd0-49c7-86a6-7bf3b5df4845"},"vehicle_type_id":"4","last_reported":1766221872,"current_range_meters":10800,"station_id":"","pricing_plan_id":"cebpf4jnsgd1na2vs0mg"},{"bike_id":"177fd090-0076-4f92-9832-62b1c96ea1ea","system_id":"levelo_inurba_marseille","lat":43.253334,"lon":5.421606,"is_reserved":false,"is_disabled":false,"rental_uris":{"android":"levelo://app?vid=177fd090-0076-4f92-9832-62b1c96ea1ea","ios":"levelo://app?vid=177fd090-0076-4f92-9832-62b1c96ea1ea"},"vehicle_type_id":"4","last_reported":1766221872,"current_range_meters":10800,"station_id":"st_d2m65c5bi1j21697t3ng","pricing_plan_id":"cebpf4jnsgd1na2vs0mg"},{"bike_id":"e18d88c4-447f-4613-ac8f-5a6e3bb9a21c","system_id":"levelo_inurba_marseille","lat":43.29813,"lon":5.44067,"is_reserved":false,"is_disabled":false,"rental_uris":{"android":"levelo://app?vid=e18d88c4-447f-4613-ac8f-5a6e3bb9a21c","ios":"levelo://app?vid=e18d88c4-447f-4613-ac8f-5a6e3bb9a21c"},"vehicle_type_id":"4","last_reported":1766221872,"current_range_meters":10800,"station_id":"st_d3jp68qikq2c7381ktn0","pricing_plan_id":"cebpf4jnsgd1na2vs0mg"},{"bike_id":"af1f9193-90aa-4f34-b2c4-fb0bbaea183c","system_id":"levelo_inurba_marseille","lat":43.2847,"lon":5.48408,"is_reserved":false,"is_disabled":false,"rental_uris":{"android":"levelo://app?vid=af1f9193-90aa-4f34-b2c4-fb0bbaea183c","ios":"levelo://app?vid=af1f9193-90aa-4f34-b2c4-fb0bbaea183c"},"vehicle_type_id":"4","last_reported":1766221872,"current_range_meters":10800,"station_id":"","pricing_plan_id":"cebpf4jnsgd1na2vs0mg"},{"bike_id":"a4f1079d-db07-496a-8f90-88a72073fb80","system_id":"levelo_inurba_marseille","lat":43.3203,"lon":5.41572,"is_reserved":false,"is_disabled":false,"rental_uris":{"android":"levelo://app?vid=a4f1079d-db07-496a-8f90-88a72073fb80","ios":"levelo://app?vid=a4f1079d-db07-496a-8f90-88a72073fb80"},"vehicle_type_id":"4","last_reported":1766221872,"current_range_meters":10800,"station_id":"ce4bhq92rcd13ifvqhkg","pricing_plan_id":"cebpf4jnsgd1na2vs0mg"},{"bike_id":"73e2925b-3961-4e27-be9f-277c3490deb8","system_id":"levelo_inurba_marseille","lat":43.29627,"lon":5.37729,"is_reserved":false,"is_disabled":false,"rental_uris":{"android":"levelo://app?vid=73e2925b-3961-4e27-be9f-277c3490deb8","ios":"levelo://app?vid=73e2925b-3961-4e27-be9f-277c3490deb8"},"vehicle_type_id":"4","last_reported":1766221872,"current_range_meters":10800,"station_id":"ce4bgi92rcd13ifvqb90","pricing_plan_id":"cebpf4jnsgd1na2vs0mg"},{"bike_id":"eb1341ba-ba7e-4c28-827b-ac87efb87a9d","system_id":"levelo_inurba_marseille","lat":43.23787,"lon":5.36662,"is_reserved":false,"is_disabled":false,"rental_uris":{"android":"levelo://app?vid=eb1341ba-ba7e-4c28-827b-ac87efb87a9d","ios":"levelo://app?vid=eb1341ba-ba7e-4c28-827b-ac87efb87a9d"},"vehicle_type_id":"4","last_reported":1766221872,"current_range_meters":11200,"station_id":"st_d3nk18o9ro0c73en2l3g","pricing_plan_id":"cebpf4jnsgd1na2vs0mg"},{"bike_id":"e42ac7ed-f66a-44b4-b394-3418e57e1ec0","system_id":"levelo_inurba_marseille","lat":43.2119,"lon":5.35074,"is_reserved":false,"is_disabled":true,"rental_uris":{"android":"levelo://app?vid=e42ac7ed-f66a-44b4-b394-3418e57e1ec0","ios":"levelo://app?vid=e42ac7ed-f66a-44b4-b394-3418e57e1ec0"},"vehicle_type_id":"4","last_reported":1766221872,"current_range_meters":11200,"station_id":"st_cvj6sg6p6f1abm77japg","pricing_plan_id":"cebpf4jnsgd1na2vs0mg"},{"bike_id":"e520c4e4-0609-4d1b-8612-635b02ca2662","system_id":"levelo_inurba_marseille","lat":43.29031,"lon":5.39985,"is_reserved":false,"is_disabled":false,"rental_uris":{"android":"levelo://app?vid=e520c4e4-0609-4d1b-8612-635b02ca2662","ios":"levelo://app?vid=e520c4e4-0609-4d1b-8612-635b02ca2662"},"vehicle_type_id":"4","last_reported":1766221872,"current_range_meters":11200,"station_id":"ce4bh392rcd13ifvqdm0","pricing_plan_id":"cebpf4jnsgd1na2vs0mg"},{"bike_id":"99ad97c1-5a83-4b1c-9cf1-08492f7d7210","system_id":"levelo_inurba_marseille","lat":43.29249,"lon":5.409,"is_reserved":false,"is_disabled":false,"rental_uris":{"android":"levelo://app?vid=99ad97c1-5a83-4b1c-9cf1-08492f7d7210","ios":"levelo://app?vid=99ad97c1-5a83-4b1c-9cf1-08492f7d7210"},"vehicle_type_id":"4","last_reported":1766221872,"current_range_meters":11200,"station_id":"ce4bh192rcd13ifvqdc0","pricing_plan_id":"cebpf4jnsgd1na2vs0mg"},{"bike_id":"4fc1998f-881f-44f8-9927-2c615c409562","system_id":"levelo_inurba_marseille","lat":43.29931,"lon":5.3655,"is_reserved":false,"is_disabled":false,"rental_uris":{"android":"levelo://app?vid=4fc1998f-881f-44f8-9927-2c615c409562","ios":"levelo://app?vid=4fc1998f-881f-44f8-9927-2c615c409562"},"vehicle_type_id":"4","last_reported":1766221872,"current_range_meters":11200,"station_id":"ce4bgm92rcd13ifvqbr0","pricing_plan_id":"cebpf4jnsgd1na2vs0mg"},{"bike_id":"ce634916-e630-4474-8c32-4b2bfe924f7f","system_id":"levelo_inurba_marseille","lat":43.24627,"lon":5.43142,"is_reserved":false,"is_disabled":false,"rental_uris":{"android":"levelo://app?vid=ce634916-e630-4474-8c32-4b2bfe924f7f","ios":"levelo://app?vid=ce634916-e630-4474-8c32-4b2bfe924f7f"},"vehicle_type_id":"4","last_reported":1766221872,"current_range_meters":11200,"station_id":"st_d2m6c4gdas8pm72e190g","pricing_plan_id":"cebpf4jnsgd1na2vs0mg"},{"bike_id":"0c1f6896-cbd5-4c55-b68a-3cd9b92201dc","system_id":"levelo_inurba_marseille","lat":43.29895,"lon":5.43666,"is_reserved":false,"is_disabled":false,"rental_uris":{"android":"levelo://app?vid=0c1f6896-cbd5-4c55-b68a-3cd9b92201dc","ios":"levelo://app?vid=0c1f6896-cbd5-4c55-b68a-3cd9b92201dc"},"vehicle_type_id":"4","last_reported":1766221872,"current_range_meters":11200,"station_id":"ce4bhpp2rcd13ifvqhfg","pricing_plan_id":"cebpf4jnsgd1na2vs0mg"},{"bike_id":"410aa719-af76-4967-8457-d347b0a2e6bb","system_id":"levelo_inurba_marseille","lat":43.25491,"lon":5.37682,"is_reserved":false,"is_disabled":false,"rental_uris":{"android":"levelo://app?vid=410aa719-af76-4967-8457-d347b0a2e6bb","ios":"levelo://app?vid=410aa719-af76-4967-8457-d347b0a2e6bb"},"vehicle_type_id":"4","last_reported":1766221872,"current_range_meters":11200,"station_id":"ce4bhh12rcd13ifvqff0","pricing_plan_id":"cebpf4jnsgd1na2vs0mg"},{"bike_id":"d26729f5-210b-4096-acd6-99d477896379","system_id":"levelo_inurba_marseille","lat":43.25013,"lon":5.38929,"is_reserved":false,"is_disabled":false,"rental_uris":{"android":"levelo://app?vid=d26729f5-210b-4096-acd6-99d477896379","ios":"levelo://app?vid=d26729f5-210b-4096-acd6-99d477896379"},"vehicle_type_id":"4","last_reported":1766221872,"current_range_meters":11200,"station_id":"ce4bhgp2rcd13ifvqfd0","pricing_plan_id":"cebpf4jnsgd1na2vs0mg"},{"bike_id":"8580f57b-5aa3-4bcd-953e-6f28ee58972f","system_id":"levelo_inurba_marseille","lat":43.24648,"lon":5.43117,"is_reserved":false,"is_disabled":false,"rental_uris":{"android":"levelo://app?vid=8580f57b-5aa3-4bcd-953e-6f28ee58972f","ios":"levelo://app?vid=8580f57b-5aa3-4bcd-953e-6f28ee58972f"},"vehicle_type_id":"4","last_reported":1766221872,"current_range_meters":11200,"station_id":"st_d2m6c4gdas8pm72e190g","pricing_plan_id":"cebpf4jnsgd1na2vs0mg"},{"bike_id":"7d7cd1a6-c729-482c-ae5b-9123613e01ec","system_id":"levelo_inurba_marseille","lat":43.23764,"lon":5.36622,"is_reserved":false,"is_disabled":false,"rental_uris":{"android":"levelo://app?vid=7d7cd1a6-c729-482c-ae5b-9123613e01ec","ios":"levelo://app?vid=7d7cd1a6-c729-482c-ae5b-9123613e01ec"},"vehicle_type_id":"4","last_reported":1766221872,"current_range_meters":11200,"station_id":"st_d3nk18o9ro0c73en2l3g","pricing_plan_id":"cebpf4jnsgd1na2vs0mg"},{"bike_id":"a8a96969-9f32-4610-9b29-13cd70cfc85b","system_id":"levelo_inurba_marseille","lat":43.24383,"lon":5.37059,"is_reserved":false,"is_disabled":false,"rental_uris":{"android":"levelo://app?vid=a8a96969-9f32-4610-9b29-13cd70cfc85b","ios":"levelo://app?vid=a8a96969-9f32-4610-9b29-13cd70cfc85b"},"vehicle_type_id":"4","last_reported":1766221872,"current_range_meters":11200,"station_id":"ce4bhhh2rcd13ifvqfk0","pricing_plan_id":"cebpf4jnsgd1na2vs0mg"},{"bike_id":"f3b1e206-d95c-4749-81ff-7ea507ffa6a5","system_id":"levelo_inurba_marseille","lat":43.26549,"lon":5.37313,"is_reserved":false,"is_disabled":false,"rental_uris":{"android":"levelo://app?vid=f3b1e206-d95c-4749-81ff-7ea507ffa6a5","ios":"levelo://app?vid=f3b1e206-d95c-4749-81ff-7ea507ffa6a5"},"vehicle_type_id":"4","last_reported":1766221872,"current_range_meters":11600,"station_id":"ce4bhg12rcd13ifvqf70","pricing_plan_id":"cebpf4jnsgd1na2vs0mg"},{"bike_id":"d6449d99-814b-4c20-beb0-efc14f45bf89","system_id":"levelo_inurba_marseille","lat":43.29798,"lon":5.403999,"is_reserved":false,"is_disabled":false,"rental_uris":{"android":"levelo://app?vid=d6449d99-814b-4c20-beb0-efc14f45bf89","ios":"levelo://app?vid=d6449d99-814b-4c20-beb0-efc14f45bf89"},"vehicle_type_id":"4","last_reported":1766221872,"current_range_meters":11600,"station_id":"ce4bh112rcd13ifvqd90","pricing_plan_id":"cebpf4jnsgd1na2vs0mg"},{"bike_id":"fb8e0d3b-0f42-4824-95db-81c4fbdf59f8","system_id":"levelo_inurba_marseille","lat":43.30772,"lon":5.37651,"is_reserved":false,"is_disabled":false,"rental_uris":{"android":"levelo://app?vid=fb8e0d3b-0f42-4824-95db-81c4fbdf59f8","ios":"levelo://app?vid=fb8e0d3b-0f42-4824-95db-81c4fbdf59f8"},"vehicle_type_id":"4","last_reported":1766221872,"current_range_meters":11600,"station_id":"ce4bgv92rcd13ifvqcq0","pricing_plan_id":"cebpf4jnsgd1na2vs0mg"},{"bike_id":"26710569-0a32-4772-bdf2-90eda4871cac","system_id":"levelo_inurba_marseille","lat":43.29856,"lon":5.38931,"is_reserved":false,"is_disabled":false,"rental_uris":{"android":"levelo://app?vid=26710569-0a32-4772-bdf2-90eda4871cac","ios":"levelo://app?vid=26710569-0a32-4772-bdf2-90eda4871cac"},"vehicle_type_id":"4","last_reported":1766221872,"current_range_meters":11600,"station_id":"ce4bh392rcd13ifvqdl0","pricing_plan_id":"cebpf4jnsgd1na2vs0mg"},{"bike_id":"26f6d6a5-5821-4875-a164-33d619759de8","system_id":"levelo_inurba_marseille","lat":43.24161,"lon":5.36412,"is_reserved":false,"is_disabled":false,"rental_uris":{"android":"levelo://app?vid=26f6d6a5-5821-4875-a164-33d619759de8","ios":"levelo://app?vid=26f6d6a5-5821-4875-a164-33d619759de8"},"vehicle_type_id":"4","last_reported":1766221872,"current_range_meters":11600,"station_id":"cpo36qri1sfpv3e86is0","pricing_plan_id":"cebpf4jnsgd1na2vs0mg"},{"bike_id":"2085b852-1d74-495b-98a0-b5219ae4a550","system_id":"levelo_inurba_marseille","lat":43.24166,"lon":5.36394,"is_reserved":false,"is_disabled":false,"rental_uris":{"android":"levelo://app?vid=2085b852-1d74-495b-98a0-b5219ae4a550","ios":"levelo://app?vid=2085b852-1d74-495b-98a0-b5219ae4a550"},"vehicle_type_id":"4","last_reported":1766221872,"current_range_meters":11600,"station_id":"cpo36qri1sfpv3e86is0","pricing_plan_id":"cebpf4jnsgd1na2vs0mg"},{"bike_id":"90f8fe9a-ddea-490c-a93c-f47190bbab49","system_id":"levelo_inurba_marseille","lat":43.313689,"lon":5.367108,"is_reserved":false,"is_disabled":false,"rental_uris":{"android":"levelo://app?vid=90f8fe9a-ddea-490c-a93c-f47190bbab49","ios":"levelo://app?vid=90f8fe9a-ddea-490c-a93c-f47190bbab49"},"vehicle_type_id":"4","last_reported":1766221872,"current_range_meters":11600,"station_id":"ce4bgr92rcd13ifvqc6g","pricing_plan_id":"cebpf4jnsgd1na2vs0mg"},{"bike_id":"e854eef1-e631-49df-8024-94b8790f513f","system_id":"levelo_inurba_marseille","lat":43.30793,"lon":5.38162,"is_reserved":false,"is_disabled":false,"rental_uris":{"android":"levelo://app?vid=e854eef1-e631-49df-8024-94b8790f513f","ios":"levelo://app?vid=e854eef1-e631-49df-8024-94b8790f513f"},"vehicle_type_id":"4","last_reported":1766221872,"current_range_meters":11600,"station_id":"ce4bgt12rcd13ifvqce0","pricing_plan_id":"cebpf4jnsgd1na2vs0mg"},{"bike_id":"19f83498-9c2c-438c-9319-9c90e9928c89","system_id":"levelo_inurba_marseille","lat":43.30302,"lon":5.37659,"is_reserved":false,"is_disabled":false,"rental_uris":{"android":"levelo://app?vid=19f83498-9c2c-438c-9319-9c90e9928c89","ios":"levelo://app?vid=19f83498-9c2c-438c-9319-9c90e9928c89"},"vehicle_type_id":"4","last_reported":1766221872,"current_range_meters":11600,"station_id":"ce4bguh2rcd13ifvqcj0","pricing_plan_id":"cebpf4jnsgd1na2vs0mg"},{"bike_id":"81d9b9c0-6984-4243-9b90-5a011f67b45b","system_id":"levelo_inurba_marseille","lat":43.26561,"lon":5.37307,"is_reserved":false,"is_disabled":false,"rental_uris":{"android":"levelo://app?vid=81d9b9c0-6984-4243-9b90-5a011f67b45b","ios":"levelo://app?vid=81d9b9c0-6984-4243-9b90-5a011f67b45b"},"vehicle_type_id":"4","last_reported":1766221872,"current_range_meters":11600,"station_id":"ce4bhg12rcd13ifvqf70","pricing_plan_id":"cebpf4jnsgd1na2vs0mg"},{"bike_id":"20e9dd8e-ed66-4bff-9188-35cbfde59a24","system_id":"levelo_inurba_marseille","lat":43.32323,"lon":5.39369,"is_reserved":false,"is_disabled":false,"rental_uris":{"android":"levelo://app?vid=20e9dd8e-ed66-4bff-9188-35cbfde59a24","ios":"levelo://app?vid=20e9dd8e-ed66-4bff-9188-35cbfde59a24"},"vehicle_type_id":"4","last_reported":1766221872,"current_range_meters":11600,"station_id":"","pricing_plan_id":"cebpf4jnsgd1na2vs0mg"},{"bike_id":"20ce8cf1-9f9d-448e-ad1e-77f9e595930e","system_id":"levelo_inurba_marseille","lat":43.23779,"lon":5.36659,"is_reserved":false,"is_disabled":false,"rental_uris":{"android":"levelo://app?vid=20ce8cf1-9f9d-448e-ad1e-77f9e595930e","ios":"levelo://app?vid=20ce8cf1-9f9d-448e-ad1e-77f9e595930e"},"vehicle_type_id":"4","last_reported":1766221872,"current_range_meters":12000,"station_id":"st_d3nk18o9ro0c73en2l3g","pricing_plan_id":"cebpf4jnsgd1na2vs0mg"},{"bike_id":"9e1886ee-5978-4b4e-a4ad-7b1a3973e38d","system_id":"levelo_inurba_marseille","lat":43.311717,"lon":5.387126,"is_reserved":false,"is_disabled":false,"rental_uris":{"android":"levelo://app?vid=9e1886ee-5978-4b4e-a4ad-7b1a3973e38d","ios":"levelo://app?vid=9e1886ee-5978-4b4e-a4ad-7b1a3973e38d"},"vehicle_type_id":"4","last_reported":1766221872,"current_range_meters":12000,"station_id":"ce4bgv12rcd13ifvqcp0","pricing_plan_id":"cebpf4jnsgd1na2vs0mg"},{"bike_id":"7a2810d9-a7a2-4f55-a626-e3338912c6bf","system_id":"levelo_inurba_marseille","lat":43.337341,"lon":5.374881,"is_reserved":false,"is_disabled":false,"rental_uris":{"android":"levelo://app?vid=7a2810d9-a7a2-4f55-a626-e3338912c6bf","ios":"levelo://app?vid=7a2810d9-a7a2-4f55-a626-e3338912c6bf"},"vehicle_type_id":"4","last_reported":1766221872,"current_range_meters":12000,"station_id":"","pricing_plan_id":"cebpf4jnsgd1na2vs0mg"},{"bike_id":"13510b18-4a9b-47d0-a954-6d7cdc2c118c","system_id":"levelo_inurba_marseille","lat":43.284806,"lon":5.483938,"is_reserved":false,"is_disabled":false,"rental_uris":{"android":"levelo://app?vid=13510b18-4a9b-47d0-a954-6d7cdc2c118c","ios":"levelo://app?vid=13510b18-4a9b-47d0-a954-6d7cdc2c118c"},"vehicle_type_id":"4","last_reported":1766221872,"current_range_meters":12000,"station_id":"","pricing_plan_id":"cebpf4jnsgd1na2vs0mg"},{"bike_id":"b9fd6a3a-e5d4-452a-99d2-fbb6f9148990","system_id":"levelo_inurba_marseille","lat":43.29279,"lon":5.40138,"is_reserved":false,"is_disabled":true,"rental_uris":{"android":"levelo://app?vid=b9fd6a3a-e5d4-452a-99d2-fbb6f9148990","ios":"levelo://app?vid=b9fd6a3a-e5d4-452a-99d2-fbb6f9148990"},"vehicle_type_id":"4","last_reported":1766221872,"current_range_meters":12000,"station_id":"ce4bh312rcd13ifvqdk0","pricing_plan_id":"cebpf4jnsgd1na2vs0mg"},{"bike_id":"b9435e23-fe36-4ec3-826d-96c5b5447df7","system_id":"levelo_inurba_marseille","lat":43.29958,"lon":5.38521,"is_reserved":false,"is_disabled":false,"rental_uris":{"android":"levelo://app?vid=b9435e23-fe36-4ec3-826d-96c5b5447df7","ios":"levelo://app?vid=b9435e23-fe36-4ec3-826d-96c5b5447df7"},"vehicle_type_id":"4","last_reported":1766221872,"current_range_meters":12000,"station_id":"ce4bgj92rcd13ifvqbd0","pricing_plan_id":"cebpf4jnsgd1na2vs0mg"},{"bike_id":"156e61f2-3d75-4260-9924-a8b3ec92c21b","system_id":"levelo_inurba_marseille","lat":43.2256,"lon":5.41626,"is_reserved":false,"is_disabled":true,"rental_uris":{"android":"levelo://app?vid=156e61f2-3d75-4260-9924-a8b3ec92c21b","ios":"levelo://app?vid=156e61f2-3d75-4260-9924-a8b3ec92c21b"},"vehicle_type_id":"4","last_reported":1766221872,"current_range_meters":12000,"station_id":"st_d2o4gvlbi1j2169b742g","pricing_plan_id":"cebpf4jnsgd1na2vs0mg"},{"bike_id":"cc9768e4-2670-4e18-83b2-4c8cdb76982c","system_id":"levelo_inurba_marseille","lat":43.29611,"lon":5.40603,"is_reserved":false,"is_disabled":false,"rental_uris":{"android":"levelo://app?vid=cc9768e4-2670-4e18-83b2-4c8cdb76982c","ios":"levelo://app?vid=cc9768e4-2670-4e18-83b2-4c8cdb76982c"},"vehicle_type_id":"4","last_reported":1766221872,"current_range_meters":12000,"station_id":"ce4bh0h2rcd13ifvqd60","pricing_plan_id":"cebpf4jnsgd1na2vs0mg"},{"bike_id":"9ed2abc5-3eb4-46ee-9006-c9e3411abb84","system_id":"levelo_inurba_marseille","lat":43.26342,"lon":5.39874,"is_reserved":false,"is_disabled":false,"rental_uris":{"android":"levelo://app?vid=9ed2abc5-3eb4-46ee-9006-c9e3411abb84","ios":"levelo://app?vid=9ed2abc5-3eb4-46ee-9006-c9e3411abb84"},"vehicle_type_id":"4","last_reported":1766221872,"current_range_meters":12000,"station_id":"","pricing_plan_id":"cebpf4jnsgd1na2vs0mg"},{"bike_id":"f8c81698-8959-4f17-a285-185d75f85bb0","system_id":"levelo_inurba_marseille","lat":43.29519,"lon":5.37501,"is_reserved":false,"is_disabled":false,"rental_uris":{"android":"levelo://app?vid=f8c81698-8959-4f17-a285-185d75f85bb0","ios":"levelo://app?vid=f8c81698-8959-4f17-a285-185d75f85bb0"},"vehicle_type_id":"4","last_reported":1766221872,"current_range_meters":12000,"station_id":"ce4bgkp2rcd13ifvqbmg","pricing_plan_id":"cebpf4jnsgd1na2vs0mg"},{"bike_id":"9dcaa91a-9418-424d-b1f6-153df9647225","system_id":"levelo_inurba_marseille","lat":43.2558,"lon":5.38226,"is_reserved":false,"is_disabled":false,"rental_uris":{"android":"levelo://app?vid=9dcaa91a-9418-424d-b1f6-153df9647225","ios":"levelo://app?vid=9dcaa91a-9418-424d-b1f6-153df9647225"},"vehicle_type_id":"4","last_reported":1766221872,"current_range_meters":12000,"station_id":"ce4bhih2rcd13ifvqfs0","pricing_plan_id":"cebpf4jnsgd1na2vs0mg"},{"bike_id":"9a41f74f-1cf1-4cbe-bd38-cc82dcbc231b","system_id":"levelo_inurba_marseille","lat":43.297982,"lon":5.363297,"is_reserved":false,"is_disabled":false,"rental_uris":{"android":"levelo://app?vid=9a41f74f-1cf1-4cbe-bd38-cc82dcbc231b","ios":"levelo://app?vid=9a41f74f-1cf1-4cbe-bd38-cc82dcbc231b"},"vehicle_type_id":"4","last_reported":1766221872,"current_range_meters":12000,"station_id":"ce4bgpp2rcd13ifvqc3g","pricing_plan_id":"cebpf4jnsgd1na2vs0mg"},{"bike_id":"67e9c6db-9caa-4280-8ea0-60f69bc7d5c2","system_id":"levelo_inurba_marseille","lat":43.289425,"lon":5.366374,"is_reserved":false,"is_disabled":true,"rental_uris":{"android":"levelo://app?vid=67e9c6db-9caa-4280-8ea0-60f69bc7d5c2","ios":"levelo://app?vid=67e9c6db-9caa-4280-8ea0-60f69bc7d5c2"},"vehicle_type_id":"4","last_reported":1766221872,"current_range_meters":12400,"station_id":"","pricing_plan_id":"cebpf4jnsgd1na2vs0mg"},{"bike_id":"3a68f052-ef14-4b15-a197-210bb3d4845c","system_id":"levelo_inurba_marseille","lat":43.28563,"lon":5.39497,"is_reserved":false,"is_disabled":false,"rental_uris":{"android":"levelo://app?vid=3a68f052-ef14-4b15-a197-210bb3d4845c","ios":"levelo://app?vid=3a68f052-ef14-4b15-a197-210bb3d4845c"},"vehicle_type_id":"4","last_reported":1766221872,"current_range_meters":12400,"station_id":"ce4bh292rcd13ifvqdg0","pricing_plan_id":"cebpf4jnsgd1na2vs0mg"},{"bike_id":"623bd85b-e1ae-4e4c-9772-6ebc7131dc6e","system_id":"levelo_inurba_marseille","lat":43.31124,"lon":5.37747,"is_reserved":false,"is_disabled":false,"rental_uris":{"android":"levelo://app?vid=623bd85b-e1ae-4e4c-9772-6ebc7131dc6e","ios":"levelo://app?vid=623bd85b-e1ae-4e4c-9772-6ebc7131dc6e"},"vehicle_type_id":"4","last_reported":1766221872,"current_range_meters":12400,"station_id":"ce4bgt92rcd13ifvqcg0","pricing_plan_id":"cebpf4jnsgd1na2vs0mg"},{"bike_id":"8eb30b91-3cf1-4507-b361-be5214bebabb","system_id":"levelo_inurba_marseille","lat":43.29584,"lon":5.37505,"is_reserved":false,"is_disabled":false,"rental_uris":{"android":"levelo://app?vid=8eb30b91-3cf1-4507-b361-be5214bebabb","ios":"levelo://app?vid=8eb30b91-3cf1-4507-b361-be5214bebabb"},"vehicle_type_id":"4","last_reported":1766221872,"current_range_meters":12400,"station_id":"ce4bgh92rcd13ifvqb50","pricing_plan_id":"cebpf4jnsgd1na2vs0mg"},{"bike_id":"d93eed39-a491-45bd-a27b-3b19929bf78e","system_id":"levelo_inurba_marseille","lat":43.237864,"lon":5.366304,"is_reserved":false,"is_disabled":false,"rental_uris":{"android":"levelo://app?vid=d93eed39-a491-45bd-a27b-3b19929bf78e","ios":"levelo://app?vid=d93eed39-a491-45bd-a27b-3b19929bf78e"},"vehicle_type_id":"4","last_reported":1766221872,"current_range_meters":12400,"station_id":"st_d3nk18o9ro0c73en2l3g","pricing_plan_id":"cebpf4jnsgd1na2vs0mg"},{"bike_id":"d333f5c5-54f8-4cf5-940a-bb6a2ed8e5fd","system_id":"levelo_inurba_marseille","lat":43.30542,"lon":5.37615,"is_reserved":false,"is_disabled":false,"rental_uris":{"android":"levelo://app?vid=d333f5c5-54f8-4cf5-940a-bb6a2ed8e5fd","ios":"levelo://app?vid=d333f5c5-54f8-4cf5-940a-bb6a2ed8e5fd"},"vehicle_type_id":"4","last_reported":1766221872,"current_range_meters":12400,"station_id":"","pricing_plan_id":"cebpf4jnsgd1na2vs0mg"},{"bike_id":"ba5ddc14-134d-4f97-af1c-22a9ea8f76d0","system_id":"levelo_inurba_marseille","lat":43.27844,"lon":5.39196,"is_reserved":false,"is_disabled":false,"rental_uris":{"android":"levelo://app?vid=ba5ddc14-134d-4f97-af1c-22a9ea8f76d0","ios":"levelo://app?vid=ba5ddc14-134d-4f97-af1c-22a9ea8f76d0"},"vehicle_type_id":"4","last_reported":1766221872,"current_range_meters":12400,"station_id":"ce4bhjp2rcd13ifvqga0","pricing_plan_id":"cebpf4jnsgd1na2vs0mg"},{"bike_id":"07549cba-96a6-403c-8319-5f4006ebe909","system_id":"levelo_inurba_marseille","lat":43.2937,"lon":5.37858,"is_reserved":false,"is_disabled":false,"rental_uris":{"android":"levelo://app?vid=07549cba-96a6-403c-8319-5f4006ebe909","ios":"levelo://app?vid=07549cba-96a6-403c-8319-5f4006ebe909"},"vehicle_type_id":"4","last_reported":1766221872,"current_range_meters":12400,"station_id":"ce4bgjh2rcd13ifvqbf0","pricing_plan_id":"cebpf4jnsgd1na2vs0mg"},{"bike_id":"a8544672-03a2-4160-9031-e61c4107dd19","system_id":"levelo_inurba_marseille","lat":43.29747,"lon":5.4279,"is_reserved":false,"is_disabled":false,"rental_uris":{"android":"levelo://app?vid=a8544672-03a2-4160-9031-e61c4107dd19","ios":"levelo://app?vid=a8544672-03a2-4160-9031-e61c4107dd19"},"vehicle_type_id":"4","last_reported":1766221872,"current_range_meters":12400,"station_id":"st_d3md5207bmas73dh9klg","pricing_plan_id":"cebpf4jnsgd1na2vs0mg"},{"bike_id":"47e5dfd8-2a23-438e-831d-33a1476d5301","system_id":"levelo_inurba_marseille","lat":43.312753,"lon":5.401803,"is_reserved":false,"is_disabled":false,"rental_uris":{"android":"levelo://app?vid=47e5dfd8-2a23-438e-831d-33a1476d5301","ios":"levelo://app?vid=47e5dfd8-2a23-438e-831d-33a1476d5301"},"vehicle_type_id":"4","last_reported":1766221872,"current_range_meters":12400,"station_id":"","pricing_plan_id":"cebpf4jnsgd1na2vs0mg"},{"bike_id":"a30c9a95-2c71-4d1f-86a9-6326fcb19c03","system_id":"levelo_inurba_marseille","lat":43.24381,"lon":5.37062,"is_reserved":false,"is_disabled":false,"rental_uris":{"android":"levelo://app?vid=a30c9a95-2c71-4d1f-86a9-6326fcb19c03","ios":"levelo://app?vid=a30c9a95-2c71-4d1f-86a9-6326fcb19c03"},"vehicle_type_id":"4","last_reported":1766221872,"current_range_meters":12400,"station_id":"ce4bhhh2rcd13ifvqfk0","pricing_plan_id":"cebpf4jnsgd1na2vs0mg"},{"bike_id":"4f2bc6c6-d63f-4e59-bdbf-91760def261d","system_id":"levelo_inurba_marseille","lat":43.28529,"lon":5.44107,"is_reserved":false,"is_disabled":false,"rental_uris":{"android":"levelo://app?vid=4f2bc6c6-d63f-4e59-bdbf-91760def261d","ios":"levelo://app?vid=4f2bc6c6-d63f-4e59-bdbf-91760def261d"},"vehicle_type_id":"4","last_reported":1766221872,"current_range_meters":12400,"station_id":"st_d3j3df2ikq2c7380ej80","pricing_plan_id":"cebpf4jnsgd1na2vs0mg"},{"bike_id":"38037a8b-e273-42d2-a455-4b2107ee1743","system_id":"levelo_inurba_marseille","lat":43.301165,"lon":5.431094,"is_reserved":false,"is_disabled":false,"rental_uris":{"android":"levelo://app?vid=38037a8b-e273-42d2-a455-4b2107ee1743","ios":"levelo://app?vid=38037a8b-e273-42d2-a455-4b2107ee1743"},"vehicle_type_id":"4","last_reported":1766221872,"current_range_meters":12400,"station_id":"st_d3js3co5814s73ftftug","pricing_plan_id":"cebpf4jnsgd1na2vs0mg"},{"bike_id":"c84b8e47-5802-4c21-b1cc-1df47c4f26c2","system_id":"levelo_inurba_marseille","lat":43.2848,"lon":5.48394,"is_reserved":false,"is_disabled":false,"rental_uris":{"android":"levelo://app?vid=c84b8e47-5802-4c21-b1cc-1df47c4f26c2","ios":"levelo://app?vid=c84b8e47-5802-4c21-b1cc-1df47c4f26c2"},"vehicle_type_id":"4","last_reported":1766221872,"current_range_meters":12800,"station_id":"","pricing_plan_id":"cebpf4jnsgd1na2vs0mg"},{"bike_id":"e690c867-6f92-4878-bff7-a3243322d024","system_id":"levelo_inurba_marseille","lat":43.29488,"lon":5.42743,"is_reserved":false,"is_disabled":false,"rental_uris":{"android":"levelo://app?vid=e690c867-6f92-4878-bff7-a3243322d024","ios":"levelo://app?vid=e690c867-6f92-4878-bff7-a3243322d024"},"vehicle_type_id":"4","last_reported":1766221872,"current_range_meters":12800,"station_id":"","pricing_plan_id":"cebpf4jnsgd1na2vs0mg"},{"bike_id":"98c040ff-ac12-4358-bded-c79cb9358db9","system_id":"levelo_inurba_marseille","lat":43.31721,"lon":5.42397,"is_reserved":false,"is_disabled":false,"rental_uris":{"android":"levelo://app?vid=98c040ff-ac12-4358-bded-c79cb9358db9","ios":"levelo://app?vid=98c040ff-ac12-4358-bded-c79cb9358db9"},"vehicle_type_id":"4","last_reported":1766221872,"current_range_meters":12800,"station_id":"ce4bhp92rcd13ifvqhbg","pricing_plan_id":"cebpf4jnsgd1na2vs0mg"},{"bike_id":"90dac6f2-4e58-4623-b929-4f8d06ec1c31","system_id":"levelo_inurba_marseille","lat":43.28501,"lon":5.42547,"is_reserved":false,"is_disabled":false,"rental_uris":{"android":"levelo://app?vid=90dac6f2-4e58-4623-b929-4f8d06ec1c31","ios":"levelo://app?vid=90dac6f2-4e58-4623-b929-4f8d06ec1c31"},"vehicle_type_id":"4","last_reported":1766221872,"current_range_meters":13600,"station_id":"","pricing_plan_id":"cebpf4jnsgd1na2vs0mg"},{"bike_id":"daf4e466-6da6-4301-bc40-126ba493a358","system_id":"levelo_inurba_marseille","lat":43.30242,"lon":5.40049,"is_reserved":false,"is_disabled":false,"rental_uris":{"android":"levelo://app?vid=daf4e466-6da6-4301-bc40-126ba493a358","ios":"levelo://app?vid=daf4e466-6da6-4301-bc40-126ba493a358"},"vehicle_type_id":"4","last_reported":1766221872,"current_range_meters":13600,"station_id":"ce4bgvh2rcd13ifvqcs0","pricing_plan_id":"cebpf4jnsgd1na2vs0mg"},{"bike_id":"40d73e8d-0c27-4119-afd6-7fe731b3c8a2","system_id":"levelo_inurba_marseille","lat":43.23186,"lon":5.35549,"is_reserved":false,"is_disabled":false,"rental_uris":{"android":"levelo://app?vid=40d73e8d-0c27-4119-afd6-7fe731b3c8a2","ios":"levelo://app?vid=40d73e8d-0c27-4119-afd6-7fe731b3c8a2"},"vehicle_type_id":"4","last_reported":1766221872,"current_range_meters":13600,"station_id":"ce4bhu92rcd13ifvqi70","pricing_plan_id":"cebpf4jnsgd1na2vs0mg"},{"bike_id":"5cdf0c26-71fe-4230-ab4f-b50d47db508a","system_id":"levelo_inurba_marseille","lat":43.30134,"lon":5.39754,"is_reserved":false,"is_disabled":false,"rental_uris":{"android":"levelo://app?vid=5cdf0c26-71fe-4230-ab4f-b50d47db508a","ios":"levelo://app?vid=5cdf0c26-71fe-4230-ab4f-b50d47db508a"},"vehicle_type_id":"4","last_reported":1766221872,"current_range_meters":13600,"station_id":"","pricing_plan_id":"cebpf4jnsgd1na2vs0mg"},{"bike_id":"f2c2f21a-2643-40c9-a83e-5a52788ba994","system_id":"levelo_inurba_marseille","lat":43.23784,"lon":5.36645,"is_reserved":false,"is_disabled":false,"rental_uris":{"android":"levelo://app?vid=f2c2f21a-2643-40c9-a83e-5a52788ba994","ios":"levelo://app?vid=f2c2f21a-2643-40c9-a83e-5a52788ba994"},"vehicle_type_id":"4","last_reported":1766221872,"current_range_meters":13600,"station_id":"st_d3nk18o9ro0c73en2l3g","pricing_plan_id":"cebpf4jnsgd1na2vs0mg"},{"bike_id":"0a878f81-014a-4418-8c17-c944e0044104","system_id":"levelo_inurba_marseille","lat":43.28608,"lon":5.3512,"is_reserved":false,"is_disabled":false,"rental_uris":{"android":"levelo://app?vid=0a878f81-014a-4418-8c17-c944e0044104","ios":"levelo://app?vid=0a878f81-014a-4418-8c17-c944e0044104"},"vehicle_type_id":"4","last_reported":1766221872,"current_range_meters":13600,"station_id":"ce4bhch2rcd13ifvqeug","pricing_plan_id":"cebpf4jnsgd1na2vs0mg"},{"bike_id":"b99df7a0-ab82-44f9-a6fb-f2c4e3c7415e","system_id":"levelo_inurba_marseille","lat":43.29001,"lon":5.35615,"is_reserved":false,"is_disabled":false,"rental_uris":{"android":"levelo://app?vid=b99df7a0-ab82-44f9-a6fb-f2c4e3c7415e","ios":"levelo://app?vid=b99df7a0-ab82-44f9-a6fb-f2c4e3c7415e"},"vehicle_type_id":"4","last_reported":1766221872,"current_range_meters":13600,"station_id":"ce4bhb92rcd13ifvqen0","pricing_plan_id":"cebpf4jnsgd1na2vs0mg"},{"bike_id":"6682e79b-6b3d-439e-b71b-bda1cffb85c8","system_id":"levelo_inurba_marseille","lat":43.27194,"lon":5.39153,"is_reserved":false,"is_disabled":false,"rental_uris":{"android":"levelo://app?vid=6682e79b-6b3d-439e-b71b-bda1cffb85c8","ios":"levelo://app?vid=6682e79b-6b3d-439e-b71b-bda1cffb85c8"},"vehicle_type_id":"4","last_reported":1766221872,"current_range_meters":13600,"station_id":"ce4bhhp2rcd13ifvqfm0","pricing_plan_id":"cebpf4jnsgd1na2vs0mg"},{"bike_id":"60104876-cfb4-4c08-831d-06fdc216973b","system_id":"levelo_inurba_marseille","lat":43.29983,"lon":5.38493,"is_reserved":false,"is_disabled":true,"rental_uris":{"android":"levelo://app?vid=60104876-cfb4-4c08-831d-06fdc216973b","ios":"levelo://app?vid=60104876-cfb4-4c08-831d-06fdc216973b"},"vehicle_type_id":"4","last_reported":1766221872,"current_range_meters":13600,"station_id":"ce4bgj92rcd13ifvqbd0","pricing_plan_id":"cebpf4jnsgd1na2vs0mg"},{"bike_id":"1a7829b6-e17e-42fa-9ac7-719de18f4299","system_id":"levelo_inurba_marseille","lat":43.30147,"lon":5.38079,"is_reserved":false,"is_disabled":false,"rental_uris":{"android":"levelo://app?vid=1a7829b6-e17e-42fa-9ac7-719de18f4299","ios":"levelo://app?vid=1a7829b6-e17e-42fa-9ac7-719de18f4299"},"vehicle_type_id":"4","last_reported":1766221872,"current_range_meters":13600,"station_id":"ce4bgjp2rcd13ifvqbh0","pricing_plan_id":"cebpf4jnsgd1na2vs0mg"},{"bike_id":"c77925b6-3ecc-478f-bd5f-39a2551d5e66","system_id":"levelo_inurba_marseille","lat":43.29539,"lon":5.42286,"is_reserved":false,"is_disabled":false,"rental_uris":{"android":"levelo://app?vid=c77925b6-3ecc-478f-bd5f-39a2551d5e66","ios":"levelo://app?vid=c77925b6-3ecc-478f-bd5f-39a2551d5e66"},"vehicle_type_id":"4","last_reported":1766221872,"current_range_meters":13600,"station_id":"ce4bhph2rcd13ifvqhdg","pricing_plan_id":"cebpf4jnsgd1na2vs0mg"},{"bike_id":"b0eb95b9-79ce-4691-a99c-e8e830cecad7","system_id":"levelo_inurba_marseille","lat":43.303741,"lon":5.425196,"is_reserved":false,"is_disabled":false,"rental_uris":{"android":"levelo://app?vid=b0eb95b9-79ce-4691-a99c-e8e830cecad7","ios":"levelo://app?vid=b0eb95b9-79ce-4691-a99c-e8e830cecad7"},"vehicle_type_id":"4","last_reported":1766221872,"current_range_meters":13600,"station_id":"","pricing_plan_id":"cebpf4jnsgd1na2vs0mg"},{"bike_id":"e4ea7d09-2075-4c2e-84c3-9a697f2f820b","system_id":"levelo_inurba_marseille","lat":43.28022,"lon":5.36955,"is_reserved":false,"is_disabled":false,"rental_uris":{"android":"levelo://app?vid=e4ea7d09-2075-4c2e-84c3-9a697f2f820b","ios":"levelo://app?vid=e4ea7d09-2075-4c2e-84c3-9a697f2f820b"},"vehicle_type_id":"4","last_reported":1766221872,"current_range_meters":13600,"station_id":"ce4bha12rcd13ifvqef0","pricing_plan_id":"cebpf4jnsgd1na2vs0mg"},{"bike_id":"1a399a16-62ed-47ae-ba1c-654e7762c033","system_id":"levelo_inurba_marseille","lat":43.30015,"lon":5.38052,"is_reserved":false,"is_disabled":false,"rental_uris":{"android":"levelo://app?vid=1a399a16-62ed-47ae-ba1c-654e7762c033","ios":"levelo://app?vid=1a399a16-62ed-47ae-ba1c-654e7762c033"},"vehicle_type_id":"4","last_reported":1766221872,"current_range_meters":14000,"station_id":"","pricing_plan_id":"cebpf4jnsgd1na2vs0mg"},{"bike_id":"ac69310b-48fc-4542-b776-5797f9034e72","system_id":"levelo_inurba_marseille","lat":43.298168,"lon":5.440676,"is_reserved":false,"is_disabled":false,"rental_uris":{"android":"levelo://app?vid=ac69310b-48fc-4542-b776-5797f9034e72","ios":"levelo://app?vid=ac69310b-48fc-4542-b776-5797f9034e72"},"vehicle_type_id":"4","last_reported":1766221872,"current_range_meters":14000,"station_id":"st_d3jp68qikq2c7381ktn0","pricing_plan_id":"cebpf4jnsgd1na2vs0mg"},{"bike_id":"00a29bb1-88ca-440d-9219-07d673c689ed","system_id":"levelo_inurba_marseille","lat":43.30478,"lon":5.36862,"is_reserved":false,"is_disabled":false,"rental_uris":{"android":"levelo://app?vid=00a29bb1-88ca-440d-9219-07d673c689ed","ios":"levelo://app?vid=00a29bb1-88ca-440d-9219-07d673c689ed"},"vehicle_type_id":"4","last_reported":1766221872,"current_range_meters":14000,"station_id":"","pricing_plan_id":"cebpf4jnsgd1na2vs0mg"},{"bike_id":"7154c4d5-1054-4e7b-8948-ae2db00b882b","system_id":"levelo_inurba_marseille","lat":43.28867,"lon":5.42497,"is_reserved":false,"is_disabled":false,"rental_uris":{"android":"levelo://app?vid=7154c4d5-1054-4e7b-8948-ae2db00b882b","ios":"levelo://app?vid=7154c4d5-1054-4e7b-8948-ae2db00b882b"},"vehicle_type_id":"4","last_reported":1766221872,"current_range_meters":14000,"station_id":"st_d3b462108ojc7389ooeg","pricing_plan_id":"cebpf4jnsgd1na2vs0mg"},{"bike_id":"f247771e-2838-4c74-9387-68cb8feccb4e","system_id":"levelo_inurba_marseille","lat":43.28526,"lon":5.40516,"is_reserved":false,"is_disabled":false,"rental_uris":{"android":"levelo://app?vid=f247771e-2838-4c74-9387-68cb8feccb4e","ios":"levelo://app?vid=f247771e-2838-4c74-9387-68cb8feccb4e"},"vehicle_type_id":"4","last_reported":1766221872,"current_range_meters":14000,"station_id":"","pricing_plan_id":"cebpf4jnsgd1na2vs0mg"},{"bike_id":"28ad1a9a-391c-435e-96a8-1e7f1aea86aa","system_id":"levelo_inurba_marseille","lat":43.30113,"lon":5.43124,"is_reserved":false,"is_disabled":false,"rental_uris":{"android":"levelo://app?vid=28ad1a9a-391c-435e-96a8-1e7f1aea86aa","ios":"levelo://app?vid=28ad1a9a-391c-435e-96a8-1e7f1aea86aa"},"vehicle_type_id":"4","last_reported":1766221872,"current_range_meters":14400,"station_id":"st_d3js3co5814s73ftftug","pricing_plan_id":"cebpf4jnsgd1na2vs0mg"},{"bike_id":"1638ae75-7814-4f36-8217-c676fc77f7e6","system_id":"levelo_inurba_marseille","lat":43.30134,"lon":5.39884,"is_reserved":false,"is_disabled":false,"rental_uris":{"android":"levelo://app?vid=1638ae75-7814-4f36-8217-c676fc77f7e6","ios":"levelo://app?vid=1638ae75-7814-4f36-8217-c676fc77f7e6"},"vehicle_type_id":"4","last_reported":1766221872,"current_range_meters":14400,"station_id":"ce4bh0h2rcd13ifvqd40","pricing_plan_id":"cebpf4jnsgd1na2vs0mg"},{"bike_id":"22a40d0a-95d4-4372-b972-453fda8655a6","system_id":"levelo_inurba_marseille","lat":43.308799,"lon":5.396413,"is_reserved":false,"is_disabled":false,"rental_uris":{"android":"levelo://app?vid=22a40d0a-95d4-4372-b972-453fda8655a6","ios":"levelo://app?vid=22a40d0a-95d4-4372-b972-453fda8655a6"},"vehicle_type_id":"4","last_reported":1766221872,"current_range_meters":14400,"station_id":"ce4bh012rcd13ifvqcv0","pricing_plan_id":"cebpf4jnsgd1na2vs0mg"},{"bike_id":"628a75f3-7312-4f05-a812-11eaca59fded","system_id":"levelo_inurba_marseille","lat":43.284886,"lon":5.385748,"is_reserved":false,"is_disabled":false,"rental_uris":{"android":"levelo://app?vid=628a75f3-7312-4f05-a812-11eaca59fded","ios":"levelo://app?vid=628a75f3-7312-4f05-a812-11eaca59fded"},"vehicle_type_id":"4","last_reported":1766221872,"current_range_meters":14400,"station_id":"ce4bh8p2rcd13ifvqeb0","pricing_plan_id":"cebpf4jnsgd1na2vs0mg"},{"bike_id":"5438e2e9-be3e-4437-ab51-80306de0d829","system_id":"levelo_inurba_marseille","lat":43.30466,"lon":5.37898,"is_reserved":false,"is_disabled":false,"rental_uris":{"android":"levelo://app?vid=5438e2e9-be3e-4437-ab51-80306de0d829","ios":"levelo://app?vid=5438e2e9-be3e-4437-ab51-80306de0d829"},"vehicle_type_id":"4","last_reported":1766221872,"current_range_meters":14400,"station_id":"ce4bgup2rcd13ifvqcn0","pricing_plan_id":"cebpf4jnsgd1na2vs0mg"},{"bike_id":"ad6b341f-35a2-402c-a6cc-33fa78b70380","system_id":"levelo_inurba_marseille","lat":43.25337,"lon":5.42164,"is_reserved":false,"is_disabled":false,"rental_uris":{"android":"levelo://app?vid=ad6b341f-35a2-402c-a6cc-33fa78b70380","ios":"levelo://app?vid=ad6b341f-35a2-402c-a6cc-33fa78b70380"},"vehicle_type_id":"4","last_reported":1766221872,"current_range_meters":14400,"station_id":"st_d2m65c5bi1j21697t3ng","pricing_plan_id":"cebpf4jnsgd1na2vs0mg"},{"bike_id":"4dc3984a-98b4-4bb5-bf48-55b828f51361","system_id":"levelo_inurba_marseille","lat":43.24806,"lon":5.37475,"is_reserved":false,"is_disabled":false,"rental_uris":{"android":"levelo://app?vid=4dc3984a-98b4-4bb5-bf48-55b828f51361","ios":"levelo://app?vid=4dc3984a-98b4-4bb5-bf48-55b828f51361"},"vehicle_type_id":"4","last_reported":1766221872,"current_range_meters":14400,"station_id":"ce4bhgh2rcd13ifvqfb0","pricing_plan_id":"cebpf4jnsgd1na2vs0mg"},{"bike_id":"8c1ab11e-9e0c-4d16-a145-c73e6f57ea67","system_id":"levelo_inurba_marseille","lat":43.3014,"lon":5.37421,"is_reserved":false,"is_disabled":false,"rental_uris":{"android":"levelo://app?vid=8c1ab11e-9e0c-4d16-a145-c73e6f57ea67","ios":"levelo://app?vid=8c1ab11e-9e0c-4d16-a145-c73e6f57ea67"},"vehicle_type_id":"4","last_reported":1766221872,"current_range_meters":14400,"station_id":"ce4bgs92rcd13ifvqcc0","pricing_plan_id":"cebpf4jnsgd1na2vs0mg"},{"bike_id":"0e05f7ed-c67a-4250-8192-9046cb1ea63b","system_id":"levelo_inurba_marseille","lat":43.29881,"lon":5.39726,"is_reserved":false,"is_disabled":false,"rental_uris":{"android":"levelo://app?vid=0e05f7ed-c67a-4250-8192-9046cb1ea63b","ios":"levelo://app?vid=0e05f7ed-c67a-4250-8192-9046cb1ea63b"},"vehicle_type_id":"4","last_reported":1766221872,"current_range_meters":14400,"station_id":"ce4bh0h2rcd13ifvqd50","pricing_plan_id":"cebpf4jnsgd1na2vs0mg"},{"bike_id":"7d41fbf7-f4c5-4154-9bb3-12ba26895b61","system_id":"levelo_inurba_marseille","lat":43.24029,"lon":5.37737,"is_reserved":false,"is_disabled":false,"rental_uris":{"android":"levelo://app?vid=7d41fbf7-f4c5-4154-9bb3-12ba26895b61","ios":"levelo://app?vid=7d41fbf7-f4c5-4154-9bb3-12ba26895b61"},"vehicle_type_id":"4","last_reported":1766221872,"current_range_meters":14400,"station_id":"ce4bhnp2rcd13ifvqgvg","pricing_plan_id":"cebpf4jnsgd1na2vs0mg"},{"bike_id":"253a2033-908d-4c58-8c32-7a732e831eec","system_id":"levelo_inurba_marseille","lat":43.25486,"lon":5.3765,"is_reserved":false,"is_disabled":false,"rental_uris":{"android":"levelo://app?vid=253a2033-908d-4c58-8c32-7a732e831eec","ios":"levelo://app?vid=253a2033-908d-4c58-8c32-7a732e831eec"},"vehicle_type_id":"4","last_reported":1766221872,"current_range_meters":14400,"station_id":"ce4bhh12rcd13ifvqff0","pricing_plan_id":"cebpf4jnsgd1na2vs0mg"},{"bike_id":"de4957ca-9c93-409a-ae9b-9b8d86479fcf","system_id":"levelo_inurba_marseille","lat":43.29538,"lon":5.37514,"is_reserved":false,"is_disabled":true,"rental_uris":{"android":"levelo://app?vid=de4957ca-9c93-409a-ae9b-9b8d86479fcf","ios":"levelo://app?vid=de4957ca-9c93-409a-ae9b-9b8d86479fcf"},"vehicle_type_id":"4","last_reported":1766221872,"current_range_meters":14800,"station_id":"ce4bgkp2rcd13ifvqbmg","pricing_plan_id":"cebpf4jnsgd1na2vs0mg"},{"bike_id":"1b241270-8270-497d-bdd3-f8b796cc6162","system_id":"levelo_inurba_marseille","lat":43.29925,"lon":5.3748,"is_reserved":false,"is_disabled":false,"rental_uris":{"android":"levelo://app?vid=1b241270-8270-497d-bdd3-f8b796cc6162","ios":"levelo://app?vid=1b241270-8270-497d-bdd3-f8b796cc6162"},"vehicle_type_id":"4","last_reported":1766221872,"current_range_meters":14800,"station_id":"ce4bgjh2rcd13ifvqbg0","pricing_plan_id":"cebpf4jnsgd1na2vs0mg"},{"bike_id":"167ff5eb-f7ec-4a9a-a389-047000be67d8","system_id":"levelo_inurba_marseille","lat":43.28136,"lon":5.42677,"is_reserved":false,"is_disabled":false,"rental_uris":{"android":"levelo://app?vid=167ff5eb-f7ec-4a9a-a389-047000be67d8","ios":"levelo://app?vid=167ff5eb-f7ec-4a9a-a389-047000be67d8"},"vehicle_type_id":"4","last_reported":1766221872,"current_range_meters":14800,"station_id":"ce4bhnh2rcd13ifvqgug","pricing_plan_id":"cebpf4jnsgd1na2vs0mg"},{"bike_id":"26c78947-38c8-4fe2-9c04-b54c7806b0ba","system_id":"levelo_inurba_marseille","lat":43.27376,"lon":5.36252,"is_reserved":false,"is_disabled":false,"rental_uris":{"android":"levelo://app?vid=26c78947-38c8-4fe2-9c04-b54c7806b0ba","ios":"levelo://app?vid=26c78947-38c8-4fe2-9c04-b54c7806b0ba"},"vehicle_type_id":"4","last_reported":1766221872,"current_range_meters":14800,"station_id":"ce4bhbh2rcd13ifvqeo0","pricing_plan_id":"cebpf4jnsgd1na2vs0mg"},{"bike_id":"f1a91494-4ea9-498a-8b4d-c2877ea07d2f","system_id":"levelo_inurba_marseille","lat":43.33562,"lon":5.37432,"is_reserved":false,"is_disabled":false,"rental_uris":{"android":"levelo://app?vid=f1a91494-4ea9-498a-8b4d-c2877ea07d2f","ios":"levelo://app?vid=f1a91494-4ea9-498a-8b4d-c2877ea07d2f"},"vehicle_type_id":"4","last_reported":1766221872,"current_range_meters":14800,"station_id":"st_d46tts09ee8s73dlu43g","pricing_plan_id":"cebpf4jnsgd1na2vs0mg"},{"bike_id":"c0fb8cc1-ebe9-4001-a3ec-0d3fc87db3d9","system_id":"levelo_inurba_marseille","lat":43.34364,"lon":5.35513,"is_reserved":false,"is_disabled":false,"rental_uris":{"android":"levelo://app?vid=c0fb8cc1-ebe9-4001-a3ec-0d3fc87db3d9","ios":"levelo://app?vid=c0fb8cc1-ebe9-4001-a3ec-0d3fc87db3d9"},"vehicle_type_id":"4","last_reported":1766221872,"current_range_meters":14800,"station_id":"","pricing_plan_id":"cebpf4jnsgd1na2vs0mg"},{"bike_id":"fa6439a5-bd8f-400f-b0c9-f9eb6345c2ca","system_id":"levelo_inurba_marseille","lat":43.29006,"lon":5.35604,"is_reserved":false,"is_disabled":false,"rental_uris":{"android":"levelo://app?vid=fa6439a5-bd8f-400f-b0c9-f9eb6345c2ca","ios":"levelo://app?vid=fa6439a5-bd8f-400f-b0c9-f9eb6345c2ca"},"vehicle_type_id":"4","last_reported":1766221872,"current_range_meters":14800,"station_id":"ce4bhb92rcd13ifvqen0","pricing_plan_id":"cebpf4jnsgd1na2vs0mg"},{"bike_id":"855d16cb-a0fd-4e07-9270-f8edf3ac4bcb","system_id":"levelo_inurba_marseille","lat":43.279955,"lon":5.416616,"is_reserved":false,"is_disabled":false,"rental_uris":{"android":"levelo://app?vid=855d16cb-a0fd-4e07-9270-f8edf3ac4bcb","ios":"levelo://app?vid=855d16cb-a0fd-4e07-9270-f8edf3ac4bcb"},"vehicle_type_id":"4","last_reported":1766221872,"current_range_meters":14800,"station_id":"ce4bho12rcd13ifvqh1g","pricing_plan_id":"cebpf4jnsgd1na2vs0mg"},{"bike_id":"25e455b2-761f-402b-9d41-47d424adf5f3","system_id":"levelo_inurba_marseille","lat":43.30812,"lon":5.38145,"is_reserved":false,"is_disabled":false,"rental_uris":{"android":"levelo://app?vid=25e455b2-761f-402b-9d41-47d424adf5f3","ios":"levelo://app?vid=25e455b2-761f-402b-9d41-47d424adf5f3"},"vehicle_type_id":"4","last_reported":1766221872,"current_range_meters":14800,"station_id":"ce4bgt12rcd13ifvqce0","pricing_plan_id":"cebpf4jnsgd1na2vs0mg"},{"bike_id":"85f80c36-b01d-4148-8a0f-5ed00798dda8","system_id":"levelo_inurba_marseille","lat":43.30084,"lon":5.36522,"is_reserved":false,"is_disabled":false,"rental_uris":{"android":"levelo://app?vid=85f80c36-b01d-4148-8a0f-5ed00798dda8","ios":"levelo://app?vid=85f80c36-b01d-4148-8a0f-5ed00798dda8"},"vehicle_type_id":"4","last_reported":1766221872,"current_range_meters":14800,"station_id":"","pricing_plan_id":"cebpf4jnsgd1na2vs0mg"},{"bike_id":"6fb215b1-ab25-4dde-991e-c0fe77591f5a","system_id":"levelo_inurba_marseille","lat":43.290039,"lon":5.390386,"is_reserved":false,"is_disabled":true,"rental_uris":{"android":"levelo://app?vid=6fb215b1-ab25-4dde-991e-c0fe77591f5a","ios":"levelo://app?vid=6fb215b1-ab25-4dde-991e-c0fe77591f5a"},"vehicle_type_id":"4","last_reported":1766221872,"current_range_meters":14800,"station_id":"","pricing_plan_id":"cebpf4jnsgd1na2vs0mg"},{"bike_id":"31ccd5a7-c78f-47a4-bee1-a95f20a573f2","system_id":"levelo_inurba_marseille","lat":43.27209,"lon":5.39183,"is_reserved":false,"is_disabled":false,"rental_uris":{"android":"levelo://app?vid=31ccd5a7-c78f-47a4-bee1-a95f20a573f2","ios":"levelo://app?vid=31ccd5a7-c78f-47a4-bee1-a95f20a573f2"},"vehicle_type_id":"4","last_reported":1766221872,"current_range_meters":14800,"station_id":"ce4bhhp2rcd13ifvqfm0","pricing_plan_id":"cebpf4jnsgd1na2vs0mg"},{"bike_id":"21e78242-b603-432f-9107-a2c16cae7025","system_id":"levelo_inurba_marseille","lat":43.29295,"lon":5.39404,"is_reserved":false,"is_disabled":false,"rental_uris":{"android":"levelo://app?vid=21e78242-b603-432f-9107-a2c16cae7025","ios":"levelo://app?vid=21e78242-b603-432f-9107-a2c16cae7025"},"vehicle_type_id":"4","last_reported":1766221872,"current_range_meters":14800,"station_id":"","pricing_plan_id":"cebpf4jnsgd1na2vs0mg"},{"bike_id":"f9df09a0-3737-4582-8136-0e0c747a0f9b","system_id":"levelo_inurba_marseille","lat":43.32352,"lon":5.36757,"is_reserved":false,"is_disabled":false,"rental_uris":{"android":"levelo://app?vid=f9df09a0-3737-4582-8136-0e0c747a0f9b","ios":"levelo://app?vid=f9df09a0-3737-4582-8136-0e0c747a0f9b"},"vehicle_type_id":"4","last_reported":1766221872,"current_range_meters":14800,"station_id":"ce4bhsh2rcd13ifvqi2g","pricing_plan_id":"cebpf4jnsgd1na2vs0mg"},{"bike_id":"57632650-2c4e-4b31-8506-61c3ebd7eb5d","system_id":"levelo_inurba_marseille","lat":43.30794,"lon":5.38168,"is_reserved":false,"is_disabled":false,"rental_uris":{"android":"levelo://app?vid=57632650-2c4e-4b31-8506-61c3ebd7eb5d","ios":"levelo://app?vid=57632650-2c4e-4b31-8506-61c3ebd7eb5d"},"vehicle_type_id":"4","last_reported":1766221872,"current_range_meters":14800,"station_id":"ce4bgt12rcd13ifvqce0","pricing_plan_id":"cebpf4jnsgd1na2vs0mg"},{"bike_id":"90840bbc-8899-4ec1-9d75-c0cbe42c36af","system_id":"levelo_inurba_marseille","lat":43.29922,"lon":5.38152,"is_reserved":false,"is_disabled":false,"rental_uris":{"android":"levelo://app?vid=90840bbc-8899-4ec1-9d75-c0cbe42c36af","ios":"levelo://app?vid=90840bbc-8899-4ec1-9d75-c0cbe42c36af"},"vehicle_type_id":"4","last_reported":1766221872,"current_range_meters":15200,"station_id":"ce4bgj12rcd13ifvqbc0","pricing_plan_id":"cebpf4jnsgd1na2vs0mg"},{"bike_id":"2964d339-565e-4966-a8d5-dd5de314e6fd","system_id":"levelo_inurba_marseille","lat":43.32353,"lon":5.36747,"is_reserved":false,"is_disabled":false,"rental_uris":{"android":"levelo://app?vid=2964d339-565e-4966-a8d5-dd5de314e6fd","ios":"levelo://app?vid=2964d339-565e-4966-a8d5-dd5de314e6fd"},"vehicle_type_id":"4","last_reported":1766221872,"current_range_meters":15200,"station_id":"ce4bhsh2rcd13ifvqi2g","pricing_plan_id":"cebpf4jnsgd1na2vs0mg"},{"bike_id":"cf01deac-2376-4d88-bc76-849623b1c99e","system_id":"levelo_inurba_marseille","lat":43.30783,"lon":5.37638,"is_reserved":false,"is_disabled":false,"rental_uris":{"android":"levelo://app?vid=cf01deac-2376-4d88-bc76-849623b1c99e","ios":"levelo://app?vid=cf01deac-2376-4d88-bc76-849623b1c99e"},"vehicle_type_id":"4","last_reported":1766221872,"current_range_meters":15200,"station_id":"ce4bgv92rcd13ifvqcq0","pricing_plan_id":"cebpf4jnsgd1na2vs0mg"},{"bike_id":"b4c06ecc-7a46-4aca-a09e-6e605e584bbd","system_id":"levelo_inurba_marseille","lat":43.29813,"lon":5.44054,"is_reserved":false,"is_disabled":false,"rental_uris":{"android":"levelo://app?vid=b4c06ecc-7a46-4aca-a09e-6e605e584bbd","ios":"levelo://app?vid=b4c06ecc-7a46-4aca-a09e-6e605e584bbd"},"vehicle_type_id":"4","last_reported":1766221872,"current_range_meters":15200,"station_id":"st_d3jp68qikq2c7381ktn0","pricing_plan_id":"cebpf4jnsgd1na2vs0mg"},{"bike_id":"2154a936-f819-49ae-b7ae-2734365f2c42","system_id":"levelo_inurba_marseille","lat":43.335436,"lon":5.374693,"is_reserved":false,"is_disabled":false,"rental_uris":{"android":"levelo://app?vid=2154a936-f819-49ae-b7ae-2734365f2c42","ios":"levelo://app?vid=2154a936-f819-49ae-b7ae-2734365f2c42"},"vehicle_type_id":"4","last_reported":1766221872,"current_range_meters":15200,"station_id":"st_d46tts09ee8s73dlu43g","pricing_plan_id":"cebpf4jnsgd1na2vs0mg"},{"bike_id":"f2bb075c-a4ca-4a7d-9548-444cf0978b1e","system_id":"levelo_inurba_marseille","lat":43.303815,"lon":5.369031,"is_reserved":false,"is_disabled":false,"rental_uris":{"android":"levelo://app?vid=f2bb075c-a4ca-4a7d-9548-444cf0978b1e","ios":"levelo://app?vid=f2bb075c-a4ca-4a7d-9548-444cf0978b1e"},"vehicle_type_id":"4","last_reported":1766221872,"current_range_meters":15200,"station_id":"","pricing_plan_id":"cebpf4jnsgd1na2vs0mg"},{"bike_id":"93bf859a-8811-47fd-8138-493e55036625","system_id":"levelo_inurba_marseille","lat":43.29013,"lon":5.3813,"is_reserved":false,"is_disabled":false,"rental_uris":{"android":"levelo://app?vid=93bf859a-8811-47fd-8138-493e55036625","ios":"levelo://app?vid=93bf859a-8811-47fd-8138-493e55036625"},"vehicle_type_id":"4","last_reported":1766221872,"current_range_meters":15200,"station_id":"ce4bh4p2rcd13ifvqe1g","pricing_plan_id":"cebpf4jnsgd1na2vs0mg"},{"bike_id":"9d21dcb0-ce26-48db-a303-317550439f40","system_id":"levelo_inurba_marseille","lat":43.28475,"lon":5.48398,"is_reserved":false,"is_disabled":false,"rental_uris":{"android":"levelo://app?vid=9d21dcb0-ce26-48db-a303-317550439f40","ios":"levelo://app?vid=9d21dcb0-ce26-48db-a303-317550439f40"},"vehicle_type_id":"4","last_reported":1766221872,"current_range_meters":15200,"station_id":"st_d3svhcjqgbts73a3dn0g","pricing_plan_id":"cebpf4jnsgd1na2vs0mg"},{"bike_id":"698032aa-e78c-409e-bed4-f8f4309f7e0c","system_id":"levelo_inurba_marseille","lat":43.294513,"lon":5.396208,"is_reserved":false,"is_disabled":false,"rental_uris":{"android":"levelo://app?vid=698032aa-e78c-409e-bed4-f8f4309f7e0c","ios":"levelo://app?vid=698032aa-e78c-409e-bed4-f8f4309f7e0c"},"vehicle_type_id":"4","last_reported":1766221872,"current_range_meters":15200,"station_id":"","pricing_plan_id":"cebpf4jnsgd1na2vs0mg"},{"bike_id":"8c268acd-8266-474f-9055-b22ba3b75a6a","system_id":"levelo_inurba_marseille","lat":43.30541,"lon":5.38422,"is_reserved":false,"is_disabled":false,"rental_uris":{"android":"levelo://app?vid=8c268acd-8266-474f-9055-b22ba3b75a6a","ios":"levelo://app?vid=8c268acd-8266-474f-9055-b22ba3b75a6a"},"vehicle_type_id":"4","last_reported":1766221872,"current_range_meters":15200,"station_id":"ce4bgg92rcd13ifvqb30","pricing_plan_id":"cebpf4jnsgd1na2vs0mg"},{"bike_id":"fcde6b72-5b2e-4a66-b820-0f7cebd56f16","system_id":"levelo_inurba_marseille","lat":43.2983,"lon":5.36315,"is_reserved":false,"is_disabled":false,"rental_uris":{"android":"levelo://app?vid=fcde6b72-5b2e-4a66-b820-0f7cebd56f16","ios":"levelo://app?vid=fcde6b72-5b2e-4a66-b820-0f7cebd56f16"},"vehicle_type_id":"4","last_reported":1766221872,"current_range_meters":15200,"station_id":"ce4bgpp2rcd13ifvqc3g","pricing_plan_id":"cebpf4jnsgd1na2vs0mg"},{"bike_id":"ce9dd982-7515-4042-930f-0fc6c8b79fd9","system_id":"levelo_inurba_marseille","lat":43.307763,"lon":5.376558,"is_reserved":false,"is_disabled":false,"rental_uris":{"android":"levelo://app?vid=ce9dd982-7515-4042-930f-0fc6c8b79fd9","ios":"levelo://app?vid=ce9dd982-7515-4042-930f-0fc6c8b79fd9"},"vehicle_type_id":"4","last_reported":1766221872,"current_range_meters":15200,"station_id":"ce4bgv92rcd13ifvqcq0","pricing_plan_id":"cebpf4jnsgd1na2vs0mg"},{"bike_id":"c7447d2a-92c2-495b-80cd-68329ca59073","system_id":"levelo_inurba_marseille","lat":43.29033,"lon":5.35914,"is_reserved":false,"is_disabled":false,"rental_uris":{"android":"levelo://app?vid=c7447d2a-92c2-495b-80cd-68329ca59073","ios":"levelo://app?vid=c7447d2a-92c2-495b-80cd-68329ca59073"},"vehicle_type_id":"4","last_reported":1766221872,"current_range_meters":16000,"station_id":"ce4bha92rcd13ifvqeg0","pricing_plan_id":"cebpf4jnsgd1na2vs0mg"},{"bike_id":"d25ab0ff-f414-4f1d-a827-2cb02628b30e","system_id":"levelo_inurba_marseille","lat":43.25342,"lon":5.42172,"is_reserved":false,"is_disabled":false,"rental_uris":{"android":"levelo://app?vid=d25ab0ff-f414-4f1d-a827-2cb02628b30e","ios":"levelo://app?vid=d25ab0ff-f414-4f1d-a827-2cb02628b30e"},"vehicle_type_id":"4","last_reported":1766221872,"current_range_meters":16000,"station_id":"st_d2m65c5bi1j21697t3ng","pricing_plan_id":"cebpf4jnsgd1na2vs0mg"},{"bike_id":"6cb74e32-ec6a-45dd-9113-6f2f1aa8ca4f","system_id":"levelo_inurba_marseille","lat":43.29559,"lon":5.39989,"is_reserved":false,"is_disabled":false,"rental_uris":{"android":"levelo://app?vid=6cb74e32-ec6a-45dd-9113-6f2f1aa8ca4f","ios":"levelo://app?vid=6cb74e32-ec6a-45dd-9113-6f2f1aa8ca4f"},"vehicle_type_id":"4","last_reported":1766221872,"current_range_meters":16000,"station_id":"ce4bh312rcd13ifvqdj0","pricing_plan_id":"cebpf4jnsgd1na2vs0mg"},{"bike_id":"f05b1d45-099e-428c-8304-1aeb2bda8a9a","system_id":"levelo_inurba_marseille","lat":43.231893,"lon":5.355693,"is_reserved":false,"is_disabled":true,"rental_uris":{"android":"levelo://app?vid=f05b1d45-099e-428c-8304-1aeb2bda8a9a","ios":"levelo://app?vid=f05b1d45-099e-428c-8304-1aeb2bda8a9a"},"vehicle_type_id":"4","last_reported":1766221872,"current_range_meters":16000,"station_id":"ce4bhu92rcd13ifvqi70","pricing_plan_id":"cebpf4jnsgd1na2vs0mg"},{"bike_id":"ba5fe198-5ac3-4bd7-8649-5b6193db5395","system_id":"levelo_inurba_marseille","lat":43.31826,"lon":5.38959,"is_reserved":false,"is_disabled":false,"rental_uris":{"android":"levelo://app?vid=ba5fe198-5ac3-4bd7-8649-5b6193db5395","ios":"levelo://app?vid=ba5fe198-5ac3-4bd7-8649-5b6193db5395"},"vehicle_type_id":"4","last_reported":1766221872,"current_range_meters":16000,"station_id":"","pricing_plan_id":"cebpf4jnsgd1na2vs0mg"},{"bike_id":"bba82d6c-8e26-4b08-8fb7-fb5a04afbdde","system_id":"levelo_inurba_marseille","lat":43.27913,"lon":5.38015,"is_reserved":false,"is_disabled":false,"rental_uris":{"android":"levelo://app?vid=bba82d6c-8e26-4b08-8fb7-fb5a04afbdde","ios":"levelo://app?vid=bba82d6c-8e26-4b08-8fb7-fb5a04afbdde"},"vehicle_type_id":"4","last_reported":1766221872,"current_range_meters":16000,"station_id":"ce4bhf92rcd13ifvqf50","pricing_plan_id":"cebpf4jnsgd1na2vs0mg"},