{"last_updated":1744920674,"ttl":60,"version":"2.2","data":{"bikes":[{"bike_id":"3b9a2161-8fe4-4803-95d9-9451e8d7c8ec","system_id":"levelo_inurba_marseille","lat":43.28107,"lon":5.37837,"is_reserved":false,"is_disabled":false,"rental_uris":{"android":"levelo://app?vid=3b9a2161-8fe4-4803-95d9-9451e8d7c8ec","ios":"levelo://app?vid=3b9a2161-8fe4-4803-95d9-9451e8d7c8ec"},"vehicle_type_id":"4","last_reported":1744920675,"current_range_meters":2800,"station_id":"ce4bha12rcd13ifvqee0","pricing_plan_id":"cebpf4jnsgd1na2vs0mg"},{"bike_id":"9ceba099-3f3e-49a3-8a6a-f070e3efe63a","system_id":"levelo_inurba_marseille","lat":43.28937,"lon":5.36639,"is_reserved":false,"is_disabled":false,"rental_uris":{"android":"levelo://app?vid=9ceba099-3f3e-49a3-8a6a-f070e3efe63a","ios":"levelo://app?vid=9ceba099-3f3e-49a3-8a6a-f070e3efe63a"},"vehicle_type_id":"4","last_reported":1744920675,"current_range_meters":2800,"station_id":"ce4bhap2rcd13ifvqek0","pricing_plan_id":"cebpf4jnsgd1na2vs0mg"},{"bike_id":"f12a8b0e-9b9a-40f3-bb63-abdf4ed1d60c","system_id":"levelo_inurba_marseille","lat":43.29256,"lon":5.37619,"is_reserved":false,"is_disabled":false,"rental_uris":{"android":"levelo://app?vid=f12a8b0e-9b9a-40f3-bb63-abdf4ed1d60c","ios":"levelo://app?vid=f12a8b0e-9b9a-40f3-bb63-abdf4ed1d60c"},"vehicle_type_id":"4","last_reported":1744920675,"current_range_meters":3200,"station_id":"ce4bgi12rcd13ifvqb80","pricing_plan_id":"cebpf4jnsgd1na2vs0mg"},{"bike_id":"ad2a82b1-2a0f-41fb-aafd-0bbf34dc59c0","system_id":"levelo_inurba_marseille","lat":43.321197,"lon":5.367644,"is_reserved":false,"is_disabled":false,"rental_uris":{"android":"levelo://app?vid=ad2a82b1-2a0f-41fb-aafd-0bbf34dc59c0","ios":"levelo://app?vid=ad2a82b1-2a0f-41fb-aafd-0bbf34dc59c0"},"vehicle_type_id":"4","last_reported":1744920675,"current_range_meters":3200,"station_id":"ce4bhs12rcd13ifvqhvg","pricing_plan_id":"cebpf4jnsgd1na2vs0mg"},{"bike_id":"96a51b39-1d3e-4aa3-a2cc-677352af30ff","system_id":"levelo_inurba_marseille","lat":43.21747,"lon":5.34602,"is_reserved":false,"is_disabled":false,"rental_uris":{"android":"levelo://app?vid=96a51b39-1d3e-4aa3-a2cc-677352af30ff","ios":"levelo://app?vid=96a51b39-1d3e-4aa3-a2cc-677352af30ff"},"vehicle_type_id":"4","last_reported":1744920675,"current_range_meters":3600,"station_id":"st_cvj6r9ubvosntc0bgbag","pricing_plan_id":"cebpf4jnsgd1na2vs0mg"},{"bike_id":"acf0b7be-efd5-4a9c-ac9d-cfd5a277a8f2","system_id":"levelo_inurba_marseille","lat":43.291674,"lon":5.371492,"is_reserved":false,"is_disabled":false,"rental_uris":{"android":"levelo://app?vid=acf0b7be-efd5-4a9c-ac9d-cfd5a277a8f2","ios":"levelo://app?vid=acf0b7be-efd5-4a9c-ac9d-cfd5a277a8f2"},"vehicle_type_id":"4","last_reported":1744920675,"current_range_meters":3600,"station_id":"ce4bha92rcd13ifvqeh0","pricing_plan_id":"cebpf4jnsgd1na2vs0mg"},{"bike_id":"94bdd211-d80a-4460-a62a-06b00fca5e4d","system_id":"levelo_inurba_marseille","lat":43.28264,"lon":5.35065,"is_reserved":false,"is_disabled":false,"rental_uris":{"android":"levelo://app?vid=94bdd211-d80a-4460-a62a-06b00fca5e4d","ios":"levelo://app?vid=94bdd211-d80a-4460-a62a-06b00fca5e4d"},"vehicle_type_id":"4","last_reported":1744920675,"current_range_meters":3600,"station_id":"ce4bhbp2rcd13ifvqerg","pricing_plan_id":"cebpf4jnsgd1na2vs0mg"},{"bike_id":"33d45d8e-937b-4f19-bf54-20001f574233","system_id":"levelo_inurba_marseille","lat":43.243867,"lon":5.370589,"is_reserved":false,"is_disabled":false,"rental_uris":{"android":"levelo://app?vid=33d45d8e-937b-4f19-bf54-20001f574233","ios":"levelo://app?vid=33d45d8e-937b-4f19-bf54-20001f574233"},"vehicle_type_id":"4","last_reported":1744920675,"current_range_meters":4000,"station_id":"ce4bhhh2rcd13ifvqfk0","pricing_plan_id":"cebpf4jnsgd1na2vs0mg"},{"bike_id":"1c07b04f-326e-4a2d-9b34-113f03b426f4","system_id":"levelo_inurba_marseille","lat":43.31753,"lon":5.39017,"is_reserved":false,"is_disabled":false,"rental_uris":{"android":"levelo://app?vid=1c07b04f-326e-4a2d-9b34-113f03b426f4","ios":"levelo://app?vid=1c07b04f-326e-4a2d-9b34-113f03b426f4"},"vehicle_type_id":"4","last_reported":1744920675,"current_range_meters":4000,"station_id":"ce4bhqp2rcd13ifvqhng","pricing_plan_id":"cebpf4jnsgd1na2vs0mg"},{"bike_id":"9b2d4e8c-b082-4935-8c80-14ed4447a66b","system_id":"levelo_inurba_marseille","lat":43.2918,"lon":5.39319,"is_reserved":false,"is_disabled":false,"rental_uris":{"android":"levelo://app?vid=9b2d4e8c-b082-4935-8c80-14ed4447a66b","ios":"levelo://app?vid=9b2d4e8c-b082-4935-8c80-14ed4447a66b"},"vehicle_type_id":"4","last_reported":1744920675,"current_range_meters":4800,"station_id":"ce4bh192rcd13ifvqdd0","pricing_plan_id":"cebpf4jnsgd1na2vs0mg"},{"bike_id":"5c37c543-52ea-4ca0-b815-01718a2d50c7","system_id":"levelo_inurba_marseille","lat":43.27916,"lon":5.39596,"is_reserved":false,"is_disabled":true,"rental_uris":{"android":"levelo://app?vid=5c37c543-52ea-4ca0-b815-01718a2d50c7","ios":"levelo://app?vid=5c37c543-52ea-4ca0-b815-01718a2d50c7"},"vehicle_type_id":"4","last_reported":1744920675,"current_range_meters":4800,"station_id":"ce4bhf92rcd13ifvqf40","pricing_plan_id":"cebpf4jnsgd1na2vs0mg"},{"bike_id":"a5384d1d-87b5-4b98-a28e-9fd0489db8d2","system_id":"levelo_inurba_marseille","lat":43.29953,"lon":5.41319,"is_reserved":false,"is_disabled":false,"rental_uris":{"android":"levelo://app?vid=a5384d1d-87b5-4b98-a28e-9fd0489db8d2","ios":"levelo://app?vid=a5384d1d-87b5-4b98-a28e-9fd0489db8d2"},"vehicle_type_id":"4","last_reported":1744920675,"current_range_meters":4800,"station_id":"ce4bhp12rcd13ifvqh9g","pricing_plan_id":"cebpf4jnsgd1na2vs0mg"},{"bike_id":"af19ae59-4996-4279-8341-1452cd55c5a8","system_id":"levelo_inurba_marseille","lat":43.2466,"lon":5.38164,"is_reserved":false,"is_disabled":false,"rental_uris":{"android":"levelo://app?vid=af19ae59-4996-4279-8341-1452cd55c5a8","ios":"levelo://app?vid=af19ae59-4996-4279-8341-1452cd55c5a8"},"vehicle_type_id":"4","last_reported":1744920675,"current_range_meters":5600,"station_id":"ce4bhih2rcd13ifvqfr0","pricing_plan_id":"cebpf4jnsgd1na2vs0mg"},{"bike_id":"1639d585-8034-41b5-a044-a703600d5344","system_id":"levelo_inurba_marseille","lat":43.2893,"lon":5.38397,"is_reserved":false,"is_disabled":false,"rental_uris":{"android":"levelo://app?vid=1639d585-8034-41b5-a044-a703600d5344","ios":"levelo://app?vid=1639d585-8034-41b5-a044-a703600d5344"},"vehicle_type_id":"4","last_reported":1744920675,"current_range_meters":5600,"station_id":"ce4bh612rcd13ifvqe6g","pricing_plan_id":"cebpf4jnsgd1na2vs0mg"},{"bike_id":"6b8ad92b-9c44-492f-b73b-48526dfe1253","system_id":"levelo_inurba_marseille","lat":43.29518,"lon":5.375023,"is_reserved":false,"is_disabled":false,"rental_uris":{"android":"levelo://app?vid=6b8ad92b-9c44-492f-b73b-48526dfe1253","ios":"levelo://app?vid=6b8ad92b-9c44-492f-b73b-48526dfe1253"},"vehicle_type_id":"4","last_reported":1744920675,"current_range_meters":6000,"station_id":"ce4bgj92rcd13ifvqbd0","pricing_plan_id":"cebpf4jnsgd1na2vs0mg"},{"bike_id":"90577d36-2cc7-4c7f-80f0-0ba15a9e9b35","system_id":"levelo_inurba_marseille","lat":43.29243,"lon":5.38443,"is_reserved":false,"is_disabled":false,"rental_uris":{"android":"levelo://app?vid=90577d36-2cc7-4c7f-80f0-0ba15a9e9b35","ios":"levelo://app?vid=90577d36-2cc7-4c7f-80f0-0ba15a9e9b35"},"vehicle_type_id":"4","last_reported":1744920675,"current_range_meters":6400,"station_id":"ce4bh692rcd13ifvqea0","pricing_plan_id":"cebpf4jnsgd1na2vs0mg"},{"bike_id":"e181ac08-1abd-4c48-83e4-e3fb3c015d11","system_id":"levelo_inurba_marseille","lat":43.29787,"lon":5.39353,"is_reserved":false,"is_disabled":false,"rental_uris":{"android":"levelo://app?vid=e181ac08-1abd-4c48-83e4-e3fb3c015d11","ios":"levelo://app?vid=e181ac08-1abd-4c48-83e4-e3fb3c015d11"},"vehicle_type_id":"4","last_reported":1744920675,"current_range_meters":6400,"station_id":"chh1huq6cuj3fo74tm60","pricing_plan_id":"cebpf4jnsgd1na2vs0mg"},{"bike_id":"060c1615-2772-46b7-8436-e2bfcd1f1aa4","system_id":"levelo_inurba_marseille","lat":43.28946,"lon":5.36403,"is_reserved":false,"is_disabled":false,"rental_uris":{"android":"levelo://app?vid=060c1615-2772-46b7-8436-e2bfcd1f1aa4","ios":"levelo://app?vid=060c1615-2772-46b7-8436-e2bfcd1f1aa4"},"vehicle_type_id":"4","last_reported":1744920675,"current_range_meters":6800,"station_id":"ce4bhc92rcd13ifvqetg","pricing_plan_id":"cebpf4jnsgd1na2vs0mg"},{"bike_id":"409a79ab-dcd7-4c74-9be6-a03c63711a18","system_id":"levelo_inurba_marseille","lat":43.28151,"lon":5.42637,"is_reserved":false,"is_disabled":false,"rental_uris":{"android":"levelo://app?vid=409a79ab-dcd7-4c74-9be6-a03c63711a18","ios":"levelo://app?vid=409a79ab-dcd7-4c74-9be6-a03c63711a18"},"vehicle_type_id":"4","last_reported":1744920675,"current_range_meters":6800,"station_id":"ce4bhnh2rcd13ifvqgug","pricing_plan_id":"cebpf4jnsgd1na2vs0mg"},{"bike_id":"593f200f-acc6-4515-9b2c-377663e6c433","system_id":"levelo_inurba_marseille","lat":43.21749,"lon":5.34602,"is_reserved":false,"is_disabled":false,"rental_uris":{"android":"levelo://app?vid=593f200f-acc6-4515-9b2c-377663e6c433","ios":"levelo://app?vid=593f200f-acc6-4515-9b2c-377663e6c433"},"vehicle_type_id":"4","last_reported":1744920675,"current_range_meters":7200,"station_id":"st_cvj6r9ubvosntc0bgbag","pricing_plan_id":"cebpf4jnsgd1na2vs0mg"},{"bike_id":"08545b9c-147f-4096-92e8-2af1c560447d","system_id":"levelo_inurba_marseille","lat":43.27496,"lon":5.42449,"is_reserved":false,"is_disabled":false,"rental_uris":{"android":"levelo://app?vid=08545b9c-147f-4096-92e8-2af1c560447d","ios":"levelo://app?vid=08545b9c-147f-4096-92e8-2af1c560447d"},"vehicle_type_id":"4","last_reported":1744920675,"current_range_meters":7200,"station_id":"ce4bhn92rcd13ifvqgrg","pricing_plan_id":"cebpf4jnsgd1na2vs0mg"},{"bike_id":"d03355fa-c7f9-4104-958e-81d7994c7f64","system_id":"levelo_inurba_marseille","lat":43.28161,"lon":5.42655,"is_reserved":false,"is_disabled":false,"rental_uris":{"android":"levelo://app?vid=d03355fa-c7f9-4104-958e-81d7994c7f64","ios":"levelo://app?vid=d03355fa-c7f9-4104-958e-81d7994c7f64"},"vehicle_type_id":"4","last_reported":1744920675,"current_range_meters":8000,"station_id":"ce4bhnh2rcd13ifvqgug","pricing_plan_id":"cebpf4jnsgd1na2vs0mg"},{"bike_id":"b104b93d-3486-4201-976f-3dc4f542d5a3","system_id":"levelo_inurba_marseille","lat":43.30135,"lon":5.39874,"is_reserved":false,"is_disabled":false,"rental_uris":{"android":"levelo://app?vid=b104b93d-3486-4201-976f-3dc4f542d5a3","ios":"levelo://app?vid=b104b93d-3486-4201-976f-3dc4f542d5a3"},"vehicle_type_id":"4","last_reported":1744920675,"current_range_meters":8000,"station_id":"ce4bh0h2rcd13ifvqd40","pricing_plan_id":"cebpf4jnsgd1na2vs0mg"},{"bike_id":"1bdba7a7-a82e-4252-906c-80db6beb180e","system_id":"levelo_inurba_marseille","lat":43.33774,"lon":5.37473,"is_reserved":false,"is_disabled":false,"rental_uris":{"android":"levelo://app?vid=1bdba7a7-a82e-4252-906c-80db6beb180e","ios":"levelo://app?vid=1bdba7a7-a82e-4252-906c-80db6beb180e"},"vehicle_type_id":"4","last_reported":1744920675,"current_range_meters":8400,"station_id":"","pricing_plan_id":"cebpf4jnsgd1na2vs0mg"},{"bike_id":"2a297b53-e6c9-4a44-8832-a1535085da75","system_id":"levelo_inurba_marseille","lat":43.31993,"lon":5.38145,"is_reserved":false,"is_disabled":true,"rental_uris":{"android":"levelo://app?vid=2a297b53-e6c9-4a44-8832-a1535085da75","ios":"levelo://app?vid=2a297b53-e6c9-4a44-8832-a1535085da75"},"vehicle_type_id":"4","last_reported":1744920675,"current_range_meters":8400,"station_id":"ce4bhr12rcd13ifvqhpg","pricing_plan_id":"cebpf4jnsgd1na2vs0mg"},{"bike_id":"585714ba-7cde-4313-a328-20a1e5862f2f","system_id":"levelo_inurba_marseille","lat":43.24664,"lon":5.38167,"is_reserved":false,"is_disabled":false,"rental_uris":{"android":"levelo://app?vid=585714ba-7cde-4313-a328-20a1e5862f2f","ios":"levelo://app?vid=585714ba-7cde-4313-a328-20a1e5862f2f"},"vehicle_type_id":"4","last_reported":1744920675,"current_range_meters":8400,"station_id":"ce4bhih2rcd13ifvqfr0","pricing_plan_id":"cebpf4jnsgd1na2vs0mg"},{"bike_id":"0dfb609c-e3ee-4679-ba58-f4f5ddb5e670","system_id":"levelo_inurba_marseille","lat":43.335693,"lon":5.410244,"is_reserved":false,"is_disabled":false,"rental_uris":{"android":"levelo://app?vid=0dfb609c-e3ee-4679-ba58-f4f5ddb5e670","ios":"levelo://app?vid=0dfb609c-e3ee-4679-ba58-f4f5ddb5e670"},"vehicle_type_id":"4","last_reported":1744920675,"current_range_meters":8400,"station_id":"ce4bhqh2rcd13ifvqhmg","pricing_plan_id":"cebpf4jnsgd1na2vs0mg"},{"bike_id":"ce90eeb4-f81d-4b80-9b35-94fd4698915f","system_id":"levelo_inurba_marseille","lat":43.28412,"lon":5.34994,"is_reserved":false,"is_disabled":false,"rental_uris":{"android":"levelo://app?vid=ce90eeb4-f81d-4b80-9b35-94fd4698915f","ios":"levelo://app?vid=ce90eeb4-f81d-4b80-9b35-94fd4698915f"},"vehicle_type_id":"4","last_reported":1744920675,"current_range_meters":8400,"station_id":"ce4bhbh2rcd13ifvqepg","pricing_plan_id":"cebpf4jnsgd1na2vs0mg"},{"bike_id":"df9b757d-c8c0-444d-9fc6-09bf61d6c670","system_id":"levelo_inurba_marseille","lat":43.30576,"lon":5.39367,"is_reserved":false,"is_disabled":false,"rental_uris":{"android":"levelo://app?vid=df9b757d-c8c0-444d-9fc6-09bf61d6c670","ios":"levelo://app?vid=df9b757d-c8c0-444d-9fc6-09bf61d6c670"},"vehicle_type_id":"4","last_reported":1744920675,"current_range_meters":8400,"station_id":"ce4bh0p2rcd13ifvqd80","pricing_plan_id":"cebpf4jnsgd1na2vs0mg"},{"bike_id":"a913d5c7-d0e3-4e3d-8de9-edadca288d26","system_id":"levelo_inurba_marseille","lat":43.30548,"lon":5.36532,"is_reserved":false,"is_disabled":false,"rental_uris":{"android":"levelo://app?vid=a913d5c7-d0e3-4e3d-8de9-edadca288d26","ios":"levelo://app?vid=a913d5c7-d0e3-4e3d-8de9-edadca288d26"},"vehicle_type_id":"4","last_reported":1744920675,"current_range_meters":8400,"station_id":"ce4bgs12rcd13ifvqcag","pricing_plan_id":"cebpf4jnsgd1na2vs0mg"},{"bike_id":"f57acb1a-2d22-481f-9311-39903e65c833","system_id":"levelo_inurba_marseille","lat":43.24659,"lon":5.38165,"is_reserved":false,"is_disabled":false,"rental_uris":{"android":"levelo://app?vid=f57acb1a-2d22-481f-9311-39903e65c833","ios":"levelo://app?vid=f57acb1a-2d22-481f-9311-39903e65c833"},"vehicle_type_id":"4","last_reported":1744920675,"current_range_meters":8400,"station_id":"ce4bhih2rcd13ifvqfr0","pricing_plan_id":"cebpf4jnsgd1na2vs0mg"},{"bike_id":"4cb31a69-8d04-4328-aa8f-fc3a58b1f0d2","system_id":"levelo_inurba_marseille","lat":43.2919,"lon":5.35807,"is_reserved":false,"is_disabled":false,"rental_uris":{"android":"levelo://app?vid=4cb31a69-8d04-4328-aa8f-fc3a58b1f0d2","ios":"levelo://app?vid=4cb31a69-8d04-4328-aa8f-fc3a58b1f0d2"},"vehicle_type_id":"4","last_reported":1744920675,"current_range_meters":8800,"station_id":"ce4bhb12rcd13ifvqel0","pricing_plan_id":"cebpf4jnsgd1na2vs0mg"},{"bike_id":"6a52c25e-e42a-4237-a980-f6f82f2e061e","system_id":"levelo_inurba_marseille","lat":43.21191,"lon":5.35086,"is_reserved":false,"is_disabled":false,"rental_uris":{"android":"levelo://app?vid=6a52c25e-e42a-4237-a980-f6f82f2e061e","ios":"levelo://app?vid=6a52c25e-e42a-4237-a980-f6f82f2e061e"},"vehicle_type_id":"4","last_reported":1744920675,"current_range_meters":8800,"station_id":"st_cvj6sg6p6f1abm77japg","pricing_plan_id":"cebpf4jnsgd1na2vs0mg"},{"bike_id":"1765c7d9-956e-4b3d-8f27-53eae936f95d","system_id":"levelo_inurba_marseille","lat":43.29873,"lon":5.39747,"is_reserved":false,"is_disabled":false,"rental_uris":{"android":"levelo://app?vid=1765c7d9-956e-4b3d-8f27-53eae936f95d","ios":"levelo://app?vid=1765c7d9-956e-4b3d-8f27-53eae936f95d"},"vehicle_type_id":"4","last_reported":1744920675,"current_range_meters":8800,"station_id":"ce4bh0h2rcd13ifvqd50","pricing_plan_id":"cebpf4jnsgd1na2vs0mg"},{"bike_id":"09e29c8d-0531-4ea0-befd-5427ca701da3","system_id":"levelo_inurba_marseille","lat":43.306004,"lon":5.372484,"is_reserved":false,"is_disabled":true,"rental_uris":{"android":"levelo://app?vid=09e29c8d-0531-4ea0-befd-5427ca701da3","ios":"levelo://app?vid=09e29c8d-0531-4ea0-befd-5427ca701da3"},"vehicle_type_id":"4","last_reported":1744920675,"current_range_meters":8800,"station_id":"ce4bgqh2rcd13ifvqc4g","pricing_plan_id":"cebpf4jnsgd1na2vs0mg"},{"bike_id":"8ee49884-4076-402b-bdc6-b1b75f8b478d","system_id":"levelo_inurba_marseille","lat":43.27922,"lon":5.39588,"is_reserved":false,"is_disabled":false,"rental_uris":{"android":"levelo://app?vid=8ee49884-4076-402b-bdc6-b1b75f8b478d","ios":"levelo://app?vid=8ee49884-4076-402b-bdc6-b1b75f8b478d"},"vehicle_type_id":"4","last_reported":1744920675,"current_range_meters":8800,"station_id":"ce4bhf92rcd13ifvqf40","pricing_plan_id":"cebpf4jnsgd1na2vs0mg"},{"bike_id":"8ee7ae49-7b6d-4b48-9fb1-547fbea007bb","system_id":"levelo_inurba_marseille","lat":43.27925,"lon":5.39599,"is_reserved":false,"is_disabled":false,"rental_uris":{"android":"levelo://app?vid=8ee7ae49-7b6d-4b48-9fb1-547fbea007bb","ios":"levelo://app?vid=8ee7ae49-7b6d-4b48-9fb1-547fbea007bb"},"vehicle_type_id":"4","last_reported":1744920675,"current_range_meters":8800,"station_id":"ce4bhf92rcd13ifvqf40","pricing_plan_id":"cebpf4jnsgd1na2vs0mg"},{"bike_id":"8677e745-d2de-4747-97d0-687a96f6a792","system_id":"levelo_inurba_marseille","lat":43.336022,"lon":5.410379,"is_reserved":false,"is_disabled":false,"rental_uris":{"android":"levelo://app?vid=8677e745-d2de-4747-97d0-687a96f6a792","ios":"levelo://app?vid=8677e745-d2de-4747-97d0-687a96f6a792"},"vehicle_type_id":"4","last_reported":1744920675,"current_range_meters":9200,"station_id":"ce4bhqh2rcd13ifvqhmg","pricing_plan_id":"cebpf4jnsgd1na2vs0mg"},{"bike_id":"2df22311-bac1-4b8f-abff-11893969de63","system_id":"levelo_inurba_marseille","lat":43.31108,"lon":5.37806,"is_reserved":false,"is_disabled":false,"rental_uris":{"android":"levelo://app?vid=2df22311-bac1-4b8f-abff-11893969de63","ios":"levelo://app?vid=2df22311-bac1-4b8f-abff-11893969de63"},"vehicle_type_id":"4","last_reported":1744920675,"current_range_meters":9200,"station_id":"ce4bgt92rcd13ifvqcg0","pricing_plan_id":"cebpf4jnsgd1na2vs0mg"},{"bike_id":"0a0b0a73-2b27-49fb-801a-3111dcebfbac","system_id":"levelo_inurba_marseille","lat":43.274981,"lon":5.424566,"is_reserved":false,"is_disabled":false,"rental_uris":{"android":"levelo://app?vid=0a0b0a73-2b27-49fb-801a-3111dcebfbac","ios":"levelo://app?vid=0a0b0a73-2b27-49fb-801a-3111dcebfbac"},"vehicle_type_id":"4","last_reported":1744920675,"current_range_meters":9200,"station_id":"ce4bhn92rcd13ifvqgrg","pricing_plan_id":"cebpf4jnsgd1na2vs0mg"},{"bike_id":"e4dd25b2-5182-454b-8ba4-58c5235d0cf2","system_id":"levelo_inurba_marseille","lat":43.31089,"lon":5.38352,"is_reserved":false,"is_disabled":false,"rental_uris":{"android":"levelo://app?vid=e4dd25b2-5182-454b-8ba4-58c5235d0cf2","ios":"levelo://app?vid=e4dd25b2-5182-454b-8ba4-58c5235d0cf2"},"vehicle_type_id":"4","last_reported":1744920675,"current_range_meters":9200,"station_id":"ce4bgv92rcd13ifvqcr0","pricing_plan_id":"cebpf4jnsgd1na2vs0mg"},{"bike_id":"6a42fdd6-075d-4748-811a-29f5845c8920","system_id":"levelo_inurba_marseille","lat":43.21749,"lon":5.34614,"is_reserved":false,"is_disabled":false,"rental_uris":{"android":"levelo://app?vid=6a42fdd6-075d-4748-811a-29f5845c8920","ios":"levelo://app?vid=6a42fdd6-075d-4748-811a-29f5845c8920"},"vehicle_type_id":"4","last_reported":1744920675,"current_range_meters":9600,"station_id":"st_cvj6r9ubvosntc0bgbag","pricing_plan_id":"cebpf4jnsgd1na2vs0mg"},{"bike_id":"aeba5893-599e-4234-a4ae-ef92ebe28583","system_id":"levelo_inurba_marseille","lat":43.2998,"lon":5.37183,"is_reserved":false,"is_disabled":false,"rental_uris":{"android":"levelo://app?vid=aeba5893-599e-4234-a4ae-ef92ebe28583","ios":"levelo://app?vid=aeba5893-599e-4234-a4ae-ef92ebe28583"},"vehicle_type_id":"4","last_reported":1744920675,"current_range_meters":9600,"station_id":"ce4bgr92rcd13ifvqc7g","pricing_plan_id":"cebpf4jnsgd1na2vs0mg"},{"bike_id":"3bf223ea-7212-40f1-8ad0-e4e7b68a4155","system_id":"levelo_inurba_marseille","lat":43.303253,"lon":5.404364,"is_reserved":false,"is_disabled":false,"rental_uris":{"android":"levelo://app?vid=3bf223ea-7212-40f1-8ad0-e4e7b68a4155","ios":"levelo://app?vid=3bf223ea-7212-40f1-8ad0-e4e7b68a4155"},"vehicle_type_id":"4","last_reported":1744920675,"current_range_meters":9600,"station_id":"ce4bh012rcd13ifvqd10","pricing_plan_id":"cebpf4jnsgd1na2vs0mg"},{"bike_id":"db9ae403-e31f-452d-bc11-67494d1f3f25","system_id":"levelo_inurba_marseille","lat":43.30539,"lon":5.36551,"is_reserved":false,"is_disabled":false,"rental_uris":{"android":"levelo://app?vid=db9ae403-e31f-452d-bc11-67494d1f3f25","ios":"levelo://app?vid=db9ae403-e31f-452d-bc11-67494d1f3f25"},"vehicle_type_id":"4","last_reported":1744920675,"current_range_meters":9600,"station_id":"ce4bgs12rcd13ifvqcag","pricing_plan_id":"cebpf4jnsgd1na2vs0mg"},{"bike_id":"9af7eca4-0f29-45ae-8741-3af4cfbb69ef","system_id":"levelo_inurba_marseille","lat":43.25821,"lon":5.39439,"is_reserved":false,"is_disabled":false,"rental_uris":{"android":"levelo://app?vid=9af7eca4-0f29-45ae-8741-3af4cfbb69ef","ios":"levelo://app?vid=9af7eca4-0f29-45ae-8741-3af4cfbb69ef"},"vehicle_type_id":"4","last_reported":1744920675,"current_range_meters":9600,"station_id":"ce4bhip2rcd13ifvqft0","pricing_plan_id":"cebpf4jnsgd1na2vs0mg"},{"bike_id":"7b96111b-7974-4fe6-9610-4556870a2e07","system_id":"levelo_inurba_marseille","lat":43.24373,"lon":5.3705,"is_reserved":false,"is_disabled":false,"rental_uris":{"android":"levelo://app?vid=7b96111b-7974-4fe6-9610-4556870a2e07","ios":"levelo://app?vid=7b96111b-7974-4fe6-9610-4556870a2e07"},"vehicle_type_id":"4","last_reported":1744920675,"current_range_meters":9600,"station_id":"ce4bhhh2rcd13ifvqfk0","pricing_plan_id":"cebpf4jnsgd1na2vs0mg"},{"bike_id":"001a10ed-a7d7-4d8a-abb2-f7c03c8ff11f","system_id":"levelo_inurba_marseille","lat":43.26232,"lon":5.40443,"is_reserved":false,"is_disabled":false,"rental_uris":{"android":"levelo://app?vid=001a10ed-a7d7-4d8a-abb2-f7c03c8ff11f","ios":"levelo://app?vid=001a10ed-a7d7-4d8a-abb2-f7c03c8ff11f"},"vehicle_type_id":"4","last_reported":1744920675,"current_range_meters":9600,"station_id":"ce4bhmh2rcd13ifvqgmg","pricing_plan_id":"cebpf4jnsgd1na2vs0mg"},{"bike_id":"ed6c4d05-ef6f-424e-aa99-8551ef55d8dc","system_id":"levelo_inurba_marseille","lat":43.29461,"lon":5.38569,"is_reserved":false,"is_disabled":false,"rental_uris":{"android":"levelo://app?vid=ed6c4d05-ef6f-424e-aa99-8551ef55d8dc","ios":"levelo://app?vid=ed6c4d05-ef6f-424e-aa99-8551ef55d8dc"},"vehicle_type_id":"4","last_reported":1744920675,"current_range_meters":9600,"station_id":"","pricing_plan_id":"cebpf4jnsgd1na2vs0mg"},{"bike_id":"905a80eb-41e9-4fd0-9d2b-6139a7891a7e","system_id":"levelo_inurba_marseille","lat":43.2857,"lon":5.39505,"is_reserved":false,"is_disabled":false,"rental_uris":{"android":"levelo://app?vid=905a80eb-41e9-4fd0-9d2b-6139a7891a7e","ios":"levelo://app?vid=905a80eb-41e9-4fd0-9d2b-6139a7891a7e"},"vehicle_type_id":"4","last_reported":1744920675,"current_range_meters":10000,"station_id":"ce4bh292rcd13ifvqdg0","pricing_plan_id":"cebpf4jnsgd1na2vs0mg"},{"bike_id":"e3061286-add2-4bc6-a803-66a4d7d63e42","system_id":"levelo_inurba_marseille","lat":43.28613,"lon":5.35091,"is_reserved":false,"is_disabled":false,"rental_uris":{"android":"levelo://app?vid=e3061286-add2-4bc6-a803-66a4d7d63e42","ios":"levelo://app?vid=e3061286-add2-4bc6-a803-66a4d7d63e42"},"vehicle_type_id":"4","last_reported":1744920675,"current_range_meters":10000,"station_id":"ce4bhch2rcd13ifvqeug","pricing_plan_id":"cebpf4jnsgd1na2vs0mg"},{"bike_id":"0b73279b-3544-425f-8ea6-2a11b8dc5e95","system_id":"levelo_inurba_marseille","lat":43.31324,"lon":5.39693,"is_reserved":false,"is_disabled":false,"rental_uris":{"android":"levelo://app?vid=0b73279b-3544-425f-8ea6-2a11b8dc5e95","ios":"levelo://app?vid=0b73279b-3544-425f-8ea6-2a11b8dc5e95"},"vehicle_type_id":"4","last_reported":1744920675,"current_range_meters":10000,"station_id":"ce4bgvp2rcd13ifvqcu0","pricing_plan_id":"cebpf4jnsgd1na2vs0mg"},{"bike_id":"f7e505be-eee3-4fab-9916-fa7de11ecfe3","system_id":"levelo_inurba_marseille","lat":43.28267,"lon":5.35062,"is_reserved":false,"is_disabled":false,"rental_uris":{"android":"levelo://app?vid=f7e505be-eee3-4fab-9916-fa7de11ecfe3","ios":"levelo://app?vid=f7e505be-eee3-4fab-9916-fa7de11ecfe3"},"vehicle_type_id":"4","last_reported":1744920675,"current_range_meters":9600,"station_id":"ce4bhbp2rcd13ifvqerg","pricing_plan_id":"cebpf4jnsgd1na2vs0mg"},{"bike_id":"3c48e7f2-e65c-445b-bcbf-0861396083f8","system_id":"levelo_inurba_marseille","lat":43.21751,"lon":5.346,"is_reserved":false,"is_disabled":false,"rental_uris":{"android":"levelo://app?vid=3c48e7f2-e65c-445b-bcbf-0861396083f8","ios":"levelo://app?vid=3c48e7f2-e65c-445b-bcbf-0861396083f8"},"vehicle_type_id":"4","last_reported":1744920675,"current_range_meters":10000,"station_id":"st_cvj6r9ubvosntc0bgbag","pricing_plan_id":"cebpf4jnsgd1na2vs0mg"},{"bike_id":"f7ed19f2-32fb-4e04-8314-78b6e8ffb1dc","system_id":"levelo_inurba_marseille","lat":43.28939,"lon":5.36639,"is_reserved":false,"is_disabled":false,"rental_uris":{"android":"levelo://app?vid=f7ed19f2-32fb-4e04-8314-78b6e8ffb1dc","ios":"levelo://app?vid=f7ed19f2-32fb-4e04-8314-78b6e8ffb1dc"},"vehicle_type_id":"4","last_reported":1744920675,"current_range_meters":10000,"station_id":"ce4bhap2rcd13ifvqek0","pricing_plan_id":"cebpf4jnsgd1na2vs0mg"},{"bike_id":"384e667d-7a9d-4d03-9e4e-821aedff8703","system_id":"levelo_inurba_marseille","lat":43.3111,"lon":5.37765,"is_reserved":false,"is_disabled":false,"rental_uris":{"android":"levelo://app?vid=384e667d-7a9d-4d03-9e4e-821aedff8703","ios":"levelo://app?vid=384e667d-7a9d-4d03-9e4e-821aedff8703"},"vehicle_type_id":"4","last_reported":1744920675,"current_range_meters":10000,"station_id":"ce4bgt92rcd13ifvqcg0","pricing_plan_id":"cebpf4jnsgd1na2vs0mg"},{"bike_id":"ff935f1c-246d-4e07-a399-40ad7e059de5","system_id":"levelo_inurba_marseille","lat":43.25507,"lon":5.37657,"is_reserved":false,"is_disabled":true,"rental_uris":{"android":"levelo://app?vid=ff935f1c-246d-4e07-a399-40ad7e059de5","ios":"levelo://app?vid=ff935f1c-246d-4e07-a399-40ad7e059de5"},"vehicle_type_id":"4","last_reported":1744920675,"current_range_meters":10800,"station_id":"ce4bhh12rcd13ifvqff0","pricing_plan_id":"cebpf4jnsgd1na2vs0mg"},{"bike_id":"49107521-f1d3-4ead-95ea-a11eb9a351fc","system_id":"levelo_inurba_marseille","lat":43.272147,"lon":5.391734,"is_reserved":false,"is_disabled":false,"rental_uris":{"android":"levelo://app?vid=49107521-f1d3-4ead-95ea-a11eb9a351fc","ios":"levelo://app?vid=49107521-f1d3-4ead-95ea-a11eb9a351fc"},"vehicle_type_id":"4","last_reported":1744920675,"current_range_meters":10800,"station_id":"ce4bh392rcd13ifvqdl0","pricing_plan_id":"cebpf4jnsgd1na2vs0mg"},{"bike_id":"72823705-7f07-4adb-897d-e1709234e554","system_id":"levelo_inurba_marseille","lat":43.23197,"lon":5.39963,"is_reserved":false,"is_disabled":false,"rental_uris":{"android":"levelo://app?vid=72823705-7f07-4adb-897d-e1709234e554","ios":"levelo://app?vid=72823705-7f07-4adb-897d-e1709234e554"},"vehicle_type_id":"4","last_reported":1744920675,"current_range_meters":10800,"station_id":"ce4bhn12rcd13ifvqgqg","pricing_plan_id":"cebpf4jnsgd1na2vs0mg"},{"bike_id":"ba04cc14-5091-4547-a94a-837f76f97ad2","system_id":"levelo_inurba_marseille","lat":43.28448,"lon":5.35897,"is_reserved":false,"is_disabled":false,"rental_uris":{"android":"levelo://app?vid=ba04cc14-5091-4547-a94a-837f76f97ad2","ios":"levelo://app?vid=ba04cc14-5091-4547-a94a-837f76f97ad2"},"vehicle_type_id":"4","last_reported":1744920675,"current_range_meters":10800,"station_id":"ce4bhah2rcd13ifvqei0","pricing_plan_id":"cebpf4jnsgd1na2vs0mg"},{"bike_id":"da8a9cb2-49e2-4f6a-ab27-41f466e9ea20","system_id":"levelo_inurba_marseille","lat":43.31054,"lon":5.38354,"is_reserved":false,"is_disabled":false,"rental_uris":{"android":"levelo://app?vid=da8a9cb2-49e2-4f6a-ab27-41f466e9ea20","ios":"levelo://app?vid=da8a9cb2-49e2-4f6a-ab27-41f466e9ea20"},"vehicle_type_id":"4","last_reported":1744920675,"current_range_meters":10800,"station_id":"ce4bgv92rcd13ifvqcr0","pricing_plan_id":"cebpf4jnsgd1na2vs0mg"},{"bike_id":"a60caa22-b2d2-4a2d-9db5-b3bd3a97d7ef","system_id":"levelo_inurba_marseille","lat":43.29264,"lon":5.37628,"is_reserved":false,"is_disabled":false,"rental_uris":{"android":"levelo://app?vid=a60caa22-b2d2-4a2d-9db5-b3bd3a97d7ef","ios":"levelo://app?vid=a60caa22-b2d2-4a2d-9db5-b3bd3a97d7ef"},"vehicle_type_id":"4","last_reported":1744920675,"current_range_meters":10800,"station_id":"ce4bgi12rcd13ifvqb80","pricing_plan_id":"cebpf4jnsgd1na2vs0mg"},{"bike_id":"a8c5d489-706d-4291-a330-fb752684b02c","system_id":"levelo_inurba_marseille","lat":43.3233,"lon":5.40623,"is_reserved":false,"is_disabled":false,"rental_uris":{"android":"levelo://app?vid=a8c5d489-706d-4291-a330-fb752684b02c","ios":"levelo://app?vid=a8c5d489-706d-4291-a330-fb752684b02c"},"vehicle_type_id":"4","last_reported":1744920675,"current_range_meters":10800,"station_id":"ce4bhq92rcd13ifvqhjg","pricing_plan_id":"cebpf4jnsgd1na2vs0mg"},{"bike_id":"53415048-c4aa-466f-8628-f7d86b672726","system_id":"levelo_inurba_marseille","lat":43.29521,"lon":5.3941,"is_reserved":false,"is_disabled":false,"rental_uris":{"android":"levelo://app?vid=53415048-c4aa-466f-8628-f7d86b672726","ios":"levelo://app?vid=53415048-c4aa-466f-8628-f7d86b672726"},"vehicle_type_id":"4","last_reported":1744920675,"current_range_meters":11200,"station_id":"ce4bh292rcd13ifvqdf0","pricing_plan_id":"cebpf4jnsgd1na2vs0mg"},{"bike_id":"a7a61861-d7ec-4293-a443-2039bd621d98","system_id":"levelo_inurba_marseille","lat":43.30127,"lon":5.398577,"is_reserved":false,"is_disabled":false,"rental_uris":{"android":"levelo://app?vid=a7a61861-d7ec-4293-a443-2039bd621d98","ios":"levelo://app?vid=a7a61861-d7ec-4293-a443-2039bd621d98"},"vehicle_type_id":"4","last_reported":1744920675,"current_range_meters":11200,"station_id":"ce4bh0h2rcd13ifvqd40","pricing_plan_id":"cebpf4jnsgd1na2vs0mg"},{"bike_id":"e03d5a30-5f80-4cf1-8e48-72ab4461296e","system_id":"levelo_inurba_marseille","lat":43.30609,"lon":5.37235,"is_reserved":false,"is_disabled":false,"rental_uris":{"android":"levelo://app?vid=e03d5a30-5f80-4cf1-8e48-72ab4461296e","ios":"levelo://app?vid=e03d5a30-5f80-4cf1-8e48-72ab4461296e"},"vehicle_type_id":"4","last_reported":1744920675,"current_range_meters":11200,"station_id":"ce4bgqh2rcd13ifvqc4g","pricing_plan_id":"cebpf4jnsgd1na2vs0mg"},{"bike_id":"71129149-16d8-4b49-9bfe-6e5c487d0d30","system_id":"levelo_inurba_marseille","lat":43.29243,"lon":5.38457,"is_reserved":false,"is_disabled":false,"rental_uris":{"android":"levelo://app?vid=71129149-16d8-4b49-9bfe-6e5c487d0d30","ios":"levelo://app?vid=71129149-16d8-4b49-9bfe-6e5c487d0d30"},"vehicle_type_id":"4","last_reported":1744920675,"current_range_meters":11200,"station_id":"ce4bh692rcd13ifvqea0","pricing_plan_id":"cebpf4jnsgd1na2vs0mg"},{"bike_id":"2e3d1586-39b9-4f2e-a808-4f2fbc6116b5","system_id":"levelo_inurba_marseille","lat":43.28379,"lon":5.37534,"is_reserved":false,"is_disabled":false,"rental_uris":{"android":"levelo://app?vid=2e3d1586-39b9-4f2e-a808-4f2fbc6116b5","ios":"levelo://app?vid=2e3d1586-39b9-4f2e-a808-4f2fbc6116b5"},"vehicle_type_id":"4","last_reported":1744920675,"current_range_meters":11200,"station_id":"ce4bh412rcd13ifvqds0","pricing_plan_id":"cebpf4jnsgd1na2vs0mg"},{"bike_id":"23ad8614-333d-461f-aa4c-5b46cf021d14","system_id":"levelo_inurba_marseille","lat":43.24073,"lon":5.37761,"is_reserved":false,"is_disabled":false,"rental_uris":{"android":"levelo://app?vid=23ad8614-333d-461f-aa4c-5b46cf021d14","ios":"levelo://app?vid=23ad8614-333d-461f-aa4c-5b46cf021d14"},"vehicle_type_id":"4","last_reported":1744920675,"current_range_meters":11200,"station_id":"ce4bhnp2rcd13ifvqgvg","pricing_plan_id":"cebpf4jnsgd1na2vs0mg"},{"bike_id":"c5ad34a5-de23-413d-9e8b-ec61ed7009c1","system_id":"levelo_inurba_marseille","lat":43.28621,"lon":5.35105,"is_reserved":false,"is_disabled":false,"rental_uris":{"android":"levelo://app?vid=c5ad34a5-de23-413d-9e8b-ec61ed7009c1","ios":"levelo://app?vid=c5ad34a5-de23-413d-9e8b-ec61ed7009c1"},"vehicle_type_id":"4","last_reported":1744920675,"current_range_meters":11200,"station_id":"ce4bhch2rcd13ifvqeug","pricing_plan_id":"cebpf4jnsgd1na2vs0mg"},{"bike_id":"cbf29fce-b821-4cbd-8ecd-022dab6930e8","system_id":"levelo_inurba_marseille","lat":43.28396,"lon":5.37553,"is_reserved":false,"is_disabled":false,"rental_uris":{"android":"levelo://app?vid=cbf29fce-b821-4cbd-8ecd-022dab6930e8","ios":"levelo://app?vid=cbf29fce-b821-4cbd-8ecd-022dab6930e8"},"vehicle_type_id":"4","last_reported":1744920675,"current_range_meters":11200,"station_id":"ce4bh412rcd13ifvqds0","pricing_plan_id":"cebpf4jnsgd1na2vs0mg"},{"bike_id":"58acdb36-1ad1-4dcc-8372-8d75aff2c7d8","system_id":"levelo_inurba_marseille","lat":43.29261,"lon":5.40906,"is_reserved":false,"is_disabled":false,"rental_uris":{"android":"levelo://app?vid=58acdb36-1ad1-4dcc-8372-8d75aff2c7d8","ios":"levelo://app?vid=58acdb36-1ad1-4dcc-8372-8d75aff2c7d8"},"vehicle_type_id":"4","last_reported":1744920675,"current_range_meters":11600,"station_id":"ce4bh192rcd13ifvqdc0","pricing_plan_id":"cebpf4jnsgd1na2vs0mg"},{"bike_id":"fe7c7689-3731-4056-8d49-6381cc08a48b","system_id":"levelo_inurba_marseille","lat":43.29953,"lon":5.38533,"is_reserved":false,"is_disabled":true,"rental_uris":{"android":"levelo://app?vid=fe7c7689-3731-4056-8d49-6381cc08a48b","ios":"levelo://app?vid=fe7c7689-3731-4056-8d49-6381cc08a48b"},"vehicle_type_id":"4","last_reported":1744920675,"current_range_meters":11600,"station_id":"ce4bgj92rcd13ifvqbd0","pricing_plan_id":"cebpf4jnsgd1na2vs0mg"},{"bike_id":"586389a2-1dec-4cb5-9628-1c44f04c91db","system_id":"levelo_inurba_marseille","lat":43.29206,"lon":5.36065,"is_reserved":false,"is_disabled":false,"rental_uris":{"android":"levelo://app?vid=586389a2-1dec-4cb5-9628-1c44f04c91db","ios":"levelo://app?vid=586389a2-1dec-4cb5-9628-1c44f04c91db"},"vehicle_type_id":"4","last_reported":1744920675,"current_range_meters":11600,"station_id":"ce4bhbh2rcd13ifvqeqg","pricing_plan_id":"cebpf4jnsgd1na2vs0mg"},{"bike_id":"568cd7a8-923f-4ddd-9073-7937069bee30","system_id":"levelo_inurba_marseille","lat":43.26939,"lon":5.40261,"is_reserved":false,"is_disabled":false,"rental_uris":{"android":"levelo://app?vid=568cd7a8-923f-4ddd-9073-7937069bee30","ios":"levelo://app?vid=568cd7a8-923f-4ddd-9073-7937069bee30"},"vehicle_type_id":"4","last_reported":1744920675,"current_range_meters":11600,"station_id":"cjm6bp8fraef2m0cb0m0","pricing_plan_id":"cebpf4jnsgd1na2vs0mg"},{"bike_id":"6765f6da-4e54-4a94-b69b-5b87b3101db6","system_id":"levelo_inurba_marseille","lat":43.28726,"lon":5.37943,"is_reserved":false,"is_disabled":false,"rental_uris":{"android":"levelo://app?vid=6765f6da-4e54-4a94-b69b-5b87b3101db6","ios":"levelo://app?vid=6765f6da-4e54-4a94-b69b-5b87b3101db6"},"vehicle_type_id":"4","last_reported":1744920675,"current_range_meters":11600,"station_id":"ce4bh9p2rcd13ifvqec0","pricing_plan_id":"cebpf4jnsgd1na2vs0mg"},{"bike_id":"928ed698-517a-4182-9696-8f0ef17547ce","system_id":"levelo_inurba_marseille","lat":43.29691,"lon":5.37292,"is_reserved":false,"is_disabled":false,"rental_uris":{"android":"levelo://app?vid=928ed698-517a-4182-9696-8f0ef17547ce","ios":"levelo://app?vid=928ed698-517a-4182-9696-8f0ef17547ce"},"vehicle_type_id":"4","last_reported":1744920675,"current_range_meters":11600,"station_id":"ce4bgk12rcd13ifvqbj0","pricing_plan_id":"cebpf4jnsgd1na2vs0mg"},{"bike_id":"ec8c9ac7-1e95-4171-97f3-226ce1e3c951","system_id":"levelo_inurba_marseille","lat":43.3212,"lon":5.36758,"is_reserved":false,"is_disabled":false,"rental_uris":{"android":"levelo://app?vid=ec8c9ac7-1e95-4171-97f3-226ce1e3c951","ios":"levelo://app?vid=ec8c9ac7-1e95-4171-97f3-226ce1e3c951"},"vehicle_type_id":"4","last_reported":1744920675,"current_range_meters":12000,"station_id":"ce4bhrh2rcd13ifvqhug","pricing_plan_id":"cebpf4jnsgd1na2vs0mg"},{"bike_id":"13ff1361-361b-4286-b529-16fc8ab8172e","system_id":"levelo_inurba_marseille","lat":43.30503,"lon":5.43132,"is_reserved":false,"is_disabled":false,"rental_uris":{"android":"levelo://app?vid=13ff1361-361b-4286-b529-16fc8ab8172e","ios":"levelo://app?vid=13ff1361-361b-4286-b529-16fc8ab8172e"},"vehicle_type_id":"4","last_reported":1744920675,"current_range_meters":12000,"station_id":"","pricing_plan_id":"cebpf4jnsgd1na2vs0mg"},{"bike_id":"e84e2261-4b7a-40b1-8f16-0c070ae7005e","system_id":"levelo_inurba_marseille","lat":43.29027,"lon":5.39976,"is_reserved":false,"is_disabled":false,"rental_uris":{"android":"levelo://app?vid=e84e2261-4b7a-40b1-8f16-0c070ae7005e","ios":"levelo://app?vid=e84e2261-4b7a-40b1-8f16-0c070ae7005e"},"vehicle_type_id":"4","last_reported":1744920675,"current_range_meters":12000,"station_id":"ce4bh392rcd13ifvqdm0","pricing_plan_id":"cebpf4jnsgd1na2vs0mg"},{"bike_id":"ea91027c-aba4-4503-adeb-f95dcb593375","system_id":"levelo_inurba_marseille","lat":43.28976,"lon":5.37832,"is_reserved":false,"is_disabled":false,"rental_uris":{"android":"levelo://app?vid=ea91027c-aba4-4503-adeb-f95dcb593375","ios":"levelo://app?vid=ea91027c-aba4-4503-adeb-f95dcb593375"},"vehicle_type_id":"4","last_reported":1744920675,"current_range_meters":12000,"station_id":"ce4bh9p2rcd13ifvqed0","pricing_plan_id":"cebpf4jnsgd1na2vs0mg"},{"bike_id":"f348c235-69d5-41ec-b5f7-0a83dab5339a","system_id":"levelo_inurba_marseille","lat":43.290008,"lon":5.356193,"is_reserved":false,"is_disabled":true,"rental_uris":{"android":"levelo://app?vid=f348c235-69d5-41ec-b5f7-0a83dab5339a","ios":"levelo://app?vid=f348c235-69d5-41ec-b5f7-0a83dab5339a"},"vehicle_type_id":"4","last_reported":1744920675,"current_range_meters":12000,"station_id":"ce4bhb92rcd13ifvqen0","pricing_plan_id":"cebpf4jnsgd1na2vs0mg"},{"bike_id":"ef452ef2-a466-4fd7-8fd0-4bdd92f45f80","system_id":"levelo_inurba_marseille","lat":43.29935,"lon":5.36546,"is_reserved":false,"is_disabled":false,"rental_uris":{"android":"levelo://app?vid=ef452ef2-a466-4fd7-8fd0-4bdd92f45f80","ios":"levelo://app?vid=ef452ef2-a466-4fd7-8fd0-4bdd92f45f80"},"vehicle_type_id":"4","last_reported":1744920675,"current_range_meters":12000,"station_id":"ce4bgm92rcd13ifvqbr0","pricing_plan_id":"cebpf4jnsgd1na2vs0mg"},{"bike_id":"04657881-18eb-45ab-8fbd-9926a7c863cf","system_id":"levelo_inurba_marseille","lat":43.28614,"lon":5.35107,"is_reserved":false,"is_disabled":false,"rental_uris":{"android":"levelo://app?vid=04657881-18eb-45ab-8fbd-9926a7c863cf","ios":"levelo://app?vid=04657881-18eb-45ab-8fbd-9926a7c863cf"},"vehicle_type_id":"4","last_reported":1744920675,"current_range_meters":12000,"station_id":"ce4bhch2rcd13ifvqeug","pricing_plan_id":"cebpf4jnsgd1na2vs0mg"},{"bike_id":"706174a5-b367-48cd-8f47-742f4f05c9f3","system_id":"levelo_inurba_marseille","lat":43.31443,"lon":5.37378,"is_reserved":false,"is_disabled":false,"rental_uris":{"android":"levelo://app?vid=706174a5-b367-48cd-8f47-742f4f05c9f3","ios":"levelo://app?vid=706174a5-b367-48cd-8f47-742f4f05c9f3"},"vehicle_type_id":"4","last_reported":1744920675,"current_range_meters":12000,"station_id":"","pricing_plan_id":"cebpf4jnsgd1na2vs0mg"},{"bike_id":"d9306445-f9e7-47ed-91ed-460403b5e3d2","system_id":"levelo_inurba_marseille","lat":43.29426,"lon":5.38608,"is_reserved":false,"is_disabled":false,"rental_uris":{"android":"levelo://app?vid=d9306445-f9e7-47ed-91ed-460403b5e3d2","ios":"levelo://app?vid=d9306445-f9e7-47ed-91ed-460403b5e3d2"},"vehicle_type_id":"4","last_reported":1744920675,"current_range_meters":12400,"station_id":"ce4bh2h2rcd13ifvqdh0","pricing_plan_id":"cebpf4jnsgd1na2vs0mg"},{"bike_id":"12d9a8eb-fb98-45c4-b0e1-a6cf77853197","system_id":"levelo_inurba_marseille","lat":43.28265,"lon":5.35064,"is_reserved":false,"is_disabled":false,"rental_uris":{"android":"levelo://app?vid=12d9a8eb-fb98-45c4-b0e1-a6cf77853197","ios":"levelo://app?vid=12d9a8eb-fb98-45c4-b0e1-a6cf77853197"},"vehicle_type_id":"4","last_reported":1744920675,"current_range_meters":12400,"station_id":"ce4bhbp2rcd13ifvqerg","pricing_plan_id":"cebpf4jnsgd1na2vs0mg"},{"bike_id":"e35e6fae-3839-4213-8afe-1fd8b2f59700","system_id":"levelo_inurba_marseille","lat":43.29542,"lon":5.38552,"is_reserved":false,"is_disabled":false,"rental_uris":{"android":"levelo://app?vid=e35e6fae-3839-4213-8afe-1fd8b2f59700","ios":"levelo://app?vid=e35e6fae-3839-4213-8afe-1fd8b2f59700"},"vehicle_type_id":"4","last_reported":1744920675,"current_range_meters":12400,"station_id":"ce4bgih2rcd13ifvqba0","pricing_plan_id":"cebpf4jnsgd1na2vs0mg"},{"bike_id":"98da1440-ddaf-41c4-ae43-8bc3e685a3bb","system_id":"levelo_inurba_marseille","lat":43.28414,"lon":5.35013,"is_reserved":false,"is_disabled":false,"rental_uris":{"android":"levelo://app?vid=98da1440-ddaf-41c4-ae43-8bc3e685a3bb","ios":"levelo://app?vid=98da1440-ddaf-41c4-ae43-8bc3e685a3bb"},"vehicle_type_id":"4","last_reported":1744920675,"current_range_meters":12400,"station_id":"ce4bhbh2rcd13ifvqepg","pricing_plan_id":"cebpf4jnsgd1na2vs0mg"},{"bike_id":"4184d816-feb8-4645-9182-7c42321ebb8b","system_id":"levelo_inurba_marseille","lat":43.28706,"lon":5.37393,"is_reserved":false,"is_disabled":false,"rental_uris":{"android":"levelo://app?vid=4184d816-feb8-4645-9182-7c42321ebb8b","ios":"levelo://app?vid=4184d816-feb8-4645-9182-7c42321ebb8b"},"vehicle_type_id":"4","last_reported":1744920675,"current_range_meters":12400,"station_id":"ce4bh3p2rcd13ifvqdq0","pricing_plan_id":"cebpf4jnsgd1na2vs0mg"},{"bike_id":"64a47f4a-f4e2-4e1b-949e-3e6cf7bc5e72","system_id":"levelo_inurba_marseille","lat":43.27209,"lon":5.4097,"is_reserved":false,"is_disabled":true,"rental_uris":{"android":"levelo://app?vid=64a47f4a-f4e2-4e1b-949e-3e6cf7bc5e72","ios":"levelo://app?vid=64a47f4a-f4e2-4e1b-949e-3e6cf7bc5e72"},"vehicle_type_id":"4","last_reported":1744920675,"current_range_meters":12400,"station_id":"ce4bhl12rcd13ifvqgf0","pricing_plan_id":"cebpf4jnsgd1na2vs0mg"},{"bike_id":"4a17a27b-4979-4133-9ae1-996785f8fee4","system_id":"levelo_inurba_marseille","lat":43.23068,"lon":5.35495,"is_reserved":false,"is_disabled":false,"rental_uris":{"android":"levelo://app?vid=4a17a27b-4979-4133-9ae1-996785f8fee4","ios":"levelo://app?vid=4a17a27b-4979-4133-9ae1-996785f8fee4"},"vehicle_type_id":"4","last_reported":1744920675,"current_range_meters":12400,"station_id":"cpo3342slgdg3j2ifvpg","pricing_plan_id":"cebpf4jnsgd1na2vs0mg"},{"bike_id":"68a47a42-d0e0-40bb-82dc-01a139074a57","system_id":"levelo_inurba_marseille","lat":43.284,"lon":5.37518,"is_reserved":false,"is_disabled":false,"rental_uris":{"android":"levelo://app?vid=68a47a42-d0e0-40bb-82dc-01a139074a57","ios":"levelo://app?vid=68a47a42-d0e0-40bb-82dc-01a139074a57"},"vehicle_type_id":"4","last_reported":1744920675,"current_range_meters":12800,"station_id":"ce4bh412rcd13ifvqds0","pricing_plan_id":"cebpf4jnsgd1na2vs0mg"},{"bike_id":"173d39b4-7a97-4693-9385-db8bda0fe199","system_id":"levelo_inurba_marseille","lat":43.21744,"lon":5.34618,"is_reserved":false,"is_disabled":false,"rental_uris":{"android":"levelo://app?vid=173d39b4-7a97-4693-9385-db8bda0fe199","ios":"levelo://app?vid=173d39b4-7a97-4693-9385-db8bda0fe199"},"vehicle_type_id":"4","last_reported":1744920675,"current_range_meters":12800,"station_id":"st_cvj6r9ubvosntc0bgbag","pricing_plan_id":"cebpf4jnsgd1na2vs0mg"},{"bike_id":"71bc0593-1bc3-4308-94ab-5d9d7f78667a","system_id":"levelo_inurba_marseille","lat":43.28663,"lon":5.36351,"is_reserved":false,"is_disabled":false,"rental_uris":{"android":"levelo://app?vid=71bc0593-1bc3-4308-94ab-5d9d7f78667a","ios":"levelo://app?vid=71bc0593-1bc3-4308-94ab-5d9d7f78667a"},"vehicle_type_id":"4","last_reported":1744920675,"current_range_meters":12800,"station_id":"ce4bhah2rcd13ifvqej0","pricing_plan_id":"cebpf4jnsgd1na2vs0mg"},{"bike_id":"bdc77ff9-23f0-494c-82c9-7980b6d52451","system_id":"levelo_inurba_marseille","lat":43.28708,"lon":5.37396,"is_reserved":false,"is_disabled":false,"rental_uris":{"android":"levelo://app?vid=bdc77ff9-23f0-494c-82c9-7980b6d52451","ios":"levelo://app?vid=bdc77ff9-23f0-494c-82c9-7980b6d52451"},"vehicle_type_id":"4","last_reported":1744920675,"current_range_meters":12800,"station_id":"ce4bh3p2rcd13ifvqdq0","pricing_plan_id":"cebpf4jnsgd1na2vs0mg"},{"bike_id":"ea1d64e9-5213-4a9a-a586-376d4c79981a","system_id":"levelo_inurba_marseille","lat":43.30441,"lon":5.38885,"is_reserved":false,"is_disabled":false,"rental_uris":{"android":"levelo://app?vid=ea1d64e9-5213-4a9a-a586-376d4c79981a","ios":"levelo://app?vid=ea1d64e9-5213-4a9a-a586-376d4c79981a"},"vehicle_type_id":"4","last_reported":1744920675,"current_range_meters":13600,"station_id":"ce4bgk12rcd13ifvqbi0","pricing_plan_id":"cebpf4jnsgd1na2vs0mg"},{"bike_id":"ae0e1566-e631-4bc5-9aed-0ebca70f0554","system_id":"levelo_inurba_marseille","lat":43.28623,"lon":5.35097,"is_reserved":false,"is_disabled":false,"rental_uris":{"android":"levelo://app?vid=ae0e1566-e631-4bc5-9aed-0ebca70f0554","ios":"levelo://app?vid=ae0e1566-e631-4bc5-9aed-0ebca70f0554"},"vehicle_type_id":"4","last_reported":1744920675,"current_range_meters":12800,"station_id":"ce4bhch2rcd13ifvqeug","pricing_plan_id":"cebpf4jnsgd1na2vs0mg"},{"bike_id":"a5cd902a-048d-4a22-bc63-6cd42cbdcef4","system_id":"levelo_inurba_marseille","lat":43.30253,"lon":5.40056,"is_reserved":false,"is_disabled":false,"rental_uris":{"android":"levelo://app?vid=a5cd902a-048d-4a22-bc63-6cd42cbdcef4","ios":"levelo://app?vid=a5cd902a-048d-4a22-bc63-6cd42cbdcef4"},"vehicle_type_id":"4","last_reported":1744920675,"current_range_meters":13600,"station_id":"ce4bgvh2rcd13ifvqcs0","pricing_plan_id":"cebpf4jnsgd1na2vs0mg"},{"bike_id":"41fb0398-f2fe-4abb-ae37-a38f47615ea9","system_id":"levelo_inurba_marseille","lat":43.32353,"lon":5.36726,"is_reserved":false,"is_disabled":false,"rental_uris":{"android":"levelo://app?vid=41fb0398-f2fe-4abb-ae37-a38f47615ea9","ios":"levelo://app?vid=41fb0398-f2fe-4abb-ae37-a38f47615ea9"},"vehicle_type_id":"4","last_reported":1744920675,"current_range_meters":13600,"station_id":"ce4bhsh2rcd13ifvqi2g","pricing_plan_id":"cebpf4jnsgd1na2vs0mg"},{"bike_id":"889988eb-016b-4bb9-aed5-d67f82e18ca2","system_id":"levelo_inurba_marseille","lat":43.29417,"lon":5.38633,"is_reserved":false,"is_disabled":false,"rental_uris":{"android":"levelo://app?vid=889988eb-016b-4bb9-aed5-d67f82e18ca2","ios":"levelo://app?vid=889988eb-016b-4bb9-aed5-d67f82e18ca2"},"vehicle_type_id":"4","last_reported":1744920675,"current_range_meters":13600,"station_id":"ce4bh2h2rcd13ifvqdh0","pricing_plan_id":"cebpf4jnsgd1na2vs0mg"},{"bike_id":"7d77b22e-64eb-4401-bd0f-e83eb9b00225","system_id":"levelo_inurba_marseille","lat":43.29418,"lon":5.38633,"is_reserved":false,"is_disabled":false,"rental_uris":{"android":"levelo://app?vid=7d77b22e-64eb-4401-bd0f-e83eb9b00225","ios":"levelo://app?vid=7d77b22e-64eb-4401-bd0f-e83eb9b00225"},"vehicle_type_id":"4","last_reported":1744920675,"current_range_meters":13600,"station_id":"ce4bh2h2rcd13ifvqdh0","pricing_plan_id":"cebpf4jnsgd1na2vs0mg"},{"bike_id":"09121f7e-4de3-487b-8796-71d867ca3962","system_id":"levelo_inurba_marseille","lat":43.2466,"lon":5.38896,"is_reserved":false,"is_disabled":false,"rental_uris":{"android":"levelo://app?vid=09121f7e-4de3-487b-8796-71d867ca3962","ios":"levelo://app?vid=09121f7e-4de3-487b-8796-71d867ca3962"},"vehicle_type_id":"4","last_reported":1744920675,"current_range_meters":14000,"station_id":"ce4bhg12rcd13ifvqf60","pricing_plan_id":"cebpf4jnsgd1na2vs0mg"},{"bike_id":"3ccd479b-c148-4c8f-a258-16f6c93e7ea0","system_id":"levelo_inurba_marseille","lat":43.28939,"lon":5.36644,"is_reserved":false,"is_disabled":false,"rental_uris":{"android":"levelo://app?vid=3ccd479b-c148-4c8f-a258-16f6c93e7ea0","ios":"levelo://app?vid=3ccd479b-c148-4c8f-a258-16f6c93e7ea0"},"vehicle_type_id":"4","last_reported":1744920675,"current_range_meters":14000,"station_id":"ce4bhap2rcd13ifvqek0","pricing_plan_id":"cebpf4jnsgd1na2vs0mg"},{"bike_id":"2a25cd21-fe94-4e90-b470-09fd879214ea","system_id":"levelo_inurba_marseille","lat":43.29448,"lon":5.38597,"is_reserved":false,"is_disabled":false,"rental_uris":{"android":"levelo://app?vid=2a25cd21-fe94-4e90-b470-09fd879214ea","ios":"levelo://app?vid=2a25cd21-fe94-4e90-b470-09fd879214ea"},"vehicle_type_id":"4","last_reported":1744920675,"current_range_meters":14000,"station_id":"ce4bh2h2rcd13ifvqdh0","pricing_plan_id":"cebpf4jnsgd1na2vs0mg"},{"bike_id":"1149d159-4fc9-44d2-ae4f-a73b54b03835","system_id":"levelo_inurba_marseille","lat":43.28697,"lon":5.374,"is_reserved":false,"is_disabled":false,"rental_uris":{"android":"levelo://app?vid=1149d159-4fc9-44d2-ae4f-a73b54b03835","ios":"levelo://app?vid=1149d159-4fc9-44d2-ae4f-a73b54b03835"},"vehicle_type_id":"4","last_reported":1744920675,"current_range_meters":14000,"station_id":"ce4bh3p2rcd13ifvqdq0","pricing_plan_id":"cebpf4jnsgd1na2vs0mg"},{"bike_id":"e14c265e-eca3-4791-a3e7-f534121ae166","system_id":"levelo_inurba_marseille","lat":43.229322,"lon":5.353913,"is_reserved":false,"is_disabled":false,"rental_uris":{"android":"levelo://app?vid=e14c265e-eca3-4791-a3e7-f534121ae166","ios":"levelo://app?vid=e14c265e-eca3-4791-a3e7-f534121ae166"},"vehicle_type_id":"4","last_reported":1744920675,"current_range_meters":14000,"station_id":"cpo3532slgdg3j2ikp40","pricing_plan_id":"cebpf4jnsgd1na2vs0mg"},{"bike_id":"5ccae0ed-ba8f-4ff9-bad4-ac4f9112cc92","system_id":"levelo_inurba_marseille","lat":43.28625,"lon":5.35097,"is_reserved":false,"is_disabled":false,"rental_uris":{"android":"levelo://app?vid=5ccae0ed-ba8f-4ff9-bad4-ac4f9112cc92","ios":"levelo://app?vid=5ccae0ed-ba8f-4ff9-bad4-ac4f9112cc92"},"vehicle_type_id":"4","last_reported":1744920675,"current_range_meters":14000,"station_id":"ce4bhch2rcd13ifvqeug","pricing_plan_id":"cebpf4jnsgd1na2vs0mg"},{"bike_id":"f690738c-7184-40d0-8e24-653d6c176a31","system_id":"levelo_inurba_marseille","lat":43.29579,"lon":5.42266,"is_reserved":false,"is_disabled":false,"rental_uris":{"android":"levelo://app?vid=f690738c-7184-40d0-8e24-653d6c176a31","ios":"levelo://app?vid=f690738c-7184-40d0-8e24-653d6c176a31"},"vehicle_type_id":"4","last_reported":1744920675,"current_range_meters":14000,"station_id":"ce4bhph2rcd13ifvqhdg","pricing_plan_id":"cebpf4jnsgd1na2vs0mg"},{"bike_id":"559306d4-8b23-4192-b8d5-28a38ab3887f","system_id":"levelo_inurba_marseille","lat":43.2993,"lon":5.36552,"is_reserved":false,"is_disabled":false,"rental_uris":{"android":"levelo://app?vid=559306d4-8b23-4192-b8d5-28a38ab3887f","ios":"levelo://app?vid=559306d4-8b23-4192-b8d5-28a38ab3887f"},"vehicle_type_id":"4","last_reported":1744920675,"current_range_meters":14400,"station_id":"ce4bgm92rcd13ifvqbr0","pricing_plan_id":"cebpf4jnsgd1na2vs0mg"},{"bike_id":"6c557f57-1141-4362-93a0-02a0835b0e25","system_id":"levelo_inurba_marseille","lat":43.26687,"lon":5.38258,"is_reserved":false,"is_disabled":false,"rental_uris":{"android":"levelo://app?vid=6c557f57-1141-4362-93a0-02a0835b0e25","ios":"levelo://app?vid=6c557f57-1141-4362-93a0-02a0835b0e25"},"vehicle_type_id":"4","last_reported":1744920675,"current_range_meters":14400,"station_id":"ce4bhg92rcd13ifvqf90","pricing_plan_id":"cebpf4jnsgd1na2vs0mg"},{"bike_id":"98895530-3c62-4054-b406-b6c2263ac1fe","system_id":"levelo_inurba_marseille","lat":43.2508,"lon":5.39521,"is_reserved":false,"is_disabled":false,"rental_uris":{"android":"levelo://app?vid=98895530-3c62-4054-b406-b6c2263ac1fe","ios":"levelo://app?vid=98895530-3c62-4054-b406-b6c2263ac1fe"},"vehicle_type_id":"4","last_reported":1744920675,"current_range_meters":14400,"station_id":"ce4bhm12rcd13ifvqgkg","pricing_plan_id":"cebpf4jnsgd1na2vs0mg"},{"bike_id":"2f3f86cc-a463-458e-9bde-738182e4f512","system_id":"levelo_inurba_marseille","lat":43.28715,"lon":5.37947,"is_reserved":false,"is_disabled":false,"rental_uris":{"android":"levelo://app?vid=2f3f86cc-a463-458e-9bde-738182e4f512","ios":"levelo://app?vid=2f3f86cc-a463-458e-9bde-738182e4f512"},"vehicle_type_id":"4","last_reported":1744920675,"current_range_meters":14400,"station_id":"ce4bh9p2rcd13ifvqec0","pricing_plan_id":"cebpf4jnsgd1na2vs0mg"},{"bike_id":"386b66dd-54dd-4f23-9399-5feab1b083fa","system_id":"levelo_inurba_marseille","lat":43.29662,"lon":5.37804,"is_reserved":false,"is_disabled":false,"rental_uris":{"android":"levelo://app?vid=386b66dd-54dd-4f23-9399-5feab1b083fa","ios":"levelo://app?vid=386b66dd-54dd-4f23-9399-5feab1b083fa"},"vehicle_type_id":"4","last_reported":1744920675,"current_range_meters":14400,"station_id":"","pricing_plan_id":"cebpf4jnsgd1na2vs0mg"},{"bike_id":"69ad49b2-52dc-4615-affb-f9a6a493404b","system_id":"levelo_inurba_marseille","lat":43.280353,"lon":5.386611,"is_reserved":false,"is_disabled":false,"rental_uris":{"android":"levelo://app?vid=69ad49b2-52dc-4615-affb-f9a6a493404b","ios":"levelo://app?vid=69ad49b2-52dc-4615-affb-f9a6a493404b"},"vehicle_type_id":"4","last_reported":1744920675,"current_range_meters":14800,"station_id":"ce4bhk92rcd13ifvqgc0","pricing_plan_id":"cebpf4jnsgd1na2vs0mg"},{"bike_id":"b8e79e0b-1d61-4be4-a56c-9f771d834b42","system_id":"levelo_inurba_marseille","lat":43.31071,"lon":5.38356,"is_reserved":false,"is_disabled":false,"rental_uris":{"android":"levelo://app?vid=b8e79e0b-1d61-4be4-a56c-9f771d834b42","ios":"levelo://app?vid=b8e79e0b-1d61-4be4-a56c-9f771d834b42"},"vehicle_type_id":"4","last_reported":1744920675,"current_range_meters":14800,"station_id":"ce4bgv92rcd13ifvqcr0","pricing_plan_id":"cebpf4jnsgd1na2vs0mg"},{"bike_id":"2daa1a4a-afb7-470b-9fac-d2f8da0290d5","system_id":"levelo_inurba_marseille","lat":43.25564,"lon":5.38272,"is_reserved":false,"is_disabled":false,"rental_uris":{"android":"levelo://app?vid=2daa1a4a-afb7-470b-9fac-d2f8da0290d5","ios":"levelo://app?vid=2daa1a4a-afb7-470b-9fac-d2f8da0290d5"},"vehicle_type_id":"4","last_reported":1744920675,"current_range_meters":15200,"station_id":"ce4bhih2rcd13ifvqfs0","pricing_plan_id":"cebpf4jnsgd1na2vs0mg"},{"bike_id":"b5bbdea7-ab68-4921-90f7-16f0a22584d0","system_id":"levelo_inurba_marseille","lat":43.31216,"lon":5.36863,"is_reserved":false,"is_disabled":false,"rental_uris":{"android":"levelo://app?vid=b5bbdea7-ab68-4921-90f7-16f0a22584d0","ios":"levelo://app?vid=b5bbdea7-ab68-4921-90f7-16f0a22584d0"},"vehicle_type_id":"4","last_reported":1744920675,"current_range_meters":15200,"station_id":"ce4bgl92rcd13ifvqbq0","pricing_plan_id":"cebpf4jnsgd1na2vs0mg"},{"bike_id":"95daa992-9b9f-4ff3-ad08-0de1a8be6bf7","system_id":"levelo_inurba_marseille","lat":43.31312,"lon":5.39698,"is_reserved":false,"is_disabled":false,"rental_uris":{"android":"levelo://app?vid=95daa992-9b9f-4ff3-ad08-0de1a8be6bf7","ios":"levelo://app?vid=95daa992-9b9f-4ff3-ad08-0de1a8be6bf7"},"vehicle_type_id":"4","last_reported":1744920675,"current_range_meters":16000,"station_id":"ce4bgvp2rcd13ifvqcu0","pricing_plan_id":"cebpf4jnsgd1na2vs0mg"},{"bike_id":"799fd552-dbb8-4e4f-8a9f-cf3ed7e77450","system_id":"levelo_inurba_marseille","lat":43.29413,"lon":5.3865,"is_reserved":false,"is_disabled":false,"rental_uris":{"android":"levelo://app?vid=799fd552-dbb8-4e4f-8a9f-cf3ed7e77450","ios":"levelo://app?vid=799fd552-dbb8-4e4f-8a9f-cf3ed7e77450"},"vehicle_type_id":"4","last_reported":1744920675,"current_range_meters":16000,"station_id":"ce4bh2h2rcd13ifvqdh0","pricing_plan_id":"cebpf4jnsgd1na2vs0mg"},{"bike_id":"6bca2640-2999-49be-b62e-5486cb1127e2","system_id":"levelo_inurba_marseille","lat":43.32001,"lon":5.38167,"is_reserved":false,"is_disabled":false,"rental_uris":{"android":"levelo://app?vid=6bca2640-2999-49be-b62e-5486cb1127e2","ios":"levelo://app?vid=6bca2640-2999-49be-b62e-5486cb1127e2"},"vehicle_type_id":"4","last_reported":1744920675,"current_range_meters":16000,"station_id":"ce4bhr12rcd13ifvqhpg","pricing_plan_id":"cebpf4jnsgd1na2vs0mg"},{"bike_id":"0fb1a105-b046-4c66-baab-c2dec6ff86a2","system_id":"levelo_inurba_marseille","lat":43.28611,"lon":5.37065,"is_reserved":false,"is_disabled":false,"rental_uris":{"android":"levelo://app?vid=0fb1a105-b046-4c66-baab-c2dec6ff86a2","ios":"levelo://app?vid=0fb1a105-b046-4c66-baab-c2dec6ff86a2"},"vehicle_type_id":"4","last_reported":1744920675,"current_range_meters":16000,"station_id":"ce4bht12rcd13ifvqi60","pricing_plan_id":"cebpf4jnsgd1na2vs0mg"},{"bike_id":"7248a60c-ac8e-403e-8f6b-ef698a8b88ef","system_id":"levelo_inurba_marseille","lat":43.28159,"lon":5.42648,"is_reserved":false,"is_disabled":false,"rental_uris":{"android":"levelo://app?vid=7248a60c-ac8e-403e-8f6b-ef698a8b88ef","ios":"levelo://app?vid=7248a60c-ac8e-403e-8f6b-ef698a8b88ef"},"vehicle_type_id":"4","last_reported":1744920675,"current_range_meters":16000,"station_id":"ce4bhnh2rcd13ifvqgug","pricing_plan_id":"cebpf4jnsgd1na2vs0mg"},{"bike_id":"a485b16b-ac70-4ba2-a158-d9b6e512c2f9","system_id":"levelo_inurba_marseille","lat":43.284068,"lon":5.375123,"is_reserved":false,"is_disabled":false,"rental_uris":{"android":"levelo://app?vid=a485b16b-ac70-4ba2-a158-d9b6e512c2f9","ios":"levelo://app?vid=a485b16b-ac70-4ba2-a158-d9b6e512c2f9"},"vehicle_type_id":"4","last_reported":1744920675,"current_range_meters":16000,"station_id":"ce4bh412rcd13ifvqds0","pricing_plan_id":"cebpf4jnsgd1na2vs0mg"},{"bike_id":"536dde2f-0bf5-4e85-aeb1-cb0580493ff9","system_id":"levelo_inurba_marseille","lat":43.3107,"lon":5.3836,"is_reserved":false,"is_disabled":false,"rental_uris":{"android":"levelo://app?vid=536dde2f-0bf5-4e85-aeb1-cb0580493ff9","ios":"levelo://app?vid=536dde2f-0bf5-4e85-aeb1-cb0580493ff9"},"vehicle_type_id":"4","last_reported":1744920675,"current_range_meters":16400,"station_id":"ce4bgv92rcd13ifvqcr0","pricing_plan_id":"cebpf4jnsgd1na2vs0mg"},{"bike_id":"aa7b1d04-d650-434d-9c3e-bbfda05966c6","system_id":"levelo_inurba_marseille","lat":43.29528,"lon":5.38553,"is_reserved":false,"is_disabled":false,"rental_uris":{"android":"levelo://app?vid=aa7b1d04-d650-434d-9c3e-bbfda05966c6","ios":"levelo://app?vid=aa7b1d04-d650-434d-9c3e-bbfda05966c6"},"vehicle_type_id":"4","last_reported":1744920675,"current_range_meters":16400,"station_id":"ce4bgih2rcd13ifvqba0","pricing_plan_id":"cebpf4jnsgd1na2vs0mg"},{"bike_id":"bbb1c662-cc65-4c72-8489-de78d2f0f12f","system_id":"levelo_inurba_marseille","lat":43.23058,"lon":5.35492,"is_reserved":false,"is_disabled":false,"rental_uris":{"android":"levelo://app?vid=bbb1c662-cc65-4c72-8489-de78d2f0f12f","ios":"levelo://app?vid=bbb1c662-cc65-4c72-8489-de78d2f0f12f"},"vehicle_type_id":"4","last_reported":1744920675,"current_range_meters":16400,"station_id":"cpo3342slgdg3j2ifvpg","pricing_plan_id":"cebpf4jnsgd1na2vs0mg"},{"bike_id":"f67c914a-531e-4ad5-b41c-cc8fccfce3a3","system_id":"levelo_inurba_marseille","lat":43.26067,"lon":5.39395,"is_reserved":false,"is_disabled":false,"rental_uris":{"android":"levelo://app?vid=f67c914a-531e-4ad5-b41c-cc8fccfce3a3","ios":"levelo://app?vid=f67c914a-531e-4ad5-b41c-cc8fccfce3a3"},"vehicle_type_id":"4","last_reported":1744920675,"current_range_meters":16400,"station_id":"ce4bhh92rcd13ifvqfj0","pricing_plan_id":"cebpf4jnsgd1na2vs0mg"},{"bike_id":"c41facca-8ed6-4772-99bb-68f11d75fa62","system_id":"levelo_inurba_marseille","lat":43.2842,"lon":5.3754,"is_reserved":false,"is_disabled":false,"rental_uris":{"android":"levelo://app?vid=c41facca-8ed6-4772-99bb-68f11d75fa62","ios":"levelo://app?vid=c41facca-8ed6-4772-99bb-68f11d75fa62"},"vehicle_type_id":"4","last_reported":1744920675,"current_range_meters":16400,"station_id":"ce4bh412rcd13ifvqds0","pricing_plan_id":"cebpf4jnsgd1na2vs0mg"},{"bike_id":"00845e1e-292e-4db5-9c9b-86ee55be5fc2","system_id":"levelo_inurba_marseille","lat":43.2872,"lon":5.36085,"is_reserved":false,"is_disabled":false,"rental_uris":{"android":"levelo://app?vid=00845e1e-292e-4db5-9c9b-86ee55be5fc2","ios":"levelo://app?vid=00845e1e-292e-4db5-9c9b-86ee55be5fc2"},"vehicle_type_id":"4","last_reported":1744920675,"current_range_meters":16400,"station_id":"cki0cbj6b192h4jlfktg","pricing_plan_id":"cebpf4jnsgd1na2vs0mg"},{"bike_id":"9ccc1250-0ff6-4acc-bd2f-67431ef76582","system_id":"levelo_inurba_marseille","lat":43.28412,"lon":5.34999,"is_reserved":false,"is_disabled":false,"rental_uris":{"android":"levelo://app?vid=9ccc1250-0ff6-4acc-bd2f-67431ef76582","ios":"levelo://app?vid=9ccc1250-0ff6-4acc-bd2f-67431ef76582"},"vehicle_type_id":"4","last_reported":1744920675,"current_range_meters":16400,"station_id":"ce4bhbh2rcd13ifvqepg","pricing_plan_id":"cebpf4jnsgd1na2vs0mg"},{"bike_id":"1ede3944-30b4-4eca-bfe3-9ebd300a6a15","system_id":"levelo_inurba_marseille","lat":43.26957,"lon":5.38637,"is_reserved":false,"is_disabled":false,"rental_uris":{"android":"levelo://app?vid=1ede3944-30b4-4eca-bfe3-9ebd300a6a15","ios":"levelo://app?vid=1ede3944-30b4-4eca-bfe3-9ebd300a6a15"},"vehicle_type_id":"4","last_reported":1744920675,"current_range_meters":16400,"station_id":"ce4bhh92rcd13ifvqfh0","pricing_plan_id":"cebpf4jnsgd1na2vs0mg"},{"bike_id":"9b3bb13d-66c0-4eb1-8f75-b31ca5a75a7d","system_id":"levelo_inurba_marseille","lat":43.28923,"lon":5.38383,"is_reserved":false,"is_disabled":false,"rental_uris":{"android":"levelo://app?vid=9b3bb13d-66c0-4eb1-8f75-b31ca5a75a7d","ios":"levelo://app?vid=9b3bb13d-66c0-4eb1-8f75-b31ca5a75a7d"},"vehicle_type_id":"4","last_reported":1744920675,"current_range_meters":16400,"station_id":"ce4bh612rcd13ifvqe6g","pricing_plan_id":"cebpf4jnsgd1na2vs0mg"},{"bike_id":"510ae69c-2759-4414-9425-d7a06ed0a5fe","system_id":"levelo_inurba_marseille","lat":43.29021,"lon":5.38638,"is_reserved":false,"is_disabled":false,"rental_uris":{"android":"levelo://app?vid=510ae69c-2759-4414-9425-d7a06ed0a5fe","ios":"levelo://app?vid=510ae69c-2759-4414-9425-d7a06ed0a5fe"},"vehicle_type_id":"4","last_reported":1744920675,"current_range_meters":16400,"station_id":"ce4bh4p2rcd13ifvqe0g","pricing_plan_id":"cebpf4jnsgd1na2vs0mg"},{"bike_id":"007ee9c7-c769-4de9-a218-517ff098b9cd","system_id":"levelo_inurba_marseille","lat":43.314505,"lon":5.373787,"is_reserved":false,"is_disabled":false,"rental_uris":{"android":"levelo://app?vid=007ee9c7-c769-4de9-a218-517ff098b9cd","ios":"levelo://app?vid=007ee9c7-c769-4de9-a218-517ff098b9cd"},"vehicle_type_id":"4","last_reported":1744920675,"current_range_meters":16400,"station_id":"","pricing_plan_id":"cebpf4jnsgd1na2vs0mg"},{"bike_id":"0ced172e-d267-48f8-823b-595463e3fa07","system_id":"levelo_inurba_marseille","lat":43.294254,"lon":5.386194,"is_reserved":false,"is_disabled":false,"rental_uris":{"android":"levelo://app?vid=0ced172e-d267-48f8-823b-595463e3fa07","ios":"levelo://app?vid=0ced172e-d267-48f8-823b-595463e3fa07"},"vehicle_type_id":"4","last_reported":1744920675,"current_range_meters":16400,"station_id":"ce4bh2h2rcd13ifvqdh0","pricing_plan_id":"cebpf4jnsgd1na2vs0mg"},{"bike_id":"68394fd5-d634-485e-8029-a1a9192346ae","system_id":"levelo_inurba_marseille","lat":43.292645,"lon":5.384445,"is_reserved":false,"is_disabled":false,"rental_uris":{"android":"levelo://app?vid=68394fd5-d634-485e-8029-a1a9192346ae","ios":"levelo://app?vid=68394fd5-d634-485e-8029-a1a9192346ae"},"vehicle_type_id":"4","last_reported":1744920675,"current_range_meters":16400,"station_id":"ce4bh692rcd13ifvqea0","pricing_plan_id":"cebpf4jnsgd1na2vs0mg"},{"bike_id":"d2eaf4fc-21fb-494f-a69e-1717b50a5ec5","system_id":"levelo_inurba_marseille","lat":43.28453,"lon":5.35885,"is_reserved":false,"is_disabled":false,"rental_uris":{"android":"levelo://app?vid=d2eaf4fc-21fb-494f-a69e-1717b50a5ec5","ios":"levelo://app?vid=d2eaf4fc-21fb-494f-a69e-1717b50a5ec5"},"vehicle_type_id":"4","last_reported":1744920675,"current_range_meters":16400,"station_id":"ce4bhah2rcd13ifvqei0","pricing_plan_id":"cebpf4jnsgd1na2vs0mg"},{"bike_id":"f8fc12fd-017f-4762-9135-8b3c5a08cdaf","system_id":"levelo_inurba_marseille","lat":43.31047,"lon":5.38363,"is_reserved":false,"is_disabled":false,"rental_uris":{"android":"levelo://app?vid=f8fc12fd-017f-4762-9135-8b3c5a08cdaf","ios":"levelo://app?vid=f8fc12fd-017f-4762-9135-8b3c5a08cdaf"},"vehicle_type_id":"4","last_reported":1744920675,"current_range_meters":16400,"station_id":"ce4bgv92rcd13ifvqcr0","pricing_plan_id":"cebpf4jnsgd1na2vs0mg"},{"bike_id":"55a26342-702b-4c0e-8394-7b6469236397","system_id":"levelo_inurba_marseille","lat":43.25872,"lon":5.39913,"is_reserved":false,"is_disabled":false,"rental_uris":{"android":"levelo://app?vid=55a26342-702b-4c0e-8394-7b6469236397","ios":"levelo://app?vid=55a26342-702b-4c0e-8394-7b6469236397"},"vehicle_type_id":"4","last_reported":1744920675,"current_range_meters":16000,"station_id":"ce4bhl92rcd13ifvqghg","pricing_plan_id":"cebpf4jnsgd1na2vs0mg"},{"bike_id":"43d31586-797f-4ace-880f-87a98b1f436e","system_id":"levelo_inurba_marseille","lat":43.31051,"lon":5.38357,"is_reserved":false,"is_disabled":false,"rental_uris":{"android":"levelo://app?vid=43d31586-797f-4ace-880f-87a98b1f436e","ios":"levelo://app?vid=43d31586-797f-4ace-880f-87a98b1f436e"},"vehicle_type_id":"4","last_reported":1744920675,"current_range_meters":16400,"station_id":"ce4bgv92rcd13ifvqcr0","pricing_plan_id":"cebpf4jnsgd1na2vs0mg"},{"bike_id":"a0ddb0a5-f7f0-4281-aa27-9e82747cc573","system_id":"levelo_inurba_marseille","lat":43.33754,"lon":5.37491,"is_reserved":false,"is_disabled":false,"rental_uris":{"android":"levelo://app?vid=a0ddb0a5-f7f0-4281-aa27-9e82747cc573","ios":"levelo://app?vid=a0ddb0a5-f7f0-4281-aa27-9e82747cc573"},"vehicle_type_id":"4","last_reported":1744920675,"current_range_meters":16400,"station_id":"","pricing_plan_id":"cebpf4jnsgd1na2vs0mg"},{"bike_id":"135f0758-d03d-42f1-a2d6-49e93dc7a634","system_id":"levelo_inurba_marseille","lat":43.29841,"lon":5.36273,"is_reserved":false,"is_disabled":false,"rental_uris":{"android":"levelo://app?vid=135f0758-d03d-42f1-a2d6-49e93dc7a634","ios":"levelo://app?vid=135f0758-d03d-42f1-a2d6-49e93dc7a634"},"vehicle_type_id":"4","last_reported":1744920675,"current_range_meters":16400,"station_id":"ce4bgpp2rcd13ifvqc3g","pricing_plan_id":"cebpf4jnsgd1na2vs0mg"},{"bike_id":"9fe6b68c-b08e-4d81-8c7d-760938ace4d6","system_id":"levelo_inurba_marseille","lat":43.29215,"lon":5.36065,"is_reserved":false,"is_disabled":false,"rental_uris":{"android":"levelo://app?vid=9fe6b68c-b08e-4d81-8c7d-760938ace4d6","ios":"levelo://app?vid=9fe6b68c-b08e-4d81-8c7d-760938ace4d6"},"vehicle_type_id":"4","last_reported":1744920675,"current_range_meters":16800,"station_id":"ce4bhbh2rcd13ifvqeqg","pricing_plan_id":"cebpf4jnsgd1na2vs0mg"},{"bike_id":"42460a9a-4b1c-4fc9-a246-c8263dcaa421","system_id":"levelo_inurba_marseille","lat":43.29247,"lon":5.4091,"is_reserved":false,"is_disabled":false,"rental_uris":{"android":"levelo://app?vid=42460a9a-4b1c-4fc9-a246-c8263dcaa421","ios":"levelo://app?vid=42460a9a-4b1c-4fc9-a246-c8263dcaa421"},"vehicle_type_id":"4","last_reported":1744920675,"current_range_meters":16800,"station_id":"ce4bh192rcd13ifvqdc0","pricing_plan_id":"cebpf4jnsgd1na2vs0mg"},{"bike_id":"e3b9c86b-9e49-41d1-83da-e803d37c2cf4","system_id":"levelo_inurba_marseille","lat":43.3013,"lon":5.38794,"is_reserved":false,"is_disabled":true,"rental_uris":{"android":"levelo://app?vid=e3b9c86b-9e49-41d1-83da-e803d37c2cf4","ios":"levelo://app?vid=e3b9c86b-9e49-41d1-83da-e803d37c2cf4"},"vehicle_type_id":"4","last_reported":1744920675,"current_range_meters":16800,"station_id":"ce4bghh2rcd13ifvqb60","pricing_plan_id":"cebpf4jnsgd1na2vs0mg"},{"bike_id":"e320127e-635e-4437-acaa-5c58389e4c0a","system_id":"levelo_inurba_marseille","lat":43.29409,"lon":5.38616,"is_reserved":false,"is_disabled":false,"rental_uris":{"android":"levelo://app?vid=e320127e-635e-4437-acaa-5c58389e4c0a","ios":"levelo://app?vid=e320127e-635e-4437-acaa-5c58389e4c0a"},"vehicle_type_id":"4","last_reported":1744920675,"current_range_meters":16800,"station_id":"ce4bh2h2rcd13ifvqdh0","pricing_plan_id":"cebpf4jnsgd1na2vs0mg"},{"bike_id":"bd492354-2d79-4427-82ee-84e4a12dea30","system_id":"levelo_inurba_marseille","lat":43.21197,"lon":5.35064,"is_reserved":false,"is_disabled":false,"rental_uris":{"android":"levelo://app?vid=bd492354-2d79-4427-82ee-84e4a12dea30","ios":"levelo://app?vid=bd492354-2d79-4427-82ee-84e4a12dea30"},"vehicle_type_id":"4","last_reported":1744920675,"current_range_meters":16800,"station_id":"st_cvj6sg6p6f1abm77japg","pricing_plan_id":"cebpf4jnsgd1na2vs0mg"},{"bike_id":"1f6bf825-3638-4ddb-b2d1-d906c9b90cb2","system_id":"levelo_inurba_marseille","lat":43.3043,"lon":5.39739,"is_reserved":false,"is_disabled":false,"rental_uris":{"android":"levelo://app?vid=1f6bf825-3638-4ddb-b2d1-d906c9b90cb2","ios":"levelo://app?vid=1f6bf825-3638-4ddb-b2d1-d906c9b90cb2"},"vehicle_type_id":"4","last_reported":1744920675,"current_range_meters":16800,"station_id":"ce4bh092rcd13ifvqd20","pricing_plan_id":"cebpf4jnsgd1na2vs0mg"},{"bike_id":"45b9a480-de5f-4cfa-b4ba-4ab88f446566","system_id":"levelo_inurba_marseille","lat":43.29,"lon":5.3562,"is_reserved":false,"is_disabled":false,"rental_uris":{"android":"levelo://app?vid=45b9a480-de5f-4cfa-b4ba-4ab88f446566","ios":"levelo://app?vid=45b9a480-de5f-4cfa-b4ba-4ab88f446566"},"vehicle_type_id":"4","last_reported":1744920675,"current_range_meters":16400,"station_id":"ce4bhb92rcd13ifvqen0","pricing_plan_id":"cebpf4jnsgd1na2vs0mg"},{"bike_id":"7ed91d22-3d5b-4254-83bf-64eb2a7d5481","system_id":"levelo_inurba_marseille","lat":43.22512,"lon":5.34785,"is_reserved":false,"is_disabled":false,"rental_uris":{"android":"levelo://app?vid=7ed91d22-3d5b-4254-83bf-64eb2a7d5481","ios":"levelo://app?vid=7ed91d22-3d5b-4254-83bf-64eb2a7d5481"},"vehicle_type_id":"4","last_reported":1744920675,"current_range_meters":16800,"station_id":"","pricing_plan_id":"cebpf4jnsgd1na2vs0mg"},{"bike_id":"188a89e9-af7c-4f5c-bbbf-95c9ac1c78bd","system_id":"levelo_inurba_marseille","lat":43.32294,"lon":5.38272,"is_reserved":false,"is_disabled":false,"rental_uris":{"android":"levelo://app?vid=188a89e9-af7c-4f5c-bbbf-95c9ac1c78bd","ios":"levelo://app?vid=188a89e9-af7c-4f5c-bbbf-95c9ac1c78bd"},"vehicle_type_id":"4","last_reported":1744920675,"current_range_meters":16800,"station_id":"ce4bhr12rcd13ifvqhqg","pricing_plan_id":"cebpf4jnsgd1na2vs0mg"},{"bike_id":"d6a15406-d59a-4743-b38b-2ddcdce016e0","system_id":"levelo_inurba_marseille","lat":43.29306,"lon":5.37178,"is_reserved":false,"is_disabled":false,"rental_uris":{"android":"levelo://app?vid=d6a15406-d59a-4743-b38b-2ddcdce016e0","ios":"levelo://app?vid=d6a15406-d59a-4743-b38b-2ddcdce016e0"},"vehicle_type_id":"4","last_reported":1744920675,"current_range_meters":16800,"station_id":"ce4bgh92rcd13ifvqb40","pricing_plan_id":"cebpf4jnsgd1na2vs0mg"},{"bike_id":"d57023a8-ca84-4d44-ba60-11037d1468ea","system_id":"levelo_inurba_marseille","lat":43.29247,"lon":5.38456,"is_reserved":false,"is_disabled":false,"rental_uris":{"android":"levelo://app?vid=d57023a8-ca84-4d44-ba60-11037d1468ea","ios":"levelo://app?vid=d57023a8-ca84-4d44-ba60-11037d1468ea"},"vehicle_type_id":"4","last_reported":1744920675,"current_range_meters":16800,"station_id":"ce4bh692rcd13ifvqea0","pricing_plan_id":"cebpf4jnsgd1na2vs0mg"},{"bike_id":"0ffafc47-74ff-4ddc-86e8-6f4cf8df5cd2","system_id":"levelo_inurba_marseille","lat":43.22915,"lon":5.3538,"is_reserved":false,"is_disabled":false,"rental_uris":{"android":"levelo://app?vid=0ffafc47-74ff-4ddc-86e8-6f4cf8df5cd2","ios":"levelo://app?vid=0ffafc47-74ff-4ddc-86e8-6f4cf8df5cd2"},"vehicle_type_id":"4","last_reported":1744920675,"current_range_meters":16800,"station_id":"cpo3532slgdg3j2ikp40","pricing_plan_id":"cebpf4jnsgd1na2vs0mg"},{"bike_id":"796a6822-c16b-4283-8e25-c148db169258","system_id":"levelo_inurba_marseille","lat":43.28084,"lon":5.39656,"is_reserved":false,"is_disabled":false,"rental_uris":{"android":"levelo://app?vid=796a6822-c16b-4283-8e25-c148db169258","ios":"levelo://app?vid=796a6822-c16b-4283-8e25-c148db169258"},"vehicle_type_id":"4","last_reported":1744920675,"current_range_meters":16800,"station_id":"ce4bho12rcd13ifvqh2g","pricing_plan_id":"cebpf4jnsgd1na2vs0mg"},{"bike_id":"ddb81e49-3ca3-408e-bb7e-97e32c56d0f7","system_id":"levelo_inurba_marseille","lat":43.27905,"lon":5.38,"is_reserved":false,"is_disabled":false,"rental_uris":{"android":"levelo://app?vid=ddb81e49-3ca3-408e-bb7e-97e32c56d0f7","ios":"levelo://app?vid=ddb81e49-3ca3-408e-bb7e-97e32c56d0f7"},"vehicle_type_id":"4","last_reported":1744920675,"current_range_meters":16800,"station_id":"ce4bhf92rcd13ifvqf50","pricing_plan_id":"cebpf4jnsgd1na2vs0mg"},{"bike_id":"076355f1-ba05-4b14-94f8-7678f1392346","system_id":"levelo_inurba_marseille","lat":43.284188,"lon":5.34979,"is_reserved":false,"is_disabled":false,"rental_uris":{"android":"levelo://app?vid=076355f1-ba05-4b14-94f8-7678f1392346","ios":"levelo://app?vid=076355f1-ba05-4b14-94f8-7678f1392346"},"vehicle_type_id":"4","last_reported":1744920675,"current_range_meters":16800,"station_id":"ce4bhbh2rcd13ifvqepg","pricing_plan_id":"cebpf4jnsgd1na2vs0mg"},{"bike_id":"a472860e-2170-4660-8572-c40531c6a558","system_id":"levelo_inurba_marseille","lat":43.29261,"lon":5.38447,"is_reserved":false,"is_disabled":false,"rental_uris":{"android":"levelo://app?vid=a472860e-2170-4660-8572-c40531c6a558","ios":"levelo://app?vid=a472860e-2170-4660-8572-c40531c6a558"},"vehicle_type_id":"4","last_reported":1744920675,"current_range_meters":17200,"station_id":"ce4bh692rcd13ifvqea0","pricing_plan_id":"cebpf4jnsgd1na2vs0mg"},{"bike_id":"a67e5406-021e-4ace-beb9-5f5c9ab3c9b8","system_id":"levelo_inurba_marseille","lat":43.24622,"lon":5.3888,"is_reserved":false,"is_disabled":false,"rental_uris":{"android":"levelo://app?vid=a67e5406-021e-4ace-beb9-5f5c9ab3c9b8","ios":"levelo://app?vid=a67e5406-021e-4ace-beb9-5f5c9ab3c9b8"},"vehicle_type_id":"4","last_reported":1744920675,"current_range_meters":17200,"station_id":"ce4bhg12rcd13ifvqf60","pricing_plan_id":"cebpf4jnsgd1na2vs0mg"},{"bike_id":"8fae185a-eac6-4d3b-9cf9-875e7848cce3","system_id":"levelo_inurba_marseille","lat":43.292084,"lon":5.393384,"is_reserved":false,"is_disabled":false,"rental_uris":{"android":"levelo://app?vid=8fae185a-eac6-4d3b-9cf9-875e7848cce3","ios":"levelo://app?vid=8fae185a-eac6-4d3b-9cf9-875e7848cce3"},"vehicle_type_id":"4","last_reported":1744920675,"current_range_meters":17200,"station_id":"ce4bh192rcd13ifvqdd0","pricing_plan_id":"cebpf4jnsgd1na2vs0mg"},{"bike_id":"16272467-376b-4c3d-b24f-85b6246af5bb","system_id":"levelo_inurba_marseille","lat":43.31039,"lon":5.38362,"is_reserved":false,"is_disabled":false,"rental_uris":{"android":"levelo://app?vid=16272467-376b-4c3d-b24f-85b6246af5bb","ios":"levelo://app?vid=16272467-376b-4c3d-b24f-85b6246af5bb"},"vehicle_type_id":"4","last_reported":1744920675,"current_range_meters":17200,"station_id":"ce4bgv92rcd13ifvqcr0","pricing_plan_id":"cebpf4jnsgd1na2vs0mg"},{"bike_id":"51f32d2c-1879-464c-acba-93c57bc66ab6","system_id":"levelo_inurba_marseille","lat":43.29041,"lon":5.35915,"is_reserved":false,"is_disabled":true,"rental_uris":{"android":"levelo://app?vid=51f32d2c-1879-464c-acba-93c57bc66ab6","ios":"levelo://app?vid=51f32d2c-1879-464c-acba-93c57bc66ab6"},"vehicle_type_id":"4","last_reported":1744920675,"current_range_meters":17200,"station_id":"ce4bha92rcd13ifvqeg0","pricing_plan_id":"cebpf4jnsgd1na2vs0mg"},{"bike_id":"4cdeb94d-6b8c-4d5b-a59f-49def5ff14db","system_id":"levelo_inurba_marseille","lat":43.2749,"lon":5.42455,"is_reserved":false,"is_disabled":false,"rental_uris":{"android":"levelo://app?vid=4cdeb94d-6b8c-4d5b-a59f-49def5ff14db","ios":"levelo://app?vid=4cdeb94d-6b8c-4d5b-a59f-49def5ff14db"},"vehicle_type_id":"4","last_reported":1744920675,"current_range_meters":17200,"station_id":"ce4bhn92rcd13ifvqgrg","pricing_plan_id":"cebpf4jnsgd1na2vs0mg"},{"bike_id":"5ba7829e-1ef1-4ae5-a064-889b4bffd9e0","system_id":"levelo_inurba_marseille","lat":43.28077,"lon":5.39659,"is_reserved":false,"is_disabled":false,"rental_uris":{"android":"levelo://app?vid=5ba7829e-1ef1-4ae5-a064-889b4bffd9e0","ios":"levelo://app?vid=5ba7829e-1ef1-4ae5-a064-889b4bffd9e0"},"vehicle_type_id":"4","last_reported":1744920675,"current_range_meters":17200,"station_id":"ce4bho12rcd13ifvqh2g","pricing_plan_id":"cebpf4jnsgd1na2vs0mg"},{"bike_id":"934a8fc0-98f8-4aaf-a145-d485dee937c7","system_id":"levelo_inurba_marseille","lat":43.32354,"lon":5.36754,"is_reserved":false,"is_disabled":false,"rental_uris":{"android":"levelo://app?vid=934a8fc0-98f8-4aaf-a145-d485dee937c7","ios":"levelo://app?vid=934a8fc0-98f8-4aaf-a145-d485dee937c7"},"vehicle_type_id":"4","last_reported":1744920675,"current_range_meters":17200,"station_id":"ce4bhsh2rcd13ifvqi2g","pricing_plan_id":"cebpf4jnsgd1na2vs0mg"},{"bike_id":"3102fe5b-9726-4434-89d4-364e82bf2e9f","system_id":"levelo_inurba_marseille","lat":43.29419,"lon":5.38619,"is_reserved":false,"is_disabled":false,"rental_uris":{"android":"levelo://app?vid=3102fe5b-9726-4434-89d4-364e82bf2e9f","ios":"levelo://app?vid=3102fe5b-9726-4434-89d4-364e82bf2e9f"},"vehicle_type_id":"4","last_reported":1744920675,"current_range_meters":17600,"station_id":"ce4bh2h2rcd13ifvqdh0","pricing_plan_id":"cebpf4jnsgd1na2vs0mg"},{"bike_id":"ef6e9c6f-8f69-4fcf-9727-b556a001e5bc","system_id":"levelo_inurba_marseille","lat":43.29552,"lon":5.42301,"is_reserved":false,"is_disabled":false,"rental_uris":{"android":"levelo://app?vid=ef6e9c6f-8f69-4fcf-9727-b556a001e5bc","ios":"levelo://app?vid=ef6e9c6f-8f69-4fcf-9727-b556a001e5bc"},"vehicle_type_id":"4","last_reported":1744920675,"current_range_meters":17600,"station_id":"ce4bhph2rcd13ifvqhdg","pricing_plan_id":"cebpf4jnsgd1na2vs0mg"},{"bike_id":"33efbe4e-e642-4271-be29-4926b421ca5b","system_id":"levelo_inurba_marseille","lat":43.241627,"lon":5.363962,"is_reserved":false,"is_disabled":false,"rental_uris":{"android":"levelo://app?vid=33efbe4e-e642-4271-be29-4926b421ca5b","ios":"levelo://app?vid=33efbe4e-e642-4271-be29-4926b421ca5b"},"vehicle_type_id":"4","last_reported":1744920675,"current_range_meters":17600,"station_id":"cpo36qri1sfpv3e86is0","pricing_plan_id":"cebpf4jnsgd1na2vs0mg"},{"bike_id":"1bacd6f2-92a7-44cd-a9aa-80d5f49644c9","system_id":"levelo_inurba_marseille","lat":43.29509,"lon":5.39428,"is_reserved":false,"is_disabled":false,"rental_uris":{"android":"levelo://app?vid=1bacd6f2-92a7-44cd-a9aa-80d5f49644c9","ios":"levelo://app?vid=1bacd6f2-92a7-44cd-a9aa-80d5f49644c9"},"vehicle_type_id":"4","last_reported":1744920675,"current_range_meters":17600,"station_id":"ce4bh292rcd13ifvqdf0","pricing_plan_id":"cebpf4jnsgd1na2vs0mg"},{"bike_id":"7eb8853e-3665-40f5-8308-1299f0674652","system_id":"levelo_inurba_marseille","lat":43.30385,"lon":5.42455,"is_reserved":false,"is_disabled":false,"rental_uris":{"android":"levelo://app?vid=7eb8853e-3665-40f5-8308-1299f0674652","ios":"levelo://app?vid=7eb8853e-3665-40f5-8308-1299f0674652"},"vehicle_type_id":"4","last_reported":1744920675,"current_range_meters":17600,"station_id":"ce4bhoh2rcd13ifvqh6g","pricing_plan_id":"cebpf4jnsgd1na2vs0mg"},{"bike_id":"0e4796d5-2ff6-492f-b274-873781237fc6","system_id":"levelo_inurba_marseille","lat":43.310684,"lon":5.383596,"is_reserved":false,"is_disabled":false,"rental_uris":{"android":"levelo://app?vid=0e4796d5-2ff6-492f-b274-873781237fc6","ios":"levelo://app?vid=0e4796d5-2ff6-492f-b274-873781237fc6"},"vehicle_type_id":"4","last_reported":1744920675,"current_range_meters":17600,"station_id":"ce4bgv92rcd13ifvqcr0","pricing_plan_id":"cebpf4jnsgd1na2vs0mg"},{"bike_id":"50e158f1-c664-4946-b915-32b6ab01eb64","system_id":"levelo_inurba_marseille","lat":43.29025,"lon":5.38634,"is_reserved":false,"is_disabled":false,"rental_uris":{"android":"levelo://app?vid=50e158f1-c664-4946-b915-32b6ab01eb64","ios":"levelo://app?vid=50e158f1-c664-4946-b915-32b6ab01eb64"},"vehicle_type_id":"4","last_reported":1744920675,"current_range_meters":18000,"station_id":"ce4bh4p2rcd13ifvqe0g","pricing_plan_id":"cebpf4jnsgd1na2vs0mg"},{"bike_id":"b1ef82b0-7a77-4486-8ec7-83765358e14a","system_id":"levelo_inurba_marseille","lat":43.29009,"lon":5.38623,"is_reserved":false,"is_disabled":true,"rental_uris":{"android":"levelo://app?vid=b1ef82b0-7a77-4486-8ec7-83765358e14a","ios":"levelo://app?vid=b1ef82b0-7a77-4486-8ec7-83765358e14a"},"vehicle_type_id":"4","last_reported":1744920675,"current_range_meters":18000,"station_id":"ce4bh4p2rcd13ifvqe0g","pricing_plan_id":"cebpf4jnsgd1na2vs0mg"},{"bike_id":"68342d9f-f0b6-47e7-b690-b27078e67a77","system_id":"levelo_inurba_marseille","lat":43.24161,"lon":5.36398,"is_reserved":false,"is_disabled":false,"rental_uris":{"android":"levelo://app?vid=68342d9f-f0b6-47e7-b690-b27078e67a77","ios":"levelo://app?vid=68342d9f-f0b6-47e7-b690-b27078e67a77"},"vehicle_type_id":"4","last_reported":1744920675,"current_range_meters":18000,"station_id":"cpo36qri1sfpv3e86is0","pricing_plan_id":"cebpf4jnsgd1na2vs0mg"},{"bike_id":"ecf1b2ce-6838-4d42-ab1f-fc94cebd3b05","system_id":"levelo_inurba_marseille","lat":43.32362,"lon":5.38885,"is_reserved":false,"is_disabled":false,"rental_uris":{"android":"levelo://app?vid=ecf1b2ce-6838-4d42-ab1f-fc94cebd3b05","ios":"levelo://app?vid=ecf1b2ce-6838-4d42-ab1f-fc94cebd3b05"},"vehicle_type_id":"4","last_reported":1744920675,"current_range_meters":18000,"station_id":"ce4bhqp2rcd13ifvqhog","pricing_plan_id":"cebpf4jnsgd1na2vs0mg"},{"bike_id":"1eae06a0-1762-4e76-8997-af8f05f64b63","system_id":"levelo_inurba_marseille","lat":43.31067,"lon":5.38367,"is_reserved":false,"is_disabled":false,"rental_uris":{"android":"levelo://app?vid=1eae06a0-1762-4e76-8997-af8f05f64b63","ios":"levelo://app?vid=1eae06a0-1762-4e76-8997-af8f05f64b63"},"vehicle_type_id":"4","last_reported":1744920675,"current_range_meters":18000,"station_id":"ce4bgv92rcd13ifvqcr0","pricing_plan_id":"cebpf4jnsgd1na2vs0mg"},{"bike_id":"3910a374-2199-4e97-a483-65b2cd02ef4b","system_id":"levelo_inurba_marseille","lat":43.29274,"lon":5.38435,"is_reserved":false,"is_disabled":false,"rental_uris":{"android":"levelo://app?vid=3910a374-2199-4e97-a483-65b2cd02ef4b","ios":"levelo://app?vid=3910a374-2199-4e97-a483-65b2cd02ef4b"},"vehicle_type_id":"4","last_reported":1744920675,"current_range_meters":18000,"station_id":"ce4bh692rcd13ifvqea0","pricing_plan_id":"cebpf4jnsgd1na2vs0mg"},{"bike_id":"9d511047-95d1-4819-867c-d4153c74b4da","system_id":"levelo_inurba_marseille","lat":43.23954,"lon":5.36631,"is_reserved":false,"is_disabled":false,"rental_uris":{"android":"levelo://app?vid=9d511047-95d1-4819-867c-d4153c74b4da","ios":"levelo://app?vid=9d511047-95d1-4819-867c-d4153c74b4da"},"vehicle_type_id":"4","last_reported":1744920675,"current_range_meters":17600,"station_id":"ce4bhi12rcd13ifvqfp0","pricing_plan_id":"cebpf4jnsgd1na2vs0mg"},{"bike_id":"c6db62cb-16b6-493c-bec4-ce1143646f9a","system_id":"levelo_inurba_marseille","lat":43.29411,"lon":5.38633,"is_reserved":false,"is_disabled":false,"rental_uris":{"android":"levelo://app?vid=c6db62cb-16b6-493c-bec4-ce1143646f9a","ios":"levelo://app?vid=c6db62cb-16b6-493c-bec4-ce1143646f9a"},"vehicle_type_id":"4","last_reported":1744920675,"current_range_meters":18000,"station_id":"ce4bh2h2rcd13ifvqdh0","pricing_plan_id":"cebpf4jnsgd1na2vs0mg"},{"bike_id":"85ac49b9-718c-4937-ab2a-8e998e69b6ca","system_id":"levelo_inurba_marseille","lat":43.24364,"lon":5.37083,"is_reserved":false,"is_disabled":false,"rental_uris":{"android":"levelo://app?vid=85ac49b9-718c-4937-ab2a-8e998e69b6ca","ios":"levelo://app?vid=85ac49b9-718c-4937-ab2a-8e998e69b6ca"},"vehicle_type_id":"4","last_reported":1744920675,"current_range_meters":18000,"station_id":"ce4bhhh2rcd13ifvqfk0","pricing_plan_id":"cebpf4jnsgd1na2vs0mg"},{"bike_id":"fe0e2991-a9c9-492b-a6da-8518e9bb5b7b","system_id":"levelo_inurba_marseille","lat":43.27174,"lon":5.40999,"is_reserved":false,"is_disabled":false,"rental_uris":{"android":"levelo://app?vid=fe0e2991-a9c9-492b-a6da-8518e9bb5b7b","ios":"levelo://app?vid=fe0e2991-a9c9-492b-a6da-8518e9bb5b7b"},"vehicle_type_id":"4","last_reported":1744920675,"current_range_meters":18000,"station_id":"ce4bhl12rcd13ifvqgf0","pricing_plan_id":"cebpf4jnsgd1na2vs0mg"},{"bike_id":"f9d3fbe6-73e5-424e-af02-f446d5b07152","system_id":"levelo_inurba_marseille","lat":43.21745,"lon":5.34613,"is_reserved":false,"is_disabled":false,"rental_uris":{"android":"levelo://app?vid=f9d3fbe6-73e5-424e-af02-f446d5b07152","ios":"levelo://app?vid=f9d3fbe6-73e5-424e-af02-f446d5b07152"},"vehicle_type_id":"4","last_reported":1744920675,"current_range_meters":18000,"station_id":"st_cvj6r9ubvosntc0bgbag","pricing_plan_id":"cebpf4jnsgd1na2vs0mg"},{"bike_id":"8ceebc97-9c9d-492f-9325-378667f80c24","system_id":"levelo_inurba_marseille","lat":43.30892,"lon":5.39639,"is_reserved":false,"is_disabled":false,"rental_uris":{"android":"levelo://app?vid=8ceebc97-9c9d-492f-9325-378667f80c24","ios":"levelo://app?vid=8ceebc97-9c9d-492f-9325-378667f80c24"},"vehicle_type_id":"4","last_reported":1744920675,"current_range_meters":18000,"station_id":"ce4bh012rcd13ifvqcv0","pricing_plan_id":"cebpf4jnsgd1na2vs0mg"},{"bike_id":"dc27d6fe-2cb9-43dd-99f2-c5ea4128cce0","system_id":"levelo_inurba_marseille","lat":43.30158,"lon":5.39859,"is_reserved":false,"is_disabled":false,"rental_uris":{"android":"levelo://app?vid=dc27d6fe-2cb9-43dd-99f2-c5ea4128cce0","ios":"levelo://app?vid=dc27d6fe-2cb9-43dd-99f2-c5ea4128cce0"},"vehicle_type_id":"4","last_reported":1744920675,"current_range_meters":18800,"station_id":"ce4bh0h2rcd13ifvqd40","pricing_plan_id":"cebpf4jnsgd1na2vs0mg"},{"bike_id":"5fff52c8-9e0a-4796-8157-5e9b33779733","system_id":"levelo_inurba_marseille","lat":43.29866,"lon":5.397345,"is_reserved":false,"is_disabled":false,"rental_uris":{"android":"levelo://app?vid=5fff52c8-9e0a-4796-8157-5e9b33779733","ios":"levelo://app?vid=5fff52c8-9e0a-4796-8157-5e9b33779733"},"vehicle_type_id":"4","last_reported":1744920675,"current_range_meters":18800,"station_id":"ce4bhnh2rcd13ifvqgug","pricing_plan_id":"cebpf4jnsgd1na2vs0mg"},{"bike_id":"2caf335c-f925-41ec-8a54-af0cff9b64bd","system_id":"levelo_inurba_marseille","lat":43.2926,"lon":5.38433,"is_reserved":false,"is_disabled":false,"rental_uris":{"android":"levelo://app?vid=2caf335c-f925-41ec-8a54-af0cff9b64bd","ios":"levelo://app?vid=2caf335c-f925-41ec-8a54-af0cff9b64bd"},"vehicle_type_id":"4","last_reported":1744920675,"current_range_meters":18800,"station_id":"ce4bh692rcd13ifvqea0","pricing_plan_id":"cebpf4jnsgd1na2vs0mg"},{"bike_id":"789c3822-56ca-4769-bcd4-8845bdea2fda","system_id":"levelo_inurba_marseille","lat":43.24172,"lon":5.36383,"is_reserved":false,"is_disabled":false,"rental_uris":{"android":"levelo://app?vid=789c3822-56ca-4769-bcd4-8845bdea2fda","ios":"levelo://app?vid=789c3822-56ca-4769-bcd4-8845bdea2fda"},"vehicle_type_id":"4","last_reported":1744920675,"current_range_meters":18800,"station_id":"cpo36qri1sfpv3e86is0","pricing_plan_id":"cebpf4jnsgd1na2vs0mg"},{"bike_id":"ff96835c-783c-4487-972f-a0bd821a79f7","system_id":"levelo_inurba_marseille","lat":43.31074,"lon":5.38337,"is_reserved":false,"is_disabled":false,"rental_uris":{"android":"levelo://app?vid=ff96835c-783c-4487-972f-a0bd821a79f7","ios":"levelo://app?vid=ff96835c-783c-4487-972f-a0bd821a79f7"},"vehicle_type_id":"4","last_reported":1744920675,"current_range_meters":18800,"station_id":"ce4bgv92rcd13ifvqcr0","pricing_plan_id":"cebpf4jnsgd1na2vs0mg"},{"bike_id":"e15fbfa0-3c3f-4a80-9206-2c06f287b4eb","system_id":"levelo_inurba_marseille","lat":43.31165,"lon":5.38712,"is_reserved":false,"is_disabled":false,"rental_uris":{"android":"levelo://app?vid=e15fbfa0-3c3f-4a80-9206-2c06f287b4eb","ios":"levelo://app?vid=e15fbfa0-3c3f-4a80-9206-2c06f287b4eb"},"vehicle_type_id":"4","last_reported":1744920675,"current_range_meters":18000,"station_id":"ce4bgv12rcd13ifvqcp0","pricing_plan_id":"cebpf4jnsgd1na2vs0mg"},{"bike_id":"b21a458a-57b0-40a1-a144-c328c9be7ef6","system_id":"levelo_inurba_marseille","lat":43.310787,"lon":5.3836,"is_reserved":false,"is_disabled":false,"rental_uris":{"android":"levelo://app?vid=b21a458a-57b0-40a1-a144-c328c9be7ef6","ios":"levelo://app?vid=b21a458a-57b0-40a1-a144-c328c9be7ef6"},"vehicle_type_id":"4","last_reported":1744920675,"current_range_meters":18800,"station_id":"ce4bgv92rcd13ifvqcr0","pricing_plan_id":"cebpf4jnsgd1na2vs0mg"},{"bike_id":"ecd9b5fe-4b17-4d30-a270-9ff21e0a9ad2","system_id":"levelo_inurba_marseille","lat":43.24168,"lon":5.36398,"is_reserved":false,"is_disabled":false,"rental_uris":{"android":"levelo://app?vid=ecd9b5fe-4b17-4d30-a270-9ff21e0a9ad2","ios":"levelo://app?vid=ecd9b5fe-4b17-4d30-a270-9ff21e0a9ad2"},"vehicle_type_id":"4","last_reported":1744920675,"current_range_meters":18800,"station_id":"cpo36qri1sfpv3e86is0","pricing_plan_id":"cebpf4jnsgd1na2vs0mg"},{"bike_id":"3efba3c6-091f-42f0-a6b1-6019d320c613","system_id":"levelo_inurba_marseille","lat":43.30396,"lon":5.3976,"is_reserved":false,"is_disabled":true,"rental_uris":{"android":"levelo://app?vid=3efba3c6-091f-42f0-a6b1-6019d320c613","ios":"levelo://app?vid=3efba3c6-091f-42f0-a6b1-6019d320c613"},"vehicle_type_id":"4","last_reported":1744920675,"current_range_meters":19200,"station_id":"ce4bh092rcd13ifvqd20","pricing_plan_id":"cebpf4jnsgd1na2vs0mg"},{"bike_id":"d0c391d8-8b9b-440c-b68b-1528bb943556","system_id":"levelo_inurba_marseille","lat":43.28399,"lon":5.35017,"is_reserved":false,"is_disabled":false,"rental_uris":{"android":"levelo://app?vid=d0c391d8-8b9b-440c-b68b-1528bb943556","ios":"levelo://app?vid=d0c391d8-8b9b-440c-b68b-1528bb943556"},"vehicle_type_id":"4","last_reported":1744920675,"current_range_meters":19200,"station_id":"ce4bhbh2rcd13ifvqepg","pricing_plan_id":"cebpf4jnsgd1na2vs0mg"},{"bike_id":"9e6be64f-f795-43d2-bb10-c23f47531980","system_id":"levelo_inurba_marseille","lat":43.24385,"lon":5.37061,"is_reserved":false,"is_disabled":false,"rental_uris":{"android":"levelo://app?vid=9e6be64f-f795-43d2-bb10-c23f47531980","ios":"levelo://app?vid=9e6be64f-f795-43d2-bb10-c23f47531980"},"vehicle_type_id":"4","last_reported":1744920675,"current_range_meters":19200,"station_id":"ce4bhhh2rcd13ifvqfk0","pricing_plan_id":"cebpf4jnsgd1na2vs0mg"},{"bike_id":"5c82fdb9-0456-42f0-86fc-1c03220b7c47","system_id":"levelo_inurba_marseille","lat":43.25121,"lon":5.40319,"is_reserved":false,"is_disabled":false,"rental_uris":{"android":"levelo://app?vid=5c82fdb9-0456-42f0-86fc-1c03220b7c47","ios":"levelo://app?vid=5c82fdb9-0456-42f0-86fc-1c03220b7c47"},"vehicle_type_id":"4","last_reported":1744920675,"current_range_meters":19200,"station_id":"ce4bhlh2rcd13ifvqgig","pricing_plan_id":"cebpf4jnsgd1na2vs0mg"},{"bike_id":"54eea919-f98e-4975-88d5-75e667da928e","system_id":"levelo_inurba_marseille","lat":43.31072,"lon":5.3835,"is_reserved":false,"is_disabled":false,"rental_uris":{"android":"levelo://app?vid=54eea919-f98e-4975-88d5-75e667da928e","ios":"levelo://app?vid=54eea919-f98e-4975-88d5-75e667da928e"},"vehicle_type_id":"4","last_reported":1744920675,"current_range_meters":19200,"station_id":"ce4bgv92rcd13ifvqcr0","pricing_plan_id":"cebpf4jnsgd1na2vs0mg"},{"bike_id":"ebc48af6-5fb6-42a9-ab24-dd85f7014407","system_id":"levelo_inurba_marseille","lat":43.31054,"lon":5.38349,"is_reserved":false,"is_disabled":false,"rental_uris":{"android":"levelo://app?vid=ebc48af6-5fb6-42a9-ab24-dd85f7014407","ios":"levelo://app?vid=ebc48af6-5fb6-42a9-ab24-dd85f7014407"},"vehicle_type_id":"4","last_reported":1744920675,"current_range_meters":19200,"station_id":"ce4bgv92rcd13ifvqcr0","pricing_plan_id":"cebpf4jnsgd1na2vs0mg"},{"bike_id":"cae8908b-88b9-4ff6-9a08-18398f6fd7a9","system_id":"levelo_inurba_marseille","lat":43.29793,"lon":5.38111,"is_reserved":false,"is_disabled":false,"rental_uris":{"android":"levelo://app?vid=cae8908b-88b9-4ff6-9a08-18398f6fd7a9","ios":"levelo://app?vid=cae8908b-88b9-4ff6-9a08-18398f6fd7a9"},"vehicle_type_id":"4","last_reported":1744920675,"current_range_meters":19200,"station_id":"ce4bgip2rcd13ifvqbb0","pricing_plan_id":"cebpf4jnsgd1na2vs0mg"},{"bike_id":"8ecf4e01-d2fb-40fe-8ca8-cc87934d5b6e","system_id":"levelo_inurba_marseille","lat":43.25033,"lon":5.38952,"is_reserved":false,"is_disabled":false,"rental_uris":{"android":"levelo://app?vid=8ecf4e01-d2fb-40fe-8ca8-cc87934d5b6e","ios":"levelo://app?vid=8ecf4e01-d2fb-40fe-8ca8-cc87934d5b6e"},"vehicle_type_id":"4","last_reported":1744920675,"current_range_meters":19200,"station_id":"ce4bhgp2rcd13ifvqfd0","pricing_plan_id":"cebpf4jnsgd1na2vs0mg"},{"bike_id":"07006dad-1eac-4c5b-8e9f-977d282a6f86","system_id":"levelo_inurba_marseille","lat":43.30714,"lon":5.42357,"is_reserved":false,"is_disabled":false,"rental_uris":{"android":"levelo://app?vid=07006dad-1eac-4c5b-8e9f-977d282a6f86","ios":"levelo://app?vid=07006dad-1eac-4c5b-8e9f-977d282a6f86"},"vehicle_type_id":"4","last_reported":1744920675,"current_range_meters":19200,"station_id":"st_cvj6ca6bvosntc0bfgr0","pricing_plan_id":"cebpf4jnsgd1na2vs0mg"},{"bike_id":"cf331bf8-fc98-4483-8e8a-1b66059f1c4b","system_id":"levelo_inurba_marseille","lat":43.302172,"lon":5.394639,"is_reserved":false,"is_disabled":false,"rental_uris":{"android":"levelo://app?vid=cf331bf8-fc98-4483-8e8a-1b66059f1c4b","ios":"levelo://app?vid=cf331bf8-fc98-4483-8e8a-1b66059f1c4b"},"vehicle_type_id":"4","last_reported":1744920675,"current_range_meters":19200,"station_id":"ce4bh0p2rcd13ifvqd70","pricing_plan_id":"cebpf4jnsgd1na2vs0mg"},{"bike_id":"c65f8f12-9a27-45f2-82ee-98fa61f68e7f","system_id":"levelo_inurba_marseille","lat":43.29898,"lon":5.37498,"is_reserved":false,"is_disabled":false,"rental_uris":{"android":"levelo://app?vid=c65f8f12-9a27-45f2-82ee-98fa61f68e7f","ios":"levelo://app?vid=c65f8f12-9a27-45f2-82ee-98fa61f68e7f"},"vehicle_type_id":"4","last_reported":1744920675,"current_range_meters":19600,"station_id":"ce4bgjh2rcd13ifvqbg0","pricing_plan_id":"cebpf4jnsgd1na2vs0mg"},{"bike_id":"262abcab-2c96-4ea9-a389-90486fb00d50","system_id":"levelo_inurba_marseille","lat":43.29864,"lon":5.39733,"is_reserved":false,"is_disabled":false,"rental_uris":{"android":"levelo://app?vid=262abcab-2c96-4ea9-a389-90486fb00d50","ios":"levelo://app?vid=262abcab-2c96-4ea9-a389-90486fb00d50"},"vehicle_type_id":"4","last_reported":1744920675,"current_range_meters":19600,"station_id":"ce4bh0h2rcd13ifvqd50","pricing_plan_id":"cebpf4jnsgd1na2vs0mg"},{"bike_id":"f1d513e7-93f2-472b-b840-4c42490aad95","system_id":"levelo_inurba_marseille","lat":43.241666,"lon":5.363875,"is_reserved":false,"is_disabled":false,"rental_uris":{"android":"levelo://app?vid=f1d513e7-93f2-472b-b840-4c42490aad95","ios":"levelo://app?vid=f1d513e7-93f2-472b-b840-4c42490aad95"},"vehicle_type_id":"4","last_reported":1744920675,"current_range_meters":19600,"station_id":"cpo36qri1sfpv3e86is0","pricing_plan_id":"cebpf4jnsgd1na2vs0mg"},{"bike_id":"c5f31105-ca67-4e5e-b659-5a8e76a77791","system_id":"levelo_inurba_marseille","lat":43.28945,"lon":5.366422,"is_reserved":false,"is_disabled":false,"rental_uris":{"android":"levelo://app?vid=c5f31105-ca67-4e5e-b659-5a8e76a77791","ios":"levelo://app?vid=c5f31105-ca67-4e5e-b659-5a8e76a77791"},"vehicle_type_id":"4","last_reported":1744920675,"current_range_meters":19600,"station_id":"ce4bhap2rcd13ifvqek0","pricing_plan_id":"cebpf4jnsgd1na2vs0mg"},{"bike_id":"3ce2c4df-0c59-4f23-bc1b-356dff9697c9","system_id":"levelo_inurba_marseille","lat":43.3136,"lon":5.38482,"is_reserved":false,"is_disabled":false,"rental_uris":{"android":"levelo://app?vid=3ce2c4df-0c59-4f23-bc1b-356dff9697c9","ios":"levelo://app?vid=3ce2c4df-0c59-4f23-bc1b-356dff9697c9"},"vehicle_type_id":"4","last_reported":1744920675,"current_range_meters":19600,"station_id":"ce4bgt92rcd13ifvqcf0","pricing_plan_id":"cebpf4jnsgd1na2vs0mg"},{"bike_id":"9eab25df-b832-45e9-b28e-67afe8cbbca2","system_id":"levelo_inurba_marseille","lat":43.28407,"lon":5.3751,"is_reserved":false,"is_disabled":false,"rental_uris":{"android":"levelo://app?vid=9eab25df-b832-45e9-b28e-67afe8cbbca2","ios":"levelo://app?vid=9eab25df-b832-45e9-b28e-67afe8cbbca2"},"vehicle_type_id":"4","last_reported":1744920675,"current_range_meters":20000,"station_id":"ce4bh412rcd13ifvqds0","pricing_plan_id":"cebpf4jnsgd1na2vs0mg"},{"bike_id":"49d9af22-18ea-4292-b6f4-b98e41b6154d","system_id":"levelo_inurba_marseille","lat":43.29024,"lon":5.3864,"is_reserved":false,"is_disabled":false,"rental_uris":{"android":"levelo://app?vid=49d9af22-18ea-4292-b6f4-b98e41b6154d","ios":"levelo://app?vid=49d9af22-18ea-4292-b6f4-b98e41b6154d"},"vehicle_type_id":"4","last_reported":1744920675,"current_range_meters":20000,"station_id":"ce4bh4p2rcd13ifvqe0g","pricing_plan_id":"cebpf4jnsgd1na2vs0mg"},{"bike_id":"5bc62b94-3f03-4514-b736-95177e3ea373","system_id":"levelo_inurba_marseille","lat":43.28707,"lon":5.39987,"is_reserved":false,"is_disabled":false,"rental_uris":{"android":"levelo://app?vid=5bc62b94-3f03-4514-b736-95177e3ea373","ios":"levelo://app?vid=5bc62b94-3f03-4514-b736-95177e3ea373"},"vehicle_type_id":"4","last_reported":1744920675,"current_range_meters":20000,"station_id":"ce4bho92rcd13ifvqh3g","pricing_plan_id":"cebpf4jnsgd1na2vs0mg"},{"bike_id":"cae77720-4e05-43c1-81a7-1ef3c41feaeb","system_id":"levelo_inurba_marseille","lat":43.3211,"lon":5.36783,"is_reserved":false,"is_disabled":false,"rental_uris":{"android":"levelo://app?vid=cae77720-4e05-43c1-81a7-1ef3c41feaeb","ios":"levelo://app?vid=cae77720-4e05-43c1-81a7-1ef3c41feaeb"},"vehicle_type_id":"4","last_reported":1744920675,"current_range_meters":20000,"station_id":"ce4bhrh2rcd13ifvqhug","pricing_plan_id":"cebpf4jnsgd1na2vs0mg"},{"bike_id":"747704aa-c7c0-4888-abf7-9b9d7e0a25db","system_id":"levelo_inurba_marseille","lat":43.3151,"lon":5.37298,"is_reserved":false,"is_disabled":false,"rental_uris":{"android":"levelo://app?vid=747704aa-c7c0-4888-abf7-9b9d7e0a25db","ios":"levelo://app?vid=747704aa-c7c0-4888-abf7-9b9d7e0a25db"},"vehicle_type_id":"4","last_reported":1744920675,"current_range_meters":20000,"station_id":"ce4bgt12rcd13ifvqcd0","pricing_plan_id":"cebpf4jnsgd1na2vs0mg"},{"bike_id":"961876eb-55f2-41a1-a0ed-7fa4bc5f6eb2","system_id":"levelo_inurba_marseille","lat":43.27056,"lon":5.42275,"is_reserved":false,"is_disabled":false,"rental_uris":{"android":"levelo://app?vid=961876eb-55f2-41a1-a0ed-7fa4bc5f6eb2","ios":"levelo://app?vid=961876eb-55f2-41a1-a0ed-7fa4bc5f6eb2"},"vehicle_type_id":"4","last_reported":1744920675,"current_range_meters":20000,"station_id":"ce4bhk92rcd13ifvqgb0","pricing_plan_id":"cebpf4jnsgd1na2vs0mg"},{"bike_id":"044f6785-0e94-4d33-b79a-26d70dd9d306","system_id":"levelo_inurba_marseille","lat":43.258586,"lon":5.399089,"is_reserved":false,"is_disabled":true,"rental_uris":{"android":"levelo://app?vid=044f6785-0e94-4d33-b79a-26d70dd9d306","ios":"levelo://app?vid=044f6785-0e94-4d33-b79a-26d70dd9d306"},"vehicle_type_id":"4","last_reported":1744920675,"current_range_meters":20400,"station_id":"ce4bhl92rcd13ifvqghg","pricing_plan_id":"cebpf4jnsgd1na2vs0mg"},{"bike_id":"91aa591a-3e56-4092-a295-ecb6aebe69eb","system_id":"levelo_inurba_marseille","lat":43.22492,"lon":5.34783,"is_reserved":false,"is_disabled":false,"rental_uris":{"android":"levelo://app?vid=91aa591a-3e56-4092-a295-ecb6aebe69eb","ios":"levelo://app?vid=91aa591a-3e56-4092-a295-ecb6aebe69eb"},"vehicle_type_id":"4","last_reported":1744920675,"current_range_meters":20400,"station_id":"st_cvj5dfep6f1abm77gieg","pricing_plan_id":"cebpf4jnsgd1na2vs0mg"},{"bike_id":"aea2afb6-112e-4c3a-968a-5eb5aa77e9be","system_id":"levelo_inurba_marseille","lat":43.21186,"lon":5.35083,"is_reserved":false,"is_disabled":false,"rental_uris":{"android":"levelo://app?vid=aea2afb6-112e-4c3a-968a-5eb5aa77e9be","ios":"levelo://app?vid=aea2afb6-112e-4c3a-968a-5eb5aa77e9be"},"vehicle_type_id":"4","last_reported":1744920675,"current_range_meters":20400,"station_id":"st_cvj6sg6p6f1abm77japg","pricing_plan_id":"cebpf4jnsgd1na2vs0mg"},{"bike_id":"5db7c5ab-73d5-47e4-9713-3ef31de4325c","system_id":"levelo_inurba_marseille","lat":43.30775,"lon":5.37324,"is_reserved":false,"is_disabled":false,"rental_uris":{"android":"levelo://app?vid=5db7c5ab-73d5-47e4-9713-3ef31de4325c","ios":"levelo://app?vid=5db7c5ab-73d5-47e4-9713-3ef31de4325c"},"vehicle_type_id":"4","last_reported":1744920675,"current_range_meters":20400,"station_id":"","pricing_plan_id":"cebpf4jnsgd1na2vs0mg"},{"bike_id":"ec69176d-5a05-4ba6-905c-d6d47b43f906","system_id":"levelo_inurba_marseille","lat":43.293,"lon":5.37177,"is_reserved":false,"is_disabled":false,"rental_uris":{"android":"levelo://app?vid=ec69176d-5a05-4ba6-905c-d6d47b43f906","ios":"levelo://app?vid=ec69176d-5a05-4ba6-905c-d6d47b43f906"},"vehicle_type_id":"4","last_reported":1744920675,"current_range_meters":20400,"station_id":"ce4bgh92rcd13ifvqb40","pricing_plan_id":"cebpf4jnsgd1na2vs0mg"},{"bike_id":"4c05fc04-5a3e-4846-ae6c-06609c17f5be","system_id":"levelo_inurba_marseille","lat":43.26225,"lon":5.40453,"is_reserved":false,"is_disabled":false,"rental_uris":{"android":"levelo://app?vid=4c05fc04-5a3e-4846-ae6c-06609c17f5be","ios":"levelo://app?vid=4c05fc04-5a3e-4846-ae6c-06609c17f5be"},"vehicle_type_id":"4","last_reported":1744920675,"current_range_meters":20400,"station_id":"ce4bhmh2rcd13ifvqgmg","pricing_plan_id":"cebpf4jnsgd1na2vs0mg"},