{"last_updated":1713816499,"ttl":30,"version":"2.2","data":{"bikes":[{"bike_id":"7929c3f1-8e79-468d-b4f5-f1053d0dbe99","system_id":"levelo_inurba_marseille","lat":43.314811,"lon":5.373103,"is_reserved":false,"is_disabled":false,"rental_uris":{"android":"levelo://app?vid=7929c3f1-8e79-468d-b4f5-f1053d0dbe99","ios":"levelo://app?vid=7929c3f1-8e79-468d-b4f5-f1053d0dbe99"},"vehicle_type_id":"4","last_reported":1713816499,"current_range_meters":21200,"station_id":"ce4bgt12rcd13ifvqcd0","pricing_plan_id":"cebpf4jnsgd1na2vs0mg"},{"bike_id":"86fd9595-880c-4693-a25e-e2165167ddc2","system_id":"levelo_inurba_marseille","lat":43.309034,"lon":5.371783,"is_reserved":false,"is_disabled":false,"rental_uris":{"android":"levelo://app?vid=86fd9595-880c-4693-a25e-e2165167ddc2","ios":"levelo://app?vid=86fd9595-880c-4693-a25e-e2165167ddc2"},"vehicle_type_id":"4","last_reported":1713816499,"current_range_meters":16400,"station_id":"ce4bguh2rcd13ifvqckg","pricing_plan_id":"cebpf4jnsgd1na2vs0mg"},{"bike_id":"01297242-f819-4e00-9e6e-24e4b3ee8d60","system_id":"levelo_inurba_marseille","lat":43.308854,"lon":5.372039,"is_reserved":false,"is_disabled":false,"rental_uris":{"android":"levelo://app?vid=01297242-f819-4e00-9e6e-24e4b3ee8d60","ios":"levelo://app?vid=01297242-f819-4e00-9e6e-24e4b3ee8d60"},"vehicle_type_id":"4","last_reported":1713816499,"current_range_meters":18800,"station_id":"ce4bguh2rcd13ifvqckg","pricing_plan_id":"cebpf4jnsgd1na2vs0mg"},{"bike_id":"f3c8e660-adb7-448d-9d5d-55a0433da1f6","system_id":"levelo_inurba_marseille","lat":43.309039,"lon":5.371797,"is_reserved":false,"is_disabled":false,"rental_uris":{"android":"levelo://app?vid=f3c8e660-adb7-448d-9d5d-55a0433da1f6","ios":"levelo://app?vid=f3c8e660-adb7-448d-9d5d-55a0433da1f6"},"vehicle_type_id":"4","last_reported":1713816499,"current_range_meters":23200,"station_id":"ce4bguh2rcd13ifvqckg","pricing_plan_id":"cebpf4jnsgd1na2vs0mg"},{"bike_id":"ab59b42d-9902-43ae-b922-515b9d38cf3e","system_id":"levelo_inurba_marseille","lat":43.309039,"lon":5.371797,"is_reserved":false,"is_disabled":false,"rental_uris":{"android":"levelo://app?vid=ab59b42d-9902-43ae-b922-515b9d38cf3e","ios":"levelo://app?vid=ab59b42d-9902-43ae-b922-515b9d38cf3e"},"vehicle_type_id":"4","last_reported":1713816499,"current_range_meters":18400,"station_id":"ce4bguh2rcd13ifvqckg","pricing_plan_id":"cebpf4jnsgd1na2vs0mg"},{"bike_id":"58af6cf7-b2ef-47fc-860e-a9d856175888","system_id":"levelo_inurba_marseille","lat":43.305368,"lon":5.367343,"is_reserved":false,"is_disabled":false,"rental_uris":{"android":"levelo://app?vid=58af6cf7-b2ef-47fc-860e-a9d856175888","ios":"levelo://app?vid=58af6cf7-b2ef-47fc-860e-a9d856175888"},"vehicle_type_id":"4","last_reported":1713816499,"current_range_meters":15200,"station_id":"ce4bgrp2rcd13ifvqc9g","pricing_plan_id":"cebpf4jnsgd1na2vs0mg"},{"bike_id":"513fef96-f618-4646-8bf7-e5cb76bb36c9","system_id":"levelo_inurba_marseille","lat":43.305706,"lon":5.365654,"is_reserved":false,"is_disabled":false,"rental_uris":{"android":"levelo://app?vid=513fef96-f618-4646-8bf7-e5cb76bb36c9","ios":"levelo://app?vid=513fef96-f618-4646-8bf7-e5cb76bb36c9"},"vehicle_type_id":"4","last_reported":1713816499,"current_range_meters":1600,"station_id":"ce4bgs12rcd13ifvqcag","pricing_plan_id":"cebpf4jnsgd1na2vs0mg"},{"bike_id":"ed5eab22-9b68-4b64-8470-a9a37758d950","system_id":"levelo_inurba_marseille","lat":43.305989,"lon":5.37225,"is_reserved":false,"is_disabled":false,"rental_uris":{"android":"levelo://app?vid=ed5eab22-9b68-4b64-8470-a9a37758d950","ios":"levelo://app?vid=ed5eab22-9b68-4b64-8470-a9a37758d950"},"vehicle_type_id":"4","last_reported":1713816499,"current_range_meters":31600,"station_id":"ce4bgqh2rcd13ifvqc4g","pricing_plan_id":"cebpf4jnsgd1na2vs0mg"},{"bike_id":"0fb83330-f1aa-4b50-8a53-ed6e11df466b","system_id":"levelo_inurba_marseille","lat":43.305989,"lon":5.37225,"is_reserved":false,"is_disabled":false,"rental_uris":{"android":"levelo://app?vid=0fb83330-f1aa-4b50-8a53-ed6e11df466b","ios":"levelo://app?vid=0fb83330-f1aa-4b50-8a53-ed6e11df466b"},"vehicle_type_id":"4","last_reported":1713816499,"current_range_meters":16000,"station_id":"ce4bgqh2rcd13ifvqc4g","pricing_plan_id":"cebpf4jnsgd1na2vs0mg"},{"bike_id":"7e96b56b-3613-4f12-a256-540e4ce354e9","system_id":"levelo_inurba_marseille","lat":43.305989,"lon":5.37225,"is_reserved":false,"is_disabled":false,"rental_uris":{"android":"levelo://app?vid=7e96b56b-3613-4f12-a256-540e4ce354e9","ios":"levelo://app?vid=7e96b56b-3613-4f12-a256-540e4ce354e9"},"vehicle_type_id":"4","last_reported":1713816499,"current_range_meters":31200,"station_id":"ce4bgqh2rcd13ifvqc4g","pricing_plan_id":"cebpf4jnsgd1na2vs0mg"},{"bike_id":"2f59b75e-3221-4210-b67a-2c2bd030b7fc","system_id":"levelo_inurba_marseille","lat":43.305989,"lon":5.37225,"is_reserved":false,"is_disabled":false,"rental_uris":{"android":"levelo://app?vid=2f59b75e-3221-4210-b67a-2c2bd030b7fc","ios":"levelo://app?vid=2f59b75e-3221-4210-b67a-2c2bd030b7fc"},"vehicle_type_id":"4","last_reported":1713816499,"current_range_meters":17600,"station_id":"ce4bgqh2rcd13ifvqc4g","pricing_plan_id":"cebpf4jnsgd1na2vs0mg"},{"bike_id":"9ad04985-19b3-411b-9d37-d39d66559013","system_id":"levelo_inurba_marseille","lat":43.305989,"lon":5.37225,"is_reserved":false,"is_disabled":false,"rental_uris":{"android":"levelo://app?vid=9ad04985-19b3-411b-9d37-d39d66559013","ios":"levelo://app?vid=9ad04985-19b3-411b-9d37-d39d66559013"},"vehicle_type_id":"4","last_reported":1713816499,"current_range_meters":31600,"station_id":"ce4bgqh2rcd13ifvqc4g","pricing_plan_id":"cebpf4jnsgd1na2vs0mg"},{"bike_id":"71339a0a-08ec-4af2-bb75-3a1a55362bf3","system_id":"levelo_inurba_marseille","lat":43.305996,"lon":5.372407,"is_reserved":false,"is_disabled":false,"rental_uris":{"android":"levelo://app?vid=71339a0a-08ec-4af2-bb75-3a1a55362bf3","ios":"levelo://app?vid=71339a0a-08ec-4af2-bb75-3a1a55362bf3"},"vehicle_type_id":"4","last_reported":1713816499,"current_range_meters":5200,"station_id":"ce4bgqh2rcd13ifvqc4g","pricing_plan_id":"cebpf4jnsgd1na2vs0mg"},{"bike_id":"d4eb8c8b-5f5f-4917-b4b4-3e5b23cd30e6","system_id":"levelo_inurba_marseille","lat":43.311108,"lon":5.377626,"is_reserved":false,"is_disabled":false,"rental_uris":{"android":"levelo://app?vid=d4eb8c8b-5f5f-4917-b4b4-3e5b23cd30e6","ios":"levelo://app?vid=d4eb8c8b-5f5f-4917-b4b4-3e5b23cd30e6"},"vehicle_type_id":"4","last_reported":1713816499,"current_range_meters":8400,"station_id":"ce4bgt92rcd13ifvqcg0","pricing_plan_id":"cebpf4jnsgd1na2vs0mg"},{"bike_id":"9e7fa7fa-e832-4a66-9ea8-a96a9a07110c","system_id":"levelo_inurba_marseille","lat":43.31116,"lon":5.37766,"is_reserved":false,"is_disabled":false,"rental_uris":{"android":"levelo://app?vid=9e7fa7fa-e832-4a66-9ea8-a96a9a07110c","ios":"levelo://app?vid=9e7fa7fa-e832-4a66-9ea8-a96a9a07110c"},"vehicle_type_id":"4","last_reported":1713816499,"current_range_meters":1200,"station_id":"ce4bgt92rcd13ifvqcg0","pricing_plan_id":"cebpf4jnsgd1na2vs0mg"},{"bike_id":"704f465e-073b-4f67-ae7e-676bb1da07e1","system_id":"levelo_inurba_marseille","lat":43.311125,"lon":5.377624,"is_reserved":false,"is_disabled":false,"rental_uris":{"android":"levelo://app?vid=704f465e-073b-4f67-ae7e-676bb1da07e1","ios":"levelo://app?vid=704f465e-073b-4f67-ae7e-676bb1da07e1"},"vehicle_type_id":"4","last_reported":1713816499,"current_range_meters":24000,"station_id":"ce4bgt92rcd13ifvqcg0","pricing_plan_id":"cebpf4jnsgd1na2vs0mg"},{"bike_id":"b0c32b44-feaf-435c-a091-c44b0cb45308","system_id":"levelo_inurba_marseille","lat":43.311125,"lon":5.377624,"is_reserved":false,"is_disabled":false,"rental_uris":{"android":"levelo://app?vid=b0c32b44-feaf-435c-a091-c44b0cb45308","ios":"levelo://app?vid=b0c32b44-feaf-435c-a091-c44b0cb45308"},"vehicle_type_id":"4","last_reported":1713816499,"current_range_meters":14800,"station_id":"ce4bgt92rcd13ifvqcg0","pricing_plan_id":"cebpf4jnsgd1na2vs0mg"},{"bike_id":"3323d6d1-2c29-498a-8296-4f9ee876f2f8","system_id":"levelo_inurba_marseille","lat":43.307945,"lon":5.376487,"is_reserved":false,"is_disabled":false,"rental_uris":{"android":"levelo://app?vid=3323d6d1-2c29-498a-8296-4f9ee876f2f8","ios":"levelo://app?vid=3323d6d1-2c29-498a-8296-4f9ee876f2f8"},"vehicle_type_id":"4","last_reported":1713816499,"current_range_meters":400,"station_id":"ce4bgv92rcd13ifvqcq0","pricing_plan_id":"cebpf4jnsgd1na2vs0mg"},{"bike_id":"1ab46602-bb84-4af3-9b14-417959bb5e64","system_id":"levelo_inurba_marseille","lat":43.307945,"lon":5.376487,"is_reserved":false,"is_disabled":false,"rental_uris":{"android":"levelo://app?vid=1ab46602-bb84-4af3-9b14-417959bb5e64","ios":"levelo://app?vid=1ab46602-bb84-4af3-9b14-417959bb5e64"},"vehicle_type_id":"4","last_reported":1713816499,"current_range_meters":22000,"station_id":"ce4bgv92rcd13ifvqcq0","pricing_plan_id":"cebpf4jnsgd1na2vs0mg"},{"bike_id":"8c4a9ef0-f0cc-43cf-a599-9ac6660df75d","system_id":"levelo_inurba_marseille","lat":43.307945,"lon":5.376487,"is_reserved":false,"is_disabled":false,"rental_uris":{"android":"levelo://app?vid=8c4a9ef0-f0cc-43cf-a599-9ac6660df75d","ios":"levelo://app?vid=8c4a9ef0-f0cc-43cf-a599-9ac6660df75d"},"vehicle_type_id":"4","last_reported":1713816499,"current_range_meters":7600,"station_id":"ce4bgv92rcd13ifvqcq0","pricing_plan_id":"cebpf4jnsgd1na2vs0mg"},{"bike_id":"2577fb2a-9dc6-4b39-abe2-3b818e9d97a9","system_id":"levelo_inurba_marseille","lat":43.30784,"lon":5.37657,"is_reserved":false,"is_disabled":false,"rental_uris":{"android":"levelo://app?vid=2577fb2a-9dc6-4b39-abe2-3b818e9d97a9","ios":"levelo://app?vid=2577fb2a-9dc6-4b39-abe2-3b818e9d97a9"},"vehicle_type_id":"4","last_reported":1713816499,"current_range_meters":400,"station_id":"ce4bgv92rcd13ifvqcq0","pricing_plan_id":"cebpf4jnsgd1na2vs0mg"},{"bike_id":"7bd9dcd7-cfa4-4720-b545-724872c01541","system_id":"levelo_inurba_marseille","lat":43.317075,"lon":5.377367,"is_reserved":false,"is_disabled":false,"rental_uris":{"android":"levelo://app?vid=7bd9dcd7-cfa4-4720-b545-724872c01541","ios":"levelo://app?vid=7bd9dcd7-cfa4-4720-b545-724872c01541"},"vehicle_type_id":"4","last_reported":1713816499,"current_range_meters":26000,"station_id":"ce4bgth2rcd13ifvqch0","pricing_plan_id":"cebpf4jnsgd1na2vs0mg"},{"bike_id":"924ffc8a-1da0-4137-8ddd-75062e3ec9e2","system_id":"levelo_inurba_marseille","lat":43.31705,"lon":5.37751,"is_reserved":false,"is_disabled":false,"rental_uris":{"android":"levelo://app?vid=924ffc8a-1da0-4137-8ddd-75062e3ec9e2","ios":"levelo://app?vid=924ffc8a-1da0-4137-8ddd-75062e3ec9e2"},"vehicle_type_id":"4","last_reported":1713816499,"current_range_meters":8400,"station_id":"ce4bgth2rcd13ifvqch0","pricing_plan_id":"cebpf4jnsgd1na2vs0mg"},{"bike_id":"3385ee2a-c550-4633-ade2-dfbb928c531a","system_id":"levelo_inurba_marseille","lat":43.317075,"lon":5.377367,"is_reserved":false,"is_disabled":false,"rental_uris":{"android":"levelo://app?vid=3385ee2a-c550-4633-ade2-dfbb928c531a","ios":"levelo://app?vid=3385ee2a-c550-4633-ade2-dfbb928c531a"},"vehicle_type_id":"4","last_reported":1713816499,"current_range_meters":31200,"station_id":"ce4bgth2rcd13ifvqch0","pricing_plan_id":"cebpf4jnsgd1na2vs0mg"},{"bike_id":"56b503c4-5488-4eaa-851e-cb5063c7be13","system_id":"levelo_inurba_marseille","lat":43.317075,"lon":5.377367,"is_reserved":false,"is_disabled":false,"rental_uris":{"android":"levelo://app?vid=56b503c4-5488-4eaa-851e-cb5063c7be13","ios":"levelo://app?vid=56b503c4-5488-4eaa-851e-cb5063c7be13"},"vehicle_type_id":"4","last_reported":1713816499,"current_range_meters":6000,"station_id":"ce4bgth2rcd13ifvqch0","pricing_plan_id":"cebpf4jnsgd1na2vs0mg"},{"bike_id":"aaf8d498-5549-4291-8c6d-8d9762700596","system_id":"levelo_inurba_marseille","lat":43.30143,"lon":5.37413,"is_reserved":false,"is_disabled":false,"rental_uris":{"android":"levelo://app?vid=aaf8d498-5549-4291-8c6d-8d9762700596","ios":"levelo://app?vid=aaf8d498-5549-4291-8c6d-8d9762700596"},"vehicle_type_id":"4","last_reported":1713816499,"current_range_meters":6800,"station_id":"ce4bgs92rcd13ifvqcc0","pricing_plan_id":"cebpf4jnsgd1na2vs0mg"},{"bike_id":"b15ef6e5-3a5b-45cf-bee8-70335f3d5f34","system_id":"levelo_inurba_marseille","lat":43.303,"lon":5.369053,"is_reserved":false,"is_disabled":false,"rental_uris":{"android":"levelo://app?vid=b15ef6e5-3a5b-45cf-bee8-70335f3d5f34","ios":"levelo://app?vid=b15ef6e5-3a5b-45cf-bee8-70335f3d5f34"},"vehicle_type_id":"4","last_reported":1713816499,"current_range_meters":31200,"station_id":"ce4bgqh2rcd13ifvqc5g","pricing_plan_id":"cebpf4jnsgd1na2vs0mg"},{"bike_id":"04a52809-4714-4f3c-866f-faa7c2ffb546","system_id":"levelo_inurba_marseille","lat":43.315289,"lon":5.380349,"is_reserved":false,"is_disabled":false,"rental_uris":{"android":"levelo://app?vid=04a52809-4714-4f3c-866f-faa7c2ffb546","ios":"levelo://app?vid=04a52809-4714-4f3c-866f-faa7c2ffb546"},"vehicle_type_id":"4","last_reported":1713816499,"current_range_meters":0,"station_id":"ce4bhsp2rcd13ifvqi50","pricing_plan_id":"cebpf4jnsgd1na2vs0mg"},{"bike_id":"3fe57c5f-ad80-4997-b059-460e086c908f","system_id":"levelo_inurba_marseille","lat":43.315289,"lon":5.380349,"is_reserved":false,"is_disabled":false,"rental_uris":{"android":"levelo://app?vid=3fe57c5f-ad80-4997-b059-460e086c908f","ios":"levelo://app?vid=3fe57c5f-ad80-4997-b059-460e086c908f"},"vehicle_type_id":"4","last_reported":1713816499,"current_range_meters":27600,"station_id":"ce4bhsp2rcd13ifvqi50","pricing_plan_id":"cebpf4jnsgd1na2vs0mg"},{"bike_id":"a9e8ec94-fa8e-4599-a1e2-aca13c0d132e","system_id":"levelo_inurba_marseille","lat":43.315289,"lon":5.380349,"is_reserved":false,"is_disabled":false,"rental_uris":{"android":"levelo://app?vid=a9e8ec94-fa8e-4599-a1e2-aca13c0d132e","ios":"levelo://app?vid=a9e8ec94-fa8e-4599-a1e2-aca13c0d132e"},"vehicle_type_id":"4","last_reported":1713816499,"current_range_meters":15200,"station_id":"ce4bhsp2rcd13ifvqi50","pricing_plan_id":"cebpf4jnsgd1na2vs0mg"},{"bike_id":"cf8ba942-38b6-49bf-a232-6f94025c7074","system_id":"levelo_inurba_marseille","lat":43.315293,"lon":5.380349,"is_reserved":false,"is_disabled":false,"rental_uris":{"android":"levelo://app?vid=cf8ba942-38b6-49bf-a232-6f94025c7074","ios":"levelo://app?vid=cf8ba942-38b6-49bf-a232-6f94025c7074"},"vehicle_type_id":"4","last_reported":1713816499,"current_range_meters":25200,"station_id":"ce4bhsp2rcd13ifvqi50","pricing_plan_id":"cebpf4jnsgd1na2vs0mg"},{"bike_id":"25d3b51a-ac6d-477a-bf4f-16b642a53050","system_id":"levelo_inurba_marseille","lat":43.30661,"lon":5.3803,"is_reserved":false,"is_disabled":false,"rental_uris":{"android":"levelo://app?vid=25d3b51a-ac6d-477a-bf4f-16b642a53050","ios":"levelo://app?vid=25d3b51a-ac6d-477a-bf4f-16b642a53050"},"vehicle_type_id":"4","last_reported":1713816499,"current_range_meters":13600,"station_id":"","pricing_plan_id":"cebpf4jnsgd1na2vs0mg"},{"bike_id":"07ab0ee4-6d3c-413e-84dc-c5ab6c61caf3","system_id":"levelo_inurba_marseille","lat":43.308012,"lon":5.381511,"is_reserved":false,"is_disabled":false,"rental_uris":{"android":"levelo://app?vid=07ab0ee4-6d3c-413e-84dc-c5ab6c61caf3","ios":"levelo://app?vid=07ab0ee4-6d3c-413e-84dc-c5ab6c61caf3"},"vehicle_type_id":"4","last_reported":1713816499,"current_range_meters":2800,"station_id":"ce4bgt12rcd13ifvqce0","pricing_plan_id":"cebpf4jnsgd1na2vs0mg"},{"bike_id":"fd7e7ab5-2111-4218-afe7-29f27a2af2f9","system_id":"levelo_inurba_marseille","lat":43.308012,"lon":5.381511,"is_reserved":false,"is_disabled":false,"rental_uris":{"android":"levelo://app?vid=fd7e7ab5-2111-4218-afe7-29f27a2af2f9","ios":"levelo://app?vid=fd7e7ab5-2111-4218-afe7-29f27a2af2f9"},"vehicle_type_id":"4","last_reported":1713816499,"current_range_meters":20000,"station_id":"ce4bgt12rcd13ifvqce0","pricing_plan_id":"cebpf4jnsgd1na2vs0mg"},{"bike_id":"eff7c47f-e050-493f-8907-bf1ffbbb7941","system_id":"levelo_inurba_marseille","lat":43.308012,"lon":5.381511,"is_reserved":false,"is_disabled":false,"rental_uris":{"android":"levelo://app?vid=eff7c47f-e050-493f-8907-bf1ffbbb7941","ios":"levelo://app?vid=eff7c47f-e050-493f-8907-bf1ffbbb7941"},"vehicle_type_id":"4","last_reported":1713816499,"current_range_meters":24000,"station_id":"ce4bgt12rcd13ifvqce0","pricing_plan_id":"cebpf4jnsgd1na2vs0mg"},{"bike_id":"cb919e17-4c70-4e63-8317-c4a2bc97ccd0","system_id":"levelo_inurba_marseille","lat":43.308012,"lon":5.381511,"is_reserved":false,"is_disabled":false,"rental_uris":{"android":"levelo://app?vid=cb919e17-4c70-4e63-8317-c4a2bc97ccd0","ios":"levelo://app?vid=cb919e17-4c70-4e63-8317-c4a2bc97ccd0"},"vehicle_type_id":"4","last_reported":1713816499,"current_range_meters":18400,"station_id":"ce4bgt12rcd13ifvqce0","pricing_plan_id":"cebpf4jnsgd1na2vs0mg"},{"bike_id":"ac986629-7258-42ac-a852-81744f2603d8","system_id":"levelo_inurba_marseille","lat":43.322872,"lon":5.382756,"is_reserved":false,"is_disabled":false,"rental_uris":{"android":"levelo://app?vid=ac986629-7258-42ac-a852-81744f2603d8","ios":"levelo://app?vid=ac986629-7258-42ac-a852-81744f2603d8"},"vehicle_type_id":"4","last_reported":1713816499,"current_range_meters":9200,"station_id":"ce4bhr12rcd13ifvqhqg","pricing_plan_id":"cebpf4jnsgd1na2vs0mg"},{"bike_id":"446414bd-fc0e-47c7-9693-79adaafb9dcd","system_id":"levelo_inurba_marseille","lat":43.324771,"lon":5.36557,"is_reserved":false,"is_disabled":false,"rental_uris":{"android":"levelo://app?vid=446414bd-fc0e-47c7-9693-79adaafb9dcd","ios":"levelo://app?vid=446414bd-fc0e-47c7-9693-79adaafb9dcd"},"vehicle_type_id":"4","last_reported":1713816499,"current_range_meters":4800,"station_id":"ce4bhs12rcd13ifvqhvg","pricing_plan_id":"cebpf4jnsgd1na2vs0mg"},{"bike_id":"93cf05cf-247c-44fd-8239-5459e93ea3ed","system_id":"levelo_inurba_marseille","lat":43.324771,"lon":5.36557,"is_reserved":false,"is_disabled":false,"rental_uris":{"android":"levelo://app?vid=93cf05cf-247c-44fd-8239-5459e93ea3ed","ios":"levelo://app?vid=93cf05cf-247c-44fd-8239-5459e93ea3ed"},"vehicle_type_id":"4","last_reported":1713816499,"current_range_meters":16400,"station_id":"ce4bhs12rcd13ifvqhvg","pricing_plan_id":"cebpf4jnsgd1na2vs0mg"},{"bike_id":"4de203a6-e210-4aa0-bcb0-972d5a213134","system_id":"levelo_inurba_marseille","lat":43.324771,"lon":5.36557,"is_reserved":false,"is_disabled":false,"rental_uris":{"android":"levelo://app?vid=4de203a6-e210-4aa0-bcb0-972d5a213134","ios":"levelo://app?vid=4de203a6-e210-4aa0-bcb0-972d5a213134"},"vehicle_type_id":"4","last_reported":1713816499,"current_range_meters":3600,"station_id":"ce4bhs12rcd13ifvqhvg","pricing_plan_id":"cebpf4jnsgd1na2vs0mg"},{"bike_id":"48b28b8f-2f67-4919-8312-15a2fdeddf74","system_id":"levelo_inurba_marseille","lat":43.310804,"lon":5.38359,"is_reserved":false,"is_disabled":false,"rental_uris":{"android":"levelo://app?vid=48b28b8f-2f67-4919-8312-15a2fdeddf74","ios":"levelo://app?vid=48b28b8f-2f67-4919-8312-15a2fdeddf74"},"vehicle_type_id":"4","last_reported":1713816499,"current_range_meters":21600,"station_id":"ce4bgv92rcd13ifvqcr0","pricing_plan_id":"cebpf4jnsgd1na2vs0mg"},{"bike_id":"2d7bb7db-4c2b-4bdc-97f6-3fd892a30a65","system_id":"levelo_inurba_marseille","lat":43.302784,"lon":5.377158,"is_reserved":false,"is_disabled":false,"rental_uris":{"android":"levelo://app?vid=2d7bb7db-4c2b-4bdc-97f6-3fd892a30a65","ios":"levelo://app?vid=2d7bb7db-4c2b-4bdc-97f6-3fd892a30a65"},"vehicle_type_id":"4","last_reported":1713816499,"current_range_meters":17200,"station_id":"ce4bguh2rcd13ifvqcj0","pricing_plan_id":"cebpf4jnsgd1na2vs0mg"},{"bike_id":"63277bec-4ab8-48e6-b1a6-77979180a62b","system_id":"levelo_inurba_marseille","lat":43.301429,"lon":5.37413,"is_reserved":false,"is_disabled":false,"rental_uris":{"android":"levelo://app?vid=63277bec-4ab8-48e6-b1a6-77979180a62b","ios":"levelo://app?vid=63277bec-4ab8-48e6-b1a6-77979180a62b"},"vehicle_type_id":"4","last_reported":1713816499,"current_range_meters":26800,"station_id":"ce4bgs92rcd13ifvqcc0","pricing_plan_id":"cebpf4jnsgd1na2vs0mg"},{"bike_id":"e98ff55c-d476-4c76-9547-8e69149d11ab","system_id":"levelo_inurba_marseille","lat":43.30143,"lon":5.37413,"is_reserved":false,"is_disabled":false,"rental_uris":{"android":"levelo://app?vid=e98ff55c-d476-4c76-9547-8e69149d11ab","ios":"levelo://app?vid=e98ff55c-d476-4c76-9547-8e69149d11ab"},"vehicle_type_id":"4","last_reported":1713816499,"current_range_meters":0,"station_id":"ce4bgs92rcd13ifvqcc0","pricing_plan_id":"cebpf4jnsgd1na2vs0mg"},{"bike_id":"b6448e4e-bc8c-4096-befe-00e7d7b27d86","system_id":"levelo_inurba_marseille","lat":43.319935,"lon":5.381699,"is_reserved":false,"is_disabled":false,"rental_uris":{"android":"levelo://app?vid=b6448e4e-bc8c-4096-befe-00e7d7b27d86","ios":"levelo://app?vid=b6448e4e-bc8c-4096-befe-00e7d7b27d86"},"vehicle_type_id":"4","last_reported":1713816499,"current_range_meters":11600,"station_id":"ce4bhr12rcd13ifvqhpg","pricing_plan_id":"cebpf4jnsgd1na2vs0mg"},{"bike_id":"7e34a868-f7f5-4cc8-ad38-12f475d2e78e","system_id":"levelo_inurba_marseille","lat":43.31995,"lon":5.38137,"is_reserved":false,"is_disabled":false,"rental_uris":{"android":"levelo://app?vid=7e34a868-f7f5-4cc8-ad38-12f475d2e78e","ios":"levelo://app?vid=7e34a868-f7f5-4cc8-ad38-12f475d2e78e"},"vehicle_type_id":"4","last_reported":1713816499,"current_range_meters":25200,"station_id":"ce4bhr12rcd13ifvqhpg","pricing_plan_id":"cebpf4jnsgd1na2vs0mg"},{"bike_id":"36e6c597-4c9b-44fd-b549-5a94fcfa18a9","system_id":"levelo_inurba_marseille","lat":43.319935,"lon":5.381699,"is_reserved":false,"is_disabled":false,"rental_uris":{"android":"levelo://app?vid=36e6c597-4c9b-44fd-b549-5a94fcfa18a9","ios":"levelo://app?vid=36e6c597-4c9b-44fd-b549-5a94fcfa18a9"},"vehicle_type_id":"4","last_reported":1713816499,"current_range_meters":18400,"station_id":"ce4bhr12rcd13ifvqhpg","pricing_plan_id":"cebpf4jnsgd1na2vs0mg"},{"bike_id":"60497e5c-882c-4ac3-8384-449f8e5db08e","system_id":"levelo_inurba_marseille","lat":43.31994,"lon":5.38141,"is_reserved":false,"is_disabled":false,"rental_uris":{"android":"levelo://app?vid=60497e5c-882c-4ac3-8384-449f8e5db08e","ios":"levelo://app?vid=60497e5c-882c-4ac3-8384-449f8e5db08e"},"vehicle_type_id":"4","last_reported":1713816499,"current_range_meters":4400,"station_id":"ce4bhr12rcd13ifvqhpg","pricing_plan_id":"cebpf4jnsgd1na2vs0mg"},{"bike_id":"71adbe34-2f9a-470e-9db9-22e3f5446b00","system_id":"levelo_inurba_marseille","lat":43.319935,"lon":5.381699,"is_reserved":false,"is_disabled":false,"rental_uris":{"android":"levelo://app?vid=71adbe34-2f9a-470e-9db9-22e3f5446b00","ios":"levelo://app?vid=71adbe34-2f9a-470e-9db9-22e3f5446b00"},"vehicle_type_id":"4","last_reported":1713816499,"current_range_meters":18400,"station_id":"ce4bhr12rcd13ifvqhpg","pricing_plan_id":"cebpf4jnsgd1na2vs0mg"},{"bike_id":"fec8dffa-10ef-4635-82bc-fa57de892e01","system_id":"levelo_inurba_marseille","lat":43.319935,"lon":5.381699,"is_reserved":false,"is_disabled":false,"rental_uris":{"android":"levelo://app?vid=fec8dffa-10ef-4635-82bc-fa57de892e01","ios":"levelo://app?vid=fec8dffa-10ef-4635-82bc-fa57de892e01"},"vehicle_type_id":"4","last_reported":1713816499,"current_range_meters":1600,"station_id":"ce4bhr12rcd13ifvqhpg","pricing_plan_id":"cebpf4jnsgd1na2vs0mg"},{"bike_id":"433458f1-4592-4f2a-9af5-551c5a82a6c5","system_id":"levelo_inurba_marseille","lat":43.3199,"lon":5.38152,"is_reserved":false,"is_disabled":false,"rental_uris":{"android":"levelo://app?vid=433458f1-4592-4f2a-9af5-551c5a82a6c5","ios":"levelo://app?vid=433458f1-4592-4f2a-9af5-551c5a82a6c5"},"vehicle_type_id":"4","last_reported":1713816499,"current_range_meters":25600,"station_id":"ce4bhr12rcd13ifvqhpg","pricing_plan_id":"cebpf4jnsgd1na2vs0mg"},{"bike_id":"f93eef6b-628d-49e2-addc-56cb17903cdc","system_id":"levelo_inurba_marseille","lat":43.319935,"lon":5.381699,"is_reserved":false,"is_disabled":false,"rental_uris":{"android":"levelo://app?vid=f93eef6b-628d-49e2-addc-56cb17903cdc","ios":"levelo://app?vid=f93eef6b-628d-49e2-addc-56cb17903cdc"},"vehicle_type_id":"4","last_reported":1713816499,"current_range_meters":9200,"station_id":"ce4bhr12rcd13ifvqhpg","pricing_plan_id":"cebpf4jnsgd1na2vs0mg"},{"bike_id":"e1519999-3512-414c-9b48-8555e785cef0","system_id":"levelo_inurba_marseille","lat":43.31998,"lon":5.38154,"is_reserved":false,"is_disabled":false,"rental_uris":{"android":"levelo://app?vid=e1519999-3512-414c-9b48-8555e785cef0","ios":"levelo://app?vid=e1519999-3512-414c-9b48-8555e785cef0"},"vehicle_type_id":"4","last_reported":1713816499,"current_range_meters":0,"station_id":"ce4bhr12rcd13ifvqhpg","pricing_plan_id":"cebpf4jnsgd1na2vs0mg"},{"bike_id":"70ad4208-4ea1-48bc-a19d-39f226fe0387","system_id":"levelo_inurba_marseille","lat":43.31995,"lon":5.38157,"is_reserved":false,"is_disabled":false,"rental_uris":{"android":"levelo://app?vid=70ad4208-4ea1-48bc-a19d-39f226fe0387","ios":"levelo://app?vid=70ad4208-4ea1-48bc-a19d-39f226fe0387"},"vehicle_type_id":"4","last_reported":1713816499,"current_range_meters":0,"station_id":"ce4bhr12rcd13ifvqhpg","pricing_plan_id":"cebpf4jnsgd1na2vs0mg"},{"bike_id":"318ec6c5-8346-481d-896c-62ac1aff7688","system_id":"levelo_inurba_marseille","lat":43.313571,"lon":5.384829,"is_reserved":false,"is_disabled":false,"rental_uris":{"android":"levelo://app?vid=318ec6c5-8346-481d-896c-62ac1aff7688","ios":"levelo://app?vid=318ec6c5-8346-481d-896c-62ac1aff7688"},"vehicle_type_id":"4","last_reported":1713816499,"current_range_meters":6000,"station_id":"ce4bgt92rcd13ifvqcf0","pricing_plan_id":"cebpf4jnsgd1na2vs0mg"},{"bike_id":"7102c219-a9d7-4e22-af83-f5be2cd3cbfd","system_id":"levelo_inurba_marseille","lat":43.313571,"lon":5.384829,"is_reserved":false,"is_disabled":false,"rental_uris":{"android":"levelo://app?vid=7102c219-a9d7-4e22-af83-f5be2cd3cbfd","ios":"levelo://app?vid=7102c219-a9d7-4e22-af83-f5be2cd3cbfd"},"vehicle_type_id":"4","last_reported":1713816499,"current_range_meters":15200,"station_id":"ce4bgt92rcd13ifvqcf0","pricing_plan_id":"cebpf4jnsgd1na2vs0mg"},{"bike_id":"1febad8b-55e4-4046-ba42-c9e193dbc955","system_id":"levelo_inurba_marseille","lat":43.31357,"lon":5.38497,"is_reserved":false,"is_disabled":false,"rental_uris":{"android":"levelo://app?vid=1febad8b-55e4-4046-ba42-c9e193dbc955","ios":"levelo://app?vid=1febad8b-55e4-4046-ba42-c9e193dbc955"},"vehicle_type_id":"4","last_reported":1713816499,"current_range_meters":6000,"station_id":"ce4bgt92rcd13ifvqcf0","pricing_plan_id":"cebpf4jnsgd1na2vs0mg"},{"bike_id":"3255c556-24c3-48ea-9443-245d28292754","system_id":"levelo_inurba_marseille","lat":43.31371,"lon":5.38498,"is_reserved":false,"is_disabled":false,"rental_uris":{"android":"levelo://app?vid=3255c556-24c3-48ea-9443-245d28292754","ios":"levelo://app?vid=3255c556-24c3-48ea-9443-245d28292754"},"vehicle_type_id":"4","last_reported":1713816499,"current_range_meters":6800,"station_id":"ce4bgt92rcd13ifvqcf0","pricing_plan_id":"cebpf4jnsgd1na2vs0mg"},{"bike_id":"f6db29db-a363-4b73-bb40-78d7db60206b","system_id":"levelo_inurba_marseille","lat":43.29973,"lon":5.37177,"is_reserved":false,"is_disabled":false,"rental_uris":{"android":"levelo://app?vid=f6db29db-a363-4b73-bb40-78d7db60206b","ios":"levelo://app?vid=f6db29db-a363-4b73-bb40-78d7db60206b"},"vehicle_type_id":"4","last_reported":1713816499,"current_range_meters":13600,"station_id":"ce4bgr92rcd13ifvqc7g","pricing_plan_id":"cebpf4jnsgd1na2vs0mg"},{"bike_id":"9af43d38-6b0d-44ad-91af-5b9407033265","system_id":"levelo_inurba_marseille","lat":43.29967,"lon":5.37178,"is_reserved":false,"is_disabled":false,"rental_uris":{"android":"levelo://app?vid=9af43d38-6b0d-44ad-91af-5b9407033265","ios":"levelo://app?vid=9af43d38-6b0d-44ad-91af-5b9407033265"},"vehicle_type_id":"4","last_reported":1713816499,"current_range_meters":15600,"station_id":"ce4bgr92rcd13ifvqc7g","pricing_plan_id":"cebpf4jnsgd1na2vs0mg"},{"bike_id":"282a0637-f50e-40cb-9b67-bb3b8a56d2a3","system_id":"levelo_inurba_marseille","lat":43.298433,"lon":5.362774,"is_reserved":false,"is_disabled":false,"rental_uris":{"android":"levelo://app?vid=282a0637-f50e-40cb-9b67-bb3b8a56d2a3","ios":"levelo://app?vid=282a0637-f50e-40cb-9b67-bb3b8a56d2a3"},"vehicle_type_id":"4","last_reported":1713816499,"current_range_meters":3600,"station_id":"ce4bgpp2rcd13ifvqc3g","pricing_plan_id":"cebpf4jnsgd1na2vs0mg"},{"bike_id":"9b31c5cc-0e04-41b6-acaf-075e374232fa","system_id":"levelo_inurba_marseille","lat":43.298433,"lon":5.362774,"is_reserved":false,"is_disabled":false,"rental_uris":{"android":"levelo://app?vid=9b31c5cc-0e04-41b6-acaf-075e374232fa","ios":"levelo://app?vid=9b31c5cc-0e04-41b6-acaf-075e374232fa"},"vehicle_type_id":"4","last_reported":1713816499,"current_range_meters":31600,"station_id":"ce4bgpp2rcd13ifvqc3g","pricing_plan_id":"cebpf4jnsgd1na2vs0mg"},{"bike_id":"abadb87e-d6c9-4594-a4cb-277a49d5fa89","system_id":"levelo_inurba_marseille","lat":43.298433,"lon":5.362774,"is_reserved":false,"is_disabled":false,"rental_uris":{"android":"levelo://app?vid=abadb87e-d6c9-4594-a4cb-277a49d5fa89","ios":"levelo://app?vid=abadb87e-d6c9-4594-a4cb-277a49d5fa89"},"vehicle_type_id":"4","last_reported":1713816499,"current_range_meters":23600,"station_id":"ce4bgpp2rcd13ifvqc3g","pricing_plan_id":"cebpf4jnsgd1na2vs0mg"},{"bike_id":"bea8eece-a67d-4e27-8c47-5b0be0a8092a","system_id":"levelo_inurba_marseille","lat":43.298433,"lon":5.362774,"is_reserved":false,"is_disabled":false,"rental_uris":{"android":"levelo://app?vid=bea8eece-a67d-4e27-8c47-5b0be0a8092a","ios":"levelo://app?vid=bea8eece-a67d-4e27-8c47-5b0be0a8092a"},"vehicle_type_id":"4","last_reported":1713816499,"current_range_meters":14000,"station_id":"ce4bgpp2rcd13ifvqc3g","pricing_plan_id":"cebpf4jnsgd1na2vs0mg"},{"bike_id":"d909c883-9c04-4c3e-84b9-70bb12e28056","system_id":"levelo_inurba_marseille","lat":43.298433,"lon":5.362774,"is_reserved":false,"is_disabled":false,"rental_uris":{"android":"levelo://app?vid=d909c883-9c04-4c3e-84b9-70bb12e28056","ios":"levelo://app?vid=d909c883-9c04-4c3e-84b9-70bb12e28056"},"vehicle_type_id":"4","last_reported":1713816499,"current_range_meters":6800,"station_id":"ce4bgpp2rcd13ifvqc3g","pricing_plan_id":"cebpf4jnsgd1na2vs0mg"},{"bike_id":"986c1f98-aea4-4eb9-adc0-d5d3e4c960af","system_id":"levelo_inurba_marseille","lat":43.305364,"lon":5.384119,"is_reserved":false,"is_disabled":false,"rental_uris":{"android":"levelo://app?vid=986c1f98-aea4-4eb9-adc0-d5d3e4c960af","ios":"levelo://app?vid=986c1f98-aea4-4eb9-adc0-d5d3e4c960af"},"vehicle_type_id":"4","last_reported":1713816499,"current_range_meters":24400,"station_id":"ce4bgg92rcd13ifvqb30","pricing_plan_id":"cebpf4jnsgd1na2vs0mg"},{"bike_id":"dc4ab206-ddd1-4511-a5f8-9bb3d316d2a2","system_id":"levelo_inurba_marseille","lat":43.311722,"lon":5.387247,"is_reserved":false,"is_disabled":false,"rental_uris":{"android":"levelo://app?vid=dc4ab206-ddd1-4511-a5f8-9bb3d316d2a2","ios":"levelo://app?vid=dc4ab206-ddd1-4511-a5f8-9bb3d316d2a2"},"vehicle_type_id":"4","last_reported":1713816499,"current_range_meters":16400,"station_id":"ce4bgv12rcd13ifvqcp0","pricing_plan_id":"cebpf4jnsgd1na2vs0mg"},{"bike_id":"643e7544-ed44-49d1-bedd-1acc1f430305","system_id":"levelo_inurba_marseille","lat":43.299243,"lon":5.37481,"is_reserved":false,"is_disabled":false,"rental_uris":{"android":"levelo://app?vid=643e7544-ed44-49d1-bedd-1acc1f430305","ios":"levelo://app?vid=643e7544-ed44-49d1-bedd-1acc1f430305"},"vehicle_type_id":"4","last_reported":1713816499,"current_range_meters":19200,"station_id":"ce4bgjh2rcd13ifvqbg0","pricing_plan_id":"cebpf4jnsgd1na2vs0mg"},{"bike_id":"df9d1796-d26a-49fb-ae6b-eec6b58b83aa","system_id":"levelo_inurba_marseille","lat":43.297794,"lon":5.370888,"is_reserved":false,"is_disabled":false,"rental_uris":{"android":"levelo://app?vid=df9d1796-d26a-49fb-ae6b-eec6b58b83aa","ios":"levelo://app?vid=df9d1796-d26a-49fb-ae6b-eec6b58b83aa"},"vehicle_type_id":"4","last_reported":1713816499,"current_range_meters":31200,"station_id":"ce4bgop2rcd13ifvqc1g","pricing_plan_id":"cebpf4jnsgd1na2vs0mg"},{"bike_id":"fab1c341-e49c-473e-ba57-0ee03e947928","system_id":"levelo_inurba_marseille","lat":43.297794,"lon":5.370888,"is_reserved":false,"is_disabled":false,"rental_uris":{"android":"levelo://app?vid=fab1c341-e49c-473e-ba57-0ee03e947928","ios":"levelo://app?vid=fab1c341-e49c-473e-ba57-0ee03e947928"},"vehicle_type_id":"4","last_reported":1713816499,"current_range_meters":13600,"station_id":"ce4bgop2rcd13ifvqc1g","pricing_plan_id":"cebpf4jnsgd1na2vs0mg"},{"bike_id":"0596a7bd-2488-4686-9e1b-913831b0e489","system_id":"levelo_inurba_marseille","lat":43.322872,"lon":5.382756,"is_reserved":false,"is_disabled":false,"rental_uris":{"android":"levelo://app?vid=0596a7bd-2488-4686-9e1b-913831b0e489","ios":"levelo://app?vid=0596a7bd-2488-4686-9e1b-913831b0e489"},"vehicle_type_id":"4","last_reported":1713816499,"current_range_meters":3600,"station_id":"ce4bhr12rcd13ifvqhqg","pricing_plan_id":"cebpf4jnsgd1na2vs0mg"},{"bike_id":"08c77b82-78ac-45b5-9bfd-95331d2becb0","system_id":"levelo_inurba_marseille","lat":43.297774,"lon":5.370875,"is_reserved":false,"is_disabled":false,"rental_uris":{"android":"levelo://app?vid=08c77b82-78ac-45b5-9bfd-95331d2becb0","ios":"levelo://app?vid=08c77b82-78ac-45b5-9bfd-95331d2becb0"},"vehicle_type_id":"4","last_reported":1713816499,"current_range_meters":26400,"station_id":"ce4bgop2rcd13ifvqc1g","pricing_plan_id":"cebpf4jnsgd1na2vs0mg"},{"bike_id":"778c898c-f7d3-4180-bd35-0fcd07bee9bb","system_id":"levelo_inurba_marseille","lat":43.305706,"lon":5.365654,"is_reserved":false,"is_disabled":false,"rental_uris":{"android":"levelo://app?vid=778c898c-f7d3-4180-bd35-0fcd07bee9bb","ios":"levelo://app?vid=778c898c-f7d3-4180-bd35-0fcd07bee9bb"},"vehicle_type_id":"4","last_reported":1713816499,"current_range_meters":30000,"station_id":"ce4bgs12rcd13ifvqcag","pricing_plan_id":"cebpf4jnsgd1na2vs0mg"},{"bike_id":"ef61a51c-36c6-4c2f-9a98-9ec3cb0d9ad4","system_id":"levelo_inurba_marseille","lat":43.322872,"lon":5.382756,"is_reserved":false,"is_disabled":false,"rental_uris":{"android":"levelo://app?vid=ef61a51c-36c6-4c2f-9a98-9ec3cb0d9ad4","ios":"levelo://app?vid=ef61a51c-36c6-4c2f-9a98-9ec3cb0d9ad4"},"vehicle_type_id":"4","last_reported":1713816499,"current_range_meters":20400,"station_id":"ce4bhr12rcd13ifvqhqg","pricing_plan_id":"cebpf4jnsgd1na2vs0mg"},{"bike_id":"b87c4180-08df-49c8-872f-4a266b5c0162","system_id":"levelo_inurba_marseille","lat":43.322872,"lon":5.382756,"is_reserved":false,"is_disabled":false,"rental_uris":{"android":"levelo://app?vid=b87c4180-08df-49c8-872f-4a266b5c0162","ios":"levelo://app?vid=b87c4180-08df-49c8-872f-4a266b5c0162"},"vehicle_type_id":"4","last_reported":1713816499,"current_range_meters":19600,"station_id":"ce4bhr12rcd13ifvqhqg","pricing_plan_id":"cebpf4jnsgd1na2vs0mg"},{"bike_id":"a4cc2678-1ae4-4d41-a3d2-cbb8a9fd73ac","system_id":"levelo_inurba_marseille","lat":43.322872,"lon":5.382756,"is_reserved":false,"is_disabled":false,"rental_uris":{"android":"levelo://app?vid=a4cc2678-1ae4-4d41-a3d2-cbb8a9fd73ac","ios":"levelo://app?vid=a4cc2678-1ae4-4d41-a3d2-cbb8a9fd73ac"},"vehicle_type_id":"4","last_reported":1713816499,"current_range_meters":31200,"station_id":"ce4bhr12rcd13ifvqhqg","pricing_plan_id":"cebpf4jnsgd1na2vs0mg"},{"bike_id":"0b32fa2b-6e99-4115-bc6d-55694d0bf299","system_id":"levelo_inurba_marseille","lat":43.322872,"lon":5.382756,"is_reserved":false,"is_disabled":false,"rental_uris":{"android":"levelo://app?vid=0b32fa2b-6e99-4115-bc6d-55694d0bf299","ios":"levelo://app?vid=0b32fa2b-6e99-4115-bc6d-55694d0bf299"},"vehicle_type_id":"4","last_reported":1713816499,"current_range_meters":31200,"station_id":"ce4bhr12rcd13ifvqhqg","pricing_plan_id":"cebpf4jnsgd1na2vs0mg"},{"bike_id":"454f2963-a870-401a-a816-3704b04ea77e","system_id":"levelo_inurba_marseille","lat":43.322872,"lon":5.382756,"is_reserved":false,"is_disabled":false,"rental_uris":{"android":"levelo://app?vid=454f2963-a870-401a-a816-3704b04ea77e","ios":"levelo://app?vid=454f2963-a870-401a-a816-3704b04ea77e"},"vehicle_type_id":"4","last_reported":1713816499,"current_range_meters":5600,"station_id":"ce4bhr12rcd13ifvqhqg","pricing_plan_id":"cebpf4jnsgd1na2vs0mg"},{"bike_id":"4aa6bbb6-acfe-4a72-b7aa-c41f660e7dba","system_id":"levelo_inurba_marseille","lat":43.322872,"lon":5.382756,"is_reserved":false,"is_disabled":false,"rental_uris":{"android":"levelo://app?vid=4aa6bbb6-acfe-4a72-b7aa-c41f660e7dba","ios":"levelo://app?vid=4aa6bbb6-acfe-4a72-b7aa-c41f660e7dba"},"vehicle_type_id":"4","last_reported":1713816499,"current_range_meters":27600,"station_id":"ce4bhr12rcd13ifvqhqg","pricing_plan_id":"cebpf4jnsgd1na2vs0mg"},{"bike_id":"c46d9a8d-ee81-498e-bbb5-006f1b556bbe","system_id":"levelo_inurba_marseille","lat":43.322872,"lon":5.382756,"is_reserved":false,"is_disabled":false,"rental_uris":{"android":"levelo://app?vid=c46d9a8d-ee81-498e-bbb5-006f1b556bbe","ios":"levelo://app?vid=c46d9a8d-ee81-498e-bbb5-006f1b556bbe"},"vehicle_type_id":"4","last_reported":1713816499,"current_range_meters":12800,"station_id":"ce4bhr12rcd13ifvqhqg","pricing_plan_id":"cebpf4jnsgd1na2vs0mg"},{"bike_id":"92c24665-badb-4ed7-9129-70f50714ed40","system_id":"levelo_inurba_marseille","lat":43.322872,"lon":5.382756,"is_reserved":false,"is_disabled":false,"rental_uris":{"android":"levelo://app?vid=92c24665-badb-4ed7-9129-70f50714ed40","ios":"levelo://app?vid=92c24665-badb-4ed7-9129-70f50714ed40"},"vehicle_type_id":"4","last_reported":1713816499,"current_range_meters":13200,"station_id":"ce4bhr12rcd13ifvqhqg","pricing_plan_id":"cebpf4jnsgd1na2vs0mg"},{"bike_id":"77423322-5b97-4d45-a055-63655884e5c2","system_id":"levelo_inurba_marseille","lat":43.29718,"lon":5.36604,"is_reserved":false,"is_disabled":false,"rental_uris":{"android":"levelo://app?vid=77423322-5b97-4d45-a055-63655884e5c2","ios":"levelo://app?vid=77423322-5b97-4d45-a055-63655884e5c2"},"vehicle_type_id":"4","last_reported":1713816499,"current_range_meters":28000,"station_id":"ce4bgn12rcd13ifvqbt0","pricing_plan_id":"cebpf4jnsgd1na2vs0mg"},{"bike_id":"56d91149-6e86-4d7c-a134-c4517c20ecff","system_id":"levelo_inurba_marseille","lat":43.297166,"lon":5.366117,"is_reserved":false,"is_disabled":false,"rental_uris":{"android":"levelo://app?vid=56d91149-6e86-4d7c-a134-c4517c20ecff","ios":"levelo://app?vid=56d91149-6e86-4d7c-a134-c4517c20ecff"},"vehicle_type_id":"4","last_reported":1713816499,"current_range_meters":13600,"station_id":"ce4bgn12rcd13ifvqbt0","pricing_plan_id":"cebpf4jnsgd1na2vs0mg"},{"bike_id":"e6fe3add-e1ec-456e-95a6-5695a3d2774d","system_id":"levelo_inurba_marseille","lat":43.29713,"lon":5.36619,"is_reserved":false,"is_disabled":false,"rental_uris":{"android":"levelo://app?vid=e6fe3add-e1ec-456e-95a6-5695a3d2774d","ios":"levelo://app?vid=e6fe3add-e1ec-456e-95a6-5695a3d2774d"},"vehicle_type_id":"4","last_reported":1713816499,"current_range_meters":28400,"station_id":"ce4bgn12rcd13ifvqbt0","pricing_plan_id":"cebpf4jnsgd1na2vs0mg"},{"bike_id":"6a42c106-fd22-4527-b3fb-387f2a4e3b9e","system_id":"levelo_inurba_marseille","lat":43.29529,"lon":5.385581,"is_reserved":false,"is_disabled":false,"rental_uris":{"android":"levelo://app?vid=6a42c106-fd22-4527-b3fb-387f2a4e3b9e","ios":"levelo://app?vid=6a42c106-fd22-4527-b3fb-387f2a4e3b9e"},"vehicle_type_id":"4","last_reported":1713816499,"current_range_meters":10400,"station_id":"ce4bgih2rcd13ifvqba0","pricing_plan_id":"cebpf4jnsgd1na2vs0mg"},{"bike_id":"ff5570b7-7982-4614-852f-54b8ce792459","system_id":"levelo_inurba_marseille","lat":43.2971,"lon":5.36606,"is_reserved":false,"is_disabled":false,"rental_uris":{"android":"levelo://app?vid=ff5570b7-7982-4614-852f-54b8ce792459","ios":"levelo://app?vid=ff5570b7-7982-4614-852f-54b8ce792459"},"vehicle_type_id":"4","last_reported":1713816499,"current_range_meters":18000,"station_id":"ce4bgn12rcd13ifvqbt0","pricing_plan_id":"cebpf4jnsgd1na2vs0mg"},{"bike_id":"9906b685-ad7b-4943-a072-1d1d7218458f","system_id":"levelo_inurba_marseille","lat":43.2971,"lon":5.36604,"is_reserved":false,"is_disabled":false,"rental_uris":{"android":"levelo://app?vid=9906b685-ad7b-4943-a072-1d1d7218458f","ios":"levelo://app?vid=9906b685-ad7b-4943-a072-1d1d7218458f"},"vehicle_type_id":"4","last_reported":1713816499,"current_range_meters":28800,"station_id":"ce4bgn12rcd13ifvqbt0","pricing_plan_id":"cebpf4jnsgd1na2vs0mg"},{"bike_id":"5c01d95e-0405-4031-bb70-b05f42b28485","system_id":"levelo_inurba_marseille","lat":43.297163,"lon":5.365866,"is_reserved":false,"is_disabled":false,"rental_uris":{"android":"levelo://app?vid=5c01d95e-0405-4031-bb70-b05f42b28485","ios":"levelo://app?vid=5c01d95e-0405-4031-bb70-b05f42b28485"},"vehicle_type_id":"4","last_reported":1713816499,"current_range_meters":20400,"station_id":"ce4bgn12rcd13ifvqbt0","pricing_plan_id":"cebpf4jnsgd1na2vs0mg"},{"bike_id":"f5e06333-8642-4c26-8ed1-95e7b4374530","system_id":"levelo_inurba_marseille","lat":43.2968,"lon":5.37291,"is_reserved":false,"is_disabled":false,"rental_uris":{"android":"levelo://app?vid=f5e06333-8642-4c26-8ed1-95e7b4374530","ios":"levelo://app?vid=f5e06333-8642-4c26-8ed1-95e7b4374530"},"vehicle_type_id":"4","last_reported":1713816499,"current_range_meters":25200,"station_id":"ce4bgk12rcd13ifvqbj0","pricing_plan_id":"cebpf4jnsgd1na2vs0mg"},{"bike_id":"77e2e97c-2ddc-4b37-a291-c773bc266c90","system_id":"levelo_inurba_marseille","lat":43.2968,"lon":5.37291,"is_reserved":false,"is_disabled":false,"rental_uris":{"android":"levelo://app?vid=77e2e97c-2ddc-4b37-a291-c773bc266c90","ios":"levelo://app?vid=77e2e97c-2ddc-4b37-a291-c773bc266c90"},"vehicle_type_id":"4","last_reported":1713816499,"current_range_meters":26800,"station_id":"ce4bgk12rcd13ifvqbj0","pricing_plan_id":"cebpf4jnsgd1na2vs0mg"},{"bike_id":"43e8387d-cf07-4dfd-9df1-e555e1be26bb","system_id":"levelo_inurba_marseille","lat":43.29573,"lon":5.367355,"is_reserved":false,"is_disabled":false,"rental_uris":{"android":"levelo://app?vid=43e8387d-cf07-4dfd-9df1-e555e1be26bb","ios":"levelo://app?vid=43e8387d-cf07-4dfd-9df1-e555e1be26bb"},"vehicle_type_id":"4","last_reported":1713816499,"current_range_meters":26800,"station_id":"ce4bgph2rcd13ifvqc2g","pricing_plan_id":"cebpf4jnsgd1na2vs0mg"},{"bike_id":"843d10ad-eb9e-4de5-94ec-175997efa1ca","system_id":"levelo_inurba_marseille","lat":43.29573,"lon":5.367355,"is_reserved":false,"is_disabled":false,"rental_uris":{"android":"levelo://app?vid=843d10ad-eb9e-4de5-94ec-175997efa1ca","ios":"levelo://app?vid=843d10ad-eb9e-4de5-94ec-175997efa1ca"},"vehicle_type_id":"4","last_reported":1713816499,"current_range_meters":25600,"station_id":"ce4bgph2rcd13ifvqc2g","pricing_plan_id":"cebpf4jnsgd1na2vs0mg"},{"bike_id":"3358b587-b36d-4542-9ce3-6a7a731d9758","system_id":"levelo_inurba_marseille","lat":43.29573,"lon":5.367355,"is_reserved":false,"is_disabled":false,"rental_uris":{"android":"levelo://app?vid=3358b587-b36d-4542-9ce3-6a7a731d9758","ios":"levelo://app?vid=3358b587-b36d-4542-9ce3-6a7a731d9758"},"vehicle_type_id":"4","last_reported":1713816499,"current_range_meters":20000,"station_id":"ce4bgph2rcd13ifvqc2g","pricing_plan_id":"cebpf4jnsgd1na2vs0mg"},{"bike_id":"8d7ae930-34a2-4ecd-af03-690e5273fde3","system_id":"levelo_inurba_marseille","lat":43.296131,"lon":5.370791,"is_reserved":false,"is_disabled":false,"rental_uris":{"android":"levelo://app?vid=8d7ae930-34a2-4ecd-af03-690e5273fde3","ios":"levelo://app?vid=8d7ae930-34a2-4ecd-af03-690e5273fde3"},"vehicle_type_id":"4","last_reported":1713816499,"current_range_meters":25600,"station_id":"ce4bgnh2rcd13ifvqc0g","pricing_plan_id":"cebpf4jnsgd1na2vs0mg"},{"bike_id":"22ee16ca-a245-4dc1-ad8a-db06da73955c","system_id":"levelo_inurba_marseille","lat":43.29589,"lon":5.368795,"is_reserved":false,"is_disabled":false,"rental_uris":{"android":"levelo://app?vid=22ee16ca-a245-4dc1-ad8a-db06da73955c","ios":"levelo://app?vid=22ee16ca-a245-4dc1-ad8a-db06da73955c"},"vehicle_type_id":"4","last_reported":1713816499,"current_range_meters":16800,"station_id":"","pricing_plan_id":"cebpf4jnsgd1na2vs0mg"},{"bike_id":"14f5ee4d-4337-4572-9327-1ba92ef57ed4","system_id":"levelo_inurba_marseille","lat":43.296921,"lon":5.376579,"is_reserved":false,"is_disabled":false,"rental_uris":{"android":"levelo://app?vid=14f5ee4d-4337-4572-9327-1ba92ef57ed4","ios":"levelo://app?vid=14f5ee4d-4337-4572-9327-1ba92ef57ed4"},"vehicle_type_id":"4","last_reported":1713816499,"current_range_meters":14400,"station_id":"ce4bgkh2rcd13ifvqbl0","pricing_plan_id":"cebpf4jnsgd1na2vs0mg"},{"bike_id":"b307d54f-f646-42bc-b0ea-ad4b66630953","system_id":"levelo_inurba_marseille","lat":43.296935,"lon":5.376544,"is_reserved":false,"is_disabled":false,"rental_uris":{"android":"levelo://app?vid=b307d54f-f646-42bc-b0ea-ad4b66630953","ios":"levelo://app?vid=b307d54f-f646-42bc-b0ea-ad4b66630953"},"vehicle_type_id":"4","last_reported":1713816499,"current_range_meters":28000,"station_id":"ce4bgkh2rcd13ifvqbl0","pricing_plan_id":"cebpf4jnsgd1na2vs0mg"},{"bike_id":"54d4c0d4-6ffb-45eb-b08a-745d6087467f","system_id":"levelo_inurba_marseille","lat":43.296935,"lon":5.376544,"is_reserved":false,"is_disabled":false,"rental_uris":{"android":"levelo://app?vid=54d4c0d4-6ffb-45eb-b08a-745d6087467f","ios":"levelo://app?vid=54d4c0d4-6ffb-45eb-b08a-745d6087467f"},"vehicle_type_id":"4","last_reported":1713816499,"current_range_meters":20800,"station_id":"ce4bgkh2rcd13ifvqbl0","pricing_plan_id":"cebpf4jnsgd1na2vs0mg"},{"bike_id":"b811a6ac-0bac-4503-af99-f643df72a606","system_id":"levelo_inurba_marseille","lat":43.296935,"lon":5.376544,"is_reserved":false,"is_disabled":false,"rental_uris":{"android":"levelo://app?vid=b811a6ac-0bac-4503-af99-f643df72a606","ios":"levelo://app?vid=b811a6ac-0bac-4503-af99-f643df72a606"},"vehicle_type_id":"4","last_reported":1713816499,"current_range_meters":11600,"station_id":"ce4bgkh2rcd13ifvqbl0","pricing_plan_id":"cebpf4jnsgd1na2vs0mg"},{"bike_id":"a0c7a184-6b4b-447e-a65a-7fa2602ee47f","system_id":"levelo_inurba_marseille","lat":43.29699,"lon":5.37697,"is_reserved":false,"is_disabled":false,"rental_uris":{"android":"levelo://app?vid=a0c7a184-6b4b-447e-a65a-7fa2602ee47f","ios":"levelo://app?vid=a0c7a184-6b4b-447e-a65a-7fa2602ee47f"},"vehicle_type_id":"4","last_reported":1713816499,"current_range_meters":800,"station_id":"ce4bgkh2rcd13ifvqbl0","pricing_plan_id":"cebpf4jnsgd1na2vs0mg"},{"bike_id":"9343bef8-5d99-43a1-9872-302a90d8f229","system_id":"levelo_inurba_marseille","lat":43.317557,"lon":5.390173,"is_reserved":false,"is_disabled":false,"rental_uris":{"android":"levelo://app?vid=9343bef8-5d99-43a1-9872-302a90d8f229","ios":"levelo://app?vid=9343bef8-5d99-43a1-9872-302a90d8f229"},"vehicle_type_id":"4","last_reported":1713816499,"current_range_meters":22400,"station_id":"ce4bhqp2rcd13ifvqhng","pricing_plan_id":"cebpf4jnsgd1na2vs0mg"},{"bike_id":"11246085-2ea5-4b58-b2e0-7e774ac54885","system_id":"levelo_inurba_marseille","lat":43.317557,"lon":5.390173,"is_reserved":false,"is_disabled":false,"rental_uris":{"android":"levelo://app?vid=11246085-2ea5-4b58-b2e0-7e774ac54885","ios":"levelo://app?vid=11246085-2ea5-4b58-b2e0-7e774ac54885"},"vehicle_type_id":"4","last_reported":1713816499,"current_range_meters":29200,"station_id":"ce4bhqp2rcd13ifvqhng","pricing_plan_id":"cebpf4jnsgd1na2vs0mg"},{"bike_id":"5e34793c-68ce-483c-ac6a-83b0cb5bfac7","system_id":"levelo_inurba_marseille","lat":43.31753,"lon":5.39019,"is_reserved":false,"is_disabled":false,"rental_uris":{"android":"levelo://app?vid=5e34793c-68ce-483c-ac6a-83b0cb5bfac7","ios":"levelo://app?vid=5e34793c-68ce-483c-ac6a-83b0cb5bfac7"},"vehicle_type_id":"4","last_reported":1713816499,"current_range_meters":800,"station_id":"ce4bhqp2rcd13ifvqhng","pricing_plan_id":"cebpf4jnsgd1na2vs0mg"},{"bike_id":"6d156540-28be-441b-be24-d4f7844984f2","system_id":"levelo_inurba_marseille","lat":43.317557,"lon":5.390173,"is_reserved":false,"is_disabled":false,"rental_uris":{"android":"levelo://app?vid=6d156540-28be-441b-be24-d4f7844984f2","ios":"levelo://app?vid=6d156540-28be-441b-be24-d4f7844984f2"},"vehicle_type_id":"4","last_reported":1713816499,"current_range_meters":7600,"station_id":"ce4bhqp2rcd13ifvqhng","pricing_plan_id":"cebpf4jnsgd1na2vs0mg"},{"bike_id":"2368e6ce-e474-498b-bb8c-908c2343fbf1","system_id":"levelo_inurba_marseille","lat":43.298037,"lon":5.381066,"is_reserved":false,"is_disabled":false,"rental_uris":{"android":"levelo://app?vid=2368e6ce-e474-498b-bb8c-908c2343fbf1","ios":"levelo://app?vid=2368e6ce-e474-498b-bb8c-908c2343fbf1"},"vehicle_type_id":"4","last_reported":1713816499,"current_range_meters":17200,"station_id":"ce4bgip2rcd13ifvqbb0","pricing_plan_id":"cebpf4jnsgd1na2vs0mg"},{"bike_id":"cc4dd551-75fe-49bd-a5ba-5644ddd35c1f","system_id":"levelo_inurba_marseille","lat":43.295748,"lon":5.37522,"is_reserved":false,"is_disabled":false,"rental_uris":{"android":"levelo://app?vid=cc4dd551-75fe-49bd-a5ba-5644ddd35c1f","ios":"levelo://app?vid=cc4dd551-75fe-49bd-a5ba-5644ddd35c1f"},"vehicle_type_id":"4","last_reported":1713816499,"current_range_meters":25200,"station_id":"ce4bgh92rcd13ifvqb50","pricing_plan_id":"cebpf4jnsgd1na2vs0mg"},{"bike_id":"24cc1f14-1228-447b-a81a-8ed481c71b02","system_id":"levelo_inurba_marseille","lat":43.304347,"lon":5.388893,"is_reserved":false,"is_disabled":false,"rental_uris":{"android":"levelo://app?vid=24cc1f14-1228-447b-a81a-8ed481c71b02","ios":"levelo://app?vid=24cc1f14-1228-447b-a81a-8ed481c71b02"},"vehicle_type_id":"4","last_reported":1713816499,"current_range_meters":14800,"station_id":"ce4bgk12rcd13ifvqbi0","pricing_plan_id":"cebpf4jnsgd1na2vs0mg"},{"bike_id":"d5e41b74-4cf6-49af-8dac-24526187ce6b","system_id":"levelo_inurba_marseille","lat":43.295279,"lon":5.375048,"is_reserved":false,"is_disabled":false,"rental_uris":{"android":"levelo://app?vid=d5e41b74-4cf6-49af-8dac-24526187ce6b","ios":"levelo://app?vid=d5e41b74-4cf6-49af-8dac-24526187ce6b"},"vehicle_type_id":"4","last_reported":1713816499,"current_range_meters":30400,"station_id":"ce4bgkp2rcd13ifvqbmg","pricing_plan_id":"cebpf4jnsgd1na2vs0mg"},{"bike_id":"b214a502-0a97-4c38-87fb-19a4c58f57de","system_id":"levelo_inurba_marseille","lat":43.296263,"lon":5.377094,"is_reserved":false,"is_disabled":false,"rental_uris":{"android":"levelo://app?vid=b214a502-0a97-4c38-87fb-19a4c58f57de","ios":"levelo://app?vid=b214a502-0a97-4c38-87fb-19a4c58f57de"},"vehicle_type_id":"4","last_reported":1713816499,"current_range_meters":27200,"station_id":"ce4bgi92rcd13ifvqb90","pricing_plan_id":"cebpf4jnsgd1na2vs0mg"},{"bike_id":"3f822cf7-8c8c-47e1-a564-19d34254c037","system_id":"levelo_inurba_marseille","lat":43.295279,"lon":5.375048,"is_reserved":false,"is_disabled":false,"rental_uris":{"android":"levelo://app?vid=3f822cf7-8c8c-47e1-a564-19d34254c037","ios":"levelo://app?vid=3f822cf7-8c8c-47e1-a564-19d34254c037"},"vehicle_type_id":"4","last_reported":1713816499,"current_range_meters":13600,"station_id":"ce4bgkp2rcd13ifvqbmg","pricing_plan_id":"cebpf4jnsgd1na2vs0mg"},{"bike_id":"6dea476a-4a52-4fe4-8742-c0ecc558913d","system_id":"levelo_inurba_marseille","lat":43.299717,"lon":5.384845,"is_reserved":false,"is_disabled":false,"rental_uris":{"android":"levelo://app?vid=6dea476a-4a52-4fe4-8742-c0ecc558913d","ios":"levelo://app?vid=6dea476a-4a52-4fe4-8742-c0ecc558913d"},"vehicle_type_id":"4","last_reported":1713816499,"current_range_meters":30000,"station_id":"ce4bgj92rcd13ifvqbd0","pricing_plan_id":"cebpf4jnsgd1na2vs0mg"},{"bike_id":"ee57d08f-1ff4-4e58-9351-93452bc4b613","system_id":"levelo_inurba_marseille","lat":43.295279,"lon":5.375048,"is_reserved":false,"is_disabled":false,"rental_uris":{"android":"levelo://app?vid=ee57d08f-1ff4-4e58-9351-93452bc4b613","ios":"levelo://app?vid=ee57d08f-1ff4-4e58-9351-93452bc4b613"},"vehicle_type_id":"4","last_reported":1713816499,"current_range_meters":22800,"station_id":"ce4bgkp2rcd13ifvqbmg","pricing_plan_id":"cebpf4jnsgd1na2vs0mg"},{"bike_id":"d2def80a-e30d-4a4f-a293-12d8e9e5964e","system_id":"levelo_inurba_marseille","lat":43.29974,"lon":5.38492,"is_reserved":false,"is_disabled":false,"rental_uris":{"android":"levelo://app?vid=d2def80a-e30d-4a4f-a293-12d8e9e5964e","ios":"levelo://app?vid=d2def80a-e30d-4a4f-a293-12d8e9e5964e"},"vehicle_type_id":"4","last_reported":1713816499,"current_range_meters":16400,"station_id":"ce4bgj92rcd13ifvqbd0","pricing_plan_id":"cebpf4jnsgd1na2vs0mg"},{"bike_id":"ad3895e3-0f4f-4206-a404-77362e7091a0","system_id":"levelo_inurba_marseille","lat":43.299707,"lon":5.384859,"is_reserved":false,"is_disabled":false,"rental_uris":{"android":"levelo://app?vid=ad3895e3-0f4f-4206-a404-77362e7091a0","ios":"levelo://app?vid=ad3895e3-0f4f-4206-a404-77362e7091a0"},"vehicle_type_id":"4","last_reported":1713816499,"current_range_meters":16400,"station_id":"ce4bgj92rcd13ifvqbd0","pricing_plan_id":"cebpf4jnsgd1na2vs0mg"},{"bike_id":"03ec851f-75a2-4da7-90bd-e30c4a562f03","system_id":"levelo_inurba_marseille","lat":43.299707,"lon":5.384859,"is_reserved":false,"is_disabled":false,"rental_uris":{"android":"levelo://app?vid=03ec851f-75a2-4da7-90bd-e30c4a562f03","ios":"levelo://app?vid=03ec851f-75a2-4da7-90bd-e30c4a562f03"},"vehicle_type_id":"4","last_reported":1713816499,"current_range_meters":16000,"station_id":"ce4bgj92rcd13ifvqbd0","pricing_plan_id":"cebpf4jnsgd1na2vs0mg"},{"bike_id":"a1d120c3-2621-461a-9595-bf66c70c181c","system_id":"levelo_inurba_marseille","lat":43.295279,"lon":5.375048,"is_reserved":false,"is_disabled":false,"rental_uris":{"android":"levelo://app?vid=a1d120c3-2621-461a-9595-bf66c70c181c","ios":"levelo://app?vid=a1d120c3-2621-461a-9595-bf66c70c181c"},"vehicle_type_id":"4","last_reported":1713816499,"current_range_meters":21200,"station_id":"ce4bgkp2rcd13ifvqbmg","pricing_plan_id":"cebpf4jnsgd1na2vs0mg"},{"bike_id":"73f79ec8-4c6a-4f53-bb4e-3d18fc90d0f3","system_id":"levelo_inurba_marseille","lat":43.299707,"lon":5.384859,"is_reserved":false,"is_disabled":false,"rental_uris":{"android":"levelo://app?vid=73f79ec8-4c6a-4f53-bb4e-3d18fc90d0f3","ios":"levelo://app?vid=73f79ec8-4c6a-4f53-bb4e-3d18fc90d0f3"},"vehicle_type_id":"4","last_reported":1713816499,"current_range_meters":7200,"station_id":"ce4bgj92rcd13ifvqbd0","pricing_plan_id":"cebpf4jnsgd1na2vs0mg"},{"bike_id":"8356c795-b596-43a1-b031-a578059c9f0c","system_id":"levelo_inurba_marseille","lat":43.299707,"lon":5.384859,"is_reserved":false,"is_disabled":false,"rental_uris":{"android":"levelo://app?vid=8356c795-b596-43a1-b031-a578059c9f0c","ios":"levelo://app?vid=8356c795-b596-43a1-b031-a578059c9f0c"},"vehicle_type_id":"4","last_reported":1713816499,"current_range_meters":19200,"station_id":"ce4bgj92rcd13ifvqbd0","pricing_plan_id":"cebpf4jnsgd1na2vs0mg"},{"bike_id":"af60d06d-dda8-481a-9928-6780ba15f528","system_id":"levelo_inurba_marseille","lat":43.295279,"lon":5.375048,"is_reserved":false,"is_disabled":false,"rental_uris":{"android":"levelo://app?vid=af60d06d-dda8-481a-9928-6780ba15f528","ios":"levelo://app?vid=af60d06d-dda8-481a-9928-6780ba15f528"},"vehicle_type_id":"4","last_reported":1713816499,"current_range_meters":25200,"station_id":"ce4bgkp2rcd13ifvqbmg","pricing_plan_id":"cebpf4jnsgd1na2vs0mg"},{"bike_id":"28fcfaf4-2f96-4289-b4be-10783d99cc83","system_id":"levelo_inurba_marseille","lat":43.295279,"lon":5.375048,"is_reserved":false,"is_disabled":false,"rental_uris":{"android":"levelo://app?vid=28fcfaf4-2f96-4289-b4be-10783d99cc83","ios":"levelo://app?vid=28fcfaf4-2f96-4289-b4be-10783d99cc83"},"vehicle_type_id":"4","last_reported":1713816499,"current_range_meters":8000,"station_id":"ce4bgkp2rcd13ifvqbmg","pricing_plan_id":"cebpf4jnsgd1na2vs0mg"},{"bike_id":"ae72b112-3c3b-4775-a3db-d4d491f09962","system_id":"levelo_inurba_marseille","lat":43.299724,"lon":5.384848,"is_reserved":false,"is_disabled":false,"rental_uris":{"android":"levelo://app?vid=ae72b112-3c3b-4775-a3db-d4d491f09962","ios":"levelo://app?vid=ae72b112-3c3b-4775-a3db-d4d491f09962"},"vehicle_type_id":"4","last_reported":1713816499,"current_range_meters":21600,"station_id":"ce4bgj92rcd13ifvqbd0","pricing_plan_id":"cebpf4jnsgd1na2vs0mg"},{"bike_id":"7e2688fc-953d-466f-a59c-b22092051328","system_id":"levelo_inurba_marseille","lat":43.295279,"lon":5.375048,"is_reserved":false,"is_disabled":false,"rental_uris":{"android":"levelo://app?vid=7e2688fc-953d-466f-a59c-b22092051328","ios":"levelo://app?vid=7e2688fc-953d-466f-a59c-b22092051328"},"vehicle_type_id":"4","last_reported":1713816499,"current_range_meters":26400,"station_id":"ce4bgkp2rcd13ifvqbmg","pricing_plan_id":"cebpf4jnsgd1na2vs0mg"},{"bike_id":"8b0e6261-1240-4e33-86ea-3401ae8bb71b","system_id":"levelo_inurba_marseille","lat":43.299243,"lon":5.37481,"is_reserved":false,"is_disabled":false,"rental_uris":{"android":"levelo://app?vid=8b0e6261-1240-4e33-86ea-3401ae8bb71b","ios":"levelo://app?vid=8b0e6261-1240-4e33-86ea-3401ae8bb71b"},"vehicle_type_id":"4","last_reported":1713816499,"current_range_meters":10400,"station_id":"ce4bgjh2rcd13ifvqbg0","pricing_plan_id":"cebpf4jnsgd1na2vs0mg"},{"bike_id":"53ca3e23-fe8b-46c7-bd98-bd08f69d7319","system_id":"levelo_inurba_marseille","lat":43.29604,"lon":5.38105,"is_reserved":false,"is_disabled":false,"rental_uris":{"android":"levelo://app?vid=53ca3e23-fe8b-46c7-bd98-bd08f69d7319","ios":"levelo://app?vid=53ca3e23-fe8b-46c7-bd98-bd08f69d7319"},"vehicle_type_id":"4","last_reported":1713816499,"current_range_meters":10800,"station_id":"ce4bgl12rcd13ifvqbo0","pricing_plan_id":"cebpf4jnsgd1na2vs0mg"},{"bike_id":"4fb23bfa-003a-4a6f-bb18-dc6e3c6c5f0c","system_id":"levelo_inurba_marseille","lat":43.29603,"lon":5.38103,"is_reserved":false,"is_disabled":false,"rental_uris":{"android":"levelo://app?vid=4fb23bfa-003a-4a6f-bb18-dc6e3c6c5f0c","ios":"levelo://app?vid=4fb23bfa-003a-4a6f-bb18-dc6e3c6c5f0c"},"vehicle_type_id":"4","last_reported":1713816499,"current_range_meters":11600,"station_id":"ce4bgl12rcd13ifvqbo0","pricing_plan_id":"cebpf4jnsgd1na2vs0mg"},{"bike_id":"fed3979c-7621-431c-859d-87fe831a33e5","system_id":"levelo_inurba_marseille","lat":43.29602,"lon":5.381084,"is_reserved":false,"is_disabled":false,"rental_uris":{"android":"levelo://app?vid=fed3979c-7621-431c-859d-87fe831a33e5","ios":"levelo://app?vid=fed3979c-7621-431c-859d-87fe831a33e5"},"vehicle_type_id":"4","last_reported":1713816499,"current_range_meters":22800,"station_id":"ce4bgl12rcd13ifvqbo0","pricing_plan_id":"cebpf4jnsgd1na2vs0mg"},{"bike_id":"1578cf13-01c2-4b3b-9bb5-8981641df2b3","system_id":"levelo_inurba_marseille","lat":43.29602,"lon":5.381084,"is_reserved":false,"is_disabled":false,"rental_uris":{"android":"levelo://app?vid=1578cf13-01c2-4b3b-9bb5-8981641df2b3","ios":"levelo://app?vid=1578cf13-01c2-4b3b-9bb5-8981641df2b3"},"vehicle_type_id":"4","last_reported":1713816499,"current_range_meters":12800,"station_id":"ce4bgl12rcd13ifvqbo0","pricing_plan_id":"cebpf4jnsgd1na2vs0mg"},{"bike_id":"81c1857c-115f-41df-a6e1-c4e077e0ff46","system_id":"levelo_inurba_marseille","lat":43.29602,"lon":5.381084,"is_reserved":false,"is_disabled":false,"rental_uris":{"android":"levelo://app?vid=81c1857c-115f-41df-a6e1-c4e077e0ff46","ios":"levelo://app?vid=81c1857c-115f-41df-a6e1-c4e077e0ff46"},"vehicle_type_id":"4","last_reported":1713816499,"current_range_meters":24400,"station_id":"ce4bgl12rcd13ifvqbo0","pricing_plan_id":"cebpf4jnsgd1na2vs0mg"},{"bike_id":"0d9f0a98-d895-410b-8342-af26d7f725ac","system_id":"levelo_inurba_marseille","lat":43.29601,"lon":5.381084,"is_reserved":false,"is_disabled":false,"rental_uris":{"android":"levelo://app?vid=0d9f0a98-d895-410b-8342-af26d7f725ac","ios":"levelo://app?vid=0d9f0a98-d895-410b-8342-af26d7f725ac"},"vehicle_type_id":"4","last_reported":1713816499,"current_range_meters":4800,"station_id":"ce4bgl12rcd13ifvqbo0","pricing_plan_id":"cebpf4jnsgd1na2vs0mg"},{"bike_id":"4122e79d-79cf-4510-a9d3-84145d01d92a","system_id":"levelo_inurba_marseille","lat":43.293259,"lon":5.371586,"is_reserved":false,"is_disabled":false,"rental_uris":{"android":"levelo://app?vid=4122e79d-79cf-4510-a9d3-84145d01d92a","ios":"levelo://app?vid=4122e79d-79cf-4510-a9d3-84145d01d92a"},"vehicle_type_id":"4","last_reported":1713816499,"current_range_meters":4800,"station_id":"ce4bgh92rcd13ifvqb40","pricing_plan_id":"cebpf4jnsgd1na2vs0mg"},{"bike_id":"38277331-6a4d-4403-93bd-7c3d80669122","system_id":"levelo_inurba_marseille","lat":43.292749,"lon":5.368398,"is_reserved":false,"is_disabled":false,"rental_uris":{"android":"levelo://app?vid=38277331-6a4d-4403-93bd-7c3d80669122","ios":"levelo://app?vid=38277331-6a4d-4403-93bd-7c3d80669122"},"vehicle_type_id":"4","last_reported":1713816499,"current_range_meters":29600,"station_id":"ce4bhbp2rcd13ifvqesg","pricing_plan_id":"cebpf4jnsgd1na2vs0mg"},{"bike_id":"8662fc9d-da33-4d7b-b994-86f2badcccdc","system_id":"levelo_inurba_marseille","lat":43.292749,"lon":5.368398,"is_reserved":false,"is_disabled":false,"rental_uris":{"android":"levelo://app?vid=8662fc9d-da33-4d7b-b994-86f2badcccdc","ios":"levelo://app?vid=8662fc9d-da33-4d7b-b994-86f2badcccdc"},"vehicle_type_id":"4","last_reported":1713816499,"current_range_meters":11600,"station_id":"ce4bhbp2rcd13ifvqesg","pricing_plan_id":"cebpf4jnsgd1na2vs0mg"},{"bike_id":"b2c43b89-924b-4156-b0af-93178ef9fec6","system_id":"levelo_inurba_marseille","lat":43.292749,"lon":5.368398,"is_reserved":false,"is_disabled":false,"rental_uris":{"android":"levelo://app?vid=b2c43b89-924b-4156-b0af-93178ef9fec6","ios":"levelo://app?vid=b2c43b89-924b-4156-b0af-93178ef9fec6"},"vehicle_type_id":"4","last_reported":1713816499,"current_range_meters":18800,"station_id":"ce4bhbp2rcd13ifvqesg","pricing_plan_id":"cebpf4jnsgd1na2vs0mg"},{"bike_id":"b607da3d-bfc8-43e5-88a3-922b2deccb97","system_id":"levelo_inurba_marseille","lat":43.292749,"lon":5.368398,"is_reserved":false,"is_disabled":false,"rental_uris":{"android":"levelo://app?vid=b607da3d-bfc8-43e5-88a3-922b2deccb97","ios":"levelo://app?vid=b607da3d-bfc8-43e5-88a3-922b2deccb97"},"vehicle_type_id":"4","last_reported":1713816499,"current_range_meters":25600,"station_id":"ce4bhbp2rcd13ifvqesg","pricing_plan_id":"cebpf4jnsgd1na2vs0mg"},{"bike_id":"c05bb1fc-8fc1-4094-81e7-817ce78ca957","system_id":"levelo_inurba_marseille","lat":43.29267,"lon":5.36842,"is_reserved":false,"is_disabled":false,"rental_uris":{"android":"levelo://app?vid=c05bb1fc-8fc1-4094-81e7-817ce78ca957","ios":"levelo://app?vid=c05bb1fc-8fc1-4094-81e7-817ce78ca957"},"vehicle_type_id":"4","last_reported":1713816499,"current_range_meters":2800,"station_id":"ce4bhbp2rcd13ifvqesg","pricing_plan_id":"cebpf4jnsgd1na2vs0mg"},{"bike_id":"a4e9c45c-b9dc-45c1-94c2-ac11efe9d79b","system_id":"levelo_inurba_marseille","lat":43.31877,"lon":5.39346,"is_reserved":false,"is_disabled":false,"rental_uris":{"android":"levelo://app?vid=a4e9c45c-b9dc-45c1-94c2-ac11efe9d79b","ios":"levelo://app?vid=a4e9c45c-b9dc-45c1-94c2-ac11efe9d79b"},"vehicle_type_id":"4","last_reported":1713816499,"current_range_meters":25200,"station_id":"","pricing_plan_id":"cebpf4jnsgd1na2vs0mg"},{"bike_id":"1828883d-85a1-4992-ab58-4181a9502600","system_id":"levelo_inurba_marseille","lat":43.293009,"lon":5.374584,"is_reserved":false,"is_disabled":false,"rental_uris":{"android":"levelo://app?vid=1828883d-85a1-4992-ab58-4181a9502600","ios":"levelo://app?vid=1828883d-85a1-4992-ab58-4181a9502600"},"vehicle_type_id":"4","last_reported":1713816499,"current_range_meters":24800,"station_id":"ce4bgi12rcd13ifvqb70","pricing_plan_id":"cebpf4jnsgd1na2vs0mg"},{"bike_id":"1a4e4676-e21d-4e05-8027-6544c09e3fb2","system_id":"levelo_inurba_marseille","lat":43.30592,"lon":5.39359,"is_reserved":false,"is_disabled":false,"rental_uris":{"android":"levelo://app?vid=1a4e4676-e21d-4e05-8027-6544c09e3fb2","ios":"levelo://app?vid=1a4e4676-e21d-4e05-8027-6544c09e3fb2"},"vehicle_type_id":"4","last_reported":1713816499,"current_range_meters":0,"station_id":"ce4bh0p2rcd13ifvqd80","pricing_plan_id":"cebpf4jnsgd1na2vs0mg"},{"bike_id":"d64eaff9-196a-4a0e-9e3f-97ad78c9964b","system_id":"levelo_inurba_marseille","lat":43.305994,"lon":5.393687,"is_reserved":false,"is_disabled":false,"rental_uris":{"android":"levelo://app?vid=d64eaff9-196a-4a0e-9e3f-97ad78c9964b","ios":"levelo://app?vid=d64eaff9-196a-4a0e-9e3f-97ad78c9964b"},"vehicle_type_id":"4","last_reported":1713816499,"current_range_meters":400,"station_id":"ce4bh0p2rcd13ifvqd80","pricing_plan_id":"cebpf4jnsgd1na2vs0mg"},{"bike_id":"00c7e54d-391a-4c96-a543-eebd0aa0e0d4","system_id":"levelo_inurba_marseille","lat":43.303002,"lon":5.392142,"is_reserved":false,"is_disabled":false,"rental_uris":{"android":"levelo://app?vid=00c7e54d-391a-4c96-a543-eebd0aa0e0d4","ios":"levelo://app?vid=00c7e54d-391a-4c96-a543-eebd0aa0e0d4"},"vehicle_type_id":"4","last_reported":1713816499,"current_range_meters":12000,"station_id":"ce4bgkh2rcd13ifvqbk0","pricing_plan_id":"cebpf4jnsgd1na2vs0mg"},{"bike_id":"b315ad9b-9a6d-476f-8755-563caa9bc51f","system_id":"levelo_inurba_marseille","lat":43.303002,"lon":5.392142,"is_reserved":false,"is_disabled":false,"rental_uris":{"android":"levelo://app?vid=b315ad9b-9a6d-476f-8755-563caa9bc51f","ios":"levelo://app?vid=b315ad9b-9a6d-476f-8755-563caa9bc51f"},"vehicle_type_id":"4","last_reported":1713816499,"current_range_meters":0,"station_id":"ce4bgkh2rcd13ifvqbk0","pricing_plan_id":"cebpf4jnsgd1na2vs0mg"},{"bike_id":"c5fce640-0fea-476d-9056-073fd3ded139","system_id":"levelo_inurba_marseille","lat":43.30304,"lon":5.39205,"is_reserved":false,"is_disabled":false,"rental_uris":{"android":"levelo://app?vid=c5fce640-0fea-476d-9056-073fd3ded139","ios":"levelo://app?vid=c5fce640-0fea-476d-9056-073fd3ded139"},"vehicle_type_id":"4","last_reported":1713816499,"current_range_meters":18000,"station_id":"ce4bgvp2rcd13ifvqct0","pricing_plan_id":"cebpf4jnsgd1na2vs0mg"},{"bike_id":"ad1ad587-14ff-4ee9-8640-3cae3b71893a","system_id":"levelo_inurba_marseille","lat":43.303002,"lon":5.392142,"is_reserved":false,"is_disabled":false,"rental_uris":{"android":"levelo://app?vid=ad1ad587-14ff-4ee9-8640-3cae3b71893a","ios":"levelo://app?vid=ad1ad587-14ff-4ee9-8640-3cae3b71893a"},"vehicle_type_id":"4","last_reported":1713816499,"current_range_meters":5600,"station_id":"ce4bgkh2rcd13ifvqbk0","pricing_plan_id":"cebpf4jnsgd1na2vs0mg"},{"bike_id":"57046a52-c156-47b3-aeec-4a2f914b722e","system_id":"levelo_inurba_marseille","lat":43.303002,"lon":5.392142,"is_reserved":false,"is_disabled":false,"rental_uris":{"android":"levelo://app?vid=57046a52-c156-47b3-aeec-4a2f914b722e","ios":"levelo://app?vid=57046a52-c156-47b3-aeec-4a2f914b722e"},"vehicle_type_id":"4","last_reported":1713816499,"current_range_meters":6000,"station_id":"ce4bgkh2rcd13ifvqbk0","pricing_plan_id":"cebpf4jnsgd1na2vs0mg"},{"bike_id":"6168ad7e-a3be-413b-ab50-fa1ed5c583d5","system_id":"levelo_inurba_marseille","lat":43.302992,"lon":5.392136,"is_reserved":false,"is_disabled":false,"rental_uris":{"android":"levelo://app?vid=6168ad7e-a3be-413b-ab50-fa1ed5c583d5","ios":"levelo://app?vid=6168ad7e-a3be-413b-ab50-fa1ed5c583d5"},"vehicle_type_id":"4","last_reported":1713816499,"current_range_meters":27200,"station_id":"ce4bgkh2rcd13ifvqbk0","pricing_plan_id":"cebpf4jnsgd1na2vs0mg"},{"bike_id":"8db8589a-fe99-4b56-ba77-79f98cc3342b","system_id":"levelo_inurba_marseille","lat":43.303002,"lon":5.392142,"is_reserved":false,"is_disabled":false,"rental_uris":{"android":"levelo://app?vid=8db8589a-fe99-4b56-ba77-79f98cc3342b","ios":"levelo://app?vid=8db8589a-fe99-4b56-ba77-79f98cc3342b"},"vehicle_type_id":"4","last_reported":1713816499,"current_range_meters":13200,"station_id":"ce4bgkh2rcd13ifvqbk0","pricing_plan_id":"cebpf4jnsgd1na2vs0mg"},{"bike_id":"80a66af7-df3b-4735-85de-f0dd031150fb","system_id":"levelo_inurba_marseille","lat":43.302992,"lon":5.392136,"is_reserved":false,"is_disabled":false,"rental_uris":{"android":"levelo://app?vid=80a66af7-df3b-4735-85de-f0dd031150fb","ios":"levelo://app?vid=80a66af7-df3b-4735-85de-f0dd031150fb"},"vehicle_type_id":"4","last_reported":1713816499,"current_range_meters":27200,"station_id":"ce4bgkh2rcd13ifvqbk0","pricing_plan_id":"cebpf4jnsgd1na2vs0mg"},{"bike_id":"73b62252-1ba6-433c-bcdb-59e25b43aa84","system_id":"levelo_inurba_marseille","lat":43.302992,"lon":5.392136,"is_reserved":false,"is_disabled":false,"rental_uris":{"android":"levelo://app?vid=73b62252-1ba6-433c-bcdb-59e25b43aa84","ios":"levelo://app?vid=73b62252-1ba6-433c-bcdb-59e25b43aa84"},"vehicle_type_id":"4","last_reported":1713816499,"current_range_meters":2800,"station_id":"ce4bgkh2rcd13ifvqbk0","pricing_plan_id":"cebpf4jnsgd1na2vs0mg"},{"bike_id":"8fc033a6-47f4-497b-b7e7-3af03aa1aa2c","system_id":"levelo_inurba_marseille","lat":43.302992,"lon":5.392136,"is_reserved":false,"is_disabled":false,"rental_uris":{"android":"levelo://app?vid=8fc033a6-47f4-497b-b7e7-3af03aa1aa2c","ios":"levelo://app?vid=8fc033a6-47f4-497b-b7e7-3af03aa1aa2c"},"vehicle_type_id":"4","last_reported":1713816499,"current_range_meters":2800,"station_id":"ce4bgkh2rcd13ifvqbk0","pricing_plan_id":"cebpf4jnsgd1na2vs0mg"},{"bike_id":"2acc8d06-e0cc-48ee-b8fb-af1fe12ceffa","system_id":"levelo_inurba_marseille","lat":43.302992,"lon":5.392136,"is_reserved":false,"is_disabled":false,"rental_uris":{"android":"levelo://app?vid=2acc8d06-e0cc-48ee-b8fb-af1fe12ceffa","ios":"levelo://app?vid=2acc8d06-e0cc-48ee-b8fb-af1fe12ceffa"},"vehicle_type_id":"4","last_reported":1713816499,"current_range_meters":31200,"station_id":"ce4bgkh2rcd13ifvqbk0","pricing_plan_id":"cebpf4jnsgd1na2vs0mg"},{"bike_id":"14ce15e3-dc52-4ad5-9aa6-4d9d6c944ca2","system_id":"levelo_inurba_marseille","lat":43.303002,"lon":5.392142,"is_reserved":false,"is_disabled":false,"rental_uris":{"android":"levelo://app?vid=14ce15e3-dc52-4ad5-9aa6-4d9d6c944ca2","ios":"levelo://app?vid=14ce15e3-dc52-4ad5-9aa6-4d9d6c944ca2"},"vehicle_type_id":"4","last_reported":1713816499,"current_range_meters":19600,"station_id":"ce4bgkh2rcd13ifvqbk0","pricing_plan_id":"cebpf4jnsgd1na2vs0mg"},{"bike_id":"2b08c8ba-4fe2-4939-8c7f-2b2a31618ac9","system_id":"levelo_inurba_marseille","lat":43.302992,"lon":5.392136,"is_reserved":false,"is_disabled":false,"rental_uris":{"android":"levelo://app?vid=2b08c8ba-4fe2-4939-8c7f-2b2a31618ac9","ios":"levelo://app?vid=2b08c8ba-4fe2-4939-8c7f-2b2a31618ac9"},"vehicle_type_id":"4","last_reported":1713816499,"current_range_meters":5600,"station_id":"ce4bgkh2rcd13ifvqbk0","pricing_plan_id":"cebpf4jnsgd1na2vs0mg"},{"bike_id":"90339365-6d49-4db3-b66a-bdf46a95b5c8","system_id":"levelo_inurba_marseille","lat":43.2936,"lon":5.37835,"is_reserved":false,"is_disabled":false,"rental_uris":{"android":"levelo://app?vid=90339365-6d49-4db3-b66a-bdf46a95b5c8","ios":"levelo://app?vid=90339365-6d49-4db3-b66a-bdf46a95b5c8"},"vehicle_type_id":"4","last_reported":1713816499,"current_range_meters":27200,"station_id":"ce4bgjh2rcd13ifvqbf0","pricing_plan_id":"cebpf4jnsgd1na2vs0mg"},{"bike_id":"97e2f783-5470-408e-96ec-ee74d4e9234c","system_id":"levelo_inurba_marseille","lat":43.2936,"lon":5.37835,"is_reserved":false,"is_disabled":false,"rental_uris":{"android":"levelo://app?vid=97e2f783-5470-408e-96ec-ee74d4e9234c","ios":"levelo://app?vid=97e2f783-5470-408e-96ec-ee74d4e9234c"},"vehicle_type_id":"4","last_reported":1713816499,"current_range_meters":7200,"station_id":"ce4bgjh2rcd13ifvqbf0","pricing_plan_id":"cebpf4jnsgd1na2vs0mg"},{"bike_id":"46f80415-8b26-4cc9-94ca-3376583f72cc","system_id":"levelo_inurba_marseille","lat":43.292311,"lon":5.360731,"is_reserved":false,"is_disabled":false,"rental_uris":{"android":"levelo://app?vid=46f80415-8b26-4cc9-94ca-3376583f72cc","ios":"levelo://app?vid=46f80415-8b26-4cc9-94ca-3376583f72cc"},"vehicle_type_id":"4","last_reported":1713816499,"current_range_meters":31200,"station_id":"ce4bhbh2rcd13ifvqeqg","pricing_plan_id":"cebpf4jnsgd1na2vs0mg"},{"bike_id":"0545cb67-7bdc-487e-963c-2ea1226b5379","system_id":"levelo_inurba_marseille","lat":43.292311,"lon":5.360731,"is_reserved":false,"is_disabled":false,"rental_uris":{"android":"levelo://app?vid=0545cb67-7bdc-487e-963c-2ea1226b5379","ios":"levelo://app?vid=0545cb67-7bdc-487e-963c-2ea1226b5379"},"vehicle_type_id":"4","last_reported":1713816499,"current_range_meters":10400,"station_id":"ce4bhbh2rcd13ifvqeqg","pricing_plan_id":"cebpf4jnsgd1na2vs0mg"},{"bike_id":"c38fc3fe-2580-4eef-86dc-cff4cdc8ffce","system_id":"levelo_inurba_marseille","lat":43.292311,"lon":5.360731,"is_reserved":false,"is_disabled":false,"rental_uris":{"android":"levelo://app?vid=c38fc3fe-2580-4eef-86dc-cff4cdc8ffce","ios":"levelo://app?vid=c38fc3fe-2580-4eef-86dc-cff4cdc8ffce"},"vehicle_type_id":"4","last_reported":1713816499,"current_range_meters":5200,"station_id":"ce4bhbh2rcd13ifvqeqg","pricing_plan_id":"cebpf4jnsgd1na2vs0mg"},{"bike_id":"d4b2af73-9a3d-4b01-a86d-81e3d5be95f5","system_id":"levelo_inurba_marseille","lat":43.300852,"lon":5.390859,"is_reserved":false,"is_disabled":false,"rental_uris":{"android":"levelo://app?vid=d4b2af73-9a3d-4b01-a86d-81e3d5be95f5","ios":"levelo://app?vid=d4b2af73-9a3d-4b01-a86d-81e3d5be95f5"},"vehicle_type_id":"4","last_reported":1713816499,"current_range_meters":23600,"station_id":"ce4bh192rcd13ifvqdb0","pricing_plan_id":"cebpf4jnsgd1na2vs0mg"},{"bike_id":"ddf0d506-77f3-4a2f-8878-66f0c7dbf28d","system_id":"levelo_inurba_marseille","lat":43.300852,"lon":5.390859,"is_reserved":false,"is_disabled":false,"rental_uris":{"android":"levelo://app?vid=ddf0d506-77f3-4a2f-8878-66f0c7dbf28d","ios":"levelo://app?vid=ddf0d506-77f3-4a2f-8878-66f0c7dbf28d"},"vehicle_type_id":"4","last_reported":1713816499,"current_range_meters":8000,"station_id":"ce4bh192rcd13ifvqdb0","pricing_plan_id":"cebpf4jnsgd1na2vs0mg"},{"bike_id":"6350c165-805b-4524-894b-4e5a9562c3ef","system_id":"levelo_inurba_marseille","lat":43.300852,"lon":5.390859,"is_reserved":false,"is_disabled":false,"rental_uris":{"android":"levelo://app?vid=6350c165-805b-4524-894b-4e5a9562c3ef","ios":"levelo://app?vid=6350c165-805b-4524-894b-4e5a9562c3ef"},"vehicle_type_id":"4","last_reported":1713816499,"current_range_meters":24000,"station_id":"ce4bh192rcd13ifvqdb0","pricing_plan_id":"cebpf4jnsgd1na2vs0mg"},{"bike_id":"aedd9d1b-5b45-40ed-8a37-f74d73ffe4dc","system_id":"levelo_inurba_marseille","lat":43.300852,"lon":5.390859,"is_reserved":false,"is_disabled":false,"rental_uris":{"android":"levelo://app?vid=aedd9d1b-5b45-40ed-8a37-f74d73ffe4dc","ios":"levelo://app?vid=aedd9d1b-5b45-40ed-8a37-f74d73ffe4dc"},"vehicle_type_id":"4","last_reported":1713816499,"current_range_meters":18000,"station_id":"ce4bh192rcd13ifvqdb0","pricing_plan_id":"cebpf4jnsgd1na2vs0mg"},{"bike_id":"8eb5a9d6-9e6b-4e4f-9d88-04cfbca5fd37","system_id":"levelo_inurba_marseille","lat":43.292311,"lon":5.360731,"is_reserved":false,"is_disabled":false,"rental_uris":{"android":"levelo://app?vid=8eb5a9d6-9e6b-4e4f-9d88-04cfbca5fd37","ios":"levelo://app?vid=8eb5a9d6-9e6b-4e4f-9d88-04cfbca5fd37"},"vehicle_type_id":"4","last_reported":1713816499,"current_range_meters":14400,"station_id":"ce4bhbh2rcd13ifvqeqg","pricing_plan_id":"cebpf4jnsgd1na2vs0mg"},{"bike_id":"ade1c4fe-f587-43fe-8d98-c2d7c9c559dc","system_id":"levelo_inurba_marseille","lat":43.292311,"lon":5.360731,"is_reserved":false,"is_disabled":false,"rental_uris":{"android":"levelo://app?vid=ade1c4fe-f587-43fe-8d98-c2d7c9c559dc","ios":"levelo://app?vid=ade1c4fe-f587-43fe-8d98-c2d7c9c559dc"},"vehicle_type_id":"4","last_reported":1713816499,"current_range_meters":30800,"station_id":"ce4bhbh2rcd13ifvqeqg","pricing_plan_id":"cebpf4jnsgd1na2vs0mg"},{"bike_id":"9b1ccdad-f419-4bf8-974e-22677719bbb4","system_id":"levelo_inurba_marseille","lat":43.292311,"lon":5.360731,"is_reserved":false,"is_disabled":false,"rental_uris":{"android":"levelo://app?vid=9b1ccdad-f419-4bf8-974e-22677719bbb4","ios":"levelo://app?vid=9b1ccdad-f419-4bf8-974e-22677719bbb4"},"vehicle_type_id":"4","last_reported":1713816499,"current_range_meters":31200,"station_id":"ce4bhbh2rcd13ifvqeqg","pricing_plan_id":"cebpf4jnsgd1na2vs0mg"},{"bike_id":"cfa0e6fc-6600-4e6f-a5e6-b2cb4a3b7dec","system_id":"levelo_inurba_marseille","lat":43.300852,"lon":5.390859,"is_reserved":false,"is_disabled":false,"rental_uris":{"android":"levelo://app?vid=cfa0e6fc-6600-4e6f-a5e6-b2cb4a3b7dec","ios":"levelo://app?vid=cfa0e6fc-6600-4e6f-a5e6-b2cb4a3b7dec"},"vehicle_type_id":"4","last_reported":1713816499,"current_range_meters":15600,"station_id":"ce4bh192rcd13ifvqdb0","pricing_plan_id":"cebpf4jnsgd1na2vs0mg"},{"bike_id":"d1437bb2-4748-488f-84a1-087801b9c4b1","system_id":"levelo_inurba_marseille","lat":43.292311,"lon":5.360731,"is_reserved":false,"is_disabled":false,"rental_uris":{"android":"levelo://app?vid=d1437bb2-4748-488f-84a1-087801b9c4b1","ios":"levelo://app?vid=d1437bb2-4748-488f-84a1-087801b9c4b1"},"vehicle_type_id":"4","last_reported":1713816499,"current_range_meters":10000,"station_id":"ce4bhbh2rcd13ifvqeqg","pricing_plan_id":"cebpf4jnsgd1na2vs0mg"},{"bike_id":"58f576a0-dc99-4b7a-8aa9-78df10e9f946","system_id":"levelo_inurba_marseille","lat":43.292311,"lon":5.360731,"is_reserved":false,"is_disabled":false,"rental_uris":{"android":"levelo://app?vid=58f576a0-dc99-4b7a-8aa9-78df10e9f946","ios":"levelo://app?vid=58f576a0-dc99-4b7a-8aa9-78df10e9f946"},"vehicle_type_id":"4","last_reported":1713816499,"current_range_meters":16800,"station_id":"ce4bhbh2rcd13ifvqeqg","pricing_plan_id":"cebpf4jnsgd1na2vs0mg"},{"bike_id":"85b9d1fc-3972-4b3c-b18a-d8dfd47b6f7c","system_id":"levelo_inurba_marseille","lat":43.295279,"lon":5.375048,"is_reserved":false,"is_disabled":false,"rental_uris":{"android":"levelo://app?vid=85b9d1fc-3972-4b3c-b18a-d8dfd47b6f7c","ios":"levelo://app?vid=85b9d1fc-3972-4b3c-b18a-d8dfd47b6f7c"},"vehicle_type_id":"4","last_reported":1713816499,"current_range_meters":11200,"station_id":"ce4bgkp2rcd13ifvqbmg","pricing_plan_id":"cebpf4jnsgd1na2vs0mg"},{"bike_id":"cfc104ec-7e83-44fa-9395-e670234220fc","system_id":"levelo_inurba_marseille","lat":43.298764,"lon":5.388973,"is_reserved":false,"is_disabled":false,"rental_uris":{"android":"levelo://app?vid=cfc104ec-7e83-44fa-9395-e670234220fc","ios":"levelo://app?vid=cfc104ec-7e83-44fa-9395-e670234220fc"},"vehicle_type_id":"4","last_reported":1713816499,"current_range_meters":25200,"station_id":"ce4bh392rcd13ifvqdl0","pricing_plan_id":"cebpf4jnsgd1na2vs0mg"},{"bike_id":"5becfba2-544a-4552-8201-2d3f88bef667","system_id":"levelo_inurba_marseille","lat":43.298764,"lon":5.388973,"is_reserved":false,"is_disabled":false,"rental_uris":{"android":"levelo://app?vid=5becfba2-544a-4552-8201-2d3f88bef667","ios":"levelo://app?vid=5becfba2-544a-4552-8201-2d3f88bef667"},"vehicle_type_id":"4","last_reported":1713816499,"current_range_meters":21200,"station_id":"ce4bh392rcd13ifvqdl0","pricing_plan_id":"cebpf4jnsgd1na2vs0mg"},{"bike_id":"eda12945-f4f0-4453-9f72-fc5f48b025bb","system_id":"levelo_inurba_marseille","lat":43.298764,"lon":5.388973,"is_reserved":false,"is_disabled":false,"rental_uris":{"android":"levelo://app?vid=eda12945-f4f0-4453-9f72-fc5f48b025bb","ios":"levelo://app?vid=eda12945-f4f0-4453-9f72-fc5f48b025bb"},"vehicle_type_id":"4","last_reported":1713816499,"current_range_meters":30800,"station_id":"ce4bh392rcd13ifvqdl0","pricing_plan_id":"cebpf4jnsgd1na2vs0mg"},{"bike_id":"8f735605-e8cb-4490-b7b2-9d5e0967228c","system_id":"levelo_inurba_marseille","lat":43.298764,"lon":5.388973,"is_reserved":false,"is_disabled":false,"rental_uris":{"android":"levelo://app?vid=8f735605-e8cb-4490-b7b2-9d5e0967228c","ios":"levelo://app?vid=8f735605-e8cb-4490-b7b2-9d5e0967228c"},"vehicle_type_id":"4","last_reported":1713816499,"current_range_meters":5200,"station_id":"ce4bh392rcd13ifvqdl0","pricing_plan_id":"cebpf4jnsgd1na2vs0mg"},{"bike_id":"7205650c-3746-4d37-85bd-2bdd8066b72d","system_id":"levelo_inurba_marseille","lat":43.291671,"lon":5.371575,"is_reserved":false,"is_disabled":false,"rental_uris":{"android":"levelo://app?vid=7205650c-3746-4d37-85bd-2bdd8066b72d","ios":"levelo://app?vid=7205650c-3746-4d37-85bd-2bdd8066b72d"},"vehicle_type_id":"4","last_reported":1713816499,"current_range_meters":22000,"station_id":"ce4bha92rcd13ifvqeh0","pricing_plan_id":"cebpf4jnsgd1na2vs0mg"},{"bike_id":"9d2e3e02-189b-4e75-a2e8-46c08345821e","system_id":"levelo_inurba_marseille","lat":43.298764,"lon":5.388973,"is_reserved":false,"is_disabled":false,"rental_uris":{"android":"levelo://app?vid=9d2e3e02-189b-4e75-a2e8-46c08345821e","ios":"levelo://app?vid=9d2e3e02-189b-4e75-a2e8-46c08345821e"},"vehicle_type_id":"4","last_reported":1713816499,"current_range_meters":6800,"station_id":"ce4bh392rcd13ifvqdl0","pricing_plan_id":"cebpf4jnsgd1na2vs0mg"},{"bike_id":"53b0e129-cf05-4059-b3b7-47df5a5e1cba","system_id":"levelo_inurba_marseille","lat":43.298764,"lon":5.388973,"is_reserved":false,"is_disabled":false,"rental_uris":{"android":"levelo://app?vid=53b0e129-cf05-4059-b3b7-47df5a5e1cba","ios":"levelo://app?vid=53b0e129-cf05-4059-b3b7-47df5a5e1cba"},"vehicle_type_id":"4","last_reported":1713816499,"current_range_meters":30000,"station_id":"ce4bh392rcd13ifvqdl0","pricing_plan_id":"cebpf4jnsgd1na2vs0mg"},{"bike_id":"f563b70c-4252-4ce5-b0f2-340d01af7e4c","system_id":"levelo_inurba_marseille","lat":43.298764,"lon":5.388973,"is_reserved":false,"is_disabled":false,"rental_uris":{"android":"levelo://app?vid=f563b70c-4252-4ce5-b0f2-340d01af7e4c","ios":"levelo://app?vid=f563b70c-4252-4ce5-b0f2-340d01af7e4c"},"vehicle_type_id":"4","last_reported":1713816499,"current_range_meters":17200,"station_id":"ce4bh392rcd13ifvqdl0","pricing_plan_id":"cebpf4jnsgd1na2vs0mg"},{"bike_id":"19e4604c-3c15-4bb7-bdf0-45109e85a0db","system_id":"levelo_inurba_marseille","lat":43.298764,"lon":5.388973,"is_reserved":false,"is_disabled":false,"rental_uris":{"android":"levelo://app?vid=19e4604c-3c15-4bb7-bdf0-45109e85a0db","ios":"levelo://app?vid=19e4604c-3c15-4bb7-bdf0-45109e85a0db"},"vehicle_type_id":"4","last_reported":1713816499,"current_range_meters":26800,"station_id":"ce4bh392rcd13ifvqdl0","pricing_plan_id":"cebpf4jnsgd1na2vs0mg"},{"bike_id":"c094f232-1acc-426a-bb3b-2bca148e5c94","system_id":"levelo_inurba_marseille","lat":43.298764,"lon":5.388973,"is_reserved":false,"is_disabled":false,"rental_uris":{"android":"levelo://app?vid=c094f232-1acc-426a-bb3b-2bca148e5c94","ios":"levelo://app?vid=c094f232-1acc-426a-bb3b-2bca148e5c94"},"vehicle_type_id":"4","last_reported":1713816499,"current_range_meters":14000,"station_id":"ce4bh392rcd13ifvqdl0","pricing_plan_id":"cebpf4jnsgd1na2vs0mg"},{"bike_id":"ec1daf2d-6015-4201-808b-0cf002992282","system_id":"levelo_inurba_marseille","lat":43.298764,"lon":5.388973,"is_reserved":false,"is_disabled":false,"rental_uris":{"android":"levelo://app?vid=ec1daf2d-6015-4201-808b-0cf002992282","ios":"levelo://app?vid=ec1daf2d-6015-4201-808b-0cf002992282"},"vehicle_type_id":"4","last_reported":1713816499,"current_range_meters":22800,"station_id":"ce4bh392rcd13ifvqdl0","pricing_plan_id":"cebpf4jnsgd1na2vs0mg"},{"bike_id":"7818204f-615e-4ea6-af75-347098c6aefa","system_id":"levelo_inurba_marseille","lat":43.291675,"lon":5.371583,"is_reserved":false,"is_disabled":false,"rental_uris":{"android":"levelo://app?vid=7818204f-615e-4ea6-af75-347098c6aefa","ios":"levelo://app?vid=7818204f-615e-4ea6-af75-347098c6aefa"},"vehicle_type_id":"4","last_reported":1713816499,"current_range_meters":25200,"station_id":"ce4bha92rcd13ifvqeh0","pricing_plan_id":"cebpf4jnsgd1na2vs0mg"},{"bike_id":"b873b1ac-6da7-4615-98f6-af1714efe1a7","system_id":"levelo_inurba_marseille","lat":43.292005,"lon":5.357875,"is_reserved":false,"is_disabled":false,"rental_uris":{"android":"levelo://app?vid=b873b1ac-6da7-4615-98f6-af1714efe1a7","ios":"levelo://app?vid=b873b1ac-6da7-4615-98f6-af1714efe1a7"},"vehicle_type_id":"4","last_reported":1713816499,"current_range_meters":26800,"station_id":"ce4bhb12rcd13ifvqel0","pricing_plan_id":"cebpf4jnsgd1na2vs0mg"},{"bike_id":"8ca1668b-87c0-4300-8b62-8346ae23e915","system_id":"levelo_inurba_marseille","lat":43.292005,"lon":5.357875,"is_reserved":false,"is_disabled":false,"rental_uris":{"android":"levelo://app?vid=8ca1668b-87c0-4300-8b62-8346ae23e915","ios":"levelo://app?vid=8ca1668b-87c0-4300-8b62-8346ae23e915"},"vehicle_type_id":"4","last_reported":1713816499,"current_range_meters":21600,"station_id":"ce4bhb12rcd13ifvqel0","pricing_plan_id":"cebpf4jnsgd1na2vs0mg"},{"bike_id":"fdf103d3-19e6-4467-8acc-7565ab271e21","system_id":"levelo_inurba_marseille","lat":43.308892,"lon":5.396378,"is_reserved":false,"is_disabled":false,"rental_uris":{"android":"levelo://app?vid=fdf103d3-19e6-4467-8acc-7565ab271e21","ios":"levelo://app?vid=fdf103d3-19e6-4467-8acc-7565ab271e21"},"vehicle_type_id":"4","last_reported":1713816499,"current_range_meters":0,"station_id":"ce4bh012rcd13ifvqcv0","pricing_plan_id":"cebpf4jnsgd1na2vs0mg"},{"bike_id":"89337a98-5f62-4891-886d-8731587e4e5e","system_id":"levelo_inurba_marseille","lat":43.313291,"lon":5.396838,"is_reserved":false,"is_disabled":false,"rental_uris":{"android":"levelo://app?vid=89337a98-5f62-4891-886d-8731587e4e5e","ios":"levelo://app?vid=89337a98-5f62-4891-886d-8731587e4e5e"},"vehicle_type_id":"4","last_reported":1713816499,"current_range_meters":14800,"station_id":"ce4bgvp2rcd13ifvqcu0","pricing_plan_id":"cebpf4jnsgd1na2vs0mg"},{"bike_id":"7a13027c-8b91-4647-9504-1c2c2d4155ce","system_id":"levelo_inurba_marseille","lat":43.291994,"lon":5.357886,"is_reserved":false,"is_disabled":false,"rental_uris":{"android":"levelo://app?vid=7a13027c-8b91-4647-9504-1c2c2d4155ce","ios":"levelo://app?vid=7a13027c-8b91-4647-9504-1c2c2d4155ce"},"vehicle_type_id":"4","last_reported":1713816499,"current_range_meters":23200,"station_id":"ce4bhb12rcd13ifvqel0","pricing_plan_id":"cebpf4jnsgd1na2vs0mg"},{"bike_id":"3164f708-d683-478a-a841-4be13c9b015e","system_id":"levelo_inurba_marseille","lat":43.313291,"lon":5.396838,"is_reserved":false,"is_disabled":false,"rental_uris":{"android":"levelo://app?vid=3164f708-d683-478a-a841-4be13c9b015e","ios":"levelo://app?vid=3164f708-d683-478a-a841-4be13c9b015e"},"vehicle_type_id":"4","last_reported":1713816499,"current_range_meters":22800,"station_id":"ce4bgvp2rcd13ifvqcu0","pricing_plan_id":"cebpf4jnsgd1na2vs0mg"},{"bike_id":"430bdb4d-6b65-4f2e-92e4-512ef52ef177","system_id":"levelo_inurba_marseille","lat":43.313291,"lon":5.396838,"is_reserved":false,"is_disabled":false,"rental_uris":{"android":"levelo://app?vid=430bdb4d-6b65-4f2e-92e4-512ef52ef177","ios":"levelo://app?vid=430bdb4d-6b65-4f2e-92e4-512ef52ef177"},"vehicle_type_id":"4","last_reported":1713816499,"current_range_meters":22000,"station_id":"ce4bgvp2rcd13ifvqcu0","pricing_plan_id":"cebpf4jnsgd1na2vs0mg"},{"bike_id":"d9da1fbf-0f9b-4471-9c16-1b1c42a0f8f2","system_id":"levelo_inurba_marseille","lat":43.313291,"lon":5.396838,"is_reserved":false,"is_disabled":false,"rental_uris":{"android":"levelo://app?vid=d9da1fbf-0f9b-4471-9c16-1b1c42a0f8f2","ios":"levelo://app?vid=d9da1fbf-0f9b-4471-9c16-1b1c42a0f8f2"},"vehicle_type_id":"4","last_reported":1713816499,"current_range_meters":3600,"station_id":"ce4bgvp2rcd13ifvqcu0","pricing_plan_id":"cebpf4jnsgd1na2vs0mg"},{"bike_id":"543a512c-c67f-45eb-ab93-2358117ca2fd","system_id":"levelo_inurba_marseille","lat":43.313291,"lon":5.396838,"is_reserved":false,"is_disabled":false,"rental_uris":{"android":"levelo://app?vid=543a512c-c67f-45eb-ab93-2358117ca2fd","ios":"levelo://app?vid=543a512c-c67f-45eb-ab93-2358117ca2fd"},"vehicle_type_id":"4","last_reported":1713816499,"current_range_meters":24400,"station_id":"ce4bgvp2rcd13ifvqcu0","pricing_plan_id":"cebpf4jnsgd1na2vs0mg"},{"bike_id":"57939d8d-f152-4244-84f4-766b3896623e","system_id":"levelo_inurba_marseille","lat":43.31332,"lon":5.39693,"is_reserved":false,"is_disabled":false,"rental_uris":{"android":"levelo://app?vid=57939d8d-f152-4244-84f4-766b3896623e","ios":"levelo://app?vid=57939d8d-f152-4244-84f4-766b3896623e"},"vehicle_type_id":"4","last_reported":1713816499,"current_range_meters":0,"station_id":"ce4bgvp2rcd13ifvqcu0","pricing_plan_id":"cebpf4jnsgd1na2vs0mg"},{"bike_id":"6efce0b7-a6e5-4e3f-90d6-0a45b465c914","system_id":"levelo_inurba_marseille","lat":43.30889,"lon":5.39647,"is_reserved":false,"is_disabled":false,"rental_uris":{"android":"levelo://app?vid=6efce0b7-a6e5-4e3f-90d6-0a45b465c914","ios":"levelo://app?vid=6efce0b7-a6e5-4e3f-90d6-0a45b465c914"},"vehicle_type_id":"4","last_reported":1713816499,"current_range_meters":0,"station_id":"ce4bh012rcd13ifvqcv0","pricing_plan_id":"cebpf4jnsgd1na2vs0mg"},{"bike_id":"c6c44270-f44e-4011-9e36-5b56fd688381","system_id":"levelo_inurba_marseille","lat":43.313291,"lon":5.396838,"is_reserved":false,"is_disabled":false,"rental_uris":{"android":"levelo://app?vid=c6c44270-f44e-4011-9e36-5b56fd688381","ios":"levelo://app?vid=c6c44270-f44e-4011-9e36-5b56fd688381"},"vehicle_type_id":"4","last_reported":1713816499,"current_range_meters":17600,"station_id":"ce4bgvp2rcd13ifvqcu0","pricing_plan_id":"cebpf4jnsgd1na2vs0mg"},{"bike_id":"7ba63e03-66ca-46b0-86b7-18bfdcfcf6d2","system_id":"levelo_inurba_marseille","lat":43.309047,"lon":5.396551,"is_reserved":false,"is_disabled":false,"rental_uris":{"android":"levelo://app?vid=7ba63e03-66ca-46b0-86b7-18bfdcfcf6d2","ios":"levelo://app?vid=7ba63e03-66ca-46b0-86b7-18bfdcfcf6d2"},"vehicle_type_id":"4","last_reported":1713816499,"current_range_meters":12800,"station_id":"ce4bh012rcd13ifvqcv0","pricing_plan_id":"cebpf4jnsgd1na2vs0mg"},{"bike_id":"5aac2d0a-5c91-4141-90a0-584e517051f4","system_id":"levelo_inurba_marseille","lat":43.313291,"lon":5.396838,"is_reserved":false,"is_disabled":false,"rental_uris":{"android":"levelo://app?vid=5aac2d0a-5c91-4141-90a0-584e517051f4","ios":"levelo://app?vid=5aac2d0a-5c91-4141-90a0-584e517051f4"},"vehicle_type_id":"4","last_reported":1713816499,"current_range_meters":25200,"station_id":"ce4bgvp2rcd13ifvqcu0","pricing_plan_id":"cebpf4jnsgd1na2vs0mg"},{"bike_id":"acf70660-b535-4129-bd9c-f476b7a642f2","system_id":"levelo_inurba_marseille","lat":43.31327,"lon":5.397,"is_reserved":false,"is_disabled":false,"rental_uris":{"android":"levelo://app?vid=acf70660-b535-4129-bd9c-f476b7a642f2","ios":"levelo://app?vid=acf70660-b535-4129-bd9c-f476b7a642f2"},"vehicle_type_id":"4","last_reported":1713816499,"current_range_meters":11600,"station_id":"ce4bgvp2rcd13ifvqcu0","pricing_plan_id":"cebpf4jnsgd1na2vs0mg"},{"bike_id":"1a43f498-88dd-4eed-b33d-508a8f02c184","system_id":"levelo_inurba_marseille","lat":43.313291,"lon":5.396838,"is_reserved":false,"is_disabled":false,"rental_uris":{"android":"levelo://app?vid=1a43f498-88dd-4eed-b33d-508a8f02c184","ios":"levelo://app?vid=1a43f498-88dd-4eed-b33d-508a8f02c184"},"vehicle_type_id":"4","last_reported":1713816499,"current_range_meters":26400,"station_id":"ce4bgvp2rcd13ifvqcu0","pricing_plan_id":"cebpf4jnsgd1na2vs0mg"},{"bike_id":"ded4fa11-5719-4994-981d-2c88722e1ada","system_id":"levelo_inurba_marseille","lat":43.309038,"lon":5.396546,"is_reserved":false,"is_disabled":false,"rental_uris":{"android":"levelo://app?vid=ded4fa11-5719-4994-981d-2c88722e1ada","ios":"levelo://app?vid=ded4fa11-5719-4994-981d-2c88722e1ada"},"vehicle_type_id":"4","last_reported":1713816499,"current_range_meters":28400,"station_id":"ce4bh012rcd13ifvqcv0","pricing_plan_id":"cebpf4jnsgd1na2vs0mg"},{"bike_id":"26dd13a0-3320-45c6-9d27-7c141b5e2408","system_id":"levelo_inurba_marseille","lat":43.293009,"lon":5.374584,"is_reserved":false,"is_disabled":false,"rental_uris":{"android":"levelo://app?vid=26dd13a0-3320-45c6-9d27-7c141b5e2408","ios":"levelo://app?vid=26dd13a0-3320-45c6-9d27-7c141b5e2408"},"vehicle_type_id":"4","last_reported":1713816499,"current_range_meters":14800,"station_id":"ce4bgi12rcd13ifvqb70","pricing_plan_id":"cebpf4jnsgd1na2vs0mg"},{"bike_id":"2a0b9bb5-be31-4af3-8b59-4e0bbe14632a","system_id":"levelo_inurba_marseille","lat":43.29529,"lon":5.385581,"is_reserved":false,"is_disabled":false,"rental_uris":{"android":"levelo://app?vid=2a0b9bb5-be31-4af3-8b59-4e0bbe14632a","ios":"levelo://app?vid=2a0b9bb5-be31-4af3-8b59-4e0bbe14632a"},"vehicle_type_id":"4","last_reported":1713816499,"current_range_meters":21600,"station_id":"ce4bgih2rcd13ifvqba0","pricing_plan_id":"cebpf4jnsgd1na2vs0mg"},{"bike_id":"bf566e40-bde8-4c6e-9e32-90a261db2bd8","system_id":"levelo_inurba_marseille","lat":43.29529,"lon":5.385581,"is_reserved":false,"is_disabled":false,"rental_uris":{"android":"levelo://app?vid=bf566e40-bde8-4c6e-9e32-90a261db2bd8","ios":"levelo://app?vid=bf566e40-bde8-4c6e-9e32-90a261db2bd8"},"vehicle_type_id":"4","last_reported":1713816499,"current_range_meters":6800,"station_id":"ce4bgih2rcd13ifvqba0","pricing_plan_id":"cebpf4jnsgd1na2vs0mg"},{"bike_id":"cba84523-138e-4d2e-8585-b186507a7290","system_id":"levelo_inurba_marseille","lat":43.29529,"lon":5.385581,"is_reserved":false,"is_disabled":false,"rental_uris":{"android":"levelo://app?vid=cba84523-138e-4d2e-8585-b186507a7290","ios":"levelo://app?vid=cba84523-138e-4d2e-8585-b186507a7290"},"vehicle_type_id":"4","last_reported":1713816499,"current_range_meters":30800,"station_id":"ce4bgih2rcd13ifvqba0","pricing_plan_id":"cebpf4jnsgd1na2vs0mg"},{"bike_id":"61130906-30b3-431e-8ab6-0086cad1849c","system_id":"levelo_inurba_marseille","lat":43.29529,"lon":5.385581,"is_reserved":false,"is_disabled":false,"rental_uris":{"android":"levelo://app?vid=61130906-30b3-431e-8ab6-0086cad1849c","ios":"levelo://app?vid=61130906-30b3-431e-8ab6-0086cad1849c"},"vehicle_type_id":"4","last_reported":1713816499,"current_range_meters":13200,"station_id":"ce4bgih2rcd13ifvqba0","pricing_plan_id":"cebpf4jnsgd1na2vs0mg"},{"bike_id":"563e8145-56d5-42c5-83bf-9c9ec907f816","system_id":"levelo_inurba_marseille","lat":43.2953,"lon":5.38535,"is_reserved":false,"is_disabled":false,"rental_uris":{"android":"levelo://app?vid=563e8145-56d5-42c5-83bf-9c9ec907f816","ios":"levelo://app?vid=563e8145-56d5-42c5-83bf-9c9ec907f816"},"vehicle_type_id":"4","last_reported":1713816499,"current_range_meters":4800,"station_id":"ce4bgih2rcd13ifvqba0","pricing_plan_id":"cebpf4jnsgd1na2vs0mg"},{"bike_id":"f41e0982-40af-400d-90b9-969156f8e3b1","system_id":"levelo_inurba_marseille","lat":43.29529,"lon":5.385581,"is_reserved":false,"is_disabled":false,"rental_uris":{"android":"levelo://app?vid=f41e0982-40af-400d-90b9-969156f8e3b1","ios":"levelo://app?vid=f41e0982-40af-400d-90b9-969156f8e3b1"},"vehicle_type_id":"4","last_reported":1713816499,"current_range_meters":8800,"station_id":"ce4bgih2rcd13ifvqba0","pricing_plan_id":"cebpf4jnsgd1na2vs0mg"},{"bike_id":"899a06b8-4745-4c2d-8940-442680f3ed55","system_id":"levelo_inurba_marseille","lat":43.29529,"lon":5.385581,"is_reserved":false,"is_disabled":false,"rental_uris":{"android":"levelo://app?vid=899a06b8-4745-4c2d-8940-442680f3ed55","ios":"levelo://app?vid=899a06b8-4745-4c2d-8940-442680f3ed55"},"vehicle_type_id":"4","last_reported":1713816499,"current_range_meters":16000,"station_id":"ce4bgih2rcd13ifvqba0","pricing_plan_id":"cebpf4jnsgd1na2vs0mg"},{"bike_id":"2c8de765-155e-4a9b-93ca-42b2eee69667","system_id":"levelo_inurba_marseille","lat":43.297163,"lon":5.365866,"is_reserved":false,"is_disabled":false,"rental_uris":{"android":"levelo://app?vid=2c8de765-155e-4a9b-93ca-42b2eee69667","ios":"levelo://app?vid=2c8de765-155e-4a9b-93ca-42b2eee69667"},"vehicle_type_id":"4","last_reported":1713816499,"current_range_meters":14000,"station_id":"ce4bgn12rcd13ifvqbt0","pricing_plan_id":"cebpf4jnsgd1na2vs0mg"},{"bike_id":"d4f514ac-273e-4cb0-b6c5-b4559abc5981","system_id":"levelo_inurba_marseille","lat":43.29529,"lon":5.385581,"is_reserved":false,"is_disabled":false,"rental_uris":{"android":"levelo://app?vid=d4f514ac-273e-4cb0-b6c5-b4559abc5981","ios":"levelo://app?vid=d4f514ac-273e-4cb0-b6c5-b4559abc5981"},"vehicle_type_id":"4","last_reported":1713816499,"current_range_meters":7200,"station_id":"ce4bgih2rcd13ifvqba0","pricing_plan_id":"cebpf4jnsgd1na2vs0mg"},{"bike_id":"12430d7d-941c-4aae-bcce-91ecf7727e96","system_id":"levelo_inurba_marseille","lat":43.29529,"lon":5.385581,"is_reserved":false,"is_disabled":false,"rental_uris":{"android":"levelo://app?vid=12430d7d-941c-4aae-bcce-91ecf7727e96","ios":"levelo://app?vid=12430d7d-941c-4aae-bcce-91ecf7727e96"},"vehicle_type_id":"4","last_reported":1713816499,"current_range_meters":11600,"station_id":"ce4bgih2rcd13ifvqba0","pricing_plan_id":"cebpf4jnsgd1na2vs0mg"},{"bike_id":"12d06eee-d7d1-43ca-9860-c8c649d24523","system_id":"levelo_inurba_marseille","lat":43.29529,"lon":5.385581,"is_reserved":false,"is_disabled":false,"rental_uris":{"android":"levelo://app?vid=12d06eee-d7d1-43ca-9860-c8c649d24523","ios":"levelo://app?vid=12d06eee-d7d1-43ca-9860-c8c649d24523"},"vehicle_type_id":"4","last_reported":1713816499,"current_range_meters":16000,"station_id":"ce4bgih2rcd13ifvqba0","pricing_plan_id":"cebpf4jnsgd1na2vs0mg"},{"bike_id":"1fa70e5b-a652-4e45-b016-4a362a506b2f","system_id":"levelo_inurba_marseille","lat":43.29529,"lon":5.385581,"is_reserved":false,"is_disabled":false,"rental_uris":{"android":"levelo://app?vid=1fa70e5b-a652-4e45-b016-4a362a506b2f","ios":"levelo://app?vid=1fa70e5b-a652-4e45-b016-4a362a506b2f"},"vehicle_type_id":"4","last_reported":1713816499,"current_range_meters":17200,"station_id":"ce4bgih2rcd13ifvqba0","pricing_plan_id":"cebpf4jnsgd1na2vs0mg"},{"bike_id":"da984b5b-2b9e-4a06-84d6-898fc529575e","system_id":"levelo_inurba_marseille","lat":43.29529,"lon":5.38543,"is_reserved":false,"is_disabled":false,"rental_uris":{"android":"levelo://app?vid=da984b5b-2b9e-4a06-84d6-898fc529575e","ios":"levelo://app?vid=da984b5b-2b9e-4a06-84d6-898fc529575e"},"vehicle_type_id":"4","last_reported":1713816499,"current_range_meters":3600,"station_id":"ce4bgih2rcd13ifvqba0","pricing_plan_id":"cebpf4jnsgd1na2vs0mg"},{"bike_id":"d997fdc8-bdc7-453a-8a71-a3dcc5ead7c7","system_id":"levelo_inurba_marseille","lat":43.29529,"lon":5.385581,"is_reserved":false,"is_disabled":false,"rental_uris":{"android":"levelo://app?vid=d997fdc8-bdc7-453a-8a71-a3dcc5ead7c7","ios":"levelo://app?vid=d997fdc8-bdc7-453a-8a71-a3dcc5ead7c7"},"vehicle_type_id":"4","last_reported":1713816499,"current_range_meters":23600,"station_id":"ce4bgih2rcd13ifvqba0","pricing_plan_id":"cebpf4jnsgd1na2vs0mg"},{"bike_id":"7a6f2d42-2113-4a9b-9698-a1f3e64018b7","system_id":"levelo_inurba_marseille","lat":43.29527,"lon":5.38543,"is_reserved":false,"is_disabled":false,"rental_uris":{"android":"levelo://app?vid=7a6f2d42-2113-4a9b-9698-a1f3e64018b7","ios":"levelo://app?vid=7a6f2d42-2113-4a9b-9698-a1f3e64018b7"},"vehicle_type_id":"4","last_reported":1713816499,"current_range_meters":0,"station_id":"ce4bgih2rcd13ifvqba0","pricing_plan_id":"cebpf4jnsgd1na2vs0mg"},{"bike_id":"f6fa3745-2fb3-482b-8939-5e42485f245a","system_id":"levelo_inurba_marseille","lat":43.29529,"lon":5.385581,"is_reserved":false,"is_disabled":false,"rental_uris":{"android":"levelo://app?vid=f6fa3745-2fb3-482b-8939-5e42485f245a","ios":"levelo://app?vid=f6fa3745-2fb3-482b-8939-5e42485f245a"},"vehicle_type_id":"4","last_reported":1713816499,"current_range_meters":6000,"station_id":"ce4bgih2rcd13ifvqba0","pricing_plan_id":"cebpf4jnsgd1na2vs0mg"},{"bike_id":"56ec0bbd-0563-4187-b938-379dee382495","system_id":"levelo_inurba_marseille","lat":43.29529,"lon":5.385581,"is_reserved":false,"is_disabled":false,"rental_uris":{"android":"levelo://app?vid=56ec0bbd-0563-4187-b938-379dee382495","ios":"levelo://app?vid=56ec0bbd-0563-4187-b938-379dee382495"},"vehicle_type_id":"4","last_reported":1713816499,"current_range_meters":20400,"station_id":"ce4bgih2rcd13ifvqba0","pricing_plan_id":"cebpf4jnsgd1na2vs0mg"},{"bike_id":"0499fa15-b183-4719-805f-5cf349501968","system_id":"levelo_inurba_marseille","lat":43.29529,"lon":5.385581,"is_reserved":false,"is_disabled":false,"rental_uris":{"android":"levelo://app?vid=0499fa15-b183-4719-805f-5cf349501968","ios":"levelo://app?vid=0499fa15-b183-4719-805f-5cf349501968"},"vehicle_type_id":"4","last_reported":1713816499,"current_range_meters":5200,"station_id":"ce4bgih2rcd13ifvqba0","pricing_plan_id":"cebpf4jnsgd1na2vs0mg"},{"bike_id":"a015bedf-471c-491f-9ad1-bfb68b6afbf9","system_id":"levelo_inurba_marseille","lat":43.29529,"lon":5.385581,"is_reserved":false,"is_disabled":false,"rental_uris":{"android":"levelo://app?vid=a015bedf-471c-491f-9ad1-bfb68b6afbf9","ios":"levelo://app?vid=a015bedf-471c-491f-9ad1-bfb68b6afbf9"},"vehicle_type_id":"4","last_reported":1713816499,"current_range_meters":2400,"station_id":"ce4bgih2rcd13ifvqba0","pricing_plan_id":"cebpf4jnsgd1na2vs0mg"},{"bike_id":"7716a5e3-4101-4adc-8a07-8b4562c20e58","system_id":"levelo_inurba_marseille","lat":43.290779,"lon":5.371482,"is_reserved":false,"is_disabled":false,"rental_uris":{"android":"levelo://app?vid=7716a5e3-4101-4adc-8a07-8b4562c20e58","ios":"levelo://app?vid=7716a5e3-4101-4adc-8a07-8b4562c20e58"},"vehicle_type_id":"4","last_reported":1713816499,"current_range_meters":31200,"station_id":"ce4bh5p2rcd13ifvqe4g","pricing_plan_id":"cebpf4jnsgd1na2vs0mg"},