{"last_updated":1752005546,"ttl":60,"version":"2.2","data":{"bikes":[{"bike_id":"cd20cfea-2f2f-444d-a882-a49b6cf370eb","system_id":"levelo_inurba_marseille","lat":43.337444,"lon":5.374475,"is_reserved":false,"is_disabled":true,"rental_uris":{"android":"levelo://app?vid=cd20cfea-2f2f-444d-a882-a49b6cf370eb","ios":"levelo://app?vid=cd20cfea-2f2f-444d-a882-a49b6cf370eb"},"vehicle_type_id":"4","last_reported":1752005547,"current_range_meters":0,"station_id":"","pricing_plan_id":"cebpf4jnsgd1na2vs0mg"},{"bike_id":"3da29fb8-fc97-44c6-b9ac-31dd456b2fd4","system_id":"levelo_inurba_marseille","lat":43.33771,"lon":5.37424,"is_reserved":false,"is_disabled":true,"rental_uris":{"android":"levelo://app?vid=3da29fb8-fc97-44c6-b9ac-31dd456b2fd4","ios":"levelo://app?vid=3da29fb8-fc97-44c6-b9ac-31dd456b2fd4"},"vehicle_type_id":"4","last_reported":1752005547,"current_range_meters":0,"station_id":"","pricing_plan_id":"cebpf4jnsgd1na2vs0mg"},{"bike_id":"01861ad8-a8d7-4be6-816e-651927c87584","system_id":"levelo_inurba_marseille","lat":43.33751,"lon":5.37456,"is_reserved":false,"is_disabled":true,"rental_uris":{"android":"levelo://app?vid=01861ad8-a8d7-4be6-816e-651927c87584","ios":"levelo://app?vid=01861ad8-a8d7-4be6-816e-651927c87584"},"vehicle_type_id":"4","last_reported":1752005547,"current_range_meters":0,"station_id":"","pricing_plan_id":"cebpf4jnsgd1na2vs0mg"},{"bike_id":"b7374102-f6fb-49f2-bb32-3bf156833063","system_id":"levelo_inurba_marseille","lat":43.281981,"lon":5.369504,"is_reserved":false,"is_disabled":true,"rental_uris":{"android":"levelo://app?vid=b7374102-f6fb-49f2-bb32-3bf156833063","ios":"levelo://app?vid=b7374102-f6fb-49f2-bb32-3bf156833063"},"vehicle_type_id":"4","last_reported":1752005547,"current_range_meters":0,"station_id":"","pricing_plan_id":"cebpf4jnsgd1na2vs0mg"},{"bike_id":"3d508917-55ee-42b6-894b-89c2a444dc06","system_id":"levelo_inurba_marseille","lat":43.33743,"lon":5.37436,"is_reserved":false,"is_disabled":true,"rental_uris":{"android":"levelo://app?vid=3d508917-55ee-42b6-894b-89c2a444dc06","ios":"levelo://app?vid=3d508917-55ee-42b6-894b-89c2a444dc06"},"vehicle_type_id":"4","last_reported":1752005547,"current_range_meters":0,"station_id":"","pricing_plan_id":"cebpf4jnsgd1na2vs0mg"},{"bike_id":"d4242f2e-e9cc-400b-b523-4d48ccb4af07","system_id":"levelo_inurba_marseille","lat":43.30309,"lon":5.37584,"is_reserved":false,"is_disabled":true,"rental_uris":{"android":"levelo://app?vid=d4242f2e-e9cc-400b-b523-4d48ccb4af07","ios":"levelo://app?vid=d4242f2e-e9cc-400b-b523-4d48ccb4af07"},"vehicle_type_id":"4","last_reported":1752005547,"current_range_meters":0,"station_id":"","pricing_plan_id":"cebpf4jnsgd1na2vs0mg"},{"bike_id":"e4c080f4-d789-4ba2-be95-fe69ea640770","system_id":"levelo_inurba_marseille","lat":43.306459,"lon":5.400946,"is_reserved":false,"is_disabled":true,"rental_uris":{"android":"levelo://app?vid=e4c080f4-d789-4ba2-be95-fe69ea640770","ios":"levelo://app?vid=e4c080f4-d789-4ba2-be95-fe69ea640770"},"vehicle_type_id":"4","last_reported":1752005547,"current_range_meters":0,"station_id":"ce4bh112rcd13ifvqda0","pricing_plan_id":"cebpf4jnsgd1na2vs0mg"},{"bike_id":"f2132d70-be4f-4969-b359-57689a57af0b","system_id":"levelo_inurba_marseille","lat":43.29235,"lon":5.36042,"is_reserved":false,"is_disabled":true,"rental_uris":{"android":"levelo://app?vid=f2132d70-be4f-4969-b359-57689a57af0b","ios":"levelo://app?vid=f2132d70-be4f-4969-b359-57689a57af0b"},"vehicle_type_id":"4","last_reported":1752005547,"current_range_meters":0,"station_id":"ce4bhbh2rcd13ifvqeqg","pricing_plan_id":"cebpf4jnsgd1na2vs0mg"},{"bike_id":"93ac6d2f-8069-4549-8599-b67272735a17","system_id":"levelo_inurba_marseille","lat":43.25113,"lon":5.40349,"is_reserved":false,"is_disabled":true,"rental_uris":{"android":"levelo://app?vid=93ac6d2f-8069-4549-8599-b67272735a17","ios":"levelo://app?vid=93ac6d2f-8069-4549-8599-b67272735a17"},"vehicle_type_id":"4","last_reported":1752005547,"current_range_meters":0,"station_id":"ce4bhlh2rcd13ifvqgig","pricing_plan_id":"cebpf4jnsgd1na2vs0mg"},{"bike_id":"463fbf12-1247-48e2-9ec8-21337cf9117a","system_id":"levelo_inurba_marseille","lat":43.32338,"lon":5.40608,"is_reserved":false,"is_disabled":true,"rental_uris":{"android":"levelo://app?vid=463fbf12-1247-48e2-9ec8-21337cf9117a","ios":"levelo://app?vid=463fbf12-1247-48e2-9ec8-21337cf9117a"},"vehicle_type_id":"4","last_reported":1752005547,"current_range_meters":0,"station_id":"ce4bhq92rcd13ifvqhjg","pricing_plan_id":"cebpf4jnsgd1na2vs0mg"},{"bike_id":"53b1a31e-8ada-40c0-8d64-113a81233c84","system_id":"levelo_inurba_marseille","lat":43.36407,"lon":5.31935,"is_reserved":false,"is_disabled":true,"rental_uris":{"android":"levelo://app?vid=53b1a31e-8ada-40c0-8d64-113a81233c84","ios":"levelo://app?vid=53b1a31e-8ada-40c0-8d64-113a81233c84"},"vehicle_type_id":"4","last_reported":1752005547,"current_range_meters":400,"station_id":"","pricing_plan_id":"cebpf4jnsgd1na2vs0mg"},{"bike_id":"44d20eb0-230b-4b43-a762-7c96674feea2","system_id":"levelo_inurba_marseille","lat":43.23963,"lon":5.3663,"is_reserved":false,"is_disabled":true,"rental_uris":{"android":"levelo://app?vid=44d20eb0-230b-4b43-a762-7c96674feea2","ios":"levelo://app?vid=44d20eb0-230b-4b43-a762-7c96674feea2"},"vehicle_type_id":"4","last_reported":1752005547,"current_range_meters":400,"station_id":"ce4bhi12rcd13ifvqfp0","pricing_plan_id":"cebpf4jnsgd1na2vs0mg"},{"bike_id":"ed290504-6948-4f69-8584-2e2b0286febf","system_id":"levelo_inurba_marseille","lat":43.2121,"lon":5.35058,"is_reserved":false,"is_disabled":true,"rental_uris":{"android":"levelo://app?vid=ed290504-6948-4f69-8584-2e2b0286febf","ios":"levelo://app?vid=ed290504-6948-4f69-8584-2e2b0286febf"},"vehicle_type_id":"4","last_reported":1752005547,"current_range_meters":400,"station_id":"st_cvj6sg6p6f1abm77japg","pricing_plan_id":"cebpf4jnsgd1na2vs0mg"},{"bike_id":"0a7f4450-47d6-42a2-9d38-a522b880220a","system_id":"levelo_inurba_marseille","lat":43.26551,"lon":5.37287,"is_reserved":false,"is_disabled":true,"rental_uris":{"android":"levelo://app?vid=0a7f4450-47d6-42a2-9d38-a522b880220a","ios":"levelo://app?vid=0a7f4450-47d6-42a2-9d38-a522b880220a"},"vehicle_type_id":"4","last_reported":1752005547,"current_range_meters":800,"station_id":"ce4bhg12rcd13ifvqf70","pricing_plan_id":"cebpf4jnsgd1na2vs0mg"},{"bike_id":"6661cbd2-6ba2-4b46-b15e-1188df0f29d7","system_id":"levelo_inurba_marseille","lat":43.21157,"lon":5.35067,"is_reserved":false,"is_disabled":true,"rental_uris":{"android":"levelo://app?vid=6661cbd2-6ba2-4b46-b15e-1188df0f29d7","ios":"levelo://app?vid=6661cbd2-6ba2-4b46-b15e-1188df0f29d7"},"vehicle_type_id":"4","last_reported":1752005547,"current_range_meters":800,"station_id":"st_cvj6sg6p6f1abm77japg","pricing_plan_id":"cebpf4jnsgd1na2vs0mg"},{"bike_id":"b2618f82-2566-42b2-acf4-ddf1399292de","system_id":"levelo_inurba_marseille","lat":43.29624,"lon":5.37713,"is_reserved":false,"is_disabled":true,"rental_uris":{"android":"levelo://app?vid=b2618f82-2566-42b2-acf4-ddf1399292de","ios":"levelo://app?vid=b2618f82-2566-42b2-acf4-ddf1399292de"},"vehicle_type_id":"4","last_reported":1752005547,"current_range_meters":1200,"station_id":"ce4bgi92rcd13ifvqb90","pricing_plan_id":"cebpf4jnsgd1na2vs0mg"},{"bike_id":"47cc12e9-1f9d-4b29-b948-db655857089a","system_id":"levelo_inurba_marseille","lat":43.22543,"lon":5.34777,"is_reserved":false,"is_disabled":true,"rental_uris":{"android":"levelo://app?vid=47cc12e9-1f9d-4b29-b948-db655857089a","ios":"levelo://app?vid=47cc12e9-1f9d-4b29-b948-db655857089a"},"vehicle_type_id":"4","last_reported":1752005547,"current_range_meters":1600,"station_id":"","pricing_plan_id":"cebpf4jnsgd1na2vs0mg"},{"bike_id":"62525351-b685-4b7a-9aab-90d32e6fee63","system_id":"levelo_inurba_marseille","lat":43.23963,"lon":5.36631,"is_reserved":false,"is_disabled":true,"rental_uris":{"android":"levelo://app?vid=62525351-b685-4b7a-9aab-90d32e6fee63","ios":"levelo://app?vid=62525351-b685-4b7a-9aab-90d32e6fee63"},"vehicle_type_id":"4","last_reported":1752005547,"current_range_meters":2000,"station_id":"ce4bhi12rcd13ifvqfp0","pricing_plan_id":"cebpf4jnsgd1na2vs0mg"},{"bike_id":"de238b50-7d25-4dbe-8bcb-9384b7ace93a","system_id":"levelo_inurba_marseille","lat":43.292,"lon":5.39322,"is_reserved":false,"is_disabled":false,"rental_uris":{"android":"levelo://app?vid=de238b50-7d25-4dbe-8bcb-9384b7ace93a","ios":"levelo://app?vid=de238b50-7d25-4dbe-8bcb-9384b7ace93a"},"vehicle_type_id":"4","last_reported":1752005547,"current_range_meters":2800,"station_id":"ce4bh192rcd13ifvqdd0","pricing_plan_id":"cebpf4jnsgd1na2vs0mg"},{"bike_id":"83709fb1-647b-415e-8295-d0515e5e33d6","system_id":"levelo_inurba_marseille","lat":43.31997,"lon":5.38167,"is_reserved":false,"is_disabled":false,"rental_uris":{"android":"levelo://app?vid=83709fb1-647b-415e-8295-d0515e5e33d6","ios":"levelo://app?vid=83709fb1-647b-415e-8295-d0515e5e33d6"},"vehicle_type_id":"4","last_reported":1752005547,"current_range_meters":3200,"station_id":"ce4bhr12rcd13ifvqhpg","pricing_plan_id":"cebpf4jnsgd1na2vs0mg"},{"bike_id":"e562ad4e-a577-4b7b-a74e-7e00b9c0f52f","system_id":"levelo_inurba_marseille","lat":43.22504,"lon":5.3478,"is_reserved":false,"is_disabled":false,"rental_uris":{"android":"levelo://app?vid=e562ad4e-a577-4b7b-a74e-7e00b9c0f52f","ios":"levelo://app?vid=e562ad4e-a577-4b7b-a74e-7e00b9c0f52f"},"vehicle_type_id":"4","last_reported":1752005547,"current_range_meters":3200,"station_id":"st_cvj5dfep6f1abm77gieg","pricing_plan_id":"cebpf4jnsgd1na2vs0mg"},{"bike_id":"7b527f00-f6ea-4963-b59d-8da04a2feedb","system_id":"levelo_inurba_marseille","lat":43.32103,"lon":5.40092,"is_reserved":false,"is_disabled":false,"rental_uris":{"android":"levelo://app?vid=7b527f00-f6ea-4963-b59d-8da04a2feedb","ios":"levelo://app?vid=7b527f00-f6ea-4963-b59d-8da04a2feedb"},"vehicle_type_id":"4","last_reported":1752005547,"current_range_meters":4400,"station_id":"","pricing_plan_id":"cebpf4jnsgd1na2vs0mg"},{"bike_id":"da6feca5-b6e9-4cf4-96eb-241b530909c7","system_id":"levelo_inurba_marseille","lat":43.30605,"lon":5.37225,"is_reserved":false,"is_disabled":false,"rental_uris":{"android":"levelo://app?vid=da6feca5-b6e9-4cf4-96eb-241b530909c7","ios":"levelo://app?vid=da6feca5-b6e9-4cf4-96eb-241b530909c7"},"vehicle_type_id":"4","last_reported":1752005547,"current_range_meters":4400,"station_id":"ce4bgqh2rcd13ifvqc4g","pricing_plan_id":"cebpf4jnsgd1na2vs0mg"},{"bike_id":"58d6c706-c291-4138-b668-8986589116ee","system_id":"levelo_inurba_marseille","lat":43.301486,"lon":5.374795,"is_reserved":false,"is_disabled":false,"rental_uris":{"android":"levelo://app?vid=58d6c706-c291-4138-b668-8986589116ee","ios":"levelo://app?vid=58d6c706-c291-4138-b668-8986589116ee"},"vehicle_type_id":"4","last_reported":1752005547,"current_range_meters":4800,"station_id":"ce4bgs92rcd13ifvqcc0","pricing_plan_id":"cebpf4jnsgd1na2vs0mg"},{"bike_id":"0d2a76dd-bbae-44be-8669-4f503228cb32","system_id":"levelo_inurba_marseille","lat":43.28155,"lon":5.42645,"is_reserved":false,"is_disabled":false,"rental_uris":{"android":"levelo://app?vid=0d2a76dd-bbae-44be-8669-4f503228cb32","ios":"levelo://app?vid=0d2a76dd-bbae-44be-8669-4f503228cb32"},"vehicle_type_id":"4","last_reported":1752005547,"current_range_meters":4800,"station_id":"ce4bhnh2rcd13ifvqgug","pricing_plan_id":"cebpf4jnsgd1na2vs0mg"},{"bike_id":"e97ee5c0-87e5-403c-92ed-929b14d6ff8f","system_id":"levelo_inurba_marseille","lat":43.28315,"lon":5.38536,"is_reserved":false,"is_disabled":false,"rental_uris":{"android":"levelo://app?vid=e97ee5c0-87e5-403c-92ed-929b14d6ff8f","ios":"levelo://app?vid=e97ee5c0-87e5-403c-92ed-929b14d6ff8f"},"vehicle_type_id":"4","last_reported":1752005547,"current_range_meters":5600,"station_id":"","pricing_plan_id":"cebpf4jnsgd1na2vs0mg"},{"bike_id":"3b22f952-d0bc-4c00-8fd3-7e27b88aea23","system_id":"levelo_inurba_marseille","lat":43.29659,"lon":5.36245,"is_reserved":false,"is_disabled":false,"rental_uris":{"android":"levelo://app?vid=3b22f952-d0bc-4c00-8fd3-7e27b88aea23","ios":"levelo://app?vid=3b22f952-d0bc-4c00-8fd3-7e27b88aea23"},"vehicle_type_id":"4","last_reported":1752005547,"current_range_meters":6000,"station_id":"","pricing_plan_id":"cebpf4jnsgd1na2vs0mg"},{"bike_id":"149b4308-9a66-425d-bc05-79858953f9a4","system_id":"levelo_inurba_marseille","lat":43.29968,"lon":5.38492,"is_reserved":false,"is_disabled":false,"rental_uris":{"android":"levelo://app?vid=149b4308-9a66-425d-bc05-79858953f9a4","ios":"levelo://app?vid=149b4308-9a66-425d-bc05-79858953f9a4"},"vehicle_type_id":"4","last_reported":1752005547,"current_range_meters":6000,"station_id":"ce4bgj92rcd13ifvqbd0","pricing_plan_id":"cebpf4jnsgd1na2vs0mg"},{"bike_id":"2bff9de0-dd27-4786-8c3a-ac93b8369f5d","system_id":"levelo_inurba_marseille","lat":43.21747,"lon":5.34604,"is_reserved":false,"is_disabled":false,"rental_uris":{"android":"levelo://app?vid=2bff9de0-dd27-4786-8c3a-ac93b8369f5d","ios":"levelo://app?vid=2bff9de0-dd27-4786-8c3a-ac93b8369f5d"},"vehicle_type_id":"4","last_reported":1752005547,"current_range_meters":6000,"station_id":"st_cvj6r9ubvosntc0bgbag","pricing_plan_id":"cebpf4jnsgd1na2vs0mg"},{"bike_id":"37f2becd-23f9-4f13-a711-38b8024eeec7","system_id":"levelo_inurba_marseille","lat":43.33768,"lon":5.37516,"is_reserved":false,"is_disabled":false,"rental_uris":{"android":"levelo://app?vid=37f2becd-23f9-4f13-a711-38b8024eeec7","ios":"levelo://app?vid=37f2becd-23f9-4f13-a711-38b8024eeec7"},"vehicle_type_id":"4","last_reported":1752005547,"current_range_meters":6400,"station_id":"","pricing_plan_id":"cebpf4jnsgd1na2vs0mg"},{"bike_id":"ac027318-eacc-4832-a16f-cb77492af22b","system_id":"levelo_inurba_marseille","lat":43.292132,"lon":5.357767,"is_reserved":false,"is_disabled":false,"rental_uris":{"android":"levelo://app?vid=ac027318-eacc-4832-a16f-cb77492af22b","ios":"levelo://app?vid=ac027318-eacc-4832-a16f-cb77492af22b"},"vehicle_type_id":"4","last_reported":1752005547,"current_range_meters":6400,"station_id":"ce4bhb12rcd13ifvqel0","pricing_plan_id":"cebpf4jnsgd1na2vs0mg"},{"bike_id":"41c2277f-8d90-45ea-8670-ac582071c71c","system_id":"levelo_inurba_marseille","lat":43.30928,"lon":5.40147,"is_reserved":false,"is_disabled":false,"rental_uris":{"android":"levelo://app?vid=41c2277f-8d90-45ea-8670-ac582071c71c","ios":"levelo://app?vid=41c2277f-8d90-45ea-8670-ac582071c71c"},"vehicle_type_id":"4","last_reported":1752005547,"current_range_meters":7200,"station_id":"ce4bgvp2rcd13ifvqct0","pricing_plan_id":"cebpf4jnsgd1na2vs0mg"},{"bike_id":"d8139b24-098a-4df8-837a-125fddffde39","system_id":"levelo_inurba_marseille","lat":43.23965,"lon":5.36629,"is_reserved":false,"is_disabled":false,"rental_uris":{"android":"levelo://app?vid=d8139b24-098a-4df8-837a-125fddffde39","ios":"levelo://app?vid=d8139b24-098a-4df8-837a-125fddffde39"},"vehicle_type_id":"4","last_reported":1752005547,"current_range_meters":7200,"station_id":"ce4bhi12rcd13ifvqfp0","pricing_plan_id":"cebpf4jnsgd1na2vs0mg"},{"bike_id":"2c423baa-ecca-420a-87d7-ad0b7e0b9ebb","system_id":"levelo_inurba_marseille","lat":43.28032,"lon":5.35361,"is_reserved":false,"is_disabled":false,"rental_uris":{"android":"levelo://app?vid=2c423baa-ecca-420a-87d7-ad0b7e0b9ebb","ios":"levelo://app?vid=2c423baa-ecca-420a-87d7-ad0b7e0b9ebb"},"vehicle_type_id":"4","last_reported":1752005547,"current_range_meters":8000,"station_id":"","pricing_plan_id":"cebpf4jnsgd1na2vs0mg"},{"bike_id":"b597a3a7-40a8-4731-973c-69d84e0d629f","system_id":"levelo_inurba_marseille","lat":43.29043,"lon":5.39938,"is_reserved":false,"is_disabled":false,"rental_uris":{"android":"levelo://app?vid=b597a3a7-40a8-4731-973c-69d84e0d629f","ios":"levelo://app?vid=b597a3a7-40a8-4731-973c-69d84e0d629f"},"vehicle_type_id":"4","last_reported":1752005547,"current_range_meters":8000,"station_id":"ce4bh392rcd13ifvqdm0","pricing_plan_id":"cebpf4jnsgd1na2vs0mg"},{"bike_id":"03a2aff2-7edc-4a6e-afb5-723895a9c2a5","system_id":"levelo_inurba_marseille","lat":43.28353,"lon":5.38097,"is_reserved":false,"is_disabled":false,"rental_uris":{"android":"levelo://app?vid=03a2aff2-7edc-4a6e-afb5-723895a9c2a5","ios":"levelo://app?vid=03a2aff2-7edc-4a6e-afb5-723895a9c2a5"},"vehicle_type_id":"4","last_reported":1752005547,"current_range_meters":8000,"station_id":"ce4bh412rcd13ifvqdr0","pricing_plan_id":"cebpf4jnsgd1na2vs0mg"},{"bike_id":"bc8f3ebb-0b7c-4f74-8dae-c085db2828a5","system_id":"levelo_inurba_marseille","lat":43.31991,"lon":5.38154,"is_reserved":false,"is_disabled":false,"rental_uris":{"android":"levelo://app?vid=bc8f3ebb-0b7c-4f74-8dae-c085db2828a5","ios":"levelo://app?vid=bc8f3ebb-0b7c-4f74-8dae-c085db2828a5"},"vehicle_type_id":"4","last_reported":1752005547,"current_range_meters":8000,"station_id":"ce4bhr12rcd13ifvqhpg","pricing_plan_id":"cebpf4jnsgd1na2vs0mg"},{"bike_id":"c81eb42b-0b03-4dbb-a720-6efa644adba3","system_id":"levelo_inurba_marseille","lat":43.2922,"lon":5.36056,"is_reserved":false,"is_disabled":false,"rental_uris":{"android":"levelo://app?vid=c81eb42b-0b03-4dbb-a720-6efa644adba3","ios":"levelo://app?vid=c81eb42b-0b03-4dbb-a720-6efa644adba3"},"vehicle_type_id":"4","last_reported":1752005547,"current_range_meters":8400,"station_id":"ce4bhbh2rcd13ifvqeqg","pricing_plan_id":"cebpf4jnsgd1na2vs0mg"},{"bike_id":"db9df4e2-8da2-4a2a-a589-f7f91ade2850","system_id":"levelo_inurba_marseille","lat":43.279177,"lon":5.413401,"is_reserved":false,"is_disabled":false,"rental_uris":{"android":"levelo://app?vid=db9df4e2-8da2-4a2a-a589-f7f91ade2850","ios":"levelo://app?vid=db9df4e2-8da2-4a2a-a589-f7f91ade2850"},"vehicle_type_id":"4","last_reported":1752005547,"current_range_meters":8400,"station_id":"ce4bhnp2rcd13ifvqh0g","pricing_plan_id":"cebpf4jnsgd1na2vs0mg"},{"bike_id":"63af4565-e5b8-4b27-b6c7-3901226c09a7","system_id":"levelo_inurba_marseille","lat":43.28708,"lon":5.39986,"is_reserved":false,"is_disabled":false,"rental_uris":{"android":"levelo://app?vid=63af4565-e5b8-4b27-b6c7-3901226c09a7","ios":"levelo://app?vid=63af4565-e5b8-4b27-b6c7-3901226c09a7"},"vehicle_type_id":"4","last_reported":1752005547,"current_range_meters":8400,"station_id":"ce4bho92rcd13ifvqh3g","pricing_plan_id":"cebpf4jnsgd1na2vs0mg"},{"bike_id":"facb6975-eb04-4772-a02e-e994c9ae36c0","system_id":"levelo_inurba_marseille","lat":43.297911,"lon":5.393427,"is_reserved":false,"is_disabled":false,"rental_uris":{"android":"levelo://app?vid=facb6975-eb04-4772-a02e-e994c9ae36c0","ios":"levelo://app?vid=facb6975-eb04-4772-a02e-e994c9ae36c0"},"vehicle_type_id":"4","last_reported":1752005547,"current_range_meters":8800,"station_id":"chh1huq6cuj3fo74tm60","pricing_plan_id":"cebpf4jnsgd1na2vs0mg"},{"bike_id":"7e0993db-7cbb-44b6-a357-dd156e683d6d","system_id":"levelo_inurba_marseille","lat":43.2872,"lon":5.36083,"is_reserved":false,"is_disabled":false,"rental_uris":{"android":"levelo://app?vid=7e0993db-7cbb-44b6-a357-dd156e683d6d","ios":"levelo://app?vid=7e0993db-7cbb-44b6-a357-dd156e683d6d"},"vehicle_type_id":"4","last_reported":1752005547,"current_range_meters":8800,"station_id":"cki0cbj6b192h4jlfktg","pricing_plan_id":"cebpf4jnsgd1na2vs0mg"},{"bike_id":"3c94d2c6-2996-41de-9e54-fa8af7df6912","system_id":"levelo_inurba_marseille","lat":43.21739,"lon":5.3459,"is_reserved":false,"is_disabled":false,"rental_uris":{"android":"levelo://app?vid=3c94d2c6-2996-41de-9e54-fa8af7df6912","ios":"levelo://app?vid=3c94d2c6-2996-41de-9e54-fa8af7df6912"},"vehicle_type_id":"4","last_reported":1752005547,"current_range_meters":8800,"station_id":"st_cvj6r9ubvosntc0bgbag","pricing_plan_id":"cebpf4jnsgd1na2vs0mg"},{"bike_id":"1dfe2a62-5151-4cd4-bb1b-c713bf0a102e","system_id":"levelo_inurba_marseille","lat":43.28464,"lon":5.35882,"is_reserved":false,"is_disabled":false,"rental_uris":{"android":"levelo://app?vid=1dfe2a62-5151-4cd4-bb1b-c713bf0a102e","ios":"levelo://app?vid=1dfe2a62-5151-4cd4-bb1b-c713bf0a102e"},"vehicle_type_id":"4","last_reported":1752005547,"current_range_meters":9600,"station_id":"ce4bhah2rcd13ifvqei0","pricing_plan_id":"cebpf4jnsgd1na2vs0mg"},{"bike_id":"373f7154-05e4-4923-8d21-eb4b99691656","system_id":"levelo_inurba_marseille","lat":43.31512,"lon":5.38705,"is_reserved":false,"is_disabled":false,"rental_uris":{"android":"levelo://app?vid=373f7154-05e4-4923-8d21-eb4b99691656","ios":"levelo://app?vid=373f7154-05e4-4923-8d21-eb4b99691656"},"vehicle_type_id":"4","last_reported":1752005547,"current_range_meters":10000,"station_id":"","pricing_plan_id":"cebpf4jnsgd1na2vs0mg"},{"bike_id":"c2ee7d66-374b-44cd-b9d7-9ad64301293b","system_id":"levelo_inurba_marseille","lat":43.33773,"lon":5.37523,"is_reserved":false,"is_disabled":false,"rental_uris":{"android":"levelo://app?vid=c2ee7d66-374b-44cd-b9d7-9ad64301293b","ios":"levelo://app?vid=c2ee7d66-374b-44cd-b9d7-9ad64301293b"},"vehicle_type_id":"4","last_reported":1752005547,"current_range_meters":10000,"station_id":"","pricing_plan_id":"cebpf4jnsgd1na2vs0mg"},{"bike_id":"e6da39f4-7f93-42a7-938a-7fff4516ffbf","system_id":"levelo_inurba_marseille","lat":43.30229,"lon":5.40054,"is_reserved":false,"is_disabled":false,"rental_uris":{"android":"levelo://app?vid=e6da39f4-7f93-42a7-938a-7fff4516ffbf","ios":"levelo://app?vid=e6da39f4-7f93-42a7-938a-7fff4516ffbf"},"vehicle_type_id":"4","last_reported":1752005547,"current_range_meters":10000,"station_id":"","pricing_plan_id":"cebpf4jnsgd1na2vs0mg"},{"bike_id":"81132eb8-aef8-4f92-819b-67544baceb71","system_id":"levelo_inurba_marseille","lat":43.3025,"lon":5.40062,"is_reserved":false,"is_disabled":false,"rental_uris":{"android":"levelo://app?vid=81132eb8-aef8-4f92-819b-67544baceb71","ios":"levelo://app?vid=81132eb8-aef8-4f92-819b-67544baceb71"},"vehicle_type_id":"4","last_reported":1752005547,"current_range_meters":10000,"station_id":"ce4bgvh2rcd13ifvqcs0","pricing_plan_id":"cebpf4jnsgd1na2vs0mg"},{"bike_id":"96bd7b6c-6d6a-481e-9328-f844a453ed8f","system_id":"levelo_inurba_marseille","lat":43.27368,"lon":5.36257,"is_reserved":false,"is_disabled":false,"rental_uris":{"android":"levelo://app?vid=96bd7b6c-6d6a-481e-9328-f844a453ed8f","ios":"levelo://app?vid=96bd7b6c-6d6a-481e-9328-f844a453ed8f"},"vehicle_type_id":"4","last_reported":1752005547,"current_range_meters":10000,"station_id":"ce4bhbh2rcd13ifvqeo0","pricing_plan_id":"cebpf4jnsgd1na2vs0mg"},{"bike_id":"98f46642-8fdc-43be-8379-a5bf33d8441b","system_id":"levelo_inurba_marseille","lat":43.211901,"lon":5.350711,"is_reserved":false,"is_disabled":false,"rental_uris":{"android":"levelo://app?vid=98f46642-8fdc-43be-8379-a5bf33d8441b","ios":"levelo://app?vid=98f46642-8fdc-43be-8379-a5bf33d8441b"},"vehicle_type_id":"4","last_reported":1752005547,"current_range_meters":10000,"station_id":"st_cvj6sg6p6f1abm77japg","pricing_plan_id":"cebpf4jnsgd1na2vs0mg"},{"bike_id":"e54a69bc-634c-4579-91a1-2ea1e7521c68","system_id":"levelo_inurba_marseille","lat":43.301633,"lon":5.371983,"is_reserved":false,"is_disabled":false,"rental_uris":{"android":"levelo://app?vid=e54a69bc-634c-4579-91a1-2ea1e7521c68","ios":"levelo://app?vid=e54a69bc-634c-4579-91a1-2ea1e7521c68"},"vehicle_type_id":"4","last_reported":1752005547,"current_range_meters":10800,"station_id":"","pricing_plan_id":"cebpf4jnsgd1na2vs0mg"},{"bike_id":"b24905a4-b9cf-4cae-a6fe-42722d64fbfb","system_id":"levelo_inurba_marseille","lat":43.29538,"lon":5.39395,"is_reserved":false,"is_disabled":false,"rental_uris":{"android":"levelo://app?vid=b24905a4-b9cf-4cae-a6fe-42722d64fbfb","ios":"levelo://app?vid=b24905a4-b9cf-4cae-a6fe-42722d64fbfb"},"vehicle_type_id":"4","last_reported":1752005547,"current_range_meters":10800,"station_id":"ce4bh292rcd13ifvqdf0","pricing_plan_id":"cebpf4jnsgd1na2vs0mg"},{"bike_id":"888522e3-39b6-4ff3-ad74-ff6c6f771157","system_id":"levelo_inurba_marseille","lat":43.29501,"lon":5.40242,"is_reserved":false,"is_disabled":false,"rental_uris":{"android":"levelo://app?vid=888522e3-39b6-4ff3-ad74-ff6c6f771157","ios":"levelo://app?vid=888522e3-39b6-4ff3-ad74-ff6c6f771157"},"vehicle_type_id":"4","last_reported":1752005547,"current_range_meters":11200,"station_id":"","pricing_plan_id":"cebpf4jnsgd1na2vs0mg"},{"bike_id":"ba722603-44ce-4268-8d9d-7c27da113e63","system_id":"levelo_inurba_marseille","lat":43.26226,"lon":5.40444,"is_reserved":false,"is_disabled":false,"rental_uris":{"android":"levelo://app?vid=ba722603-44ce-4268-8d9d-7c27da113e63","ios":"levelo://app?vid=ba722603-44ce-4268-8d9d-7c27da113e63"},"vehicle_type_id":"4","last_reported":1752005547,"current_range_meters":11200,"station_id":"ce4bhmh2rcd13ifvqgmg","pricing_plan_id":"cebpf4jnsgd1na2vs0mg"},{"bike_id":"7867a23a-3bdf-4fa1-9c73-ab4e74e4bcf9","system_id":"levelo_inurba_marseille","lat":43.31079,"lon":5.42431,"is_reserved":false,"is_disabled":false,"rental_uris":{"android":"levelo://app?vid=7867a23a-3bdf-4fa1-9c73-ab4e74e4bcf9","ios":"levelo://app?vid=7867a23a-3bdf-4fa1-9c73-ab4e74e4bcf9"},"vehicle_type_id":"4","last_reported":1752005547,"current_range_meters":11200,"station_id":"ce4bhp92rcd13ifvqhag","pricing_plan_id":"cebpf4jnsgd1na2vs0mg"},{"bike_id":"60757e11-73b3-4d62-b3fa-311afad542c7","system_id":"levelo_inurba_marseille","lat":43.32044,"lon":5.41546,"is_reserved":false,"is_disabled":false,"rental_uris":{"android":"levelo://app?vid=60757e11-73b3-4d62-b3fa-311afad542c7","ios":"levelo://app?vid=60757e11-73b3-4d62-b3fa-311afad542c7"},"vehicle_type_id":"4","last_reported":1752005547,"current_range_meters":11200,"station_id":"ce4bhq92rcd13ifvqhkg","pricing_plan_id":"cebpf4jnsgd1na2vs0mg"},{"bike_id":"538e1b05-e2a4-4a42-9bc7-7ddbe3e776fc","system_id":"levelo_inurba_marseille","lat":43.30774,"lon":5.37661,"is_reserved":false,"is_disabled":false,"rental_uris":{"android":"levelo://app?vid=538e1b05-e2a4-4a42-9bc7-7ddbe3e776fc","ios":"levelo://app?vid=538e1b05-e2a4-4a42-9bc7-7ddbe3e776fc"},"vehicle_type_id":"4","last_reported":1752005547,"current_range_meters":11600,"station_id":"ce4bgv92rcd13ifvqcq0","pricing_plan_id":"cebpf4jnsgd1na2vs0mg"},{"bike_id":"68866d13-0bce-47c9-94ed-ecbd39c8042e","system_id":"levelo_inurba_marseille","lat":43.30782,"lon":5.3764,"is_reserved":false,"is_disabled":false,"rental_uris":{"android":"levelo://app?vid=68866d13-0bce-47c9-94ed-ecbd39c8042e","ios":"levelo://app?vid=68866d13-0bce-47c9-94ed-ecbd39c8042e"},"vehicle_type_id":"4","last_reported":1752005547,"current_range_meters":11600,"station_id":"ce4bgv92rcd13ifvqcq0","pricing_plan_id":"cebpf4jnsgd1na2vs0mg"},{"bike_id":"c28a2005-c0a2-4071-b216-ea6af5b1ad6d","system_id":"levelo_inurba_marseille","lat":43.24804,"lon":5.37456,"is_reserved":false,"is_disabled":false,"rental_uris":{"android":"levelo://app?vid=c28a2005-c0a2-4071-b216-ea6af5b1ad6d","ios":"levelo://app?vid=c28a2005-c0a2-4071-b216-ea6af5b1ad6d"},"vehicle_type_id":"4","last_reported":1752005547,"current_range_meters":11600,"station_id":"ce4bhgh2rcd13ifvqfb0","pricing_plan_id":"cebpf4jnsgd1na2vs0mg"},{"bike_id":"9e057cb2-dffc-48cd-a115-95eef14863b5","system_id":"levelo_inurba_marseille","lat":43.24072,"lon":5.37753,"is_reserved":false,"is_disabled":false,"rental_uris":{"android":"levelo://app?vid=9e057cb2-dffc-48cd-a115-95eef14863b5","ios":"levelo://app?vid=9e057cb2-dffc-48cd-a115-95eef14863b5"},"vehicle_type_id":"4","last_reported":1752005547,"current_range_meters":11600,"station_id":"ce4bhnp2rcd13ifvqgvg","pricing_plan_id":"cebpf4jnsgd1na2vs0mg"},{"bike_id":"e555b12d-c14f-4918-9e64-ca2b02321b87","system_id":"levelo_inurba_marseille","lat":43.31988,"lon":5.38133,"is_reserved":false,"is_disabled":false,"rental_uris":{"android":"levelo://app?vid=e555b12d-c14f-4918-9e64-ca2b02321b87","ios":"levelo://app?vid=e555b12d-c14f-4918-9e64-ca2b02321b87"},"vehicle_type_id":"4","last_reported":1752005547,"current_range_meters":11600,"station_id":"ce4bhr12rcd13ifvqhpg","pricing_plan_id":"cebpf4jnsgd1na2vs0mg"},{"bike_id":"91150746-e6ca-4b0b-a0b8-35438692bd2f","system_id":"levelo_inurba_marseille","lat":43.30957,"lon":5.39039,"is_reserved":false,"is_disabled":false,"rental_uris":{"android":"levelo://app?vid=91150746-e6ca-4b0b-a0b8-35438692bd2f","ios":"levelo://app?vid=91150746-e6ca-4b0b-a0b8-35438692bd2f"},"vehicle_type_id":"4","last_reported":1752005547,"current_range_meters":12000,"station_id":"ce4bgup2rcd13ifvqco0","pricing_plan_id":"cebpf4jnsgd1na2vs0mg"},{"bike_id":"0c24c002-49aa-4dee-a865-910b7daed75c","system_id":"levelo_inurba_marseille","lat":43.28967,"lon":5.36383,"is_reserved":false,"is_disabled":false,"rental_uris":{"android":"levelo://app?vid=0c24c002-49aa-4dee-a865-910b7daed75c","ios":"levelo://app?vid=0c24c002-49aa-4dee-a865-910b7daed75c"},"vehicle_type_id":"4","last_reported":1752005547,"current_range_meters":12000,"station_id":"ce4bhc92rcd13ifvqetg","pricing_plan_id":"cebpf4jnsgd1na2vs0mg"},{"bike_id":"70c429f7-2032-433c-b04b-57ca0b40ad64","system_id":"levelo_inurba_marseille","lat":43.27203,"lon":5.39186,"is_reserved":false,"is_disabled":false,"rental_uris":{"android":"levelo://app?vid=70c429f7-2032-433c-b04b-57ca0b40ad64","ios":"levelo://app?vid=70c429f7-2032-433c-b04b-57ca0b40ad64"},"vehicle_type_id":"4","last_reported":1752005547,"current_range_meters":12000,"station_id":"ce4bhhp2rcd13ifvqfm0","pricing_plan_id":"cebpf4jnsgd1na2vs0mg"},{"bike_id":"09483386-d470-4745-88d5-97bfa69b5e91","system_id":"levelo_inurba_marseille","lat":43.27825,"lon":5.40738,"is_reserved":false,"is_disabled":false,"rental_uris":{"android":"levelo://app?vid=09483386-d470-4745-88d5-97bfa69b5e91","ios":"levelo://app?vid=09483386-d470-4745-88d5-97bfa69b5e91"},"vehicle_type_id":"4","last_reported":1752005547,"current_range_meters":12000,"station_id":"ce4bhnh2rcd13ifvqgtg","pricing_plan_id":"cebpf4jnsgd1na2vs0mg"},{"bike_id":"77c63ecf-8ec4-46ab-b695-3fed0ff0fb70","system_id":"levelo_inurba_marseille","lat":43.299015,"lon":5.43677,"is_reserved":false,"is_disabled":false,"rental_uris":{"android":"levelo://app?vid=77c63ecf-8ec4-46ab-b695-3fed0ff0fb70","ios":"levelo://app?vid=77c63ecf-8ec4-46ab-b695-3fed0ff0fb70"},"vehicle_type_id":"4","last_reported":1752005547,"current_range_meters":12000,"station_id":"ce4bhpp2rcd13ifvqhfg","pricing_plan_id":"cebpf4jnsgd1na2vs0mg"},{"bike_id":"b287377f-3d0b-47ac-86fe-9e0dfc1563de","system_id":"levelo_inurba_marseille","lat":43.225018,"lon":5.347769,"is_reserved":false,"is_disabled":false,"rental_uris":{"android":"levelo://app?vid=b287377f-3d0b-47ac-86fe-9e0dfc1563de","ios":"levelo://app?vid=b287377f-3d0b-47ac-86fe-9e0dfc1563de"},"vehicle_type_id":"4","last_reported":1752005547,"current_range_meters":12000,"station_id":"st_cvj5dfep6f1abm77gieg","pricing_plan_id":"cebpf4jnsgd1na2vs0mg"},{"bike_id":"d5ef770d-9759-47e3-b3a5-7d2785ef76db","system_id":"levelo_inurba_marseille","lat":43.32929,"lon":5.39031,"is_reserved":false,"is_disabled":false,"rental_uris":{"android":"levelo://app?vid=d5ef770d-9759-47e3-b3a5-7d2785ef76db","ios":"levelo://app?vid=d5ef770d-9759-47e3-b3a5-7d2785ef76db"},"vehicle_type_id":"4","last_reported":1752005547,"current_range_meters":12800,"station_id":"","pricing_plan_id":"cebpf4jnsgd1na2vs0mg"},{"bike_id":"3030cb07-c041-4d87-a253-8c849c24aa85","system_id":"levelo_inurba_marseille","lat":43.32632,"lon":5.36231,"is_reserved":false,"is_disabled":false,"rental_uris":{"android":"levelo://app?vid=3030cb07-c041-4d87-a253-8c849c24aa85","ios":"levelo://app?vid=3030cb07-c041-4d87-a253-8c849c24aa85"},"vehicle_type_id":"4","last_reported":1752005547,"current_range_meters":12800,"station_id":"","pricing_plan_id":"cebpf4jnsgd1na2vs0mg"},{"bike_id":"94ad6290-e640-4c32-813b-5a33a8c4943f","system_id":"levelo_inurba_marseille","lat":43.30951,"lon":5.39049,"is_reserved":false,"is_disabled":false,"rental_uris":{"android":"levelo://app?vid=94ad6290-e640-4c32-813b-5a33a8c4943f","ios":"levelo://app?vid=94ad6290-e640-4c32-813b-5a33a8c4943f"},"vehicle_type_id":"4","last_reported":1752005547,"current_range_meters":12800,"station_id":"ce4bgup2rcd13ifvqco0","pricing_plan_id":"cebpf4jnsgd1na2vs0mg"},{"bike_id":"82f40aca-214c-480a-99d7-4df294448107","system_id":"levelo_inurba_marseille","lat":43.254895,"lon":5.376448,"is_reserved":false,"is_disabled":false,"rental_uris":{"android":"levelo://app?vid=82f40aca-214c-480a-99d7-4df294448107","ios":"levelo://app?vid=82f40aca-214c-480a-99d7-4df294448107"},"vehicle_type_id":"4","last_reported":1752005547,"current_range_meters":12800,"station_id":"ce4bhh12rcd13ifvqff0","pricing_plan_id":"cebpf4jnsgd1na2vs0mg"},{"bike_id":"2e28e98a-5eb3-4578-ab4d-b141de9daeaa","system_id":"levelo_inurba_marseille","lat":43.264907,"lon":5.395394,"is_reserved":false,"is_disabled":false,"rental_uris":{"android":"levelo://app?vid=2e28e98a-5eb3-4578-ab4d-b141de9daeaa","ios":"levelo://app?vid=2e28e98a-5eb3-4578-ab4d-b141de9daeaa"},"vehicle_type_id":"4","last_reported":1752005547,"current_range_meters":13600,"station_id":"","pricing_plan_id":"cebpf4jnsgd1na2vs0mg"},{"bike_id":"87c2d236-4978-4760-be77-27d7f5a212e4","system_id":"levelo_inurba_marseille","lat":43.29644,"lon":5.36205,"is_reserved":false,"is_disabled":false,"rental_uris":{"android":"levelo://app?vid=87c2d236-4978-4760-be77-27d7f5a212e4","ios":"levelo://app?vid=87c2d236-4978-4760-be77-27d7f5a212e4"},"vehicle_type_id":"4","last_reported":1752005547,"current_range_meters":13600,"station_id":"","pricing_plan_id":"cebpf4jnsgd1na2vs0mg"},{"bike_id":"cde44f08-fc07-441c-a951-b71edb964fb4","system_id":"levelo_inurba_marseille","lat":43.29938,"lon":5.36553,"is_reserved":false,"is_disabled":false,"rental_uris":{"android":"levelo://app?vid=cde44f08-fc07-441c-a951-b71edb964fb4","ios":"levelo://app?vid=cde44f08-fc07-441c-a951-b71edb964fb4"},"vehicle_type_id":"4","last_reported":1752005547,"current_range_meters":13600,"station_id":"ce4bgm92rcd13ifvqbr0","pricing_plan_id":"cebpf4jnsgd1na2vs0mg"},{"bike_id":"c24b3fd3-88b8-4ccf-97dc-273d2b410904","system_id":"levelo_inurba_marseille","lat":43.30891,"lon":5.39651,"is_reserved":false,"is_disabled":false,"rental_uris":{"android":"levelo://app?vid=c24b3fd3-88b8-4ccf-97dc-273d2b410904","ios":"levelo://app?vid=c24b3fd3-88b8-4ccf-97dc-273d2b410904"},"vehicle_type_id":"4","last_reported":1752005547,"current_range_meters":13600,"station_id":"ce4bh012rcd13ifvqcv0","pricing_plan_id":"cebpf4jnsgd1na2vs0mg"},{"bike_id":"f8fbf2c0-effd-46a6-acff-b7d7c6f076e9","system_id":"levelo_inurba_marseille","lat":43.29266,"lon":5.38433,"is_reserved":false,"is_disabled":false,"rental_uris":{"android":"levelo://app?vid=f8fbf2c0-effd-46a6-acff-b7d7c6f076e9","ios":"levelo://app?vid=f8fbf2c0-effd-46a6-acff-b7d7c6f076e9"},"vehicle_type_id":"4","last_reported":1752005547,"current_range_meters":13600,"station_id":"ce4bh692rcd13ifvqea0","pricing_plan_id":"cebpf4jnsgd1na2vs0mg"},{"bike_id":"6a96b7e6-26e9-442e-b4e6-2c7b12b1538e","system_id":"levelo_inurba_marseille","lat":43.29007,"lon":5.356078,"is_reserved":false,"is_disabled":false,"rental_uris":{"android":"levelo://app?vid=6a96b7e6-26e9-442e-b4e6-2c7b12b1538e","ios":"levelo://app?vid=6a96b7e6-26e9-442e-b4e6-2c7b12b1538e"},"vehicle_type_id":"4","last_reported":1752005547,"current_range_meters":13600,"station_id":"ce4bhb92rcd13ifvqen0","pricing_plan_id":"cebpf4jnsgd1na2vs0mg"},{"bike_id":"fa471f6a-344f-4385-8a9d-0312a428d664","system_id":"levelo_inurba_marseille","lat":43.29531,"lon":5.38541,"is_reserved":false,"is_disabled":false,"rental_uris":{"android":"levelo://app?vid=fa471f6a-344f-4385-8a9d-0312a428d664","ios":"levelo://app?vid=fa471f6a-344f-4385-8a9d-0312a428d664"},"vehicle_type_id":"4","last_reported":1752005547,"current_range_meters":14000,"station_id":"ce4bgih2rcd13ifvqba0","pricing_plan_id":"cebpf4jnsgd1na2vs0mg"},{"bike_id":"286ef402-048a-461c-80d8-ae92f78583e4","system_id":"levelo_inurba_marseille","lat":43.2925,"lon":5.38451,"is_reserved":false,"is_disabled":false,"rental_uris":{"android":"levelo://app?vid=286ef402-048a-461c-80d8-ae92f78583e4","ios":"levelo://app?vid=286ef402-048a-461c-80d8-ae92f78583e4"},"vehicle_type_id":"4","last_reported":1752005547,"current_range_meters":14000,"station_id":"ce4bh692rcd13ifvqea0","pricing_plan_id":"cebpf4jnsgd1na2vs0mg"},{"bike_id":"bb29e41f-3292-49b1-a9fc-f6c4198e0b85","system_id":"levelo_inurba_marseille","lat":43.31069,"lon":5.42437,"is_reserved":false,"is_disabled":false,"rental_uris":{"android":"levelo://app?vid=bb29e41f-3292-49b1-a9fc-f6c4198e0b85","ios":"levelo://app?vid=bb29e41f-3292-49b1-a9fc-f6c4198e0b85"},"vehicle_type_id":"4","last_reported":1752005547,"current_range_meters":14000,"station_id":"ce4bhp92rcd13ifvqhag","pricing_plan_id":"cebpf4jnsgd1na2vs0mg"},{"bike_id":"9cc9f981-8101-4dbe-b5da-8303610ec005","system_id":"levelo_inurba_marseille","lat":43.29264,"lon":5.38433,"is_reserved":false,"is_disabled":false,"rental_uris":{"android":"levelo://app?vid=9cc9f981-8101-4dbe-b5da-8303610ec005","ios":"levelo://app?vid=9cc9f981-8101-4dbe-b5da-8303610ec005"},"vehicle_type_id":"4","last_reported":1752005547,"current_range_meters":14400,"station_id":"ce4bh692rcd13ifvqea0","pricing_plan_id":"cebpf4jnsgd1na2vs0mg"},{"bike_id":"c263cb5c-8bb3-4395-ab75-dc45ac6aef43","system_id":"levelo_inurba_marseille","lat":43.29938,"lon":5.36562,"is_reserved":false,"is_disabled":false,"rental_uris":{"android":"levelo://app?vid=c263cb5c-8bb3-4395-ab75-dc45ac6aef43","ios":"levelo://app?vid=c263cb5c-8bb3-4395-ab75-dc45ac6aef43"},"vehicle_type_id":"4","last_reported":1752005547,"current_range_meters":14800,"station_id":"ce4bgm92rcd13ifvqbr0","pricing_plan_id":"cebpf4jnsgd1na2vs0mg"},{"bike_id":"e07099cc-ccdf-4511-aa53-76cc8d902771","system_id":"levelo_inurba_marseille","lat":43.28978,"lon":5.35634,"is_reserved":false,"is_disabled":false,"rental_uris":{"android":"levelo://app?vid=e07099cc-ccdf-4511-aa53-76cc8d902771","ios":"levelo://app?vid=e07099cc-ccdf-4511-aa53-76cc8d902771"},"vehicle_type_id":"4","last_reported":1752005547,"current_range_meters":14800,"station_id":"ce4bhb92rcd13ifvqen0","pricing_plan_id":"cebpf4jnsgd1na2vs0mg"},{"bike_id":"8935e67e-e377-4f20-b30d-fbcbd3d43af7","system_id":"levelo_inurba_marseille","lat":43.28645,"lon":5.35114,"is_reserved":false,"is_disabled":false,"rental_uris":{"android":"levelo://app?vid=8935e67e-e377-4f20-b30d-fbcbd3d43af7","ios":"levelo://app?vid=8935e67e-e377-4f20-b30d-fbcbd3d43af7"},"vehicle_type_id":"4","last_reported":1752005547,"current_range_meters":14800,"station_id":"ce4bhch2rcd13ifvqeug","pricing_plan_id":"cebpf4jnsgd1na2vs0mg"},{"bike_id":"3c78f3be-0595-4cde-ab3a-21eba194a66a","system_id":"levelo_inurba_marseille","lat":43.21738,"lon":5.34613,"is_reserved":false,"is_disabled":false,"rental_uris":{"android":"levelo://app?vid=3c78f3be-0595-4cde-ab3a-21eba194a66a","ios":"levelo://app?vid=3c78f3be-0595-4cde-ab3a-21eba194a66a"},"vehicle_type_id":"4","last_reported":1752005547,"current_range_meters":15200,"station_id":"","pricing_plan_id":"cebpf4jnsgd1na2vs0mg"},{"bike_id":"dfed5170-dd30-4c34-b10d-0827cb5726cb","system_id":"levelo_inurba_marseille","lat":43.23188,"lon":5.39987,"is_reserved":false,"is_disabled":false,"rental_uris":{"android":"levelo://app?vid=dfed5170-dd30-4c34-b10d-0827cb5726cb","ios":"levelo://app?vid=dfed5170-dd30-4c34-b10d-0827cb5726cb"},"vehicle_type_id":"4","last_reported":1752005547,"current_range_meters":15200,"station_id":"ce4bhn12rcd13ifvqgqg","pricing_plan_id":"cebpf4jnsgd1na2vs0mg"},{"bike_id":"6011260d-93f7-4e5e-90f7-5c20c9a824d7","system_id":"levelo_inurba_marseille","lat":43.2782,"lon":5.40696,"is_reserved":false,"is_disabled":false,"rental_uris":{"android":"levelo://app?vid=6011260d-93f7-4e5e-90f7-5c20c9a824d7","ios":"levelo://app?vid=6011260d-93f7-4e5e-90f7-5c20c9a824d7"},"vehicle_type_id":"4","last_reported":1752005547,"current_range_meters":15200,"station_id":"ce4bhnh2rcd13ifvqgtg","pricing_plan_id":"cebpf4jnsgd1na2vs0mg"},{"bike_id":"eb977c2c-6b75-431a-8999-1455e7261de3","system_id":"levelo_inurba_marseille","lat":43.30797,"lon":5.43515,"is_reserved":false,"is_disabled":false,"rental_uris":{"android":"levelo://app?vid=eb977c2c-6b75-431a-8999-1455e7261de3","ios":"levelo://app?vid=eb977c2c-6b75-431a-8999-1455e7261de3"},"vehicle_type_id":"4","last_reported":1752005547,"current_range_meters":15200,"station_id":"ce4bhph2rcd13ifvqheg","pricing_plan_id":"cebpf4jnsgd1na2vs0mg"},{"bike_id":"19c552da-55bc-46d8-97cb-d1fbabdad01a","system_id":"levelo_inurba_marseille","lat":43.211951,"lon":5.350688,"is_reserved":false,"is_disabled":false,"rental_uris":{"android":"levelo://app?vid=19c552da-55bc-46d8-97cb-d1fbabdad01a","ios":"levelo://app?vid=19c552da-55bc-46d8-97cb-d1fbabdad01a"},"vehicle_type_id":"4","last_reported":1752005547,"current_range_meters":15200,"station_id":"st_cvj6sg6p6f1abm77japg","pricing_plan_id":"cebpf4jnsgd1na2vs0mg"},{"bike_id":"ca2bab86-416f-413e-81b0-5002099ee069","system_id":"levelo_inurba_marseille","lat":43.27579,"lon":5.42002,"is_reserved":false,"is_disabled":false,"rental_uris":{"android":"levelo://app?vid=ca2bab86-416f-413e-81b0-5002099ee069","ios":"levelo://app?vid=ca2bab86-416f-413e-81b0-5002099ee069"},"vehicle_type_id":"4","last_reported":1752005547,"current_range_meters":16000,"station_id":"","pricing_plan_id":"cebpf4jnsgd1na2vs0mg"},{"bike_id":"a74d1421-7a37-499b-b1c4-5e1394842b7e","system_id":"levelo_inurba_marseille","lat":43.33764,"lon":5.39128,"is_reserved":false,"is_disabled":false,"rental_uris":{"android":"levelo://app?vid=a74d1421-7a37-499b-b1c4-5e1394842b7e","ios":"levelo://app?vid=a74d1421-7a37-499b-b1c4-5e1394842b7e"},"vehicle_type_id":"4","last_reported":1752005547,"current_range_meters":16000,"station_id":"","pricing_plan_id":"cebpf4jnsgd1na2vs0mg"},{"bike_id":"9f920175-7375-44d5-ab90-1800fa9b8919","system_id":"levelo_inurba_marseille","lat":43.30944,"lon":5.39025,"is_reserved":false,"is_disabled":false,"rental_uris":{"android":"levelo://app?vid=9f920175-7375-44d5-ab90-1800fa9b8919","ios":"levelo://app?vid=9f920175-7375-44d5-ab90-1800fa9b8919"},"vehicle_type_id":"4","last_reported":1752005547,"current_range_meters":16000,"station_id":"ce4bgup2rcd13ifvqco0","pricing_plan_id":"cebpf4jnsgd1na2vs0mg"},{"bike_id":"cb5501f4-b90d-44f9-8401-d6971ef6d013","system_id":"levelo_inurba_marseille","lat":43.30946,"lon":5.39031,"is_reserved":false,"is_disabled":false,"rental_uris":{"android":"levelo://app?vid=cb5501f4-b90d-44f9-8401-d6971ef6d013","ios":"levelo://app?vid=cb5501f4-b90d-44f9-8401-d6971ef6d013"},"vehicle_type_id":"4","last_reported":1752005547,"current_range_meters":16000,"station_id":"ce4bgup2rcd13ifvqco0","pricing_plan_id":"cebpf4jnsgd1na2vs0mg"},{"bike_id":"e019619b-1d8d-4dae-886e-324cbab0c1d7","system_id":"levelo_inurba_marseille","lat":43.3095,"lon":5.39036,"is_reserved":false,"is_disabled":false,"rental_uris":{"android":"levelo://app?vid=e019619b-1d8d-4dae-886e-324cbab0c1d7","ios":"levelo://app?vid=e019619b-1d8d-4dae-886e-324cbab0c1d7"},"vehicle_type_id":"4","last_reported":1752005547,"current_range_meters":16000,"station_id":"ce4bgup2rcd13ifvqco0","pricing_plan_id":"cebpf4jnsgd1na2vs0mg"},{"bike_id":"789ae27b-3cac-4409-bbc9-115469458bf4","system_id":"levelo_inurba_marseille","lat":43.30869,"lon":5.39656,"is_reserved":false,"is_disabled":false,"rental_uris":{"android":"levelo://app?vid=789ae27b-3cac-4409-bbc9-115469458bf4","ios":"levelo://app?vid=789ae27b-3cac-4409-bbc9-115469458bf4"},"vehicle_type_id":"4","last_reported":1752005547,"current_range_meters":16000,"station_id":"ce4bh012rcd13ifvqcv0","pricing_plan_id":"cebpf4jnsgd1na2vs0mg"},{"bike_id":"216f2065-90b1-4380-a039-30dcfda91859","system_id":"levelo_inurba_marseille","lat":43.29267,"lon":5.38439,"is_reserved":false,"is_disabled":false,"rental_uris":{"android":"levelo://app?vid=216f2065-90b1-4380-a039-30dcfda91859","ios":"levelo://app?vid=216f2065-90b1-4380-a039-30dcfda91859"},"vehicle_type_id":"4","last_reported":1752005547,"current_range_meters":16000,"station_id":"ce4bh692rcd13ifvqea0","pricing_plan_id":"cebpf4jnsgd1na2vs0mg"},{"bike_id":"a112ee1c-216f-495f-8f9a-2c4ffdccc087","system_id":"levelo_inurba_marseille","lat":43.28612,"lon":5.35094,"is_reserved":false,"is_disabled":false,"rental_uris":{"android":"levelo://app?vid=a112ee1c-216f-495f-8f9a-2c4ffdccc087","ios":"levelo://app?vid=a112ee1c-216f-495f-8f9a-2c4ffdccc087"},"vehicle_type_id":"4","last_reported":1752005547,"current_range_meters":16000,"station_id":"ce4bhch2rcd13ifvqeug","pricing_plan_id":"cebpf4jnsgd1na2vs0mg"},{"bike_id":"ee3b268a-f5bf-413d-8421-48049331943d","system_id":"levelo_inurba_marseille","lat":43.24819,"lon":5.37434,"is_reserved":false,"is_disabled":false,"rental_uris":{"android":"levelo://app?vid=ee3b268a-f5bf-413d-8421-48049331943d","ios":"levelo://app?vid=ee3b268a-f5bf-413d-8421-48049331943d"},"vehicle_type_id":"4","last_reported":1752005547,"current_range_meters":16000,"station_id":"ce4bhgh2rcd13ifvqfb0","pricing_plan_id":"cebpf4jnsgd1na2vs0mg"},{"bike_id":"0d5498f5-6462-4e3f-809a-361d053d07b3","system_id":"levelo_inurba_marseille","lat":43.24161,"lon":5.36383,"is_reserved":false,"is_disabled":false,"rental_uris":{"android":"levelo://app?vid=0d5498f5-6462-4e3f-809a-361d053d07b3","ios":"levelo://app?vid=0d5498f5-6462-4e3f-809a-361d053d07b3"},"vehicle_type_id":"4","last_reported":1752005547,"current_range_meters":16000,"station_id":"cpo36qri1sfpv3e86is0","pricing_plan_id":"cebpf4jnsgd1na2vs0mg"},{"bike_id":"bb557922-c0dc-45af-bbd1-8cb143031983","system_id":"levelo_inurba_marseille","lat":43.30536,"lon":5.38428,"is_reserved":false,"is_disabled":false,"rental_uris":{"android":"levelo://app?vid=bb557922-c0dc-45af-bbd1-8cb143031983","ios":"levelo://app?vid=bb557922-c0dc-45af-bbd1-8cb143031983"},"vehicle_type_id":"4","last_reported":1752005547,"current_range_meters":16400,"station_id":"ce4bgg92rcd13ifvqb30","pricing_plan_id":"cebpf4jnsgd1na2vs0mg"},{"bike_id":"986bd171-a19a-4305-b56e-a07dae0d645a","system_id":"levelo_inurba_marseille","lat":43.29258,"lon":5.38448,"is_reserved":false,"is_disabled":false,"rental_uris":{"android":"levelo://app?vid=986bd171-a19a-4305-b56e-a07dae0d645a","ios":"levelo://app?vid=986bd171-a19a-4305-b56e-a07dae0d645a"},"vehicle_type_id":"4","last_reported":1752005547,"current_range_meters":16400,"station_id":"ce4bh692rcd13ifvqea0","pricing_plan_id":"cebpf4jnsgd1na2vs0mg"},{"bike_id":"1e112a52-32ff-42af-8077-893c4a6d3611","system_id":"levelo_inurba_marseille","lat":43.28408,"lon":5.34992,"is_reserved":false,"is_disabled":false,"rental_uris":{"android":"levelo://app?vid=1e112a52-32ff-42af-8077-893c4a6d3611","ios":"levelo://app?vid=1e112a52-32ff-42af-8077-893c4a6d3611"},"vehicle_type_id":"4","last_reported":1752005547,"current_range_meters":16400,"station_id":"ce4bhbh2rcd13ifvqepg","pricing_plan_id":"cebpf4jnsgd1na2vs0mg"},{"bike_id":"9959d7fa-4898-43a5-a1ec-b9fed544cad3","system_id":"levelo_inurba_marseille","lat":43.28432,"lon":5.35,"is_reserved":false,"is_disabled":false,"rental_uris":{"android":"levelo://app?vid=9959d7fa-4898-43a5-a1ec-b9fed544cad3","ios":"levelo://app?vid=9959d7fa-4898-43a5-a1ec-b9fed544cad3"},"vehicle_type_id":"4","last_reported":1752005547,"current_range_meters":16400,"station_id":"ce4bhbh2rcd13ifvqepg","pricing_plan_id":"cebpf4jnsgd1na2vs0mg"},{"bike_id":"0cc5508b-60e3-493b-a3ef-8b047878455f","system_id":"levelo_inurba_marseille","lat":43.27907,"lon":5.38006,"is_reserved":false,"is_disabled":false,"rental_uris":{"android":"levelo://app?vid=0cc5508b-60e3-493b-a3ef-8b047878455f","ios":"levelo://app?vid=0cc5508b-60e3-493b-a3ef-8b047878455f"},"vehicle_type_id":"4","last_reported":1752005547,"current_range_meters":16400,"station_id":"ce4bhf92rcd13ifvqf50","pricing_plan_id":"cebpf4jnsgd1na2vs0mg"},{"bike_id":"f187bca7-730c-495f-b36c-b985f85f6d76","system_id":"levelo_inurba_marseille","lat":43.2862,"lon":5.35095,"is_reserved":false,"is_disabled":false,"rental_uris":{"android":"levelo://app?vid=f187bca7-730c-495f-b36c-b985f85f6d76","ios":"levelo://app?vid=f187bca7-730c-495f-b36c-b985f85f6d76"},"vehicle_type_id":"4","last_reported":1752005547,"current_range_meters":16800,"station_id":"ce4bhch2rcd13ifvqeug","pricing_plan_id":"cebpf4jnsgd1na2vs0mg"},{"bike_id":"c95621d9-878a-48a5-a574-d23785ada91f","system_id":"levelo_inurba_marseille","lat":43.25105,"lon":5.40323,"is_reserved":false,"is_disabled":false,"rental_uris":{"android":"levelo://app?vid=c95621d9-878a-48a5-a574-d23785ada91f","ios":"levelo://app?vid=c95621d9-878a-48a5-a574-d23785ada91f"},"vehicle_type_id":"4","last_reported":1752005547,"current_range_meters":16800,"station_id":"ce4bhlh2rcd13ifvqgig","pricing_plan_id":"cebpf4jnsgd1na2vs0mg"},{"bike_id":"3cf6f2b1-6c40-4c38-92e8-5f76dab34182","system_id":"levelo_inurba_marseille","lat":43.2319,"lon":5.39949,"is_reserved":false,"is_disabled":false,"rental_uris":{"android":"levelo://app?vid=3cf6f2b1-6c40-4c38-92e8-5f76dab34182","ios":"levelo://app?vid=3cf6f2b1-6c40-4c38-92e8-5f76dab34182"},"vehicle_type_id":"4","last_reported":1752005547,"current_range_meters":16800,"station_id":"ce4bhn12rcd13ifvqgqg","pricing_plan_id":"cebpf4jnsgd1na2vs0mg"},{"bike_id":"cd812f06-3254-4dc4-bdab-94ecd7361d33","system_id":"levelo_inurba_marseille","lat":43.2174,"lon":5.34604,"is_reserved":false,"is_disabled":false,"rental_uris":{"android":"levelo://app?vid=cd812f06-3254-4dc4-bdab-94ecd7361d33","ios":"levelo://app?vid=cd812f06-3254-4dc4-bdab-94ecd7361d33"},"vehicle_type_id":"4","last_reported":1752005547,"current_range_meters":16800,"station_id":"st_cvj6r9ubvosntc0bgbag","pricing_plan_id":"cebpf4jnsgd1na2vs0mg"},{"bike_id":"d0f90c24-dd03-411b-9731-55305f76b7c8","system_id":"levelo_inurba_marseille","lat":43.21225,"lon":5.35077,"is_reserved":false,"is_disabled":false,"rental_uris":{"android":"levelo://app?vid=d0f90c24-dd03-411b-9731-55305f76b7c8","ios":"levelo://app?vid=d0f90c24-dd03-411b-9731-55305f76b7c8"},"vehicle_type_id":"4","last_reported":1752005547,"current_range_meters":16800,"station_id":"st_cvj6sg6p6f1abm77japg","pricing_plan_id":"cebpf4jnsgd1na2vs0mg"},{"bike_id":"c2b72fe0-bae6-4c7b-ad48-9e771b203dc8","system_id":"levelo_inurba_marseille","lat":43.31379,"lon":5.38442,"is_reserved":false,"is_disabled":false,"rental_uris":{"android":"levelo://app?vid=c2b72fe0-bae6-4c7b-ad48-9e771b203dc8","ios":"levelo://app?vid=c2b72fe0-bae6-4c7b-ad48-9e771b203dc8"},"vehicle_type_id":"4","last_reported":1752005547,"current_range_meters":17200,"station_id":"ce4bgt92rcd13ifvqcf0","pricing_plan_id":"cebpf4jnsgd1na2vs0mg"},{"bike_id":"f06ad9c1-4d2d-477f-9cf5-8a8b31168797","system_id":"levelo_inurba_marseille","lat":43.287025,"lon":5.373884,"is_reserved":false,"is_disabled":false,"rental_uris":{"android":"levelo://app?vid=f06ad9c1-4d2d-477f-9cf5-8a8b31168797","ios":"levelo://app?vid=f06ad9c1-4d2d-477f-9cf5-8a8b31168797"},"vehicle_type_id":"4","last_reported":1752005547,"current_range_meters":17200,"station_id":"ce4bh3p2rcd13ifvqdq0","pricing_plan_id":"cebpf4jnsgd1na2vs0mg"},{"bike_id":"7f458286-44c2-4b83-8a32-6725a75b91b0","system_id":"levelo_inurba_marseille","lat":43.28404,"lon":5.37516,"is_reserved":false,"is_disabled":false,"rental_uris":{"android":"levelo://app?vid=7f458286-44c2-4b83-8a32-6725a75b91b0","ios":"levelo://app?vid=7f458286-44c2-4b83-8a32-6725a75b91b0"},"vehicle_type_id":"4","last_reported":1752005547,"current_range_meters":17200,"station_id":"ce4bh412rcd13ifvqds0","pricing_plan_id":"cebpf4jnsgd1na2vs0mg"},{"bike_id":"d6543ad0-16d4-4793-8970-3736097362b9","system_id":"levelo_inurba_marseille","lat":43.28615,"lon":5.35098,"is_reserved":false,"is_disabled":false,"rental_uris":{"android":"levelo://app?vid=d6543ad0-16d4-4793-8970-3736097362b9","ios":"levelo://app?vid=d6543ad0-16d4-4793-8970-3736097362b9"},"vehicle_type_id":"4","last_reported":1752005547,"current_range_meters":17200,"station_id":"ce4bhch2rcd13ifvqeug","pricing_plan_id":"cebpf4jnsgd1na2vs0mg"},{"bike_id":"4cd43d50-e63a-4436-aa3b-34af3b42d7be","system_id":"levelo_inurba_marseille","lat":43.31895,"lon":5.40711,"is_reserved":false,"is_disabled":false,"rental_uris":{"android":"levelo://app?vid=4cd43d50-e63a-4436-aa3b-34af3b42d7be","ios":"levelo://app?vid=4cd43d50-e63a-4436-aa3b-34af3b42d7be"},"vehicle_type_id":"4","last_reported":1752005547,"current_range_meters":17200,"station_id":"ce4bhq12rcd13ifvqhig","pricing_plan_id":"cebpf4jnsgd1na2vs0mg"},{"bike_id":"4975b22d-8c48-452f-bd19-7a9d3ed7c378","system_id":"levelo_inurba_marseille","lat":43.29676,"lon":5.37424,"is_reserved":false,"is_disabled":false,"rental_uris":{"android":"levelo://app?vid=4975b22d-8c48-452f-bd19-7a9d3ed7c378","ios":"levelo://app?vid=4975b22d-8c48-452f-bd19-7a9d3ed7c378"},"vehicle_type_id":"4","last_reported":1752005547,"current_range_meters":17600,"station_id":"","pricing_plan_id":"cebpf4jnsgd1na2vs0mg"},{"bike_id":"1d2a7f3b-c68f-40ec-bffb-160f65e518cf","system_id":"levelo_inurba_marseille","lat":43.30136,"lon":5.38777,"is_reserved":false,"is_disabled":false,"rental_uris":{"android":"levelo://app?vid=1d2a7f3b-c68f-40ec-bffb-160f65e518cf","ios":"levelo://app?vid=1d2a7f3b-c68f-40ec-bffb-160f65e518cf"},"vehicle_type_id":"4","last_reported":1752005547,"current_range_meters":17600,"station_id":"ce4bghh2rcd13ifvqb60","pricing_plan_id":"cebpf4jnsgd1na2vs0mg"},{"bike_id":"b588356c-34a0-42f2-924e-fbad69467a57","system_id":"levelo_inurba_marseille","lat":43.30142,"lon":5.39883,"is_reserved":false,"is_disabled":false,"rental_uris":{"android":"levelo://app?vid=b588356c-34a0-42f2-924e-fbad69467a57","ios":"levelo://app?vid=b588356c-34a0-42f2-924e-fbad69467a57"},"vehicle_type_id":"4","last_reported":1752005547,"current_range_meters":17600,"station_id":"ce4bh0h2rcd13ifvqd40","pricing_plan_id":"cebpf4jnsgd1na2vs0mg"},{"bike_id":"a1c4f89f-9e06-4c41-9595-eff3c1a356fa","system_id":"levelo_inurba_marseille","lat":43.29447,"lon":5.39744,"is_reserved":false,"is_disabled":false,"rental_uris":{"android":"levelo://app?vid=a1c4f89f-9e06-4c41-9595-eff3c1a356fa","ios":"levelo://app?vid=a1c4f89f-9e06-4c41-9595-eff3c1a356fa"},"vehicle_type_id":"4","last_reported":1752005547,"current_range_meters":17600,"station_id":"ce4bh3h2rcd13ifvqdo0","pricing_plan_id":"cebpf4jnsgd1na2vs0mg"},{"bike_id":"097bdac6-3718-4b7c-bd6f-6e4c3c4cd1ff","system_id":"levelo_inurba_marseille","lat":43.28409,"lon":5.37502,"is_reserved":false,"is_disabled":false,"rental_uris":{"android":"levelo://app?vid=097bdac6-3718-4b7c-bd6f-6e4c3c4cd1ff","ios":"levelo://app?vid=097bdac6-3718-4b7c-bd6f-6e4c3c4cd1ff"},"vehicle_type_id":"4","last_reported":1752005547,"current_range_meters":17600,"station_id":"ce4bh412rcd13ifvqds0","pricing_plan_id":"cebpf4jnsgd1na2vs0mg"},{"bike_id":"4260ce27-0934-4aa8-be21-8cd504c99e09","system_id":"levelo_inurba_marseille","lat":43.28995,"lon":5.35614,"is_reserved":false,"is_disabled":false,"rental_uris":{"android":"levelo://app?vid=4260ce27-0934-4aa8-be21-8cd504c99e09","ios":"levelo://app?vid=4260ce27-0934-4aa8-be21-8cd504c99e09"},"vehicle_type_id":"4","last_reported":1752005547,"current_range_meters":17600,"station_id":"ce4bhb92rcd13ifvqen0","pricing_plan_id":"cebpf4jnsgd1na2vs0mg"},{"bike_id":"9d7fbaaf-162a-4b11-886a-870cdd0495fa","system_id":"levelo_inurba_marseille","lat":43.23194,"lon":5.35557,"is_reserved":false,"is_disabled":false,"rental_uris":{"android":"levelo://app?vid=9d7fbaaf-162a-4b11-886a-870cdd0495fa","ios":"levelo://app?vid=9d7fbaaf-162a-4b11-886a-870cdd0495fa"},"vehicle_type_id":"4","last_reported":1752005547,"current_range_meters":17600,"station_id":"ce4bhu92rcd13ifvqi70","pricing_plan_id":"cebpf4jnsgd1na2vs0mg"},{"bike_id":"56eb3fdf-ea87-4fcf-85df-3680fa66363e","system_id":"levelo_inurba_marseille","lat":43.22509,"lon":5.34758,"is_reserved":false,"is_disabled":false,"rental_uris":{"android":"levelo://app?vid=56eb3fdf-ea87-4fcf-85df-3680fa66363e","ios":"levelo://app?vid=56eb3fdf-ea87-4fcf-85df-3680fa66363e"},"vehicle_type_id":"4","last_reported":1752005547,"current_range_meters":17600,"station_id":"st_cvj5dfep6f1abm77gieg","pricing_plan_id":"cebpf4jnsgd1na2vs0mg"},{"bike_id":"f5c16f07-bc6f-4121-91a7-5ad90eec4f34","system_id":"levelo_inurba_marseille","lat":43.31211,"lon":5.37296,"is_reserved":false,"is_disabled":false,"rental_uris":{"android":"levelo://app?vid=f5c16f07-bc6f-4121-91a7-5ad90eec4f34","ios":"levelo://app?vid=f5c16f07-bc6f-4121-91a7-5ad90eec4f34"},"vehicle_type_id":"4","last_reported":1752005547,"current_range_meters":18000,"station_id":"","pricing_plan_id":"cebpf4jnsgd1na2vs0mg"},{"bike_id":"dfdc5b46-db23-442b-9e8f-94692748ceb3","system_id":"levelo_inurba_marseille","lat":43.29793,"lon":5.37103,"is_reserved":false,"is_disabled":false,"rental_uris":{"android":"levelo://app?vid=dfdc5b46-db23-442b-9e8f-94692748ceb3","ios":"levelo://app?vid=dfdc5b46-db23-442b-9e8f-94692748ceb3"},"vehicle_type_id":"4","last_reported":1752005547,"current_range_meters":18000,"station_id":"ce4bgop2rcd13ifvqc1g","pricing_plan_id":"cebpf4jnsgd1na2vs0mg"},{"bike_id":"8a1896e9-b0fc-4ed9-8037-96a6835bdd11","system_id":"levelo_inurba_marseille","lat":43.29095,"lon":5.38127,"is_reserved":false,"is_disabled":false,"rental_uris":{"android":"levelo://app?vid=8a1896e9-b0fc-4ed9-8037-96a6835bdd11","ios":"levelo://app?vid=8a1896e9-b0fc-4ed9-8037-96a6835bdd11"},"vehicle_type_id":"4","last_reported":1752005547,"current_range_meters":18000,"station_id":"ce4bh512rcd13ifvqe2g","pricing_plan_id":"cebpf4jnsgd1na2vs0mg"},{"bike_id":"56ea222d-46cf-4ab7-bd5d-fdb5864b6496","system_id":"levelo_inurba_marseille","lat":43.32092,"lon":5.36787,"is_reserved":false,"is_disabled":false,"rental_uris":{"android":"levelo://app?vid=56ea222d-46cf-4ab7-bd5d-fdb5864b6496","ios":"levelo://app?vid=56ea222d-46cf-4ab7-bd5d-fdb5864b6496"},"vehicle_type_id":"4","last_reported":1752005547,"current_range_meters":18000,"station_id":"ce4bhrh2rcd13ifvqhug","pricing_plan_id":"cebpf4jnsgd1na2vs0mg"},{"bike_id":"b757ffbb-2b71-4330-9f60-5f8a9d46d16e","system_id":"levelo_inurba_marseille","lat":43.29663,"lon":5.37105,"is_reserved":false,"is_disabled":false,"rental_uris":{"android":"levelo://app?vid=b757ffbb-2b71-4330-9f60-5f8a9d46d16e","ios":"levelo://app?vid=b757ffbb-2b71-4330-9f60-5f8a9d46d16e"},"vehicle_type_id":"4","last_reported":1752005547,"current_range_meters":18800,"station_id":"","pricing_plan_id":"cebpf4jnsgd1na2vs0mg"},{"bike_id":"b2caa530-bb19-4cc6-a6bd-61e3e1d7432e","system_id":"levelo_inurba_marseille","lat":43.33763,"lon":5.37461,"is_reserved":false,"is_disabled":false,"rental_uris":{"android":"levelo://app?vid=b2caa530-bb19-4cc6-a6bd-61e3e1d7432e","ios":"levelo://app?vid=b2caa530-bb19-4cc6-a6bd-61e3e1d7432e"},"vehicle_type_id":"4","last_reported":1752005547,"current_range_meters":18800,"station_id":"","pricing_plan_id":"cebpf4jnsgd1na2vs0mg"},{"bike_id":"0f68b2e7-b018-4b36-8bcf-1e0466f98a1f","system_id":"levelo_inurba_marseille","lat":43.25495,"lon":5.37642,"is_reserved":false,"is_disabled":false,"rental_uris":{"android":"levelo://app?vid=0f68b2e7-b018-4b36-8bcf-1e0466f98a1f","ios":"levelo://app?vid=0f68b2e7-b018-4b36-8bcf-1e0466f98a1f"},"vehicle_type_id":"4","last_reported":1752005547,"current_range_meters":18800,"station_id":"ce4bhh12rcd13ifvqff0","pricing_plan_id":"cebpf4jnsgd1na2vs0mg"},{"bike_id":"697d5fc4-b988-4a4e-8323-c1ce5ed61a61","system_id":"levelo_inurba_marseille","lat":43.21199,"lon":5.35083,"is_reserved":false,"is_disabled":false,"rental_uris":{"android":"levelo://app?vid=697d5fc4-b988-4a4e-8323-c1ce5ed61a61","ios":"levelo://app?vid=697d5fc4-b988-4a4e-8323-c1ce5ed61a61"},"vehicle_type_id":"4","last_reported":1752005547,"current_range_meters":18800,"station_id":"st_cvj6sg6p6f1abm77japg","pricing_plan_id":"cebpf4jnsgd1na2vs0mg"},{"bike_id":"b6d9b946-f66a-4c6f-96e5-5d23e176360c","system_id":"levelo_inurba_marseille","lat":43.31315,"lon":5.38172,"is_reserved":false,"is_disabled":false,"rental_uris":{"android":"levelo://app?vid=b6d9b946-f66a-4c6f-96e5-5d23e176360c","ios":"levelo://app?vid=b6d9b946-f66a-4c6f-96e5-5d23e176360c"},"vehicle_type_id":"4","last_reported":1752005547,"current_range_meters":19200,"station_id":"","pricing_plan_id":"cebpf4jnsgd1na2vs0mg"},{"bike_id":"4d649b38-83ba-4fcb-83f9-da139a5fcd11","system_id":"levelo_inurba_marseille","lat":43.29909,"lon":5.38358,"is_reserved":false,"is_disabled":false,"rental_uris":{"android":"levelo://app?vid=4d649b38-83ba-4fcb-83f9-da139a5fcd11","ios":"levelo://app?vid=4d649b38-83ba-4fcb-83f9-da139a5fcd11"},"vehicle_type_id":"4","last_reported":1752005547,"current_range_meters":19200,"station_id":"","pricing_plan_id":"cebpf4jnsgd1na2vs0mg"},{"bike_id":"db30ce8a-ec57-4542-a666-330e352bf662","system_id":"levelo_inurba_marseille","lat":43.31383,"lon":5.38507,"is_reserved":false,"is_disabled":false,"rental_uris":{"android":"levelo://app?vid=db30ce8a-ec57-4542-a666-330e352bf662","ios":"levelo://app?vid=db30ce8a-ec57-4542-a666-330e352bf662"},"vehicle_type_id":"4","last_reported":1752005547,"current_range_meters":19200,"station_id":"ce4bgt92rcd13ifvqcf0","pricing_plan_id":"cebpf4jnsgd1na2vs0mg"},{"bike_id":"0200f227-0636-4df7-8acb-8396acc54756","system_id":"levelo_inurba_marseille","lat":43.31072,"lon":5.38349,"is_reserved":false,"is_disabled":false,"rental_uris":{"android":"levelo://app?vid=0200f227-0636-4df7-8acb-8396acc54756","ios":"levelo://app?vid=0200f227-0636-4df7-8acb-8396acc54756"},"vehicle_type_id":"4","last_reported":1752005547,"current_range_meters":19200,"station_id":"ce4bgv92rcd13ifvqcr0","pricing_plan_id":"cebpf4jnsgd1na2vs0mg"},{"bike_id":"adb4acb0-9f9f-4801-b3fa-444321509f1d","system_id":"levelo_inurba_marseille","lat":43.30329,"lon":5.40431,"is_reserved":false,"is_disabled":false,"rental_uris":{"android":"levelo://app?vid=adb4acb0-9f9f-4801-b3fa-444321509f1d","ios":"levelo://app?vid=adb4acb0-9f9f-4801-b3fa-444321509f1d"},"vehicle_type_id":"4","last_reported":1752005547,"current_range_meters":19200,"station_id":"ce4bh012rcd13ifvqd10","pricing_plan_id":"cebpf4jnsgd1na2vs0mg"},{"bike_id":"872f9328-a0c7-48c9-8da2-40117656ac06","system_id":"levelo_inurba_marseille","lat":43.30638,"lon":5.40074,"is_reserved":false,"is_disabled":false,"rental_uris":{"android":"levelo://app?vid=872f9328-a0c7-48c9-8da2-40117656ac06","ios":"levelo://app?vid=872f9328-a0c7-48c9-8da2-40117656ac06"},"vehicle_type_id":"4","last_reported":1752005547,"current_range_meters":19200,"station_id":"ce4bh112rcd13ifvqda0","pricing_plan_id":"cebpf4jnsgd1na2vs0mg"},{"bike_id":"e0d35cb7-56f2-4363-a5b5-29051df6b2ff","system_id":"levelo_inurba_marseille","lat":43.29541,"lon":5.39398,"is_reserved":false,"is_disabled":false,"rental_uris":{"android":"levelo://app?vid=e0d35cb7-56f2-4363-a5b5-29051df6b2ff","ios":"levelo://app?vid=e0d35cb7-56f2-4363-a5b5-29051df6b2ff"},"vehicle_type_id":"4","last_reported":1752005547,"current_range_meters":19200,"station_id":"ce4bh292rcd13ifvqdf0","pricing_plan_id":"cebpf4jnsgd1na2vs0mg"},{"bike_id":"f3b4b381-5400-499d-b8b4-38c65b4da584","system_id":"levelo_inurba_marseille","lat":43.294303,"lon":5.386337,"is_reserved":false,"is_disabled":false,"rental_uris":{"android":"levelo://app?vid=f3b4b381-5400-499d-b8b4-38c65b4da584","ios":"levelo://app?vid=f3b4b381-5400-499d-b8b4-38c65b4da584"},"vehicle_type_id":"4","last_reported":1752005547,"current_range_meters":19200,"station_id":"ce4bh2h2rcd13ifvqdh0","pricing_plan_id":"cebpf4jnsgd1na2vs0mg"},{"bike_id":"306ce1a6-757b-4897-8796-d879ee9a33eb","system_id":"levelo_inurba_marseille","lat":43.295984,"lon":5.400036,"is_reserved":false,"is_disabled":false,"rental_uris":{"android":"levelo://app?vid=306ce1a6-757b-4897-8796-d879ee9a33eb","ios":"levelo://app?vid=306ce1a6-757b-4897-8796-d879ee9a33eb"},"vehicle_type_id":"4","last_reported":1752005547,"current_range_meters":19200,"station_id":"ce4bh312rcd13ifvqdj0","pricing_plan_id":"cebpf4jnsgd1na2vs0mg"},{"bike_id":"230bce23-a3bc-4ce5-9f22-d601a06556a9","system_id":"levelo_inurba_marseille","lat":43.29516,"lon":5.3904,"is_reserved":false,"is_disabled":false,"rental_uris":{"android":"levelo://app?vid=230bce23-a3bc-4ce5-9f22-d601a06556a9","ios":"levelo://app?vid=230bce23-a3bc-4ce5-9f22-d601a06556a9"},"vehicle_type_id":"4","last_reported":1752005547,"current_range_meters":19200,"station_id":"ce4bh3p2rcd13ifvqdp0","pricing_plan_id":"cebpf4jnsgd1na2vs0mg"},{"bike_id":"1843b9fd-33a2-4860-ba98-968bca791535","system_id":"levelo_inurba_marseille","lat":43.289393,"lon":5.357542,"is_reserved":false,"is_disabled":false,"rental_uris":{"android":"levelo://app?vid=1843b9fd-33a2-4860-ba98-968bca791535","ios":"levelo://app?vid=1843b9fd-33a2-4860-ba98-968bca791535"},"vehicle_type_id":"4","last_reported":1752005547,"current_range_meters":19200,"station_id":"ce4bh4p2rcd13ifvqe0g","pricing_plan_id":"cebpf4jnsgd1na2vs0mg"},{"bike_id":"3363973e-8be0-4e9c-ad38-378b87a387b2","system_id":"levelo_inurba_marseille","lat":43.28937,"lon":5.38384,"is_reserved":false,"is_disabled":false,"rental_uris":{"android":"levelo://app?vid=3363973e-8be0-4e9c-ad38-378b87a387b2","ios":"levelo://app?vid=3363973e-8be0-4e9c-ad38-378b87a387b2"},"vehicle_type_id":"4","last_reported":1752005547,"current_range_meters":19200,"station_id":"ce4bh612rcd13ifvqe6g","pricing_plan_id":"cebpf4jnsgd1na2vs0mg"},{"bike_id":"05b7df27-162b-4ddd-b44f-c408c37c9ef7","system_id":"levelo_inurba_marseille","lat":43.28035,"lon":5.36949,"is_reserved":false,"is_disabled":false,"rental_uris":{"android":"levelo://app?vid=05b7df27-162b-4ddd-b44f-c408c37c9ef7","ios":"levelo://app?vid=05b7df27-162b-4ddd-b44f-c408c37c9ef7"},"vehicle_type_id":"4","last_reported":1752005547,"current_range_meters":19200,"station_id":"ce4bha12rcd13ifvqef0","pricing_plan_id":"cebpf4jnsgd1na2vs0mg"},{"bike_id":"40829e95-68ce-4017-b576-23273eb4b132","system_id":"levelo_inurba_marseille","lat":43.28622,"lon":5.35091,"is_reserved":false,"is_disabled":false,"rental_uris":{"android":"levelo://app?vid=40829e95-68ce-4017-b576-23273eb4b132","ios":"levelo://app?vid=40829e95-68ce-4017-b576-23273eb4b132"},"vehicle_type_id":"4","last_reported":1752005547,"current_range_meters":19200,"station_id":"ce4bhch2rcd13ifvqeug","pricing_plan_id":"cebpf4jnsgd1na2vs0mg"},{"bike_id":"9c91f875-a66b-45e8-b7d9-04170d96b384","system_id":"levelo_inurba_marseille","lat":43.27833,"lon":5.39212,"is_reserved":false,"is_disabled":false,"rental_uris":{"android":"levelo://app?vid=9c91f875-a66b-45e8-b7d9-04170d96b384","ios":"levelo://app?vid=9c91f875-a66b-45e8-b7d9-04170d96b384"},"vehicle_type_id":"4","last_reported":1752005547,"current_range_meters":19200,"station_id":"ce4bhjp2rcd13ifvqga0","pricing_plan_id":"cebpf4jnsgd1na2vs0mg"},{"bike_id":"651ffb58-679e-4588-a8db-e7bdfc6cd3da","system_id":"levelo_inurba_marseille","lat":43.26195,"lon":5.4047,"is_reserved":false,"is_disabled":false,"rental_uris":{"android":"levelo://app?vid=651ffb58-679e-4588-a8db-e7bdfc6cd3da","ios":"levelo://app?vid=651ffb58-679e-4588-a8db-e7bdfc6cd3da"},"vehicle_type_id":"4","last_reported":1752005547,"current_range_meters":19200,"station_id":"ce4bhmh2rcd13ifvqgmg","pricing_plan_id":"cebpf4jnsgd1na2vs0mg"},{"bike_id":"2cc5fa8b-8f10-4e35-822d-01d76697906e","system_id":"levelo_inurba_marseille","lat":43.31993,"lon":5.38152,"is_reserved":false,"is_disabled":false,"rental_uris":{"android":"levelo://app?vid=2cc5fa8b-8f10-4e35-822d-01d76697906e","ios":"levelo://app?vid=2cc5fa8b-8f10-4e35-822d-01d76697906e"},"vehicle_type_id":"4","last_reported":1752005547,"current_range_meters":19200,"station_id":"ce4bhr12rcd13ifvqhpg","pricing_plan_id":"cebpf4jnsgd1na2vs0mg"},{"bike_id":"6e5c2657-ccb8-4153-8b94-2143bc427a03","system_id":"levelo_inurba_marseille","lat":43.2249,"lon":5.348,"is_reserved":false,"is_disabled":false,"rental_uris":{"android":"levelo://app?vid=6e5c2657-ccb8-4153-8b94-2143bc427a03","ios":"levelo://app?vid=6e5c2657-ccb8-4153-8b94-2143bc427a03"},"vehicle_type_id":"4","last_reported":1752005547,"current_range_meters":19200,"station_id":"st_cvj5dfep6f1abm77gieg","pricing_plan_id":"cebpf4jnsgd1na2vs0mg"},{"bike_id":"b28aa0a0-791c-4a08-9a16-c7bf6ea0ed5a","system_id":"levelo_inurba_marseille","lat":43.22511,"lon":5.34778,"is_reserved":false,"is_disabled":false,"rental_uris":{"android":"levelo://app?vid=b28aa0a0-791c-4a08-9a16-c7bf6ea0ed5a","ios":"levelo://app?vid=b28aa0a0-791c-4a08-9a16-c7bf6ea0ed5a"},"vehicle_type_id":"4","last_reported":1752005547,"current_range_meters":19200,"station_id":"st_cvj5dfep6f1abm77gieg","pricing_plan_id":"cebpf4jnsgd1na2vs0mg"},{"bike_id":"1be39311-cfa5-4cbb-b93d-fb0870d6e611","system_id":"levelo_inurba_marseille","lat":43.21188,"lon":5.35062,"is_reserved":false,"is_disabled":false,"rental_uris":{"android":"levelo://app?vid=1be39311-cfa5-4cbb-b93d-fb0870d6e611","ios":"levelo://app?vid=1be39311-cfa5-4cbb-b93d-fb0870d6e611"},"vehicle_type_id":"4","last_reported":1752005547,"current_range_meters":19200,"station_id":"st_cvj6sg6p6f1abm77japg","pricing_plan_id":"cebpf4jnsgd1na2vs0mg"},{"bike_id":"320f2a33-deaa-4e0a-a3d5-c39ce8ad680a","system_id":"levelo_inurba_marseille","lat":43.31578,"lon":5.37443,"is_reserved":false,"is_disabled":false,"rental_uris":{"android":"levelo://app?vid=320f2a33-deaa-4e0a-a3d5-c39ce8ad680a","ios":"levelo://app?vid=320f2a33-deaa-4e0a-a3d5-c39ce8ad680a"},"vehicle_type_id":"4","last_reported":1752005547,"current_range_meters":19600,"station_id":"","pricing_plan_id":"cebpf4jnsgd1na2vs0mg"},{"bike_id":"09336cd1-7b2f-46b8-ac6e-85b310d42b0a","system_id":"levelo_inurba_marseille","lat":43.29348,"lon":5.42822,"is_reserved":false,"is_disabled":false,"rental_uris":{"android":"levelo://app?vid=09336cd1-7b2f-46b8-ac6e-85b310d42b0a","ios":"levelo://app?vid=09336cd1-7b2f-46b8-ac6e-85b310d42b0a"},"vehicle_type_id":"4","last_reported":1752005547,"current_range_meters":19600,"station_id":"","pricing_plan_id":"cebpf4jnsgd1na2vs0mg"},{"bike_id":"2d197f4e-8902-4c3d-a300-0a0facd8aa8b","system_id":"levelo_inurba_marseille","lat":43.30955,"lon":5.39025,"is_reserved":false,"is_disabled":false,"rental_uris":{"android":"levelo://app?vid=2d197f4e-8902-4c3d-a300-0a0facd8aa8b","ios":"levelo://app?vid=2d197f4e-8902-4c3d-a300-0a0facd8aa8b"},"vehicle_type_id":"4","last_reported":1752005547,"current_range_meters":19600,"station_id":"ce4bgup2rcd13ifvqco0","pricing_plan_id":"cebpf4jnsgd1na2vs0mg"},{"bike_id":"1c07112c-0ec9-49f4-91b6-6b4582b6d3d3","system_id":"levelo_inurba_marseille","lat":43.29052,"lon":5.39933,"is_reserved":false,"is_disabled":false,"rental_uris":{"android":"levelo://app?vid=1c07112c-0ec9-49f4-91b6-6b4582b6d3d3","ios":"levelo://app?vid=1c07112c-0ec9-49f4-91b6-6b4582b6d3d3"},"vehicle_type_id":"4","last_reported":1752005547,"current_range_meters":19600,"station_id":"ce4bh392rcd13ifvqdm0","pricing_plan_id":"cebpf4jnsgd1na2vs0mg"},{"bike_id":"8d24b97c-ae58-47b4-b294-000820abae48","system_id":"levelo_inurba_marseille","lat":43.28104,"lon":5.37827,"is_reserved":false,"is_disabled":false,"rental_uris":{"android":"levelo://app?vid=8d24b97c-ae58-47b4-b294-000820abae48","ios":"levelo://app?vid=8d24b97c-ae58-47b4-b294-000820abae48"},"vehicle_type_id":"4","last_reported":1752005547,"current_range_meters":19600,"station_id":"ce4bha12rcd13ifvqee0","pricing_plan_id":"cebpf4jnsgd1na2vs0mg"},{"bike_id":"999f2a33-af15-4ca0-853a-d2550f2d6574","system_id":"levelo_inurba_marseille","lat":43.23331,"lon":5.3604,"is_reserved":false,"is_disabled":false,"rental_uris":{"android":"levelo://app?vid=999f2a33-af15-4ca0-853a-d2550f2d6574","ios":"levelo://app?vid=999f2a33-af15-4ca0-853a-d2550f2d6574"},"vehicle_type_id":"4","last_reported":1752005547,"current_range_meters":20000,"station_id":"","pricing_plan_id":"cebpf4jnsgd1na2vs0mg"},{"bike_id":"ee2205c6-6ffc-4fc1-82a2-11fa7c364f32","system_id":"levelo_inurba_marseille","lat":43.30949,"lon":5.39018,"is_reserved":false,"is_disabled":false,"rental_uris":{"android":"levelo://app?vid=ee2205c6-6ffc-4fc1-82a2-11fa7c364f32","ios":"levelo://app?vid=ee2205c6-6ffc-4fc1-82a2-11fa7c364f32"},"vehicle_type_id":"4","last_reported":1752005547,"current_range_meters":20000,"station_id":"ce4bgup2rcd13ifvqco0","pricing_plan_id":"cebpf4jnsgd1na2vs0mg"},{"bike_id":"15b874f4-f431-4a56-8334-a85c3b914ec5","system_id":"levelo_inurba_marseille","lat":43.30957,"lon":5.39029,"is_reserved":false,"is_disabled":false,"rental_uris":{"android":"levelo://app?vid=15b874f4-f431-4a56-8334-a85c3b914ec5","ios":"levelo://app?vid=15b874f4-f431-4a56-8334-a85c3b914ec5"},"vehicle_type_id":"4","last_reported":1752005547,"current_range_meters":20000,"station_id":"ce4bgup2rcd13ifvqco0","pricing_plan_id":"cebpf4jnsgd1na2vs0mg"},{"bike_id":"4cb8455b-ea2f-4810-822a-104d7770337c","system_id":"levelo_inurba_marseille","lat":43.29024,"lon":5.38134,"is_reserved":false,"is_disabled":false,"rental_uris":{"android":"levelo://app?vid=4cb8455b-ea2f-4810-822a-104d7770337c","ios":"levelo://app?vid=4cb8455b-ea2f-4810-822a-104d7770337c"},"vehicle_type_id":"4","last_reported":1752005547,"current_range_meters":20000,"station_id":"ce4bh4p2rcd13ifvqe1g","pricing_plan_id":"cebpf4jnsgd1na2vs0mg"},{"bike_id":"a1e1693d-25ee-4328-a96b-2561cdb34f8e","system_id":"levelo_inurba_marseille","lat":43.292583,"lon":5.384437,"is_reserved":false,"is_disabled":false,"rental_uris":{"android":"levelo://app?vid=a1e1693d-25ee-4328-a96b-2561cdb34f8e","ios":"levelo://app?vid=a1e1693d-25ee-4328-a96b-2561cdb34f8e"},"vehicle_type_id":"4","last_reported":1752005547,"current_range_meters":20000,"station_id":"ce4bh692rcd13ifvqea0","pricing_plan_id":"cebpf4jnsgd1na2vs0mg"},{"bike_id":"a1f570ec-b21a-42c4-be08-29e0f6d9d15b","system_id":"levelo_inurba_marseille","lat":43.25734,"lon":5.41099,"is_reserved":false,"is_disabled":false,"rental_uris":{"android":"levelo://app?vid=a1f570ec-b21a-42c4-be08-29e0f6d9d15b","ios":"levelo://app?vid=a1f570ec-b21a-42c4-be08-29e0f6d9d15b"},"vehicle_type_id":"4","last_reported":1752005547,"current_range_meters":20000,"station_id":"ce4bhkp2rcd13ifvqgd0","pricing_plan_id":"cebpf4jnsgd1na2vs0mg"},{"bike_id":"9656ebb8-a97c-4cf6-85a2-76863c2d5bc4","system_id":"levelo_inurba_marseille","lat":43.29529,"lon":5.38547,"is_reserved":false,"is_disabled":false,"rental_uris":{"android":"levelo://app?vid=9656ebb8-a97c-4cf6-85a2-76863c2d5bc4","ios":"levelo://app?vid=9656ebb8-a97c-4cf6-85a2-76863c2d5bc4"},"vehicle_type_id":"4","last_reported":1752005547,"current_range_meters":20400,"station_id":"ce4bgih2rcd13ifvqba0","pricing_plan_id":"cebpf4jnsgd1na2vs0mg"},{"bike_id":"f11f1570-f848-4246-92b1-467d320986a6","system_id":"levelo_inurba_marseille","lat":43.30483,"lon":5.38862,"is_reserved":false,"is_disabled":false,"rental_uris":{"android":"levelo://app?vid=f11f1570-f848-4246-92b1-467d320986a6","ios":"levelo://app?vid=f11f1570-f848-4246-92b1-467d320986a6"},"vehicle_type_id":"4","last_reported":1752005547,"current_range_meters":20400,"station_id":"ce4bgk12rcd13ifvqbi0","pricing_plan_id":"cebpf4jnsgd1na2vs0mg"},{"bike_id":"cec57882-9b8c-4f8f-a87e-5ff15637b04a","system_id":"levelo_inurba_marseille","lat":43.31171,"lon":5.38722,"is_reserved":false,"is_disabled":false,"rental_uris":{"android":"levelo://app?vid=cec57882-9b8c-4f8f-a87e-5ff15637b04a","ios":"levelo://app?vid=cec57882-9b8c-4f8f-a87e-5ff15637b04a"},"vehicle_type_id":"4","last_reported":1752005547,"current_range_meters":20400,"station_id":"ce4bgv12rcd13ifvqcp0","pricing_plan_id":"cebpf4jnsgd1na2vs0mg"},{"bike_id":"9752574f-21ba-4bc1-93f7-0b8a49db170b","system_id":"levelo_inurba_marseille","lat":43.30594,"lon":5.39359,"is_reserved":false,"is_disabled":false,"rental_uris":{"android":"levelo://app?vid=9752574f-21ba-4bc1-93f7-0b8a49db170b","ios":"levelo://app?vid=9752574f-21ba-4bc1-93f7-0b8a49db170b"},"vehicle_type_id":"4","last_reported":1752005547,"current_range_meters":20400,"station_id":"ce4bh0p2rcd13ifvqd80","pricing_plan_id":"cebpf4jnsgd1na2vs0mg"},{"bike_id":"d6d27c1d-d25b-4752-a0c7-05315a4d44cd","system_id":"levelo_inurba_marseille","lat":43.29445,"lon":5.39747,"is_reserved":false,"is_disabled":false,"rental_uris":{"android":"levelo://app?vid=d6d27c1d-d25b-4752-a0c7-05315a4d44cd","ios":"levelo://app?vid=d6d27c1d-d25b-4752-a0c7-05315a4d44cd"},"vehicle_type_id":"4","last_reported":1752005547,"current_range_meters":20400,"station_id":"ce4bh3h2rcd13ifvqdo0","pricing_plan_id":"cebpf4jnsgd1na2vs0mg"},{"bike_id":"4e8241f3-32be-4ad3-9b98-3da84f13e610","system_id":"levelo_inurba_marseille","lat":43.29259,"lon":5.38444,"is_reserved":false,"is_disabled":false,"rental_uris":{"android":"levelo://app?vid=4e8241f3-32be-4ad3-9b98-3da84f13e610","ios":"levelo://app?vid=4e8241f3-32be-4ad3-9b98-3da84f13e610"},"vehicle_type_id":"4","last_reported":1752005547,"current_range_meters":20400,"station_id":"ce4bh692rcd13ifvqea0","pricing_plan_id":"cebpf4jnsgd1na2vs0mg"},{"bike_id":"9c12a694-97c9-4155-aacf-fb8283bd9f0b","system_id":"levelo_inurba_marseille","lat":43.29196,"lon":5.35794,"is_reserved":false,"is_disabled":false,"rental_uris":{"android":"levelo://app?vid=9c12a694-97c9-4155-aacf-fb8283bd9f0b","ios":"levelo://app?vid=9c12a694-97c9-4155-aacf-fb8283bd9f0b"},"vehicle_type_id":"4","last_reported":1752005547,"current_range_meters":20400,"station_id":"ce4bhb12rcd13ifvqel0","pricing_plan_id":"cebpf4jnsgd1na2vs0mg"},{"bike_id":"a61aa1db-999e-4f11-85fc-d60f287af5d4","system_id":"levelo_inurba_marseille","lat":43.28267,"lon":5.35056,"is_reserved":false,"is_disabled":false,"rental_uris":{"android":"levelo://app?vid=a61aa1db-999e-4f11-85fc-d60f287af5d4","ios":"levelo://app?vid=a61aa1db-999e-4f11-85fc-d60f287af5d4"},"vehicle_type_id":"4","last_reported":1752005547,"current_range_meters":20400,"station_id":"ce4bhbp2rcd13ifvqerg","pricing_plan_id":"cebpf4jnsgd1na2vs0mg"},{"bike_id":"2b459895-8084-4ac8-a9da-9da0a88d4d3e","system_id":"levelo_inurba_marseille","lat":43.289502,"lon":5.363894,"is_reserved":false,"is_disabled":false,"rental_uris":{"android":"levelo://app?vid=2b459895-8084-4ac8-a9da-9da0a88d4d3e","ios":"levelo://app?vid=2b459895-8084-4ac8-a9da-9da0a88d4d3e"},"vehicle_type_id":"4","last_reported":1752005547,"current_range_meters":20400,"station_id":"ce4bhc92rcd13ifvqetg","pricing_plan_id":"cebpf4jnsgd1na2vs0mg"},{"bike_id":"b7bd0a60-0d63-49eb-b04b-3c6e4ea787e2","system_id":"levelo_inurba_marseille","lat":43.28618,"lon":5.35102,"is_reserved":false,"is_disabled":false,"rental_uris":{"android":"levelo://app?vid=b7bd0a60-0d63-49eb-b04b-3c6e4ea787e2","ios":"levelo://app?vid=b7bd0a60-0d63-49eb-b04b-3c6e4ea787e2"},"vehicle_type_id":"4","last_reported":1752005547,"current_range_meters":20400,"station_id":"ce4bhch2rcd13ifvqeug","pricing_plan_id":"cebpf4jnsgd1na2vs0mg"},{"bike_id":"40fa92fc-f934-431e-b290-17833f63b829","system_id":"levelo_inurba_marseille","lat":43.2321,"lon":5.35507,"is_reserved":false,"is_disabled":false,"rental_uris":{"android":"levelo://app?vid=40fa92fc-f934-431e-b290-17833f63b829","ios":"levelo://app?vid=40fa92fc-f934-431e-b290-17833f63b829"},"vehicle_type_id":"4","last_reported":1752005547,"current_range_meters":20400,"station_id":"ce4bhu92rcd13ifvqi70","pricing_plan_id":"cebpf4jnsgd1na2vs0mg"},{"bike_id":"47574355-c648-4bf4-aa35-06ea9e4bacdd","system_id":"levelo_inurba_marseille","lat":43.29781,"lon":5.39358,"is_reserved":false,"is_disabled":false,"rental_uris":{"android":"levelo://app?vid=47574355-c648-4bf4-aa35-06ea9e4bacdd","ios":"levelo://app?vid=47574355-c648-4bf4-aa35-06ea9e4bacdd"},"vehicle_type_id":"4","last_reported":1752005547,"current_range_meters":20400,"station_id":"chh1huq6cuj3fo74tm60","pricing_plan_id":"cebpf4jnsgd1na2vs0mg"},{"bike_id":"c0735136-e0f1-410b-b7bc-03f3deffba27","system_id":"levelo_inurba_marseille","lat":43.21743,"lon":5.34619,"is_reserved":false,"is_disabled":false,"rental_uris":{"android":"levelo://app?vid=c0735136-e0f1-410b-b7bc-03f3deffba27","ios":"levelo://app?vid=c0735136-e0f1-410b-b7bc-03f3deffba27"},"vehicle_type_id":"4","last_reported":1752005547,"current_range_meters":20400,"station_id":"st_cvj6r9ubvosntc0bgbag","pricing_plan_id":"cebpf4jnsgd1na2vs0mg"},{"bike_id":"54789045-26f6-48c7-8a1d-d776bf8c7cef","system_id":"levelo_inurba_marseille","lat":43.30944,"lon":5.39026,"is_reserved":false,"is_disabled":false,"rental_uris":{"android":"levelo://app?vid=54789045-26f6-48c7-8a1d-d776bf8c7cef","ios":"levelo://app?vid=54789045-26f6-48c7-8a1d-d776bf8c7cef"},"vehicle_type_id":"4","last_reported":1752005547,"current_range_meters":20800,"station_id":"ce4bgup2rcd13ifvqco0","pricing_plan_id":"cebpf4jnsgd1na2vs0mg"},{"bike_id":"03ae7549-435d-4c2c-8546-0d1df0f4e265","system_id":"levelo_inurba_marseille","lat":43.30786,"lon":5.37592,"is_reserved":false,"is_disabled":false,"rental_uris":{"android":"levelo://app?vid=03ae7549-435d-4c2c-8546-0d1df0f4e265","ios":"levelo://app?vid=03ae7549-435d-4c2c-8546-0d1df0f4e265"},"vehicle_type_id":"4","last_reported":1752005547,"current_range_meters":20800,"station_id":"ce4bgv92rcd13ifvqcq0","pricing_plan_id":"cebpf4jnsgd1na2vs0mg"},{"bike_id":"e1fc6484-147b-496d-a5dd-bf9d0790ad38","system_id":"levelo_inurba_marseille","lat":43.2926,"lon":5.38445,"is_reserved":false,"is_disabled":false,"rental_uris":{"android":"levelo://app?vid=e1fc6484-147b-496d-a5dd-bf9d0790ad38","ios":"levelo://app?vid=e1fc6484-147b-496d-a5dd-bf9d0790ad38"},"vehicle_type_id":"4","last_reported":1752005547,"current_range_meters":20800,"station_id":"ce4bh692rcd13ifvqea0","pricing_plan_id":"cebpf4jnsgd1na2vs0mg"},{"bike_id":"3bd8b8a3-512e-4c45-8839-c2f9349ff4ec","system_id":"levelo_inurba_marseille","lat":43.21764,"lon":5.34597,"is_reserved":false,"is_disabled":false,"rental_uris":{"android":"levelo://app?vid=3bd8b8a3-512e-4c45-8839-c2f9349ff4ec","ios":"levelo://app?vid=3bd8b8a3-512e-4c45-8839-c2f9349ff4ec"},"vehicle_type_id":"4","last_reported":1752005547,"current_range_meters":20800,"station_id":"st_cvj6r9ubvosntc0bgbag","pricing_plan_id":"cebpf4jnsgd1na2vs0mg"},{"bike_id":"ee0b21f8-1df9-4066-abde-88c2c09cfec3","system_id":"levelo_inurba_marseille","lat":43.299667,"lon":5.384847,"is_reserved":false,"is_disabled":false,"rental_uris":{"android":"levelo://app?vid=ee0b21f8-1df9-4066-abde-88c2c09cfec3","ios":"levelo://app?vid=ee0b21f8-1df9-4066-abde-88c2c09cfec3"},"vehicle_type_id":"4","last_reported":1752005547,"current_range_meters":21600,"station_id":"ce4bgj92rcd13ifvqbd0","pricing_plan_id":"cebpf4jnsgd1na2vs0mg"},{"bike_id":"649ae654-fd5b-4f8a-97c6-521abbddb1ae","system_id":"levelo_inurba_marseille","lat":43.29424,"lon":5.38629,"is_reserved":false,"is_disabled":false,"rental_uris":{"android":"levelo://app?vid=649ae654-fd5b-4f8a-97c6-521abbddb1ae","ios":"levelo://app?vid=649ae654-fd5b-4f8a-97c6-521abbddb1ae"},"vehicle_type_id":"4","last_reported":1752005547,"current_range_meters":21600,"station_id":"ce4bh2h2rcd13ifvqdh0","pricing_plan_id":"cebpf4jnsgd1na2vs0mg"},{"bike_id":"7a305d51-5742-4308-b8f1-f89a7aed6968","system_id":"levelo_inurba_marseille","lat":43.32352,"lon":5.36757,"is_reserved":false,"is_disabled":false,"rental_uris":{"android":"levelo://app?vid=7a305d51-5742-4308-b8f1-f89a7aed6968","ios":"levelo://app?vid=7a305d51-5742-4308-b8f1-f89a7aed6968"},"vehicle_type_id":"4","last_reported":1752005547,"current_range_meters":21600,"station_id":"ce4bhsh2rcd13ifvqi2g","pricing_plan_id":"cebpf4jnsgd1na2vs0mg"},{"bike_id":"feaa7e3a-cbe4-4489-be11-8a12d7eec173","system_id":"levelo_inurba_marseille","lat":43.25043,"lon":5.42659,"is_reserved":false,"is_disabled":false,"rental_uris":{"android":"levelo://app?vid=feaa7e3a-cbe4-4489-be11-8a12d7eec173","ios":"levelo://app?vid=feaa7e3a-cbe4-4489-be11-8a12d7eec173"},"vehicle_type_id":"4","last_reported":1752005547,"current_range_meters":22000,"station_id":"","pricing_plan_id":"cebpf4jnsgd1na2vs0mg"},{"bike_id":"1446eb7a-2a6d-437e-a1d4-2962999bf589","system_id":"levelo_inurba_marseille","lat":43.30596,"lon":5.38442,"is_reserved":false,"is_disabled":false,"rental_uris":{"android":"levelo://app?vid=1446eb7a-2a6d-437e-a1d4-2962999bf589","ios":"levelo://app?vid=1446eb7a-2a6d-437e-a1d4-2962999bf589"},"vehicle_type_id":"4","last_reported":1752005547,"current_range_meters":22000,"station_id":"ce4bgv12rcd13ifvqcp0","pricing_plan_id":"cebpf4jnsgd1na2vs0mg"},{"bike_id":"6e9716e5-c0d5-438f-b23a-2ef57ecba8cc","system_id":"levelo_inurba_marseille","lat":43.24395,"lon":5.3707,"is_reserved":false,"is_disabled":false,"rental_uris":{"android":"levelo://app?vid=6e9716e5-c0d5-438f-b23a-2ef57ecba8cc","ios":"levelo://app?vid=6e9716e5-c0d5-438f-b23a-2ef57ecba8cc"},"vehicle_type_id":"4","last_reported":1752005547,"current_range_meters":22000,"station_id":"ce4bhhh2rcd13ifvqfk0","pricing_plan_id":"cebpf4jnsgd1na2vs0mg"},{"bike_id":"e178deb3-9bd6-476e-8508-cccad1dbf1dc","system_id":"levelo_inurba_marseille","lat":43.24663,"lon":5.38166,"is_reserved":false,"is_disabled":false,"rental_uris":{"android":"levelo://app?vid=e178deb3-9bd6-476e-8508-cccad1dbf1dc","ios":"levelo://app?vid=e178deb3-9bd6-476e-8508-cccad1dbf1dc"},"vehicle_type_id":"4","last_reported":1752005547,"current_range_meters":22000,"station_id":"ce4bhih2rcd13ifvqfr0","pricing_plan_id":"cebpf4jnsgd1na2vs0mg"},{"bike_id":"6afae909-05ff-4385-a287-fa8a2880f872","system_id":"levelo_inurba_marseille","lat":43.33602,"lon":5.41028,"is_reserved":false,"is_disabled":false,"rental_uris":{"android":"levelo://app?vid=6afae909-05ff-4385-a287-fa8a2880f872","ios":"levelo://app?vid=6afae909-05ff-4385-a287-fa8a2880f872"},"vehicle_type_id":"4","last_reported":1752005547,"current_range_meters":22000,"station_id":"ce4bhqh2rcd13ifvqhmg","pricing_plan_id":"cebpf4jnsgd1na2vs0mg"},{"bike_id":"ac4c48e9-6895-4d62-9c4c-0fd6a3782e96","system_id":"levelo_inurba_marseille","lat":43.286987,"lon":5.360354,"is_reserved":false,"is_disabled":false,"rental_uris":{"android":"levelo://app?vid=ac4c48e9-6895-4d62-9c4c-0fd6a3782e96","ios":"levelo://app?vid=ac4c48e9-6895-4d62-9c4c-0fd6a3782e96"},"vehicle_type_id":"4","last_reported":1752005547,"current_range_meters":22000,"station_id":"cki0cbj6b192h4jlfktg","pricing_plan_id":"cebpf4jnsgd1na2vs0mg"},{"bike_id":"87d13c3c-9453-4492-8a8f-f2b4c8e828c6","system_id":"levelo_inurba_marseille","lat":43.26177,"lon":5.37049,"is_reserved":false,"is_disabled":false,"rental_uris":{"android":"levelo://app?vid=87d13c3c-9453-4492-8a8f-f2b4c8e828c6","ios":"levelo://app?vid=87d13c3c-9453-4492-8a8f-f2b4c8e828c6"},"vehicle_type_id":"4","last_reported":1752005547,"current_range_meters":22400,"station_id":"","pricing_plan_id":"cebpf4jnsgd1na2vs0mg"},{"bike_id":"1c843fea-9154-4ab5-a997-10f28de62d5c","system_id":"levelo_inurba_marseille","lat":43.26547,"lon":5.37383,"is_reserved":false,"is_disabled":false,"rental_uris":{"android":"levelo://app?vid=1c843fea-9154-4ab5-a997-10f28de62d5c","ios":"levelo://app?vid=1c843fea-9154-4ab5-a997-10f28de62d5c"},"vehicle_type_id":"4","last_reported":1752005547,"current_range_meters":22400,"station_id":"","pricing_plan_id":"cebpf4jnsgd1na2vs0mg"},{"bike_id":"48ddfbd9-46a0-4575-bbbf-3616f5270c09","system_id":"levelo_inurba_marseille","lat":43.27992,"lon":5.40009,"is_reserved":false,"is_disabled":false,"rental_uris":{"android":"levelo://app?vid=48ddfbd9-46a0-4575-bbbf-3616f5270c09","ios":"levelo://app?vid=48ddfbd9-46a0-4575-bbbf-3616f5270c09"},"vehicle_type_id":"4","last_reported":1752005547,"current_range_meters":22400,"station_id":"","pricing_plan_id":"cebpf4jnsgd1na2vs0mg"},{"bike_id":"1d1c25f8-2002-430a-b5d0-27a391aabbde","system_id":"levelo_inurba_marseille","lat":43.29541,"lon":5.38535,"is_reserved":false,"is_disabled":false,"rental_uris":{"android":"levelo://app?vid=1d1c25f8-2002-430a-b5d0-27a391aabbde","ios":"levelo://app?vid=1d1c25f8-2002-430a-b5d0-27a391aabbde"},"vehicle_type_id":"4","last_reported":1752005547,"current_range_meters":22400,"station_id":"ce4bgih2rcd13ifvqba0","pricing_plan_id":"cebpf4jnsgd1na2vs0mg"},{"bike_id":"915ba1dc-144d-41a2-8b45-9ddc8b4eb1ad","system_id":"levelo_inurba_marseille","lat":43.30969,"lon":5.39007,"is_reserved":false,"is_disabled":false,"rental_uris":{"android":"levelo://app?vid=915ba1dc-144d-41a2-8b45-9ddc8b4eb1ad","ios":"levelo://app?vid=915ba1dc-144d-41a2-8b45-9ddc8b4eb1ad"},"vehicle_type_id":"4","last_reported":1752005547,"current_range_meters":22400,"station_id":"ce4bgup2rcd13ifvqco0","pricing_plan_id":"cebpf4jnsgd1na2vs0mg"},{"bike_id":"0a6cc7ec-c6e8-4833-9620-bb3812e421f3","system_id":"levelo_inurba_marseille","lat":43.28614,"lon":5.35074,"is_reserved":false,"is_disabled":false,"rental_uris":{"android":"levelo://app?vid=0a6cc7ec-c6e8-4833-9620-bb3812e421f3","ios":"levelo://app?vid=0a6cc7ec-c6e8-4833-9620-bb3812e421f3"},"vehicle_type_id":"4","last_reported":1752005547,"current_range_meters":22400,"station_id":"ce4bhch2rcd13ifvqeug","pricing_plan_id":"cebpf4jnsgd1na2vs0mg"},{"bike_id":"ef6311b9-c394-4e85-b3f2-bf62d7fa6877","system_id":"levelo_inurba_marseille","lat":43.245477,"lon":5.395235,"is_reserved":false,"is_disabled":false,"rental_uris":{"android":"levelo://app?vid=ef6311b9-c394-4e85-b3f2-bf62d7fa6877","ios":"levelo://app?vid=ef6311b9-c394-4e85-b3f2-bf62d7fa6877"},"vehicle_type_id":"4","last_reported":1752005547,"current_range_meters":22400,"station_id":"ce4bhlp2rcd13ifvqgjg","pricing_plan_id":"cebpf4jnsgd1na2vs0mg"},{"bike_id":"36c387ea-be50-4028-8ecc-21605fe3e879","system_id":"levelo_inurba_marseille","lat":43.29338,"lon":5.428175,"is_reserved":false,"is_disabled":false,"rental_uris":{"android":"levelo://app?vid=36c387ea-be50-4028-8ecc-21605fe3e879","ios":"levelo://app?vid=36c387ea-be50-4028-8ecc-21605fe3e879"},"vehicle_type_id":"4","last_reported":1752005547,"current_range_meters":22800,"station_id":"","pricing_plan_id":"cebpf4jnsgd1na2vs0mg"},{"bike_id":"56719e97-7c9e-4080-a4a3-5f949589c7df","system_id":"levelo_inurba_marseille","lat":43.30785,"lon":5.37626,"is_reserved":false,"is_disabled":false,"rental_uris":{"android":"levelo://app?vid=56719e97-7c9e-4080-a4a3-5f949589c7df","ios":"levelo://app?vid=56719e97-7c9e-4080-a4a3-5f949589c7df"},"vehicle_type_id":"4","last_reported":1752005547,"current_range_meters":22800,"station_id":"ce4bgv92rcd13ifvqcq0","pricing_plan_id":"cebpf4jnsgd1na2vs0mg"},{"bike_id":"82c3e679-80db-4916-ac9d-585d3bb1f015","system_id":"levelo_inurba_marseille","lat":43.31266,"lon":5.40173,"is_reserved":false,"is_disabled":false,"rental_uris":{"android":"levelo://app?vid=82c3e679-80db-4916-ac9d-585d3bb1f015","ios":"levelo://app?vid=82c3e679-80db-4916-ac9d-585d3bb1f015"},"vehicle_type_id":"4","last_reported":1752005547,"current_range_meters":22800,"station_id":"ce4bh092rcd13ifvqd30","pricing_plan_id":"cebpf4jnsgd1na2vs0mg"},{"bike_id":"3fe9e13d-ec12-4345-b8ab-87e01d2983b9","system_id":"levelo_inurba_marseille","lat":43.29868,"lon":5.39713,"is_reserved":false,"is_disabled":false,"rental_uris":{"android":"levelo://app?vid=3fe9e13d-ec12-4345-b8ab-87e01d2983b9","ios":"levelo://app?vid=3fe9e13d-ec12-4345-b8ab-87e01d2983b9"},"vehicle_type_id":"4","last_reported":1752005547,"current_range_meters":22800,"station_id":"ce4bh0h2rcd13ifvqd50","pricing_plan_id":"cebpf4jnsgd1na2vs0mg"},{"bike_id":"4623a93d-d023-4d99-b787-fefe10c18bbb","system_id":"levelo_inurba_marseille","lat":43.295045,"lon":5.394065,"is_reserved":false,"is_disabled":false,"rental_uris":{"android":"levelo://app?vid=4623a93d-d023-4d99-b787-fefe10c18bbb","ios":"levelo://app?vid=4623a93d-d023-4d99-b787-fefe10c18bbb"},"vehicle_type_id":"4","last_reported":1752005547,"current_range_meters":22800,"station_id":"ce4bh292rcd13ifvqdf0","pricing_plan_id":"cebpf4jnsgd1na2vs0mg"},{"bike_id":"c844f2a0-c505-4418-9091-f7f141f75e07","system_id":"levelo_inurba_marseille","lat":43.2942,"lon":5.38611,"is_reserved":false,"is_disabled":false,"rental_uris":{"android":"levelo://app?vid=c844f2a0-c505-4418-9091-f7f141f75e07","ios":"levelo://app?vid=c844f2a0-c505-4418-9091-f7f141f75e07"},"vehicle_type_id":"4","last_reported":1752005547,"current_range_meters":22800,"station_id":"ce4bh2h2rcd13ifvqdh0","pricing_plan_id":"cebpf4jnsgd1na2vs0mg"},{"bike_id":"250fc578-7fab-44f7-b9e4-9a0a1644a642","system_id":"levelo_inurba_marseille","lat":43.283533,"lon":5.38109,"is_reserved":false,"is_disabled":false,"rental_uris":{"android":"levelo://app?vid=250fc578-7fab-44f7-b9e4-9a0a1644a642","ios":"levelo://app?vid=250fc578-7fab-44f7-b9e4-9a0a1644a642"},"vehicle_type_id":"4","last_reported":1752005547,"current_range_meters":22800,"station_id":"ce4bh412rcd13ifvqdr0","pricing_plan_id":"cebpf4jnsgd1na2vs0mg"},{"bike_id":"26a3e440-1259-46bb-b178-3e9cee02d7f8","system_id":"levelo_inurba_marseille","lat":43.28929,"lon":5.36629,"is_reserved":false,"is_disabled":false,"rental_uris":{"android":"levelo://app?vid=26a3e440-1259-46bb-b178-3e9cee02d7f8","ios":"levelo://app?vid=26a3e440-1259-46bb-b178-3e9cee02d7f8"},"vehicle_type_id":"4","last_reported":1752005547,"current_range_meters":22800,"station_id":"ce4bhap2rcd13ifvqek0","pricing_plan_id":"cebpf4jnsgd1na2vs0mg"},{"bike_id":"50a7658a-d4b7-4a9f-94be-c4ee3dd322ad","system_id":"levelo_inurba_marseille","lat":43.28412,"lon":5.35012,"is_reserved":false,"is_disabled":false,"rental_uris":{"android":"levelo://app?vid=50a7658a-d4b7-4a9f-94be-c4ee3dd322ad","ios":"levelo://app?vid=50a7658a-d4b7-4a9f-94be-c4ee3dd322ad"},"vehicle_type_id":"4","last_reported":1752005547,"current_range_meters":22800,"station_id":"ce4bhbh2rcd13ifvqepg","pricing_plan_id":"cebpf4jnsgd1na2vs0mg"},{"bike_id":"cecd680a-7489-4e91-9c03-8f890bfc5f98","system_id":"levelo_inurba_marseille","lat":43.29218,"lon":5.36069,"is_reserved":false,"is_disabled":false,"rental_uris":{"android":"levelo://app?vid=cecd680a-7489-4e91-9c03-8f890bfc5f98","ios":"levelo://app?vid=cecd680a-7489-4e91-9c03-8f890bfc5f98"},"vehicle_type_id":"4","last_reported":1752005547,"current_range_meters":22800,"station_id":"ce4bhbh2rcd13ifvqeqg","pricing_plan_id":"cebpf4jnsgd1na2vs0mg"},{"bike_id":"aca47642-4ceb-4a40-bae0-66b7f0d6dee2","system_id":"levelo_inurba_marseille","lat":43.22504,"lon":5.34784,"is_reserved":false,"is_disabled":false,"rental_uris":{"android":"levelo://app?vid=aca47642-4ceb-4a40-bae0-66b7f0d6dee2","ios":"levelo://app?vid=aca47642-4ceb-4a40-bae0-66b7f0d6dee2"},"vehicle_type_id":"4","last_reported":1752005547,"current_range_meters":22800,"station_id":"st_cvj5dfep6f1abm77gieg","pricing_plan_id":"cebpf4jnsgd1na2vs0mg"},{"bike_id":"9f5e74ce-2459-4c6f-a171-f6d1e8a1ed83","system_id":"levelo_inurba_marseille","lat":43.31843,"lon":5.37546,"is_reserved":false,"is_disabled":false,"rental_uris":{"android":"levelo://app?vid=9f5e74ce-2459-4c6f-a171-f6d1e8a1ed83","ios":"levelo://app?vid=9f5e74ce-2459-4c6f-a171-f6d1e8a1ed83"},"vehicle_type_id":"4","last_reported":1752005547,"current_range_meters":23200,"station_id":"","pricing_plan_id":"cebpf4jnsgd1na2vs0mg"},{"bike_id":"c16cae03-3bdd-45f7-b3e9-0ce5c686e830","system_id":"levelo_inurba_marseille","lat":43.2619,"lon":5.37516,"is_reserved":false,"is_disabled":false,"rental_uris":{"android":"levelo://app?vid=c16cae03-3bdd-45f7-b3e9-0ce5c686e830","ios":"levelo://app?vid=c16cae03-3bdd-45f7-b3e9-0ce5c686e830"},"vehicle_type_id":"4","last_reported":1752005547,"current_range_meters":23200,"station_id":"","pricing_plan_id":"cebpf4jnsgd1na2vs0mg"},{"bike_id":"b654147f-443d-4da9-ba9b-b97a5fb14cd2","system_id":"levelo_inurba_marseille","lat":43.30872,"lon":5.39634,"is_reserved":false,"is_disabled":false,"rental_uris":{"android":"levelo://app?vid=b654147f-443d-4da9-ba9b-b97a5fb14cd2","ios":"levelo://app?vid=b654147f-443d-4da9-ba9b-b97a5fb14cd2"},"vehicle_type_id":"4","last_reported":1752005547,"current_range_meters":23200,"station_id":"ce4bh012rcd13ifvqcv0","pricing_plan_id":"cebpf4jnsgd1na2vs0mg"},{"bike_id":"a124f045-1e7b-4896-8188-3d0a31070c13","system_id":"levelo_inurba_marseille","lat":43.29565,"lon":5.39999,"is_reserved":false,"is_disabled":false,"rental_uris":{"android":"levelo://app?vid=a124f045-1e7b-4896-8188-3d0a31070c13","ios":"levelo://app?vid=a124f045-1e7b-4896-8188-3d0a31070c13"},"vehicle_type_id":"4","last_reported":1752005547,"current_range_meters":23200,"station_id":"ce4bh312rcd13ifvqdj0","pricing_plan_id":"cebpf4jnsgd1na2vs0mg"},{"bike_id":"0504db72-471a-4536-b185-e3ab869f8260","system_id":"levelo_inurba_marseille","lat":43.28701,"lon":5.37385,"is_reserved":false,"is_disabled":false,"rental_uris":{"android":"levelo://app?vid=0504db72-471a-4536-b185-e3ab869f8260","ios":"levelo://app?vid=0504db72-471a-4536-b185-e3ab869f8260"},"vehicle_type_id":"4","last_reported":1752005547,"current_range_meters":23200,"station_id":"ce4bh3p2rcd13ifvqdq0","pricing_plan_id":"cebpf4jnsgd1na2vs0mg"},{"bike_id":"f4ee1cb0-dbea-484e-96a3-3719ce93782f","system_id":"levelo_inurba_marseille","lat":43.28936,"lon":5.36402,"is_reserved":false,"is_disabled":false,"rental_uris":{"android":"levelo://app?vid=f4ee1cb0-dbea-484e-96a3-3719ce93782f","ios":"levelo://app?vid=f4ee1cb0-dbea-484e-96a3-3719ce93782f"},"vehicle_type_id":"4","last_reported":1752005547,"current_range_meters":23200,"station_id":"ce4bhc92rcd13ifvqetg","pricing_plan_id":"cebpf4jnsgd1na2vs0mg"},{"bike_id":"fe393e70-3017-4f74-9643-ce2ab31a2adc","system_id":"levelo_inurba_marseille","lat":43.28625,"lon":5.35088,"is_reserved":false,"is_disabled":false,"rental_uris":{"android":"levelo://app?vid=fe393e70-3017-4f74-9643-ce2ab31a2adc","ios":"levelo://app?vid=fe393e70-3017-4f74-9643-ce2ab31a2adc"},"vehicle_type_id":"4","last_reported":1752005547,"current_range_meters":23200,"station_id":"ce4bhch2rcd13ifvqeug","pricing_plan_id":"cebpf4jnsgd1na2vs0mg"},{"bike_id":"3f6c8592-d72a-4bd1-b6cd-450a278e727e","system_id":"levelo_inurba_marseille","lat":43.246601,"lon":5.381676,"is_reserved":false,"is_disabled":false,"rental_uris":{"android":"levelo://app?vid=3f6c8592-d72a-4bd1-b6cd-450a278e727e","ios":"levelo://app?vid=3f6c8592-d72a-4bd1-b6cd-450a278e727e"},"vehicle_type_id":"4","last_reported":1752005547,"current_range_meters":23200,"station_id":"ce4bhih2rcd13ifvqfr0","pricing_plan_id":"cebpf4jnsgd1na2vs0mg"},{"bike_id":"17bb7cea-0ffd-46fa-8aa4-dd74e012ed8f","system_id":"levelo_inurba_marseille","lat":43.27991,"lon":5.41658,"is_reserved":false,"is_disabled":false,"rental_uris":{"android":"levelo://app?vid=17bb7cea-0ffd-46fa-8aa4-dd74e012ed8f","ios":"levelo://app?vid=17bb7cea-0ffd-46fa-8aa4-dd74e012ed8f"},"vehicle_type_id":"4","last_reported":1752005547,"current_range_meters":23200,"station_id":"ce4bho12rcd13ifvqh1g","pricing_plan_id":"cebpf4jnsgd1na2vs0mg"},{"bike_id":"a2bd025b-f0e6-4a3d-b3d9-ebfa621fa75c","system_id":"levelo_inurba_marseille","lat":43.2293,"lon":5.35372,"is_reserved":false,"is_disabled":false,"rental_uris":{"android":"levelo://app?vid=a2bd025b-f0e6-4a3d-b3d9-ebfa621fa75c","ios":"levelo://app?vid=a2bd025b-f0e6-4a3d-b3d9-ebfa621fa75c"},"vehicle_type_id":"4","last_reported":1752005547,"current_range_meters":23200,"station_id":"cpo3532slgdg3j2ikp40","pricing_plan_id":"cebpf4jnsgd1na2vs0mg"},{"bike_id":"fa87fcb5-aacb-41a1-a789-0296bbd02085","system_id":"levelo_inurba_marseille","lat":43.24569,"lon":5.37384,"is_reserved":false,"is_disabled":false,"rental_uris":{"android":"levelo://app?vid=fa87fcb5-aacb-41a1-a789-0296bbd02085","ios":"levelo://app?vid=fa87fcb5-aacb-41a1-a789-0296bbd02085"},"vehicle_type_id":"4","last_reported":1752005547,"current_range_meters":24000,"station_id":"","pricing_plan_id":"cebpf4jnsgd1na2vs0mg"},{"bike_id":"3f260cdc-2344-4df9-b08d-b8223e2d4a5c","system_id":"levelo_inurba_marseille","lat":43.29938,"lon":5.36543,"is_reserved":false,"is_disabled":false,"rental_uris":{"android":"levelo://app?vid=3f260cdc-2344-4df9-b08d-b8223e2d4a5c","ios":"levelo://app?vid=3f260cdc-2344-4df9-b08d-b8223e2d4a5c"},"vehicle_type_id":"4","last_reported":1752005547,"current_range_meters":24000,"station_id":"ce4bgm92rcd13ifvqbr0","pricing_plan_id":"cebpf4jnsgd1na2vs0mg"},{"bike_id":"d8ab0ec8-0082-4cb8-8aeb-35b681ed9ccf","system_id":"levelo_inurba_marseille","lat":43.29872,"lon":5.39727,"is_reserved":false,"is_disabled":false,"rental_uris":{"android":"levelo://app?vid=d8ab0ec8-0082-4cb8-8aeb-35b681ed9ccf","ios":"levelo://app?vid=d8ab0ec8-0082-4cb8-8aeb-35b681ed9ccf"},"vehicle_type_id":"4","last_reported":1752005547,"current_range_meters":24000,"station_id":"ce4bh0h2rcd13ifvqd50","pricing_plan_id":"cebpf4jnsgd1na2vs0mg"},{"bike_id":"6179ce6d-d135-42cb-a61f-4419a9f594b9","system_id":"levelo_inurba_marseille","lat":43.29495,"lon":5.37573,"is_reserved":false,"is_disabled":false,"rental_uris":{"android":"levelo://app?vid=6179ce6d-d135-42cb-a61f-4419a9f594b9","ios":"levelo://app?vid=6179ce6d-d135-42cb-a61f-4419a9f594b9"},"vehicle_type_id":"4","last_reported":1752005547,"current_range_meters":24400,"station_id":"","pricing_plan_id":"cebpf4jnsgd1na2vs0mg"},{"bike_id":"51d3cab3-3bb3-4357-a3a5-f7dd39edc0c5","system_id":"levelo_inurba_marseille","lat":43.25451,"lon":5.37946,"is_reserved":false,"is_disabled":false,"rental_uris":{"android":"levelo://app?vid=51d3cab3-3bb3-4357-a3a5-f7dd39edc0c5","ios":"levelo://app?vid=51d3cab3-3bb3-4357-a3a5-f7dd39edc0c5"},"vehicle_type_id":"4","last_reported":1752005547,"current_range_meters":24400,"station_id":"","pricing_plan_id":"cebpf4jnsgd1na2vs0mg"},