{"last_updated":1729537611,"ttl":60,"version":"2.2","data":{"bikes":[{"bike_id":"68b7699c-071a-4f5a-ab09-5c5b3c32db4f","system_id":"levelo_inurba_marseille","lat":43.29032,"lon":5.38645,"is_reserved":false,"is_disabled":false,"rental_uris":{"android":"levelo://app?vid=68b7699c-071a-4f5a-ab09-5c5b3c32db4f","ios":"levelo://app?vid=68b7699c-071a-4f5a-ab09-5c5b3c32db4f"},"vehicle_type_id":"4","last_reported":1729537611,"current_range_meters":38000,"station_id":"","pricing_plan_id":"cebpf4jnsgd1na2vs0mg"},{"bike_id":"88f2c8d8-3c3d-40e6-9ac2-50e67e442c80","system_id":"levelo_inurba_marseille","lat":43.30258,"lon":5.40069,"is_reserved":false,"is_disabled":false,"rental_uris":{"android":"levelo://app?vid=88f2c8d8-3c3d-40e6-9ac2-50e67e442c80","ios":"levelo://app?vid=88f2c8d8-3c3d-40e6-9ac2-50e67e442c80"},"vehicle_type_id":"4","last_reported":1729537611,"current_range_meters":35200,"station_id":"ce4bgvh2rcd13ifvqcs0","pricing_plan_id":"cebpf4jnsgd1na2vs0mg"},{"bike_id":"e8da7035-62e8-4d17-b866-cbda054d0ece","system_id":"levelo_inurba_marseille","lat":43.25061,"lon":5.39548,"is_reserved":false,"is_disabled":false,"rental_uris":{"android":"levelo://app?vid=e8da7035-62e8-4d17-b866-cbda054d0ece","ios":"levelo://app?vid=e8da7035-62e8-4d17-b866-cbda054d0ece"},"vehicle_type_id":"4","last_reported":1729537611,"current_range_meters":14400,"station_id":"","pricing_plan_id":"cebpf4jnsgd1na2vs0mg"},{"bike_id":"841354b5-9b7c-41a5-9164-2dbe0d65ae96","system_id":"levelo_inurba_marseille","lat":43.2841,"lon":5.37522,"is_reserved":false,"is_disabled":false,"rental_uris":{"android":"levelo://app?vid=841354b5-9b7c-41a5-9164-2dbe0d65ae96","ios":"levelo://app?vid=841354b5-9b7c-41a5-9164-2dbe0d65ae96"},"vehicle_type_id":"4","last_reported":1729537611,"current_range_meters":38800,"station_id":"ce4bh412rcd13ifvqds0","pricing_plan_id":"cebpf4jnsgd1na2vs0mg"},{"bike_id":"dda2d351-1eab-421c-b87f-4111e4062a04","system_id":"levelo_inurba_marseille","lat":43.3229,"lon":5.3827,"is_reserved":false,"is_disabled":false,"rental_uris":{"android":"levelo://app?vid=dda2d351-1eab-421c-b87f-4111e4062a04","ios":"levelo://app?vid=dda2d351-1eab-421c-b87f-4111e4062a04"},"vehicle_type_id":"4","last_reported":1729537611,"current_range_meters":17600,"station_id":"ce4bhr12rcd13ifvqhqg","pricing_plan_id":"cebpf4jnsgd1na2vs0mg"},{"bike_id":"b144b6c5-d61c-4184-a8df-bd1bc4538cf6","system_id":"levelo_inurba_marseille","lat":43.30215,"lon":5.39473,"is_reserved":false,"is_disabled":false,"rental_uris":{"android":"levelo://app?vid=b144b6c5-d61c-4184-a8df-bd1bc4538cf6","ios":"levelo://app?vid=b144b6c5-d61c-4184-a8df-bd1bc4538cf6"},"vehicle_type_id":"4","last_reported":1729537611,"current_range_meters":17200,"station_id":"ce4bh0p2rcd13ifvqd70","pricing_plan_id":"cebpf4jnsgd1na2vs0mg"},{"bike_id":"38f6b8b7-d4d9-40d0-8ab3-ab44d2d3a0d6","system_id":"levelo_inurba_marseille","lat":43.27618,"lon":5.36115,"is_reserved":false,"is_disabled":false,"rental_uris":{"android":"levelo://app?vid=38f6b8b7-d4d9-40d0-8ab3-ab44d2d3a0d6","ios":"levelo://app?vid=38f6b8b7-d4d9-40d0-8ab3-ab44d2d3a0d6"},"vehicle_type_id":"4","last_reported":1729537611,"current_range_meters":38800,"station_id":"ce4bgj92rcd13ifvqbe0","pricing_plan_id":"cebpf4jnsgd1na2vs0mg"},{"bike_id":"7cbe7c0f-6688-4d75-b9ef-eb8636393103","system_id":"levelo_inurba_marseille","lat":43.29968,"lon":5.384995,"is_reserved":false,"is_disabled":false,"rental_uris":{"android":"levelo://app?vid=7cbe7c0f-6688-4d75-b9ef-eb8636393103","ios":"levelo://app?vid=7cbe7c0f-6688-4d75-b9ef-eb8636393103"},"vehicle_type_id":"4","last_reported":1729537611,"current_range_meters":31200,"station_id":"ce4bgj92rcd13ifvqbd0","pricing_plan_id":"cebpf4jnsgd1na2vs0mg"},{"bike_id":"eb69d266-7f9f-4bad-bf4b-cb0a701a9511","system_id":"levelo_inurba_marseille","lat":43.27939,"lon":5.41773,"is_reserved":false,"is_disabled":false,"rental_uris":{"android":"levelo://app?vid=eb69d266-7f9f-4bad-bf4b-cb0a701a9511","ios":"levelo://app?vid=eb69d266-7f9f-4bad-bf4b-cb0a701a9511"},"vehicle_type_id":"4","last_reported":1729537611,"current_range_meters":8400,"station_id":"","pricing_plan_id":"cebpf4jnsgd1na2vs0mg"},{"bike_id":"e410b3ea-1990-49e5-93ea-764219f10048","system_id":"levelo_inurba_marseille","lat":43.22931,"lon":5.3538,"is_reserved":false,"is_disabled":false,"rental_uris":{"android":"levelo://app?vid=e410b3ea-1990-49e5-93ea-764219f10048","ios":"levelo://app?vid=e410b3ea-1990-49e5-93ea-764219f10048"},"vehicle_type_id":"4","last_reported":1729537611,"current_range_meters":36800,"station_id":"cpo3532slgdg3j2ikp40","pricing_plan_id":"cebpf4jnsgd1na2vs0mg"},{"bike_id":"4b19648d-fc61-4687-a460-ebaf89ea0e69","system_id":"levelo_inurba_marseille","lat":43.28264,"lon":5.35073,"is_reserved":false,"is_disabled":false,"rental_uris":{"android":"levelo://app?vid=4b19648d-fc61-4687-a460-ebaf89ea0e69","ios":"levelo://app?vid=4b19648d-fc61-4687-a460-ebaf89ea0e69"},"vehicle_type_id":"4","last_reported":1729537611,"current_range_meters":6400,"station_id":"ce4bhbp2rcd13ifvqerg","pricing_plan_id":"cebpf4jnsgd1na2vs0mg"},{"bike_id":"6d04af1d-9757-424b-bd0b-d55fac6a0a20","system_id":"levelo_inurba_marseille","lat":43.27973,"lon":5.38744,"is_reserved":false,"is_disabled":false,"rental_uris":{"android":"levelo://app?vid=6d04af1d-9757-424b-bd0b-d55fac6a0a20","ios":"levelo://app?vid=6d04af1d-9757-424b-bd0b-d55fac6a0a20"},"vehicle_type_id":"4","last_reported":1729537611,"current_range_meters":19200,"station_id":"ce4bhg12rcd13ifvqf80","pricing_plan_id":"cebpf4jnsgd1na2vs0mg"},{"bike_id":"f792edc2-f37f-4f87-8f69-b580882ca5b4","system_id":"levelo_inurba_marseille","lat":43.27374,"lon":5.36242,"is_reserved":false,"is_disabled":false,"rental_uris":{"android":"levelo://app?vid=f792edc2-f37f-4f87-8f69-b580882ca5b4","ios":"levelo://app?vid=f792edc2-f37f-4f87-8f69-b580882ca5b4"},"vehicle_type_id":"4","last_reported":1729537611,"current_range_meters":38800,"station_id":"ce4bhbh2rcd13ifvqeo0","pricing_plan_id":"cebpf4jnsgd1na2vs0mg"},{"bike_id":"e702d6f3-e705-4418-8683-9e35286c78f5","system_id":"levelo_inurba_marseille","lat":43.24074,"lon":5.37763,"is_reserved":false,"is_disabled":false,"rental_uris":{"android":"levelo://app?vid=e702d6f3-e705-4418-8683-9e35286c78f5","ios":"levelo://app?vid=e702d6f3-e705-4418-8683-9e35286c78f5"},"vehicle_type_id":"4","last_reported":1729537611,"current_range_meters":10000,"station_id":"ce4bhnp2rcd13ifvqgvg","pricing_plan_id":"cebpf4jnsgd1na2vs0mg"},{"bike_id":"423f07ae-d4e3-42fb-9221-fa8a71de671e","system_id":"levelo_inurba_marseille","lat":43.32362,"lon":5.38885,"is_reserved":false,"is_disabled":false,"rental_uris":{"android":"levelo://app?vid=423f07ae-d4e3-42fb-9221-fa8a71de671e","ios":"levelo://app?vid=423f07ae-d4e3-42fb-9221-fa8a71de671e"},"vehicle_type_id":"4","last_reported":1729537611,"current_range_meters":4800,"station_id":"ce4bhqp2rcd13ifvqhog","pricing_plan_id":"cebpf4jnsgd1na2vs0mg"},{"bike_id":"8ab80cfa-ddda-4d4c-b0a8-8a79a0b81ac2","system_id":"levelo_inurba_marseille","lat":43.30212,"lon":5.39474,"is_reserved":false,"is_disabled":false,"rental_uris":{"android":"levelo://app?vid=8ab80cfa-ddda-4d4c-b0a8-8a79a0b81ac2","ios":"levelo://app?vid=8ab80cfa-ddda-4d4c-b0a8-8a79a0b81ac2"},"vehicle_type_id":"4","last_reported":1729537611,"current_range_meters":39200,"station_id":"ce4bh0p2rcd13ifvqd70","pricing_plan_id":"cebpf4jnsgd1na2vs0mg"},{"bike_id":"5e97ee4d-7e9f-43cc-85c3-2ebcec3a4e65","system_id":"levelo_inurba_marseille","lat":43.2407,"lon":5.37766,"is_reserved":false,"is_disabled":false,"rental_uris":{"android":"levelo://app?vid=5e97ee4d-7e9f-43cc-85c3-2ebcec3a4e65","ios":"levelo://app?vid=5e97ee4d-7e9f-43cc-85c3-2ebcec3a4e65"},"vehicle_type_id":"4","last_reported":1729537611,"current_range_meters":30400,"station_id":"ce4bhnp2rcd13ifvqgvg","pricing_plan_id":"cebpf4jnsgd1na2vs0mg"},{"bike_id":"d970d10c-e96e-4e1c-8618-8405093b98cb","system_id":"levelo_inurba_marseille","lat":43.29031,"lon":5.38643,"is_reserved":false,"is_disabled":false,"rental_uris":{"android":"levelo://app?vid=d970d10c-e96e-4e1c-8618-8405093b98cb","ios":"levelo://app?vid=d970d10c-e96e-4e1c-8618-8405093b98cb"},"vehicle_type_id":"4","last_reported":1729537611,"current_range_meters":10000,"station_id":"ce4bh4p2rcd13ifvqe0g","pricing_plan_id":"cebpf4jnsgd1na2vs0mg"},{"bike_id":"cba2af9b-3719-4b16-aa61-d05fec60a0ee","system_id":"levelo_inurba_marseille","lat":43.31713,"lon":5.43721,"is_reserved":false,"is_disabled":false,"rental_uris":{"android":"levelo://app?vid=cba2af9b-3719-4b16-aa61-d05fec60a0ee","ios":"levelo://app?vid=cba2af9b-3719-4b16-aa61-d05fec60a0ee"},"vehicle_type_id":"4","last_reported":1729537611,"current_range_meters":35200,"station_id":"ce4bhp92rcd13ifvqhcg","pricing_plan_id":"cebpf4jnsgd1na2vs0mg"},{"bike_id":"6f8feb3a-45f1-40cc-b021-efe8e1bfd229","system_id":"levelo_inurba_marseille","lat":43.26608,"lon":5.39449,"is_reserved":false,"is_disabled":false,"rental_uris":{"android":"levelo://app?vid=6f8feb3a-45f1-40cc-b021-efe8e1bfd229","ios":"levelo://app?vid=6f8feb3a-45f1-40cc-b021-efe8e1bfd229"},"vehicle_type_id":"4","last_reported":1729537611,"current_range_meters":29600,"station_id":"ce4bhhh2rcd13ifvqfk0","pricing_plan_id":"cebpf4jnsgd1na2vs0mg"},{"bike_id":"6810dfc1-89ef-4313-882c-2d36519a5dbc","system_id":"levelo_inurba_marseille","lat":43.31364,"lon":5.38489,"is_reserved":false,"is_disabled":false,"rental_uris":{"android":"levelo://app?vid=6810dfc1-89ef-4313-882c-2d36519a5dbc","ios":"levelo://app?vid=6810dfc1-89ef-4313-882c-2d36519a5dbc"},"vehicle_type_id":"4","last_reported":1729537611,"current_range_meters":28400,"station_id":"ce4bgt92rcd13ifvqcf0","pricing_plan_id":"cebpf4jnsgd1na2vs0mg"},{"bike_id":"583f7146-4d0c-474b-abcb-843001f0bb42","system_id":"levelo_inurba_marseille","lat":43.30211,"lon":5.39477,"is_reserved":false,"is_disabled":false,"rental_uris":{"android":"levelo://app?vid=583f7146-4d0c-474b-abcb-843001f0bb42","ios":"levelo://app?vid=583f7146-4d0c-474b-abcb-843001f0bb42"},"vehicle_type_id":"4","last_reported":1729537611,"current_range_meters":37600,"station_id":"ce4bh0p2rcd13ifvqd70","pricing_plan_id":"cebpf4jnsgd1na2vs0mg"},{"bike_id":"27436add-a26d-44df-8506-9f86a55efe32","system_id":"levelo_inurba_marseille","lat":43.31367,"lon":5.385,"is_reserved":false,"is_disabled":false,"rental_uris":{"android":"levelo://app?vid=27436add-a26d-44df-8506-9f86a55efe32","ios":"levelo://app?vid=27436add-a26d-44df-8506-9f86a55efe32"},"vehicle_type_id":"4","last_reported":1729537611,"current_range_meters":16400,"station_id":"ce4bgt92rcd13ifvqcf0","pricing_plan_id":"cebpf4jnsgd1na2vs0mg"},{"bike_id":"fadc1e21-426b-4cc7-bb10-c492620dd599","system_id":"levelo_inurba_marseille","lat":43.30136,"lon":5.38786,"is_reserved":false,"is_disabled":false,"rental_uris":{"android":"levelo://app?vid=fadc1e21-426b-4cc7-bb10-c492620dd599","ios":"levelo://app?vid=fadc1e21-426b-4cc7-bb10-c492620dd599"},"vehicle_type_id":"4","last_reported":1729537611,"current_range_meters":38800,"station_id":"ce4bghh2rcd13ifvqb60","pricing_plan_id":"cebpf4jnsgd1na2vs0mg"},{"bike_id":"1ec16de5-9ac0-497e-b627-148b746fa226","system_id":"levelo_inurba_marseille","lat":43.28464,"lon":5.35908,"is_reserved":false,"is_disabled":false,"rental_uris":{"android":"levelo://app?vid=1ec16de5-9ac0-497e-b627-148b746fa226","ios":"levelo://app?vid=1ec16de5-9ac0-497e-b627-148b746fa226"},"vehicle_type_id":"4","last_reported":1729537611,"current_range_meters":27600,"station_id":"ce4bhah2rcd13ifvqei0","pricing_plan_id":"cebpf4jnsgd1na2vs0mg"},{"bike_id":"f8d4fc2f-6c65-4577-a483-2bded2a41922","system_id":"levelo_inurba_marseille","lat":43.30588,"lon":5.39358,"is_reserved":false,"is_disabled":false,"rental_uris":{"android":"levelo://app?vid=f8d4fc2f-6c65-4577-a483-2bded2a41922","ios":"levelo://app?vid=f8d4fc2f-6c65-4577-a483-2bded2a41922"},"vehicle_type_id":"4","last_reported":1729537611,"current_range_meters":39200,"station_id":"ce4bh0p2rcd13ifvqd80","pricing_plan_id":"cebpf4jnsgd1na2vs0mg"},{"bike_id":"fef4b1ab-e324-41c5-b88e-9a0f49a495d1","system_id":"levelo_inurba_marseille","lat":43.29968,"lon":5.3849,"is_reserved":false,"is_disabled":false,"rental_uris":{"android":"levelo://app?vid=fef4b1ab-e324-41c5-b88e-9a0f49a495d1","ios":"levelo://app?vid=fef4b1ab-e324-41c5-b88e-9a0f49a495d1"},"vehicle_type_id":"4","last_reported":1729537611,"current_range_meters":24000,"station_id":"ce4bgj92rcd13ifvqbd0","pricing_plan_id":"cebpf4jnsgd1na2vs0mg"},{"bike_id":"03956cf4-b4c9-4328-a552-f6930328cd66","system_id":"levelo_inurba_marseille","lat":43.301,"lon":5.39064,"is_reserved":false,"is_disabled":false,"rental_uris":{"android":"levelo://app?vid=03956cf4-b4c9-4328-a552-f6930328cd66","ios":"levelo://app?vid=03956cf4-b4c9-4328-a552-f6930328cd66"},"vehicle_type_id":"4","last_reported":1729537611,"current_range_meters":28400,"station_id":"ce4bh192rcd13ifvqdb0","pricing_plan_id":"cebpf4jnsgd1na2vs0mg"},{"bike_id":"418c2bac-00b8-4a39-bed9-97c9bfe7cedd","system_id":"levelo_inurba_marseille","lat":43.289429,"lon":5.387235,"is_reserved":false,"is_disabled":false,"rental_uris":{"android":"levelo://app?vid=418c2bac-00b8-4a39-bed9-97c9bfe7cedd","ios":"levelo://app?vid=418c2bac-00b8-4a39-bed9-97c9bfe7cedd"},"vehicle_type_id":"4","last_reported":1729537611,"current_range_meters":20400,"station_id":"ce4bh4p2rcd13ifvqe0g","pricing_plan_id":"cebpf4jnsgd1na2vs0mg"},{"bike_id":"0d9fea0d-5188-4ebc-a956-c466b2766e8c","system_id":"levelo_inurba_marseille","lat":43.27491,"lon":5.42461,"is_reserved":false,"is_disabled":false,"rental_uris":{"android":"levelo://app?vid=0d9fea0d-5188-4ebc-a956-c466b2766e8c","ios":"levelo://app?vid=0d9fea0d-5188-4ebc-a956-c466b2766e8c"},"vehicle_type_id":"4","last_reported":1729537611,"current_range_meters":6800,"station_id":"ce4bhn92rcd13ifvqgrg","pricing_plan_id":"cebpf4jnsgd1na2vs0mg"},{"bike_id":"3c2e9290-6792-4e2d-b00d-712b965be0bd","system_id":"levelo_inurba_marseille","lat":43.26423,"lon":5.38684,"is_reserved":false,"is_disabled":false,"rental_uris":{"android":"levelo://app?vid=3c2e9290-6792-4e2d-b00d-712b965be0bd","ios":"levelo://app?vid=3c2e9290-6792-4e2d-b00d-712b965be0bd"},"vehicle_type_id":"4","last_reported":1729537611,"current_range_meters":11600,"station_id":"","pricing_plan_id":"cebpf4jnsgd1na2vs0mg"},{"bike_id":"27685428-2c57-4186-b9d0-2a7d0583632e","system_id":"levelo_inurba_marseille","lat":43.28149,"lon":5.4265,"is_reserved":false,"is_disabled":false,"rental_uris":{"android":"levelo://app?vid=27685428-2c57-4186-b9d0-2a7d0583632e","ios":"levelo://app?vid=27685428-2c57-4186-b9d0-2a7d0583632e"},"vehicle_type_id":"4","last_reported":1729537611,"current_range_meters":33200,"station_id":"ce4bhnh2rcd13ifvqgug","pricing_plan_id":"cebpf4jnsgd1na2vs0mg"},{"bike_id":"01190265-1201-408e-8541-5c32f7225c36","system_id":"levelo_inurba_marseille","lat":43.25578,"lon":5.38244,"is_reserved":false,"is_disabled":false,"rental_uris":{"android":"levelo://app?vid=01190265-1201-408e-8541-5c32f7225c36","ios":"levelo://app?vid=01190265-1201-408e-8541-5c32f7225c36"},"vehicle_type_id":"4","last_reported":1729537611,"current_range_meters":16800,"station_id":"ce4bhih2rcd13ifvqfs0","pricing_plan_id":"cebpf4jnsgd1na2vs0mg"},{"bike_id":"d587daae-0a71-435c-957b-ace6ff74f13a","system_id":"levelo_inurba_marseille","lat":43.23962,"lon":5.36644,"is_reserved":false,"is_disabled":false,"rental_uris":{"android":"levelo://app?vid=d587daae-0a71-435c-957b-ace6ff74f13a","ios":"levelo://app?vid=d587daae-0a71-435c-957b-ace6ff74f13a"},"vehicle_type_id":"4","last_reported":1729537611,"current_range_meters":14800,"station_id":"ce4bhi12rcd13ifvqfp0","pricing_plan_id":"cebpf4jnsgd1na2vs0mg"},{"bike_id":"0c15bb2f-c2f1-4518-8ed2-35d0280603d3","system_id":"levelo_inurba_marseille","lat":43.25162,"lon":5.40305,"is_reserved":false,"is_disabled":false,"rental_uris":{"android":"levelo://app?vid=0c15bb2f-c2f1-4518-8ed2-35d0280603d3","ios":"levelo://app?vid=0c15bb2f-c2f1-4518-8ed2-35d0280603d3"},"vehicle_type_id":"4","last_reported":1729537611,"current_range_meters":8800,"station_id":"ce4bhlh2rcd13ifvqgig","pricing_plan_id":"cebpf4jnsgd1na2vs0mg"},{"bike_id":"6500c164-02c8-4d61-bd40-ecb76f51559e","system_id":"levelo_inurba_marseille","lat":43.31325,"lon":5.39698,"is_reserved":false,"is_disabled":false,"rental_uris":{"android":"levelo://app?vid=6500c164-02c8-4d61-bd40-ecb76f51559e","ios":"levelo://app?vid=6500c164-02c8-4d61-bd40-ecb76f51559e"},"vehicle_type_id":"4","last_reported":1729537611,"current_range_meters":30800,"station_id":"ce4bgvp2rcd13ifvqcu0","pricing_plan_id":"cebpf4jnsgd1na2vs0mg"},{"bike_id":"0542018d-404c-4931-92ac-7d497686214b","system_id":"levelo_inurba_marseille","lat":43.29557,"lon":5.42295,"is_reserved":false,"is_disabled":false,"rental_uris":{"android":"levelo://app?vid=0542018d-404c-4931-92ac-7d497686214b","ios":"levelo://app?vid=0542018d-404c-4931-92ac-7d497686214b"},"vehicle_type_id":"4","last_reported":1729537611,"current_range_meters":24400,"station_id":"ce4bhph2rcd13ifvqhdg","pricing_plan_id":"cebpf4jnsgd1na2vs0mg"},{"bike_id":"bc1c4b65-b2ef-458a-9377-0e29b328aa0e","system_id":"levelo_inurba_marseille","lat":43.30357,"lon":5.4188,"is_reserved":false,"is_disabled":false,"rental_uris":{"android":"levelo://app?vid=bc1c4b65-b2ef-458a-9377-0e29b328aa0e","ios":"levelo://app?vid=bc1c4b65-b2ef-458a-9377-0e29b328aa0e"},"vehicle_type_id":"4","last_reported":1729537611,"current_range_meters":32400,"station_id":"ce4bhop2rcd13ifvqh7g","pricing_plan_id":"cebpf4jnsgd1na2vs0mg"},{"bike_id":"86174673-efc8-40ed-afaa-c20893ac1924","system_id":"levelo_inurba_marseille","lat":43.29577,"lon":5.36747,"is_reserved":false,"is_disabled":false,"rental_uris":{"android":"levelo://app?vid=86174673-efc8-40ed-afaa-c20893ac1924","ios":"levelo://app?vid=86174673-efc8-40ed-afaa-c20893ac1924"},"vehicle_type_id":"4","last_reported":1729537611,"current_range_meters":8800,"station_id":"ce4bgph2rcd13ifvqc2g","pricing_plan_id":"cebpf4jnsgd1na2vs0mg"},{"bike_id":"190cb072-ede8-4ab2-b8d0-3d27eb8c458f","system_id":"levelo_inurba_marseille","lat":43.29792,"lon":5.40402,"is_reserved":false,"is_disabled":false,"rental_uris":{"android":"levelo://app?vid=190cb072-ede8-4ab2-b8d0-3d27eb8c458f","ios":"levelo://app?vid=190cb072-ede8-4ab2-b8d0-3d27eb8c458f"},"vehicle_type_id":"4","last_reported":1729537611,"current_range_meters":8000,"station_id":"ce4bh0h2rcd13ifvqd60","pricing_plan_id":"cebpf4jnsgd1na2vs0mg"},{"bike_id":"7062eae4-6545-4d50-9370-c19291237319","system_id":"levelo_inurba_marseille","lat":43.30148,"lon":5.38772,"is_reserved":false,"is_disabled":false,"rental_uris":{"android":"levelo://app?vid=7062eae4-6545-4d50-9370-c19291237319","ios":"levelo://app?vid=7062eae4-6545-4d50-9370-c19291237319"},"vehicle_type_id":"4","last_reported":1729537611,"current_range_meters":10800,"station_id":"ce4bghh2rcd13ifvqb60","pricing_plan_id":"cebpf4jnsgd1na2vs0mg"},{"bike_id":"39ee9764-c305-469f-9d9c-27c097ea855c","system_id":"levelo_inurba_marseille","lat":43.23967,"lon":5.36629,"is_reserved":false,"is_disabled":false,"rental_uris":{"android":"levelo://app?vid=39ee9764-c305-469f-9d9c-27c097ea855c","ios":"levelo://app?vid=39ee9764-c305-469f-9d9c-27c097ea855c"},"vehicle_type_id":"4","last_reported":1729537611,"current_range_meters":3200,"station_id":"ce4bhi12rcd13ifvqfp0","pricing_plan_id":"cebpf4jnsgd1na2vs0mg"},{"bike_id":"3d26826a-a2d9-4827-b23f-b1d430e985cb","system_id":"levelo_inurba_marseille","lat":43.29191,"lon":5.35819,"is_reserved":false,"is_disabled":false,"rental_uris":{"android":"levelo://app?vid=3d26826a-a2d9-4827-b23f-b1d430e985cb","ios":"levelo://app?vid=3d26826a-a2d9-4827-b23f-b1d430e985cb"},"vehicle_type_id":"4","last_reported":1729537611,"current_range_meters":14000,"station_id":"ce4bhb12rcd13ifvqel0","pricing_plan_id":"cebpf4jnsgd1na2vs0mg"},{"bike_id":"4db6f0fb-f309-41ad-b7f3-12a5f754ef7c","system_id":"levelo_inurba_marseille","lat":43.29582,"lon":5.36743,"is_reserved":false,"is_disabled":false,"rental_uris":{"android":"levelo://app?vid=4db6f0fb-f309-41ad-b7f3-12a5f754ef7c","ios":"levelo://app?vid=4db6f0fb-f309-41ad-b7f3-12a5f754ef7c"},"vehicle_type_id":"4","last_reported":1729537611,"current_range_meters":31200,"station_id":"ce4bgph2rcd13ifvqc2g","pricing_plan_id":"cebpf4jnsgd1na2vs0mg"},{"bike_id":"77965564-6901-4d50-aa33-99711a4f8a3d","system_id":"levelo_inurba_marseille","lat":43.29779,"lon":5.39368,"is_reserved":false,"is_disabled":false,"rental_uris":{"android":"levelo://app?vid=77965564-6901-4d50-aa33-99711a4f8a3d","ios":"levelo://app?vid=77965564-6901-4d50-aa33-99711a4f8a3d"},"vehicle_type_id":"4","last_reported":1729537611,"current_range_meters":4400,"station_id":"chh1huq6cuj3fo74tm60","pricing_plan_id":"cebpf4jnsgd1na2vs0mg"},{"bike_id":"22f0e9f1-4795-468e-91c9-9da47019dc8a","system_id":"levelo_inurba_marseille","lat":43.25083,"lon":5.39515,"is_reserved":false,"is_disabled":false,"rental_uris":{"android":"levelo://app?vid=22f0e9f1-4795-468e-91c9-9da47019dc8a","ios":"levelo://app?vid=22f0e9f1-4795-468e-91c9-9da47019dc8a"},"vehicle_type_id":"4","last_reported":1729537611,"current_range_meters":22000,"station_id":"ce4bhm12rcd13ifvqgkg","pricing_plan_id":"cebpf4jnsgd1na2vs0mg"},{"bike_id":"3edcc9de-82f8-488a-80ec-7f7f41bf5d14","system_id":"levelo_inurba_marseille","lat":43.32342,"lon":5.40622,"is_reserved":false,"is_disabled":false,"rental_uris":{"android":"levelo://app?vid=3edcc9de-82f8-488a-80ec-7f7f41bf5d14","ios":"levelo://app?vid=3edcc9de-82f8-488a-80ec-7f7f41bf5d14"},"vehicle_type_id":"4","last_reported":1729537611,"current_range_meters":6800,"station_id":"ce4bhq92rcd13ifvqhjg","pricing_plan_id":"cebpf4jnsgd1na2vs0mg"},{"bike_id":"7c21334d-3c3b-487a-96b9-e7596a2d03ef","system_id":"levelo_inurba_marseille","lat":43.30183,"lon":5.3664,"is_reserved":false,"is_disabled":false,"rental_uris":{"android":"levelo://app?vid=7c21334d-3c3b-487a-96b9-e7596a2d03ef","ios":"levelo://app?vid=7c21334d-3c3b-487a-96b9-e7596a2d03ef"},"vehicle_type_id":"4","last_reported":1729537611,"current_range_meters":20400,"station_id":"ce4bgrh2rcd13ifvqc8g","pricing_plan_id":"cebpf4jnsgd1na2vs0mg"},{"bike_id":"c898b2f5-27ab-4aaf-b317-f8ad63bcb706","system_id":"levelo_inurba_marseille","lat":43.2742,"lon":5.39427,"is_reserved":false,"is_disabled":false,"rental_uris":{"android":"levelo://app?vid=c898b2f5-27ab-4aaf-b317-f8ad63bcb706","ios":"levelo://app?vid=c898b2f5-27ab-4aaf-b317-f8ad63bcb706"},"vehicle_type_id":"4","last_reported":1729537611,"current_range_meters":7200,"station_id":"ce4bhdp2rcd13ifvqf20","pricing_plan_id":"cebpf4jnsgd1na2vs0mg"},{"bike_id":"864575c1-85b8-4008-92ba-391073d4ed51","system_id":"levelo_inurba_marseille","lat":43.23195,"lon":5.35552,"is_reserved":false,"is_disabled":false,"rental_uris":{"android":"levelo://app?vid=864575c1-85b8-4008-92ba-391073d4ed51","ios":"levelo://app?vid=864575c1-85b8-4008-92ba-391073d4ed51"},"vehicle_type_id":"4","last_reported":1729537611,"current_range_meters":28000,"station_id":"ce4bhu92rcd13ifvqi70","pricing_plan_id":"cebpf4jnsgd1na2vs0mg"},{"bike_id":"7d8aca0e-587d-4f56-9100-5267c022ff19","system_id":"levelo_inurba_marseille","lat":43.26379,"lon":5.37377,"is_reserved":false,"is_disabled":false,"rental_uris":{"android":"levelo://app?vid=7d8aca0e-587d-4f56-9100-5267c022ff19","ios":"levelo://app?vid=7d8aca0e-587d-4f56-9100-5267c022ff19"},"vehicle_type_id":"4","last_reported":1729537611,"current_range_meters":6800,"station_id":"ce4bgj92rcd13ifvqbe0","pricing_plan_id":"cebpf4jnsgd1na2vs0mg"},{"bike_id":"dfd33d42-13ef-40e4-b3a7-47aff436e16c","system_id":"levelo_inurba_marseille","lat":43.32101,"lon":5.41419,"is_reserved":false,"is_disabled":false,"rental_uris":{"android":"levelo://app?vid=dfd33d42-13ef-40e4-b3a7-47aff436e16c","ios":"levelo://app?vid=dfd33d42-13ef-40e4-b3a7-47aff436e16c"},"vehicle_type_id":"4","last_reported":1729537611,"current_range_meters":32400,"station_id":"","pricing_plan_id":"cebpf4jnsgd1na2vs0mg"},{"bike_id":"8ab26b0d-dae7-40e5-9d79-84dfb6f3c2b3","system_id":"levelo_inurba_marseille","lat":43.26806,"lon":5.40268,"is_reserved":false,"is_disabled":false,"rental_uris":{"android":"levelo://app?vid=8ab26b0d-dae7-40e5-9d79-84dfb6f3c2b3","ios":"levelo://app?vid=8ab26b0d-dae7-40e5-9d79-84dfb6f3c2b3"},"vehicle_type_id":"4","last_reported":1729537611,"current_range_meters":37600,"station_id":"ce501612rcd8frsf0b60","pricing_plan_id":"cebpf4jnsgd1na2vs0mg"},{"bike_id":"422e5c54-e3d3-4de4-9bb5-49bc42820586","system_id":"levelo_inurba_marseille","lat":43.30426,"lon":5.38891,"is_reserved":false,"is_disabled":false,"rental_uris":{"android":"levelo://app?vid=422e5c54-e3d3-4de4-9bb5-49bc42820586","ios":"levelo://app?vid=422e5c54-e3d3-4de4-9bb5-49bc42820586"},"vehicle_type_id":"4","last_reported":1729537611,"current_range_meters":27600,"station_id":"ce4bgk12rcd13ifvqbi0","pricing_plan_id":"cebpf4jnsgd1na2vs0mg"},{"bike_id":"5e9bb06a-3674-4770-9b8d-b0e36738697f","system_id":"levelo_inurba_marseille","lat":43.26683,"lon":5.38274,"is_reserved":false,"is_disabled":false,"rental_uris":{"android":"levelo://app?vid=5e9bb06a-3674-4770-9b8d-b0e36738697f","ios":"levelo://app?vid=5e9bb06a-3674-4770-9b8d-b0e36738697f"},"vehicle_type_id":"4","last_reported":1729537611,"current_range_meters":16000,"station_id":"ce4bhg92rcd13ifvqf90","pricing_plan_id":"cebpf4jnsgd1na2vs0mg"},{"bike_id":"0728974d-1ad5-4181-91f2-6035aab7157d","system_id":"levelo_inurba_marseille","lat":43.23198,"lon":5.35554,"is_reserved":false,"is_disabled":false,"rental_uris":{"android":"levelo://app?vid=0728974d-1ad5-4181-91f2-6035aab7157d","ios":"levelo://app?vid=0728974d-1ad5-4181-91f2-6035aab7157d"},"vehicle_type_id":"4","last_reported":1729537611,"current_range_meters":38800,"station_id":"ce4bhu92rcd13ifvqi70","pricing_plan_id":"cebpf4jnsgd1na2vs0mg"},{"bike_id":"af1c763e-26c9-4576-b526-6eaec75e2909","system_id":"levelo_inurba_marseille","lat":43.29715,"lon":5.36615,"is_reserved":false,"is_disabled":false,"rental_uris":{"android":"levelo://app?vid=af1c763e-26c9-4576-b526-6eaec75e2909","ios":"levelo://app?vid=af1c763e-26c9-4576-b526-6eaec75e2909"},"vehicle_type_id":"4","last_reported":1729537611,"current_range_meters":6800,"station_id":"ce4bgn12rcd13ifvqbt0","pricing_plan_id":"cebpf4jnsgd1na2vs0mg"},{"bike_id":"40789e63-bb12-414a-9e11-b14620ea6085","system_id":"levelo_inurba_marseille","lat":43.31712,"lon":5.37758,"is_reserved":false,"is_disabled":false,"rental_uris":{"android":"levelo://app?vid=40789e63-bb12-414a-9e11-b14620ea6085","ios":"levelo://app?vid=40789e63-bb12-414a-9e11-b14620ea6085"},"vehicle_type_id":"4","last_reported":1729537611,"current_range_meters":18000,"station_id":"ce4bgth2rcd13ifvqch0","pricing_plan_id":"cebpf4jnsgd1na2vs0mg"},{"bike_id":"2f701eb7-1125-4194-8421-1af7ece4019f","system_id":"levelo_inurba_marseille","lat":43.30481,"lon":5.36752,"is_reserved":false,"is_disabled":false,"rental_uris":{"android":"levelo://app?vid=2f701eb7-1125-4194-8421-1af7ece4019f","ios":"levelo://app?vid=2f701eb7-1125-4194-8421-1af7ece4019f"},"vehicle_type_id":"4","last_reported":1729537611,"current_range_meters":5600,"station_id":"ce4bgrp2rcd13ifvqc9g","pricing_plan_id":"cebpf4jnsgd1na2vs0mg"},{"bike_id":"d8d89625-f310-4792-9c33-22b2f61dc041","system_id":"levelo_inurba_marseille","lat":43.30598,"lon":5.3936,"is_reserved":false,"is_disabled":false,"rental_uris":{"android":"levelo://app?vid=d8d89625-f310-4792-9c33-22b2f61dc041","ios":"levelo://app?vid=d8d89625-f310-4792-9c33-22b2f61dc041"},"vehicle_type_id":"4","last_reported":1729537611,"current_range_meters":38000,"station_id":"ce4bh0p2rcd13ifvqd80","pricing_plan_id":"cebpf4jnsgd1na2vs0mg"},{"bike_id":"a7f80de7-a396-441c-acc3-f366d505c8c9","system_id":"levelo_inurba_marseille","lat":43.30438,"lon":5.38889,"is_reserved":false,"is_disabled":false,"rental_uris":{"android":"levelo://app?vid=a7f80de7-a396-441c-acc3-f366d505c8c9","ios":"levelo://app?vid=a7f80de7-a396-441c-acc3-f366d505c8c9"},"vehicle_type_id":"4","last_reported":1729537611,"current_range_meters":38800,"station_id":"ce4bgk12rcd13ifvqbi0","pricing_plan_id":"cebpf4jnsgd1na2vs0mg"},{"bike_id":"d1b6f4d6-fba9-4fd7-90ee-d95deb1346f3","system_id":"levelo_inurba_marseille","lat":43.28569,"lon":5.39506,"is_reserved":false,"is_disabled":false,"rental_uris":{"android":"levelo://app?vid=d1b6f4d6-fba9-4fd7-90ee-d95deb1346f3","ios":"levelo://app?vid=d1b6f4d6-fba9-4fd7-90ee-d95deb1346f3"},"vehicle_type_id":"4","last_reported":1729537611,"current_range_meters":28400,"station_id":"ce4bh292rcd13ifvqdg0","pricing_plan_id":"cebpf4jnsgd1na2vs0mg"},{"bike_id":"e725fd16-eef0-4456-8ed5-e19a86281e7b","system_id":"levelo_inurba_marseille","lat":43.30124,"lon":5.37023,"is_reserved":false,"is_disabled":false,"rental_uris":{"android":"levelo://app?vid=e725fd16-eef0-4456-8ed5-e19a86281e7b","ios":"levelo://app?vid=e725fd16-eef0-4456-8ed5-e19a86281e7b"},"vehicle_type_id":"4","last_reported":1729537611,"current_range_meters":23200,"station_id":"","pricing_plan_id":"cebpf4jnsgd1na2vs0mg"},{"bike_id":"163feccb-4582-486d-82cb-e8f731d6e9ad","system_id":"levelo_inurba_marseille","lat":43.305495,"lon":5.36547,"is_reserved":false,"is_disabled":false,"rental_uris":{"android":"levelo://app?vid=163feccb-4582-486d-82cb-e8f731d6e9ad","ios":"levelo://app?vid=163feccb-4582-486d-82cb-e8f731d6e9ad"},"vehicle_type_id":"4","last_reported":1729537611,"current_range_meters":39200,"station_id":"ce4bgs12rcd13ifvqcag","pricing_plan_id":"cebpf4jnsgd1na2vs0mg"},{"bike_id":"79a1e020-318b-42a1-a8c0-a424b1daf69e","system_id":"levelo_inurba_marseille","lat":43.296,"lon":5.36142,"is_reserved":false,"is_disabled":false,"rental_uris":{"android":"levelo://app?vid=79a1e020-318b-42a1-a8c0-a424b1daf69e","ios":"levelo://app?vid=79a1e020-318b-42a1-a8c0-a424b1daf69e"},"vehicle_type_id":"4","last_reported":1729537611,"current_range_meters":9200,"station_id":"","pricing_plan_id":"cebpf4jnsgd1na2vs0mg"},{"bike_id":"bcc340ea-b1b2-484a-ac0d-c1763e26544d","system_id":"levelo_inurba_marseille","lat":43.29069,"lon":5.35916,"is_reserved":false,"is_disabled":false,"rental_uris":{"android":"levelo://app?vid=bcc340ea-b1b2-484a-ac0d-c1763e26544d","ios":"levelo://app?vid=bcc340ea-b1b2-484a-ac0d-c1763e26544d"},"vehicle_type_id":"4","last_reported":1729537611,"current_range_meters":3200,"station_id":"ce4bha92rcd13ifvqeg0","pricing_plan_id":"cebpf4jnsgd1na2vs0mg"},{"bike_id":"b61c98cc-9ab8-4f59-a250-801dc1e7ce0e","system_id":"levelo_inurba_marseille","lat":43.29517,"lon":5.39052,"is_reserved":false,"is_disabled":false,"rental_uris":{"android":"levelo://app?vid=b61c98cc-9ab8-4f59-a250-801dc1e7ce0e","ios":"levelo://app?vid=b61c98cc-9ab8-4f59-a250-801dc1e7ce0e"},"vehicle_type_id":"4","last_reported":1729537611,"current_range_meters":38800,"station_id":"ce4bh3p2rcd13ifvqdp0","pricing_plan_id":"cebpf4jnsgd1na2vs0mg"},{"bike_id":"b2916b66-9552-40cf-9a10-a66060776921","system_id":"levelo_inurba_marseille","lat":43.24389,"lon":5.37064,"is_reserved":false,"is_disabled":false,"rental_uris":{"android":"levelo://app?vid=b2916b66-9552-40cf-9a10-a66060776921","ios":"levelo://app?vid=b2916b66-9552-40cf-9a10-a66060776921"},"vehicle_type_id":"4","last_reported":1729537611,"current_range_meters":16000,"station_id":"ce4bhhh2rcd13ifvqfk0","pricing_plan_id":"cebpf4jnsgd1na2vs0mg"},{"bike_id":"2126bf8c-a8cd-4395-a818-f63095918cf1","system_id":"levelo_inurba_marseille","lat":43.29029,"lon":5.386597,"is_reserved":false,"is_disabled":false,"rental_uris":{"android":"levelo://app?vid=2126bf8c-a8cd-4395-a818-f63095918cf1","ios":"levelo://app?vid=2126bf8c-a8cd-4395-a818-f63095918cf1"},"vehicle_type_id":"4","last_reported":1729537611,"current_range_meters":34800,"station_id":"ce4bhip2rcd13ifvqft0","pricing_plan_id":"cebpf4jnsgd1na2vs0mg"},{"bike_id":"3e6d0413-f314-4910-a468-480c1684a506","system_id":"levelo_inurba_marseille","lat":43.29978,"lon":5.38492,"is_reserved":false,"is_disabled":false,"rental_uris":{"android":"levelo://app?vid=3e6d0413-f314-4910-a468-480c1684a506","ios":"levelo://app?vid=3e6d0413-f314-4910-a468-480c1684a506"},"vehicle_type_id":"4","last_reported":1729537611,"current_range_meters":9200,"station_id":"ce4bgj92rcd13ifvqbd0","pricing_plan_id":"cebpf4jnsgd1na2vs0mg"},{"bike_id":"50864c60-5170-4049-b0da-a9e49f530fc0","system_id":"levelo_inurba_marseille","lat":43.28929,"lon":5.38399,"is_reserved":false,"is_disabled":false,"rental_uris":{"android":"levelo://app?vid=50864c60-5170-4049-b0da-a9e49f530fc0","ios":"levelo://app?vid=50864c60-5170-4049-b0da-a9e49f530fc0"},"vehicle_type_id":"4","last_reported":1729537611,"current_range_meters":11200,"station_id":"ce4bh612rcd13ifvqe6g","pricing_plan_id":"cebpf4jnsgd1na2vs0mg"},{"bike_id":"7adf842b-4b8c-4356-a23f-1be0cbaf4d21","system_id":"levelo_inurba_marseille","lat":43.23198,"lon":5.35555,"is_reserved":false,"is_disabled":false,"rental_uris":{"android":"levelo://app?vid=7adf842b-4b8c-4356-a23f-1be0cbaf4d21","ios":"levelo://app?vid=7adf842b-4b8c-4356-a23f-1be0cbaf4d21"},"vehicle_type_id":"4","last_reported":1729537611,"current_range_meters":14400,"station_id":"ce4bhu92rcd13ifvqi70","pricing_plan_id":"cebpf4jnsgd1na2vs0mg"},{"bike_id":"9fc02de4-e39d-4fb8-b75a-f3092f7c5fcf","system_id":"levelo_inurba_marseille","lat":43.31129,"lon":5.3693,"is_reserved":false,"is_disabled":false,"rental_uris":{"android":"levelo://app?vid=9fc02de4-e39d-4fb8-b75a-f3092f7c5fcf","ios":"levelo://app?vid=9fc02de4-e39d-4fb8-b75a-f3092f7c5fcf"},"vehicle_type_id":"4","last_reported":1729537611,"current_range_meters":6000,"station_id":"ce4bgrp2rcd13ifvqc9g","pricing_plan_id":"cebpf4jnsgd1na2vs0mg"},{"bike_id":"8d66234d-ed10-4a56-b9bf-7024ed1a6c9c","system_id":"levelo_inurba_marseille","lat":43.32275,"lon":5.38269,"is_reserved":false,"is_disabled":false,"rental_uris":{"android":"levelo://app?vid=8d66234d-ed10-4a56-b9bf-7024ed1a6c9c","ios":"levelo://app?vid=8d66234d-ed10-4a56-b9bf-7024ed1a6c9c"},"vehicle_type_id":"4","last_reported":1729537611,"current_range_meters":8400,"station_id":"ce4bhr12rcd13ifvqhqg","pricing_plan_id":"cebpf4jnsgd1na2vs0mg"},{"bike_id":"fb1780c5-1a83-49a0-a659-61b6fd9d8871","system_id":"levelo_inurba_marseille","lat":43.29024,"lon":5.38642,"is_reserved":false,"is_disabled":false,"rental_uris":{"android":"levelo://app?vid=fb1780c5-1a83-49a0-a659-61b6fd9d8871","ios":"levelo://app?vid=fb1780c5-1a83-49a0-a659-61b6fd9d8871"},"vehicle_type_id":"4","last_reported":1729537611,"current_range_meters":38800,"station_id":"ce4bh4p2rcd13ifvqe0g","pricing_plan_id":"cebpf4jnsgd1na2vs0mg"},{"bike_id":"355f1dc2-3476-4496-8420-f36b2652912a","system_id":"levelo_inurba_marseille","lat":43.31322,"lon":5.39699,"is_reserved":false,"is_disabled":false,"rental_uris":{"android":"levelo://app?vid=355f1dc2-3476-4496-8420-f36b2652912a","ios":"levelo://app?vid=355f1dc2-3476-4496-8420-f36b2652912a"},"vehicle_type_id":"4","last_reported":1729537611,"current_range_meters":17600,"station_id":"ce4bgvp2rcd13ifvqcu0","pricing_plan_id":"cebpf4jnsgd1na2vs0mg"},{"bike_id":"8c4456af-36d0-4076-bc92-5a578c11f91e","system_id":"levelo_inurba_marseille","lat":43.30133,"lon":5.39847,"is_reserved":false,"is_disabled":false,"rental_uris":{"android":"levelo://app?vid=8c4456af-36d0-4076-bc92-5a578c11f91e","ios":"levelo://app?vid=8c4456af-36d0-4076-bc92-5a578c11f91e"},"vehicle_type_id":"4","last_reported":1729537611,"current_range_meters":38400,"station_id":"ce4bh0h2rcd13ifvqd40","pricing_plan_id":"cebpf4jnsgd1na2vs0mg"},{"bike_id":"9926919b-200e-4ea0-a4a8-95ae624636d3","system_id":"levelo_inurba_marseille","lat":43.25087,"lon":5.39523,"is_reserved":false,"is_disabled":false,"rental_uris":{"android":"levelo://app?vid=9926919b-200e-4ea0-a4a8-95ae624636d3","ios":"levelo://app?vid=9926919b-200e-4ea0-a4a8-95ae624636d3"},"vehicle_type_id":"4","last_reported":1729537611,"current_range_meters":30400,"station_id":"ce4bhm12rcd13ifvqgkg","pricing_plan_id":"cebpf4jnsgd1na2vs0mg"},{"bike_id":"e34fdb2e-8644-451c-8069-b133a92de5fd","system_id":"levelo_inurba_marseille","lat":43.273874,"lon":5.362453,"is_reserved":false,"is_disabled":false,"rental_uris":{"android":"levelo://app?vid=e34fdb2e-8644-451c-8069-b133a92de5fd","ios":"levelo://app?vid=e34fdb2e-8644-451c-8069-b133a92de5fd"},"vehicle_type_id":"4","last_reported":1729537611,"current_range_meters":38800,"station_id":"ce4bhbh2rcd13ifvqeo0","pricing_plan_id":"cebpf4jnsgd1na2vs0mg"},{"bike_id":"f4022fa5-328f-4fcf-8986-22f900e32912","system_id":"levelo_inurba_marseille","lat":43.28836,"lon":5.39325,"is_reserved":false,"is_disabled":false,"rental_uris":{"android":"levelo://app?vid=f4022fa5-328f-4fcf-8986-22f900e32912","ios":"levelo://app?vid=f4022fa5-328f-4fcf-8986-22f900e32912"},"vehicle_type_id":"4","last_reported":1729537611,"current_range_meters":36400,"station_id":"ce4bh2p2rcd13ifvqdi0","pricing_plan_id":"cebpf4jnsgd1na2vs0mg"},{"bike_id":"b3104e33-9459-48f1-a6de-d63ef857c18a","system_id":"levelo_inurba_marseille","lat":43.32528,"lon":5.41119,"is_reserved":false,"is_disabled":false,"rental_uris":{"android":"levelo://app?vid=b3104e33-9459-48f1-a6de-d63ef857c18a","ios":"levelo://app?vid=b3104e33-9459-48f1-a6de-d63ef857c18a"},"vehicle_type_id":"4","last_reported":1729537611,"current_range_meters":33200,"station_id":"ce4bhpp2rcd13ifvqhgg","pricing_plan_id":"cebpf4jnsgd1na2vs0mg"},{"bike_id":"3982fd3c-0845-4c8b-84b5-00933e43dbd2","system_id":"levelo_inurba_marseille","lat":43.28936,"lon":5.3664,"is_reserved":false,"is_disabled":false,"rental_uris":{"android":"levelo://app?vid=3982fd3c-0845-4c8b-84b5-00933e43dbd2","ios":"levelo://app?vid=3982fd3c-0845-4c8b-84b5-00933e43dbd2"},"vehicle_type_id":"4","last_reported":1729537611,"current_range_meters":38000,"station_id":"ce4bhap2rcd13ifvqek0","pricing_plan_id":"cebpf4jnsgd1na2vs0mg"},{"bike_id":"0530a46e-3734-4ad9-b0fe-8ce2a292f615","system_id":"levelo_inurba_marseille","lat":43.29031,"lon":5.38662,"is_reserved":false,"is_disabled":false,"rental_uris":{"android":"levelo://app?vid=0530a46e-3734-4ad9-b0fe-8ce2a292f615","ios":"levelo://app?vid=0530a46e-3734-4ad9-b0fe-8ce2a292f615"},"vehicle_type_id":"4","last_reported":1729537611,"current_range_meters":16800,"station_id":"ce4bh4p2rcd13ifvqe0g","pricing_plan_id":"cebpf4jnsgd1na2vs0mg"},{"bike_id":"f13dd7de-5c2c-4da6-8267-724644937d09","system_id":"levelo_inurba_marseille","lat":43.30089,"lon":5.39072,"is_reserved":false,"is_disabled":false,"rental_uris":{"android":"levelo://app?vid=f13dd7de-5c2c-4da6-8267-724644937d09","ios":"levelo://app?vid=f13dd7de-5c2c-4da6-8267-724644937d09"},"vehicle_type_id":"4","last_reported":1729537611,"current_range_meters":19600,"station_id":"ce4bh192rcd13ifvqdb0","pricing_plan_id":"cebpf4jnsgd1na2vs0mg"},{"bike_id":"3b14897a-daf5-4d7e-8b82-86c5bdae4669","system_id":"levelo_inurba_marseille","lat":43.28608,"lon":5.37072,"is_reserved":false,"is_disabled":false,"rental_uris":{"android":"levelo://app?vid=3b14897a-daf5-4d7e-8b82-86c5bdae4669","ios":"levelo://app?vid=3b14897a-daf5-4d7e-8b82-86c5bdae4669"},"vehicle_type_id":"4","last_reported":1729537611,"current_range_meters":28800,"station_id":"ce4bht12rcd13ifvqi60","pricing_plan_id":"cebpf4jnsgd1na2vs0mg"},{"bike_id":"c3945b60-e38d-4106-8f18-92c7f436cc4f","system_id":"levelo_inurba_marseille","lat":43.33757,"lon":5.37448,"is_reserved":false,"is_disabled":false,"rental_uris":{"android":"levelo://app?vid=c3945b60-e38d-4106-8f18-92c7f436cc4f","ios":"levelo://app?vid=c3945b60-e38d-4106-8f18-92c7f436cc4f"},"vehicle_type_id":"4","last_reported":1729537611,"current_range_meters":35200,"station_id":"","pricing_plan_id":"cebpf4jnsgd1na2vs0mg"},{"bike_id":"ccfe87b2-86ea-484c-b244-66e19dbcf2ad","system_id":"levelo_inurba_marseille","lat":43.27828,"lon":5.39217,"is_reserved":false,"is_disabled":false,"rental_uris":{"android":"levelo://app?vid=ccfe87b2-86ea-484c-b244-66e19dbcf2ad","ios":"levelo://app?vid=ccfe87b2-86ea-484c-b244-66e19dbcf2ad"},"vehicle_type_id":"4","last_reported":1729537611,"current_range_meters":17200,"station_id":"ce4bhjp2rcd13ifvqga0","pricing_plan_id":"cebpf4jnsgd1na2vs0mg"},{"bike_id":"de1ff86d-3061-40a1-be1e-8be446e6115e","system_id":"levelo_inurba_marseille","lat":43.29585,"lon":5.38173,"is_reserved":false,"is_disabled":false,"rental_uris":{"android":"levelo://app?vid=de1ff86d-3061-40a1-be1e-8be446e6115e","ios":"levelo://app?vid=de1ff86d-3061-40a1-be1e-8be446e6115e"},"vehicle_type_id":"4","last_reported":1729537611,"current_range_meters":18000,"station_id":"","pricing_plan_id":"cebpf4jnsgd1na2vs0mg"},{"bike_id":"187a2a87-0218-4876-b697-da619e206e3e","system_id":"levelo_inurba_marseille","lat":43.27951,"lon":5.41046,"is_reserved":false,"is_disabled":false,"rental_uris":{"android":"levelo://app?vid=187a2a87-0218-4876-b697-da619e206e3e","ios":"levelo://app?vid=187a2a87-0218-4876-b697-da619e206e3e"},"vehicle_type_id":"4","last_reported":1729537611,"current_range_meters":8800,"station_id":"ce4bhnp2rcd13ifvqh0g","pricing_plan_id":"cebpf4jnsgd1na2vs0mg"},{"bike_id":"d4f78131-9ff8-46cf-a2ee-5bc67ac59958","system_id":"levelo_inurba_marseille","lat":43.2737,"lon":5.36252,"is_reserved":false,"is_disabled":false,"rental_uris":{"android":"levelo://app?vid=d4f78131-9ff8-46cf-a2ee-5bc67ac59958","ios":"levelo://app?vid=d4f78131-9ff8-46cf-a2ee-5bc67ac59958"},"vehicle_type_id":"4","last_reported":1729537611,"current_range_meters":38800,"station_id":"ce4bhbh2rcd13ifvqeo0","pricing_plan_id":"cebpf4jnsgd1na2vs0mg"},{"bike_id":"04e12a88-79d1-4734-abcd-109c9c1e9b6d","system_id":"levelo_inurba_marseille","lat":43.31485,"lon":5.37307,"is_reserved":false,"is_disabled":false,"rental_uris":{"android":"levelo://app?vid=04e12a88-79d1-4734-abcd-109c9c1e9b6d","ios":"levelo://app?vid=04e12a88-79d1-4734-abcd-109c9c1e9b6d"},"vehicle_type_id":"4","last_reported":1729537611,"current_range_meters":29600,"station_id":"ce4bgt12rcd13ifvqcd0","pricing_plan_id":"cebpf4jnsgd1na2vs0mg"},{"bike_id":"c5435b7c-c8e1-4c93-a8a5-82b67b0850e4","system_id":"levelo_inurba_marseille","lat":43.29896,"lon":5.4367,"is_reserved":false,"is_disabled":false,"rental_uris":{"android":"levelo://app?vid=c5435b7c-c8e1-4c93-a8a5-82b67b0850e4","ios":"levelo://app?vid=c5435b7c-c8e1-4c93-a8a5-82b67b0850e4"},"vehicle_type_id":"4","last_reported":1729537611,"current_range_meters":4000,"station_id":"ce4bhpp2rcd13ifvqhfg","pricing_plan_id":"cebpf4jnsgd1na2vs0mg"},{"bike_id":"5eb47f18-fb9e-4209-9968-f1bf7c7503ad","system_id":"levelo_inurba_marseille","lat":43.29044,"lon":5.39967,"is_reserved":false,"is_disabled":false,"rental_uris":{"android":"levelo://app?vid=5eb47f18-fb9e-4209-9968-f1bf7c7503ad","ios":"levelo://app?vid=5eb47f18-fb9e-4209-9968-f1bf7c7503ad"},"vehicle_type_id":"4","last_reported":1729537611,"current_range_meters":24400,"station_id":"ce4bh392rcd13ifvqdm0","pricing_plan_id":"cebpf4jnsgd1na2vs0mg"},{"bike_id":"d6302fba-4a4b-48e2-955d-c7fff95e7dbf","system_id":"levelo_inurba_marseille","lat":43.31268,"lon":5.40171,"is_reserved":false,"is_disabled":false,"rental_uris":{"android":"levelo://app?vid=d6302fba-4a4b-48e2-955d-c7fff95e7dbf","ios":"levelo://app?vid=d6302fba-4a4b-48e2-955d-c7fff95e7dbf"},"vehicle_type_id":"4","last_reported":1729537611,"current_range_meters":7200,"station_id":"ce4bh092rcd13ifvqd30","pricing_plan_id":"cebpf4jnsgd1na2vs0mg"},{"bike_id":"ab4867db-7662-4a17-9204-8cf9e78260e5","system_id":"levelo_inurba_marseille","lat":43.276134,"lon":5.360925,"is_reserved":false,"is_disabled":false,"rental_uris":{"android":"levelo://app?vid=ab4867db-7662-4a17-9204-8cf9e78260e5","ios":"levelo://app?vid=ab4867db-7662-4a17-9204-8cf9e78260e5"},"vehicle_type_id":"4","last_reported":1729537611,"current_range_meters":38800,"station_id":"ce4bgj92rcd13ifvqbe0","pricing_plan_id":"cebpf4jnsgd1na2vs0mg"},{"bike_id":"9cc40862-682d-45c1-91d9-7edc5b9d13f7","system_id":"levelo_inurba_marseille","lat":43.25104,"lon":5.40328,"is_reserved":false,"is_disabled":false,"rental_uris":{"android":"levelo://app?vid=9cc40862-682d-45c1-91d9-7edc5b9d13f7","ios":"levelo://app?vid=9cc40862-682d-45c1-91d9-7edc5b9d13f7"},"vehicle_type_id":"4","last_reported":1729537611,"current_range_meters":25200,"station_id":"ce4bhlh2rcd13ifvqgig","pricing_plan_id":"cebpf4jnsgd1na2vs0mg"},{"bike_id":"72f63983-e112-4b56-a265-24560ff50b47","system_id":"levelo_inurba_marseille","lat":43.310767,"lon":5.383549,"is_reserved":false,"is_disabled":false,"rental_uris":{"android":"levelo://app?vid=72f63983-e112-4b56-a265-24560ff50b47","ios":"levelo://app?vid=72f63983-e112-4b56-a265-24560ff50b47"},"vehicle_type_id":"4","last_reported":1729537611,"current_range_meters":30000,"station_id":"ce4bgv92rcd13ifvqcr0","pricing_plan_id":"cebpf4jnsgd1na2vs0mg"},{"bike_id":"7b75fd31-9b9f-4bf8-a641-13da6e9022d6","system_id":"levelo_inurba_marseille","lat":43.29861,"lon":5.39746,"is_reserved":false,"is_disabled":false,"rental_uris":{"android":"levelo://app?vid=7b75fd31-9b9f-4bf8-a641-13da6e9022d6","ios":"levelo://app?vid=7b75fd31-9b9f-4bf8-a641-13da6e9022d6"},"vehicle_type_id":"4","last_reported":1729537611,"current_range_meters":25200,"station_id":"ce4bh0h2rcd13ifvqd50","pricing_plan_id":"cebpf4jnsgd1na2vs0mg"},{"bike_id":"42a8bebb-8de9-4ad0-a5b5-21fe2fc7fdf2","system_id":"levelo_inurba_marseille","lat":43.28078,"lon":5.39655,"is_reserved":false,"is_disabled":false,"rental_uris":{"android":"levelo://app?vid=42a8bebb-8de9-4ad0-a5b5-21fe2fc7fdf2","ios":"levelo://app?vid=42a8bebb-8de9-4ad0-a5b5-21fe2fc7fdf2"},"vehicle_type_id":"4","last_reported":1729537611,"current_range_meters":28800,"station_id":"ce4bho12rcd13ifvqh2g","pricing_plan_id":"cebpf4jnsgd1na2vs0mg"},{"bike_id":"6fc7d3fa-7f93-4949-b2cc-6dd3238a8799","system_id":"levelo_inurba_marseille","lat":43.30898,"lon":5.37186,"is_reserved":false,"is_disabled":false,"rental_uris":{"android":"levelo://app?vid=6fc7d3fa-7f93-4949-b2cc-6dd3238a8799","ios":"levelo://app?vid=6fc7d3fa-7f93-4949-b2cc-6dd3238a8799"},"vehicle_type_id":"4","last_reported":1729537611,"current_range_meters":28000,"station_id":"ce4bguh2rcd13ifvqckg","pricing_plan_id":"cebpf4jnsgd1na2vs0mg"},{"bike_id":"b7e9d7b1-337d-4222-9e82-5748a0f9aff7","system_id":"levelo_inurba_marseille","lat":43.29881,"lon":5.38922,"is_reserved":false,"is_disabled":false,"rental_uris":{"android":"levelo://app?vid=b7e9d7b1-337d-4222-9e82-5748a0f9aff7","ios":"levelo://app?vid=b7e9d7b1-337d-4222-9e82-5748a0f9aff7"},"vehicle_type_id":"4","last_reported":1729537611,"current_range_meters":38000,"station_id":"ce4bh392rcd13ifvqdl0","pricing_plan_id":"cebpf4jnsgd1na2vs0mg"},{"bike_id":"54cb494b-c09e-406b-973f-30fb4b46adcc","system_id":"levelo_inurba_marseille","lat":43.27675,"lon":5.38887,"is_reserved":false,"is_disabled":false,"rental_uris":{"android":"levelo://app?vid=54cb494b-c09e-406b-973f-30fb4b46adcc","ios":"levelo://app?vid=54cb494b-c09e-406b-973f-30fb4b46adcc"},"vehicle_type_id":"4","last_reported":1729537611,"current_range_meters":7200,"station_id":"ce4bhi12rcd13ifvqfo0","pricing_plan_id":"cebpf4jnsgd1na2vs0mg"},{"bike_id":"2e99463b-1635-49c9-9cd7-67c071059583","system_id":"levelo_inurba_marseille","lat":43.30305,"lon":5.39211,"is_reserved":false,"is_disabled":false,"rental_uris":{"android":"levelo://app?vid=2e99463b-1635-49c9-9cd7-67c071059583","ios":"levelo://app?vid=2e99463b-1635-49c9-9cd7-67c071059583"},"vehicle_type_id":"4","last_reported":1729537611,"current_range_meters":24400,"station_id":"ce4bgkh2rcd13ifvqbk0","pricing_plan_id":"cebpf4jnsgd1na2vs0mg"},{"bike_id":"8913b4e4-7c4d-48af-ba57-e2c3579843d0","system_id":"levelo_inurba_marseille","lat":43.27613,"lon":5.36109,"is_reserved":false,"is_disabled":false,"rental_uris":{"android":"levelo://app?vid=8913b4e4-7c4d-48af-ba57-e2c3579843d0","ios":"levelo://app?vid=8913b4e4-7c4d-48af-ba57-e2c3579843d0"},"vehicle_type_id":"4","last_reported":1729537611,"current_range_meters":6400,"station_id":"ce4bgj92rcd13ifvqbe0","pricing_plan_id":"cebpf4jnsgd1na2vs0mg"},{"bike_id":"4e3fa006-e50f-4ad8-b583-ae32ee36948e","system_id":"levelo_inurba_marseille","lat":43.29876,"lon":5.38917,"is_reserved":false,"is_disabled":false,"rental_uris":{"android":"levelo://app?vid=4e3fa006-e50f-4ad8-b583-ae32ee36948e","ios":"levelo://app?vid=4e3fa006-e50f-4ad8-b583-ae32ee36948e"},"vehicle_type_id":"4","last_reported":1729537611,"current_range_meters":4800,"station_id":"ce4bh392rcd13ifvqdl0","pricing_plan_id":"cebpf4jnsgd1na2vs0mg"},{"bike_id":"225685c6-cb10-4b51-a694-caac29e6f1b2","system_id":"levelo_inurba_marseille","lat":43.25722,"lon":5.41111,"is_reserved":false,"is_disabled":false,"rental_uris":{"android":"levelo://app?vid=225685c6-cb10-4b51-a694-caac29e6f1b2","ios":"levelo://app?vid=225685c6-cb10-4b51-a694-caac29e6f1b2"},"vehicle_type_id":"4","last_reported":1729537611,"current_range_meters":16400,"station_id":"ce4bhkp2rcd13ifvqgd0","pricing_plan_id":"cebpf4jnsgd1na2vs0mg"},{"bike_id":"0705f38a-5e3d-4526-8d8f-b375c831f19b","system_id":"levelo_inurba_marseille","lat":43.29515,"lon":5.39405,"is_reserved":false,"is_disabled":false,"rental_uris":{"android":"levelo://app?vid=0705f38a-5e3d-4526-8d8f-b375c831f19b","ios":"levelo://app?vid=0705f38a-5e3d-4526-8d8f-b375c831f19b"},"vehicle_type_id":"4","last_reported":1729537611,"current_range_meters":30000,"station_id":"ce4bh292rcd13ifvqdf0","pricing_plan_id":"cebpf4jnsgd1na2vs0mg"},{"bike_id":"ff18907c-f290-45ca-8e6a-9fa7e0f6dc64","system_id":"levelo_inurba_marseille","lat":43.28102,"lon":5.37839,"is_reserved":false,"is_disabled":false,"rental_uris":{"android":"levelo://app?vid=ff18907c-f290-45ca-8e6a-9fa7e0f6dc64","ios":"levelo://app?vid=ff18907c-f290-45ca-8e6a-9fa7e0f6dc64"},"vehicle_type_id":"4","last_reported":1729537611,"current_range_meters":24400,"station_id":"ce4bha12rcd13ifvqee0","pricing_plan_id":"cebpf4jnsgd1na2vs0mg"},{"bike_id":"4655d679-9295-46a9-882e-9f3c486e939e","system_id":"levelo_inurba_marseille","lat":43.287173,"lon":5.379403,"is_reserved":false,"is_disabled":false,"rental_uris":{"android":"levelo://app?vid=4655d679-9295-46a9-882e-9f3c486e939e","ios":"levelo://app?vid=4655d679-9295-46a9-882e-9f3c486e939e"},"vehicle_type_id":"4","last_reported":1729537611,"current_range_meters":36400,"station_id":"ce4bh9p2rcd13ifvqec0","pricing_plan_id":"cebpf4jnsgd1na2vs0mg"},{"bike_id":"e012bf23-af19-4bcb-a0fc-7966622eeb44","system_id":"levelo_inurba_marseille","lat":43.29968,"lon":5.38495,"is_reserved":false,"is_disabled":false,"rental_uris":{"android":"levelo://app?vid=e012bf23-af19-4bcb-a0fc-7966622eeb44","ios":"levelo://app?vid=e012bf23-af19-4bcb-a0fc-7966622eeb44"},"vehicle_type_id":"4","last_reported":1729537611,"current_range_meters":29600,"station_id":"ce4bgj92rcd13ifvqbd0","pricing_plan_id":"cebpf4jnsgd1na2vs0mg"},{"bike_id":"9b44d9b5-d72e-4973-83a8-b0296dadb547","system_id":"levelo_inurba_marseille","lat":43.32366,"lon":5.38885,"is_reserved":false,"is_disabled":false,"rental_uris":{"android":"levelo://app?vid=9b44d9b5-d72e-4973-83a8-b0296dadb547","ios":"levelo://app?vid=9b44d9b5-d72e-4973-83a8-b0296dadb547"},"vehicle_type_id":"4","last_reported":1729537611,"current_range_meters":34000,"station_id":"ce4bhqp2rcd13ifvqhog","pricing_plan_id":"cebpf4jnsgd1na2vs0mg"},{"bike_id":"815dd284-1bd2-4bb9-992a-b2116e2485bc","system_id":"levelo_inurba_marseille","lat":43.32783,"lon":5.36156,"is_reserved":false,"is_disabled":false,"rental_uris":{"android":"levelo://app?vid=815dd284-1bd2-4bb9-992a-b2116e2485bc","ios":"levelo://app?vid=815dd284-1bd2-4bb9-992a-b2116e2485bc"},"vehicle_type_id":"4","last_reported":1729537611,"current_range_meters":36400,"station_id":"","pricing_plan_id":"cebpf4jnsgd1na2vs0mg"},{"bike_id":"5c6d9bf8-e740-4d6e-8569-8fb48d659394","system_id":"levelo_inurba_marseille","lat":43.28615,"lon":5.35106,"is_reserved":false,"is_disabled":false,"rental_uris":{"android":"levelo://app?vid=5c6d9bf8-e740-4d6e-8569-8fb48d659394","ios":"levelo://app?vid=5c6d9bf8-e740-4d6e-8569-8fb48d659394"},"vehicle_type_id":"4","last_reported":1729537611,"current_range_meters":32400,"station_id":"ce4bhch2rcd13ifvqeug","pricing_plan_id":"cebpf4jnsgd1na2vs0mg"},{"bike_id":"ceb9cfdf-82a6-471d-8fd9-a4fdf46540bb","system_id":"levelo_inurba_marseille","lat":43.27022,"lon":5.40674,"is_reserved":false,"is_disabled":false,"rental_uris":{"android":"levelo://app?vid=ceb9cfdf-82a6-471d-8fd9-a4fdf46540bb","ios":"levelo://app?vid=ceb9cfdf-82a6-471d-8fd9-a4fdf46540bb"},"vehicle_type_id":"4","last_reported":1729537611,"current_range_meters":17200,"station_id":"ce4bhl12rcd13ifvqgf0","pricing_plan_id":"cebpf4jnsgd1na2vs0mg"},{"bike_id":"81c3754e-8434-466f-a3c8-cb133df57504","system_id":"levelo_inurba_marseille","lat":43.28462,"lon":5.35892,"is_reserved":false,"is_disabled":false,"rental_uris":{"android":"levelo://app?vid=81c3754e-8434-466f-a3c8-cb133df57504","ios":"levelo://app?vid=81c3754e-8434-466f-a3c8-cb133df57504"},"vehicle_type_id":"4","last_reported":1729537611,"current_range_meters":20800,"station_id":"ce4bhah2rcd13ifvqei0","pricing_plan_id":"cebpf4jnsgd1na2vs0mg"},{"bike_id":"1d4ae3a4-41b6-49d6-b50c-315461c67127","system_id":"levelo_inurba_marseille","lat":43.337243,"lon":5.409827,"is_reserved":false,"is_disabled":false,"rental_uris":{"android":"levelo://app?vid=1d4ae3a4-41b6-49d6-b50c-315461c67127","ios":"levelo://app?vid=1d4ae3a4-41b6-49d6-b50c-315461c67127"},"vehicle_type_id":"4","last_reported":1729537611,"current_range_meters":35600,"station_id":"ce4bhqh2rcd13ifvqhmg","pricing_plan_id":"cebpf4jnsgd1na2vs0mg"},{"bike_id":"2c1fae55-921d-4a72-86b0-19b559b438c8","system_id":"levelo_inurba_marseille","lat":43.31718,"lon":5.42405,"is_reserved":false,"is_disabled":false,"rental_uris":{"android":"levelo://app?vid=2c1fae55-921d-4a72-86b0-19b559b438c8","ios":"levelo://app?vid=2c1fae55-921d-4a72-86b0-19b559b438c8"},"vehicle_type_id":"4","last_reported":1729537611,"current_range_meters":38800,"station_id":"ce4bhp92rcd13ifvqhbg","pricing_plan_id":"cebpf4jnsgd1na2vs0mg"},{"bike_id":"a1ae4456-0f49-40ee-9874-65a614721f89","system_id":"levelo_inurba_marseille","lat":43.28155,"lon":5.42654,"is_reserved":false,"is_disabled":false,"rental_uris":{"android":"levelo://app?vid=a1ae4456-0f49-40ee-9874-65a614721f89","ios":"levelo://app?vid=a1ae4456-0f49-40ee-9874-65a614721f89"},"vehicle_type_id":"4","last_reported":1729537611,"current_range_meters":28800,"station_id":"ce4bhnh2rcd13ifvqgug","pricing_plan_id":"cebpf4jnsgd1na2vs0mg"},{"bike_id":"3090aff6-6282-4ee1-98d8-bf4598a2dd60","system_id":"levelo_inurba_marseille","lat":43.3033,"lon":5.40447,"is_reserved":false,"is_disabled":false,"rental_uris":{"android":"levelo://app?vid=3090aff6-6282-4ee1-98d8-bf4598a2dd60","ios":"levelo://app?vid=3090aff6-6282-4ee1-98d8-bf4598a2dd60"},"vehicle_type_id":"4","last_reported":1729537611,"current_range_meters":12400,"station_id":"ce4bh012rcd13ifvqd10","pricing_plan_id":"cebpf4jnsgd1na2vs0mg"},{"bike_id":"94e8a5ee-bb0a-430c-8a60-3c9aa96a91a9","system_id":"levelo_inurba_marseille","lat":43.29253,"lon":5.38436,"is_reserved":false,"is_disabled":false,"rental_uris":{"android":"levelo://app?vid=94e8a5ee-bb0a-430c-8a60-3c9aa96a91a9","ios":"levelo://app?vid=94e8a5ee-bb0a-430c-8a60-3c9aa96a91a9"},"vehicle_type_id":"4","last_reported":1729537611,"current_range_meters":20800,"station_id":"ce4bh692rcd13ifvqea0","pricing_plan_id":"cebpf4jnsgd1na2vs0mg"},{"bike_id":"d409f8ae-f9c3-4bdd-b779-48fee1aed73f","system_id":"levelo_inurba_marseille","lat":43.315,"lon":5.37311,"is_reserved":false,"is_disabled":false,"rental_uris":{"android":"levelo://app?vid=d409f8ae-f9c3-4bdd-b779-48fee1aed73f","ios":"levelo://app?vid=d409f8ae-f9c3-4bdd-b779-48fee1aed73f"},"vehicle_type_id":"4","last_reported":1729537611,"current_range_meters":30800,"station_id":"ce4bgt12rcd13ifvqcd0","pricing_plan_id":"cebpf4jnsgd1na2vs0mg"},{"bike_id":"480400dc-e3f6-417e-aa86-020754f281f9","system_id":"levelo_inurba_marseille","lat":43.297241,"lon":5.378253,"is_reserved":false,"is_disabled":false,"rental_uris":{"android":"levelo://app?vid=480400dc-e3f6-417e-aa86-020754f281f9","ios":"levelo://app?vid=480400dc-e3f6-417e-aa86-020754f281f9"},"vehicle_type_id":"4","last_reported":1729537611,"current_range_meters":37600,"station_id":"ce4bh192rcd13ifvqdb0","pricing_plan_id":"cebpf4jnsgd1na2vs0mg"},{"bike_id":"44d195bb-cfb4-4f79-a98c-1e55ff1748d3","system_id":"levelo_inurba_marseille","lat":43.3171,"lon":5.43708,"is_reserved":false,"is_disabled":false,"rental_uris":{"android":"levelo://app?vid=44d195bb-cfb4-4f79-a98c-1e55ff1748d3","ios":"levelo://app?vid=44d195bb-cfb4-4f79-a98c-1e55ff1748d3"},"vehicle_type_id":"4","last_reported":1729537611,"current_range_meters":36000,"station_id":"ce4bhp92rcd13ifvqhcg","pricing_plan_id":"cebpf4jnsgd1na2vs0mg"},{"bike_id":"68954693-c456-4382-adbc-eb8a908891e2","system_id":"levelo_inurba_marseille","lat":43.23961,"lon":5.3663,"is_reserved":false,"is_disabled":false,"rental_uris":{"android":"levelo://app?vid=68954693-c456-4382-adbc-eb8a908891e2","ios":"levelo://app?vid=68954693-c456-4382-adbc-eb8a908891e2"},"vehicle_type_id":"4","last_reported":1729537611,"current_range_meters":2000,"station_id":"ce4bhi12rcd13ifvqfp0","pricing_plan_id":"cebpf4jnsgd1na2vs0mg"},{"bike_id":"4bd436b4-9d93-4749-8f84-3d51b9f122b8","system_id":"levelo_inurba_marseille","lat":43.28419,"lon":5.3751,"is_reserved":false,"is_disabled":false,"rental_uris":{"android":"levelo://app?vid=4bd436b4-9d93-4749-8f84-3d51b9f122b8","ios":"levelo://app?vid=4bd436b4-9d93-4749-8f84-3d51b9f122b8"},"vehicle_type_id":"4","last_reported":1729537611,"current_range_meters":8800,"station_id":"ce4bh412rcd13ifvqds0","pricing_plan_id":"cebpf4jnsgd1na2vs0mg"},{"bike_id":"ae3fcb04-be9a-4eda-86cc-c69683243e47","system_id":"levelo_inurba_marseille","lat":43.23965,"lon":5.36624,"is_reserved":false,"is_disabled":false,"rental_uris":{"android":"levelo://app?vid=ae3fcb04-be9a-4eda-86cc-c69683243e47","ios":"levelo://app?vid=ae3fcb04-be9a-4eda-86cc-c69683243e47"},"vehicle_type_id":"4","last_reported":1729537611,"current_range_meters":40000,"station_id":"ce4bhi12rcd13ifvqfp0","pricing_plan_id":"cebpf4jnsgd1na2vs0mg"},{"bike_id":"e01af3fb-a46a-472a-a9ce-4d0d6e75d0db","system_id":"levelo_inurba_marseille","lat":43.2846,"lon":5.35883,"is_reserved":false,"is_disabled":false,"rental_uris":{"android":"levelo://app?vid=e01af3fb-a46a-472a-a9ce-4d0d6e75d0db","ios":"levelo://app?vid=e01af3fb-a46a-472a-a9ce-4d0d6e75d0db"},"vehicle_type_id":"4","last_reported":1729537611,"current_range_meters":39200,"station_id":"ce4bhah2rcd13ifvqei0","pricing_plan_id":"cebpf4jnsgd1na2vs0mg"},{"bike_id":"02377b53-2f7f-4d05-bb17-f36ae277efea","system_id":"levelo_inurba_marseille","lat":43.273889,"lon":5.362597,"is_reserved":false,"is_disabled":false,"rental_uris":{"android":"levelo://app?vid=02377b53-2f7f-4d05-bb17-f36ae277efea","ios":"levelo://app?vid=02377b53-2f7f-4d05-bb17-f36ae277efea"},"vehicle_type_id":"4","last_reported":1729537611,"current_range_meters":38800,"station_id":"ce4bhbh2rcd13ifvqeo0","pricing_plan_id":"cebpf4jnsgd1na2vs0mg"},{"bike_id":"0716d609-4bbc-41a7-8257-2b43ca8b3737","system_id":"levelo_inurba_marseille","lat":43.29895,"lon":5.43661,"is_reserved":false,"is_disabled":false,"rental_uris":{"android":"levelo://app?vid=0716d609-4bbc-41a7-8257-2b43ca8b3737","ios":"levelo://app?vid=0716d609-4bbc-41a7-8257-2b43ca8b3737"},"vehicle_type_id":"4","last_reported":1729537611,"current_range_meters":36800,"station_id":"ce4bhpp2rcd13ifvqhfg","pricing_plan_id":"cebpf4jnsgd1na2vs0mg"},{"bike_id":"99ac2cb9-1aea-4098-b388-2b635d1c7645","system_id":"levelo_inurba_marseille","lat":43.28151,"lon":5.42649,"is_reserved":false,"is_disabled":false,"rental_uris":{"android":"levelo://app?vid=99ac2cb9-1aea-4098-b388-2b635d1c7645","ios":"levelo://app?vid=99ac2cb9-1aea-4098-b388-2b635d1c7645"},"vehicle_type_id":"4","last_reported":1729537611,"current_range_meters":16400,"station_id":"ce4bhnh2rcd13ifvqgug","pricing_plan_id":"cebpf4jnsgd1na2vs0mg"},{"bike_id":"403dab26-a3e8-4055-a133-ff11bd070e15","system_id":"levelo_inurba_marseille","lat":43.28936,"lon":5.36633,"is_reserved":false,"is_disabled":false,"rental_uris":{"android":"levelo://app?vid=403dab26-a3e8-4055-a133-ff11bd070e15","ios":"levelo://app?vid=403dab26-a3e8-4055-a133-ff11bd070e15"},"vehicle_type_id":"4","last_reported":1729537611,"current_range_meters":38800,"station_id":"ce4bhap2rcd13ifvqek0","pricing_plan_id":"cebpf4jnsgd1na2vs0mg"},{"bike_id":"e7b170f7-1a10-4029-971a-cccd271075f8","system_id":"levelo_inurba_marseille","lat":43.30908,"lon":5.36852,"is_reserved":false,"is_disabled":false,"rental_uris":{"android":"levelo://app?vid=e7b170f7-1a10-4029-971a-cccd271075f8","ios":"levelo://app?vid=e7b170f7-1a10-4029-971a-cccd271075f8"},"vehicle_type_id":"4","last_reported":1729537611,"current_range_meters":34800,"station_id":"ce4bgn92rcd13ifvqbvg","pricing_plan_id":"cebpf4jnsgd1na2vs0mg"},{"bike_id":"656459b1-1c6a-4ec7-bc7d-07464a143dac","system_id":"levelo_inurba_marseille","lat":43.29794,"lon":5.40406,"is_reserved":false,"is_disabled":false,"rental_uris":{"android":"levelo://app?vid=656459b1-1c6a-4ec7-bc7d-07464a143dac","ios":"levelo://app?vid=656459b1-1c6a-4ec7-bc7d-07464a143dac"},"vehicle_type_id":"4","last_reported":1729537611,"current_range_meters":37600,"station_id":"ce4bh112rcd13ifvqd90","pricing_plan_id":"cebpf4jnsgd1na2vs0mg"},{"bike_id":"b6d3ee1b-dd46-42bc-ad40-96db8e46ace6","system_id":"levelo_inurba_marseille","lat":43.28039,"lon":5.36948,"is_reserved":false,"is_disabled":false,"rental_uris":{"android":"levelo://app?vid=b6d3ee1b-dd46-42bc-ad40-96db8e46ace6","ios":"levelo://app?vid=b6d3ee1b-dd46-42bc-ad40-96db8e46ace6"},"vehicle_type_id":"4","last_reported":1729537611,"current_range_meters":37600,"station_id":"ce4bha12rcd13ifvqef0","pricing_plan_id":"cebpf4jnsgd1na2vs0mg"},{"bike_id":"b75767a2-aa2f-4d97-a373-1a2a3bbb0678","system_id":"levelo_inurba_marseille","lat":43.29254,"lon":5.38437,"is_reserved":false,"is_disabled":false,"rental_uris":{"android":"levelo://app?vid=b75767a2-aa2f-4d97-a373-1a2a3bbb0678","ios":"levelo://app?vid=b75767a2-aa2f-4d97-a373-1a2a3bbb0678"},"vehicle_type_id":"4","last_reported":1729537611,"current_range_meters":38000,"station_id":"ce4bh692rcd13ifvqea0","pricing_plan_id":"cebpf4jnsgd1na2vs0mg"},{"bike_id":"c3d8c5f8-b3d2-4acd-80b2-268d0bec6afe","system_id":"levelo_inurba_marseille","lat":43.2318,"lon":5.39989,"is_reserved":false,"is_disabled":false,"rental_uris":{"android":"levelo://app?vid=c3d8c5f8-b3d2-4acd-80b2-268d0bec6afe","ios":"levelo://app?vid=c3d8c5f8-b3d2-4acd-80b2-268d0bec6afe"},"vehicle_type_id":"4","last_reported":1729537611,"current_range_meters":4400,"station_id":"ce4bhn12rcd13ifvqgqg","pricing_plan_id":"cebpf4jnsgd1na2vs0mg"},{"bike_id":"0268f5f3-7331-4cf6-aeab-99652a9e7c0c","system_id":"levelo_inurba_marseille","lat":43.31689,"lon":5.40481,"is_reserved":false,"is_disabled":false,"rental_uris":{"android":"levelo://app?vid=0268f5f3-7331-4cf6-aeab-99652a9e7c0c","ios":"levelo://app?vid=0268f5f3-7331-4cf6-aeab-99652a9e7c0c"},"vehicle_type_id":"4","last_reported":1729537611,"current_range_meters":30800,"station_id":"ce4bh012rcd13ifvqd00","pricing_plan_id":"cebpf4jnsgd1na2vs0mg"},{"bike_id":"7a794860-11b2-476b-959f-bb389c2acd7c","system_id":"levelo_inurba_marseille","lat":43.29862,"lon":5.39745,"is_reserved":false,"is_disabled":false,"rental_uris":{"android":"levelo://app?vid=7a794860-11b2-476b-959f-bb389c2acd7c","ios":"levelo://app?vid=7a794860-11b2-476b-959f-bb389c2acd7c"},"vehicle_type_id":"4","last_reported":1729537611,"current_range_meters":32000,"station_id":"ce4bh0h2rcd13ifvqd50","pricing_plan_id":"cebpf4jnsgd1na2vs0mg"},{"bike_id":"197bc34a-aaae-4c08-94c2-cecf7343d4b4","system_id":"levelo_inurba_marseille","lat":43.273752,"lon":5.362606,"is_reserved":false,"is_disabled":false,"rental_uris":{"android":"levelo://app?vid=197bc34a-aaae-4c08-94c2-cecf7343d4b4","ios":"levelo://app?vid=197bc34a-aaae-4c08-94c2-cecf7343d4b4"},"vehicle_type_id":"4","last_reported":1729537611,"current_range_meters":38800,"station_id":"ce4bhbh2rcd13ifvqeo0","pricing_plan_id":"cebpf4jnsgd1na2vs0mg"},{"bike_id":"89cffc94-72e7-42af-863f-e5feb601f7ff","system_id":"levelo_inurba_marseille","lat":43.30785,"lon":5.37661,"is_reserved":false,"is_disabled":false,"rental_uris":{"android":"levelo://app?vid=89cffc94-72e7-42af-863f-e5feb601f7ff","ios":"levelo://app?vid=89cffc94-72e7-42af-863f-e5feb601f7ff"},"vehicle_type_id":"4","last_reported":1729537611,"current_range_meters":9600,"station_id":"ce4bgv92rcd13ifvqcq0","pricing_plan_id":"cebpf4jnsgd1na2vs0mg"},{"bike_id":"a824387f-3bfe-4053-96ca-0461078b7056","system_id":"levelo_inurba_marseille","lat":43.30334,"lon":5.4044,"is_reserved":false,"is_disabled":false,"rental_uris":{"android":"levelo://app?vid=a824387f-3bfe-4053-96ca-0461078b7056","ios":"levelo://app?vid=a824387f-3bfe-4053-96ca-0461078b7056"},"vehicle_type_id":"4","last_reported":1729537611,"current_range_meters":17600,"station_id":"ce4bh012rcd13ifvqd10","pricing_plan_id":"cebpf4jnsgd1na2vs0mg"},{"bike_id":"479cfc0c-1192-48e6-a7ec-ef0a9e5ac3f8","system_id":"levelo_inurba_marseille","lat":43.29712,"lon":5.3661,"is_reserved":false,"is_disabled":false,"rental_uris":{"android":"levelo://app?vid=479cfc0c-1192-48e6-a7ec-ef0a9e5ac3f8","ios":"levelo://app?vid=479cfc0c-1192-48e6-a7ec-ef0a9e5ac3f8"},"vehicle_type_id":"4","last_reported":1729537611,"current_range_meters":28000,"station_id":"ce4bh292rcd13ifvqdf0","pricing_plan_id":"cebpf4jnsgd1na2vs0mg"},{"bike_id":"b894b3a8-6e2a-4efa-8099-357feb0fe150","system_id":"levelo_inurba_marseille","lat":43.28288,"lon":5.35083,"is_reserved":false,"is_disabled":false,"rental_uris":{"android":"levelo://app?vid=b894b3a8-6e2a-4efa-8099-357feb0fe150","ios":"levelo://app?vid=b894b3a8-6e2a-4efa-8099-357feb0fe150"},"vehicle_type_id":"4","last_reported":1729537611,"current_range_meters":14000,"station_id":"ce4bhbp2rcd13ifvqerg","pricing_plan_id":"cebpf4jnsgd1na2vs0mg"},{"bike_id":"2cd47a4e-c103-45e9-a12b-82e873e085f1","system_id":"levelo_inurba_marseille","lat":43.28858,"lon":5.39323,"is_reserved":false,"is_disabled":false,"rental_uris":{"android":"levelo://app?vid=2cd47a4e-c103-45e9-a12b-82e873e085f1","ios":"levelo://app?vid=2cd47a4e-c103-45e9-a12b-82e873e085f1"},"vehicle_type_id":"4","last_reported":1729537611,"current_range_meters":38800,"station_id":"ce4bh2p2rcd13ifvqdi0","pricing_plan_id":"cebpf4jnsgd1na2vs0mg"},{"bike_id":"4b321f9c-d240-4200-bb60-7b70406f810a","system_id":"levelo_inurba_marseille","lat":43.25083,"lon":5.39523,"is_reserved":false,"is_disabled":false,"rental_uris":{"android":"levelo://app?vid=4b321f9c-d240-4200-bb60-7b70406f810a","ios":"levelo://app?vid=4b321f9c-d240-4200-bb60-7b70406f810a"},"vehicle_type_id":"4","last_reported":1729537611,"current_range_meters":16800,"station_id":"ce4bhm12rcd13ifvqgkg","pricing_plan_id":"cebpf4jnsgd1na2vs0mg"},{"bike_id":"a9002a5d-a535-42b5-88b4-26d81fd5238e","system_id":"levelo_inurba_marseille","lat":43.32344,"lon":5.40623,"is_reserved":false,"is_disabled":false,"rental_uris":{"android":"levelo://app?vid=a9002a5d-a535-42b5-88b4-26d81fd5238e","ios":"levelo://app?vid=a9002a5d-a535-42b5-88b4-26d81fd5238e"},"vehicle_type_id":"4","last_reported":1729537611,"current_range_meters":8400,"station_id":"ce4bhq92rcd13ifvqhjg","pricing_plan_id":"cebpf4jnsgd1na2vs0mg"},{"bike_id":"017b8f27-58c6-4133-8fbe-423ccf23dd37","system_id":"levelo_inurba_marseille","lat":43.28664,"lon":5.363493,"is_reserved":false,"is_disabled":false,"rental_uris":{"android":"levelo://app?vid=017b8f27-58c6-4133-8fbe-423ccf23dd37","ios":"levelo://app?vid=017b8f27-58c6-4133-8fbe-423ccf23dd37"},"vehicle_type_id":"4","last_reported":1729537611,"current_range_meters":7200,"station_id":"ce4bhah2rcd13ifvqej0","pricing_plan_id":"cebpf4jnsgd1na2vs0mg"},{"bike_id":"b832b1ba-71c3-41fb-8ede-14eac9d4a090","system_id":"levelo_inurba_marseille","lat":43.30917,"lon":5.3686,"is_reserved":false,"is_disabled":false,"rental_uris":{"android":"levelo://app?vid=b832b1ba-71c3-41fb-8ede-14eac9d4a090","ios":"levelo://app?vid=b832b1ba-71c3-41fb-8ede-14eac9d4a090"},"vehicle_type_id":"4","last_reported":1729537611,"current_range_meters":38800,"station_id":"ce4bgn92rcd13ifvqbvg","pricing_plan_id":"cebpf4jnsgd1na2vs0mg"},{"bike_id":"1a4055fa-f792-4be2-a545-13404d5ad208","system_id":"levelo_inurba_marseille","lat":43.276138,"lon":5.360952,"is_reserved":false,"is_disabled":false,"rental_uris":{"android":"levelo://app?vid=1a4055fa-f792-4be2-a545-13404d5ad208","ios":"levelo://app?vid=1a4055fa-f792-4be2-a545-13404d5ad208"},"vehicle_type_id":"4","last_reported":1729537611,"current_range_meters":38800,"station_id":"ce4bgj92rcd13ifvqbe0","pricing_plan_id":"cebpf4jnsgd1na2vs0mg"},{"bike_id":"2adaa7e6-e7e4-4c71-94a8-6b6dda34ebf9","system_id":"levelo_inurba_marseille","lat":43.30086,"lon":5.39079,"is_reserved":false,"is_disabled":false,"rental_uris":{"android":"levelo://app?vid=2adaa7e6-e7e4-4c71-94a8-6b6dda34ebf9","ios":"levelo://app?vid=2adaa7e6-e7e4-4c71-94a8-6b6dda34ebf9"},"vehicle_type_id":"4","last_reported":1729537611,"current_range_meters":30800,"station_id":"","pricing_plan_id":"cebpf4jnsgd1na2vs0mg"},{"bike_id":"bf04844c-cadb-4907-9f6c-3441f3de9e53","system_id":"levelo_inurba_marseille","lat":43.28437,"lon":5.39188,"is_reserved":false,"is_disabled":false,"rental_uris":{"android":"levelo://app?vid=bf04844c-cadb-4907-9f6c-3441f3de9e53","ios":"levelo://app?vid=bf04844c-cadb-4907-9f6c-3441f3de9e53"},"vehicle_type_id":"4","last_reported":1729537611,"current_range_meters":32000,"station_id":"ce4bhoh2rcd13ifvqh5g","pricing_plan_id":"cebpf4jnsgd1na2vs0mg"},{"bike_id":"87025920-ea95-4e19-872f-5f8e3fa302bf","system_id":"levelo_inurba_marseille","lat":43.26496,"lon":5.39542,"is_reserved":false,"is_disabled":false,"rental_uris":{"android":"levelo://app?vid=87025920-ea95-4e19-872f-5f8e3fa302bf","ios":"levelo://app?vid=87025920-ea95-4e19-872f-5f8e3fa302bf"},"vehicle_type_id":"4","last_reported":1729537611,"current_range_meters":9200,"station_id":"ce4bhi12rcd13ifvqfq0","pricing_plan_id":"cebpf4jnsgd1na2vs0mg"},{"bike_id":"456cad6c-5796-43fe-a42a-f6f172028de9","system_id":"levelo_inurba_marseille","lat":43.24898,"lon":5.39077,"is_reserved":false,"is_disabled":false,"rental_uris":{"android":"levelo://app?vid=456cad6c-5796-43fe-a42a-f6f172028de9","ios":"levelo://app?vid=456cad6c-5796-43fe-a42a-f6f172028de9"},"vehicle_type_id":"4","last_reported":1729537611,"current_range_meters":27200,"station_id":"ce4bhgp2rcd13ifvqfd0","pricing_plan_id":"cebpf4jnsgd1na2vs0mg"},{"bike_id":"8e8c1152-0d97-40bb-b78b-175b82389400","system_id":"levelo_inurba_marseille","lat":43.23965,"lon":5.36629,"is_reserved":false,"is_disabled":false,"rental_uris":{"android":"levelo://app?vid=8e8c1152-0d97-40bb-b78b-175b82389400","ios":"levelo://app?vid=8e8c1152-0d97-40bb-b78b-175b82389400"},"vehicle_type_id":"4","last_reported":1729537611,"current_range_meters":12800,"station_id":"ce4bhi12rcd13ifvqfp0","pricing_plan_id":"cebpf4jnsgd1na2vs0mg"},{"bike_id":"44034aed-59d3-4bb9-a078-9684442d4d7f","system_id":"levelo_inurba_marseille","lat":43.27906,"lon":5.38015,"is_reserved":false,"is_disabled":false,"rental_uris":{"android":"levelo://app?vid=44034aed-59d3-4bb9-a078-9684442d4d7f","ios":"levelo://app?vid=44034aed-59d3-4bb9-a078-9684442d4d7f"},"vehicle_type_id":"4","last_reported":1729537611,"current_range_meters":3600,"station_id":"ce4bhf92rcd13ifvqf50","pricing_plan_id":"cebpf4jnsgd1na2vs0mg"},{"bike_id":"ae5b0838-832e-4df1-9248-7cf76dc1ac79","system_id":"levelo_inurba_marseille","lat":43.27373,"lon":5.362626,"is_reserved":false,"is_disabled":false,"rental_uris":{"android":"levelo://app?vid=ae5b0838-832e-4df1-9248-7cf76dc1ac79","ios":"levelo://app?vid=ae5b0838-832e-4df1-9248-7cf76dc1ac79"},"vehicle_type_id":"4","last_reported":1729537611,"current_range_meters":38800,"station_id":"ce4bhbh2rcd13ifvqeo0","pricing_plan_id":"cebpf4jnsgd1na2vs0mg"},{"bike_id":"a828ccdc-bbd0-47c4-8c31-edaa5e1fcbb4","system_id":"levelo_inurba_marseille","lat":43.23179,"lon":5.39987,"is_reserved":false,"is_disabled":false,"rental_uris":{"android":"levelo://app?vid=a828ccdc-bbd0-47c4-8c31-edaa5e1fcbb4","ios":"levelo://app?vid=a828ccdc-bbd0-47c4-8c31-edaa5e1fcbb4"},"vehicle_type_id":"4","last_reported":1729537611,"current_range_meters":10000,"station_id":"ce4bhn12rcd13ifvqgqg","pricing_plan_id":"cebpf4jnsgd1na2vs0mg"},{"bike_id":"98f5304c-57d9-4749-a960-145892b4889b","system_id":"levelo_inurba_marseille","lat":43.28428,"lon":5.34998,"is_reserved":false,"is_disabled":false,"rental_uris":{"android":"levelo://app?vid=98f5304c-57d9-4749-a960-145892b4889b","ios":"levelo://app?vid=98f5304c-57d9-4749-a960-145892b4889b"},"vehicle_type_id":"4","last_reported":1729537611,"current_range_meters":36400,"station_id":"ce4bhbh2rcd13ifvqepg","pricing_plan_id":"cebpf4jnsgd1na2vs0mg"},{"bike_id":"901e5492-56fe-4e15-98af-77f3e936c5e7","system_id":"levelo_inurba_marseille","lat":43.29414,"lon":5.38627,"is_reserved":false,"is_disabled":false,"rental_uris":{"android":"levelo://app?vid=901e5492-56fe-4e15-98af-77f3e936c5e7","ios":"levelo://app?vid=901e5492-56fe-4e15-98af-77f3e936c5e7"},"vehicle_type_id":"4","last_reported":1729537611,"current_range_meters":17200,"station_id":"ce4bgvp2rcd13ifvqcu0","pricing_plan_id":"cebpf4jnsgd1na2vs0mg"},{"bike_id":"40c0bc0a-74ea-451a-8758-d5d25437ce7e","system_id":"levelo_inurba_marseille","lat":43.30144,"lon":5.38784,"is_reserved":false,"is_disabled":false,"rental_uris":{"android":"levelo://app?vid=40c0bc0a-74ea-451a-8758-d5d25437ce7e","ios":"levelo://app?vid=40c0bc0a-74ea-451a-8758-d5d25437ce7e"},"vehicle_type_id":"4","last_reported":1729537611,"current_range_meters":14400,"station_id":"ce4bghh2rcd13ifvqb60","pricing_plan_id":"cebpf4jnsgd1na2vs0mg"},{"bike_id":"67643aa6-6d63-4f00-94f1-aafe6c1d2c4c","system_id":"levelo_inurba_marseille","lat":43.31167,"lon":5.38727,"is_reserved":false,"is_disabled":false,"rental_uris":{"android":"levelo://app?vid=67643aa6-6d63-4f00-94f1-aafe6c1d2c4c","ios":"levelo://app?vid=67643aa6-6d63-4f00-94f1-aafe6c1d2c4c"},"vehicle_type_id":"4","last_reported":1729537611,"current_range_meters":38000,"station_id":"ce4bgv12rcd13ifvqcp0","pricing_plan_id":"cebpf4jnsgd1na2vs0mg"},{"bike_id":"40bd6d00-d21f-4122-8bbf-b9a4d5242cc3","system_id":"levelo_inurba_marseille","lat":43.31115,"lon":5.3777,"is_reserved":false,"is_disabled":false,"rental_uris":{"android":"levelo://app?vid=40bd6d00-d21f-4122-8bbf-b9a4d5242cc3","ios":"levelo://app?vid=40bd6d00-d21f-4122-8bbf-b9a4d5242cc3"},"vehicle_type_id":"4","last_reported":1729537611,"current_range_meters":38800,"station_id":"ce4bgt92rcd13ifvqcg0","pricing_plan_id":"cebpf4jnsgd1na2vs0mg"},{"bike_id":"926c78b5-c75d-49f7-b847-bce505991a66","system_id":"levelo_inurba_marseille","lat":43.323408,"lon":5.406256,"is_reserved":false,"is_disabled":false,"rental_uris":{"android":"levelo://app?vid=926c78b5-c75d-49f7-b847-bce505991a66","ios":"levelo://app?vid=926c78b5-c75d-49f7-b847-bce505991a66"},"vehicle_type_id":"4","last_reported":1729537611,"current_range_meters":24000,"station_id":"ce4bhq92rcd13ifvqhjg","pricing_plan_id":"cebpf4jnsgd1na2vs0mg"},{"bike_id":"0be0705b-5de6-42c7-8193-4fc62119d866","system_id":"levelo_inurba_marseille","lat":43.29027,"lon":5.38642,"is_reserved":false,"is_disabled":false,"rental_uris":{"android":"levelo://app?vid=0be0705b-5de6-42c7-8193-4fc62119d866","ios":"levelo://app?vid=0be0705b-5de6-42c7-8193-4fc62119d866"},"vehicle_type_id":"4","last_reported":1729537611,"current_range_meters":38800,"station_id":"ce4bh4p2rcd13ifvqe0g","pricing_plan_id":"cebpf4jnsgd1na2vs0mg"},{"bike_id":"23d6be7c-b70a-4f3a-b93a-2d96e77cbf74","system_id":"levelo_inurba_marseille","lat":43.27176,"lon":5.40997,"is_reserved":false,"is_disabled":false,"rental_uris":{"android":"levelo://app?vid=23d6be7c-b70a-4f3a-b93a-2d96e77cbf74","ios":"levelo://app?vid=23d6be7c-b70a-4f3a-b93a-2d96e77cbf74"},"vehicle_type_id":"4","last_reported":1729537611,"current_range_meters":28400,"station_id":"ce4bhl12rcd13ifvqgf0","pricing_plan_id":"cebpf4jnsgd1na2vs0mg"},{"bike_id":"45eaa57f-57e0-484d-85a0-b9ad910da9d5","system_id":"levelo_inurba_marseille","lat":43.3122,"lon":5.36868,"is_reserved":false,"is_disabled":false,"rental_uris":{"android":"levelo://app?vid=45eaa57f-57e0-484d-85a0-b9ad910da9d5","ios":"levelo://app?vid=45eaa57f-57e0-484d-85a0-b9ad910da9d5"},"vehicle_type_id":"4","last_reported":1729537611,"current_range_meters":10800,"station_id":"ce4bgl92rcd13ifvqbq0","pricing_plan_id":"cebpf4jnsgd1na2vs0mg"},{"bike_id":"168143bd-f387-43c5-9a21-68aa0e3cb9fb","system_id":"levelo_inurba_marseille","lat":43.302917,"lon":5.366491,"is_reserved":false,"is_disabled":false,"rental_uris":{"android":"levelo://app?vid=168143bd-f387-43c5-9a21-68aa0e3cb9fb","ios":"levelo://app?vid=168143bd-f387-43c5-9a21-68aa0e3cb9fb"},"vehicle_type_id":"4","last_reported":1729537611,"current_range_meters":8400,"station_id":"ce4bgrh2rcd13ifvqc8g","pricing_plan_id":"cebpf4jnsgd1na2vs0mg"},{"bike_id":"67367816-6cd1-41dd-8622-934d54f50b23","system_id":"levelo_inurba_marseille","lat":43.30881,"lon":5.37197,"is_reserved":false,"is_disabled":false,"rental_uris":{"android":"levelo://app?vid=67367816-6cd1-41dd-8622-934d54f50b23","ios":"levelo://app?vid=67367816-6cd1-41dd-8622-934d54f50b23"},"vehicle_type_id":"4","last_reported":1729537611,"current_range_meters":38800,"station_id":"ce4bguh2rcd13ifvqckg","pricing_plan_id":"cebpf4jnsgd1na2vs0mg"},{"bike_id":"dd89b73e-396c-4b20-9173-c72f591bcaee","system_id":"levelo_inurba_marseille","lat":43.29571,"lon":5.39985,"is_reserved":false,"is_disabled":false,"rental_uris":{"android":"levelo://app?vid=dd89b73e-396c-4b20-9173-c72f591bcaee","ios":"levelo://app?vid=dd89b73e-396c-4b20-9173-c72f591bcaee"},"vehicle_type_id":"4","last_reported":1729537611,"current_range_meters":8400,"station_id":"ce4bh312rcd13ifvqdj0","pricing_plan_id":"cebpf4jnsgd1na2vs0mg"},{"bike_id":"2d64344f-1536-41f0-80b7-cfd72deb931e","system_id":"levelo_inurba_marseille","lat":43.29281,"lon":5.40124,"is_reserved":false,"is_disabled":false,"rental_uris":{"android":"levelo://app?vid=2d64344f-1536-41f0-80b7-cfd72deb931e","ios":"levelo://app?vid=2d64344f-1536-41f0-80b7-cfd72deb931e"},"vehicle_type_id":"4","last_reported":1729537611,"current_range_meters":30400,"station_id":"ce4bh312rcd13ifvqdk0","pricing_plan_id":"cebpf4jnsgd1na2vs0mg"},{"bike_id":"c4e1ab4c-e817-417b-818a-3cfe70bddf05","system_id":"levelo_inurba_marseille","lat":43.23196,"lon":5.35559,"is_reserved":false,"is_disabled":false,"rental_uris":{"android":"levelo://app?vid=c4e1ab4c-e817-417b-818a-3cfe70bddf05","ios":"levelo://app?vid=c4e1ab4c-e817-417b-818a-3cfe70bddf05"},"vehicle_type_id":"4","last_reported":1729537611,"current_range_meters":21600,"station_id":"ce4bhu92rcd13ifvqi70","pricing_plan_id":"cebpf4jnsgd1na2vs0mg"},{"bike_id":"65c3f871-e563-4485-abdf-1cf50e229ed2","system_id":"levelo_inurba_marseille","lat":43.299819,"lon":5.384871,"is_reserved":false,"is_disabled":false,"rental_uris":{"android":"levelo://app?vid=65c3f871-e563-4485-abdf-1cf50e229ed2","ios":"levelo://app?vid=65c3f871-e563-4485-abdf-1cf50e229ed2"},"vehicle_type_id":"4","last_reported":1729537611,"current_range_meters":8400,"station_id":"ce4bgj92rcd13ifvqbd0","pricing_plan_id":"cebpf4jnsgd1na2vs0mg"},{"bike_id":"437b3ea7-3627-45d9-9104-1918477df0e5","system_id":"levelo_inurba_marseille","lat":43.32367,"lon":5.38888,"is_reserved":false,"is_disabled":false,"rental_uris":{"android":"levelo://app?vid=437b3ea7-3627-45d9-9104-1918477df0e5","ios":"levelo://app?vid=437b3ea7-3627-45d9-9104-1918477df0e5"},"vehicle_type_id":"4","last_reported":1729537611,"current_range_meters":27600,"station_id":"ce4bhqp2rcd13ifvqhog","pricing_plan_id":"cebpf4jnsgd1na2vs0mg"},{"bike_id":"6ce6e776-baff-4970-a6c2-9f1ce22e318b","system_id":"levelo_inurba_marseille","lat":43.30296,"lon":5.39216,"is_reserved":false,"is_disabled":false,"rental_uris":{"android":"levelo://app?vid=6ce6e776-baff-4970-a6c2-9f1ce22e318b","ios":"levelo://app?vid=6ce6e776-baff-4970-a6c2-9f1ce22e318b"},"vehicle_type_id":"4","last_reported":1729537611,"current_range_meters":32400,"station_id":"ce4bgkh2rcd13ifvqbk0","pricing_plan_id":"cebpf4jnsgd1na2vs0mg"},{"bike_id":"1d430869-0ea0-46ed-951b-27da168e80a4","system_id":"levelo_inurba_marseille","lat":43.26197,"lon":5.37933,"is_reserved":false,"is_disabled":false,"rental_uris":{"android":"levelo://app?vid=1d430869-0ea0-46ed-951b-27da168e80a4","ios":"levelo://app?vid=1d430869-0ea0-46ed-951b-27da168e80a4"},"vehicle_type_id":"4","last_reported":1729537611,"current_range_meters":29600,"station_id":"ce4bhjp2rcd13ifvqg90","pricing_plan_id":"cebpf4jnsgd1na2vs0mg"},{"bike_id":"d6d09423-599d-4978-9114-5dd5d8e5620e","system_id":"levelo_inurba_marseille","lat":43.271739,"lon":5.40998,"is_reserved":false,"is_disabled":false,"rental_uris":{"android":"levelo://app?vid=d6d09423-599d-4978-9114-5dd5d8e5620e","ios":"levelo://app?vid=d6d09423-599d-4978-9114-5dd5d8e5620e"},"vehicle_type_id":"4","last_reported":1729537611,"current_range_meters":18000,"station_id":"ce4bhl12rcd13ifvqgf0","pricing_plan_id":"cebpf4jnsgd1na2vs0mg"},{"bike_id":"c90aa08c-ce28-4f28-8c3e-3a87cdeaea48","system_id":"levelo_inurba_marseille","lat":43.2971,"lon":5.36617,"is_reserved":false,"is_disabled":false,"rental_uris":{"android":"levelo://app?vid=c90aa08c-ce28-4f28-8c3e-3a87cdeaea48","ios":"levelo://app?vid=c90aa08c-ce28-4f28-8c3e-3a87cdeaea48"},"vehicle_type_id":"4","last_reported":1729537611,"current_range_meters":2000,"station_id":"ce4bgn12rcd13ifvqbt0","pricing_plan_id":"cebpf4jnsgd1na2vs0mg"},{"bike_id":"b258e002-4ad4-434d-9994-c106e623236e","system_id":"levelo_inurba_marseille","lat":43.30439,"lon":5.38894,"is_reserved":false,"is_disabled":false,"rental_uris":{"android":"levelo://app?vid=b258e002-4ad4-434d-9994-c106e623236e","ios":"levelo://app?vid=b258e002-4ad4-434d-9994-c106e623236e"},"vehicle_type_id":"4","last_reported":1729537611,"current_range_meters":37600,"station_id":"ce4bgk12rcd13ifvqbi0","pricing_plan_id":"cebpf4jnsgd1na2vs0mg"},{"bike_id":"2977d63f-cd19-4f99-ad54-a472e6bf2edb","system_id":"levelo_inurba_marseille","lat":43.3176,"lon":5.39018,"is_reserved":false,"is_disabled":false,"rental_uris":{"android":"levelo://app?vid=2977d63f-cd19-4f99-ad54-a472e6bf2edb","ios":"levelo://app?vid=2977d63f-cd19-4f99-ad54-a472e6bf2edb"},"vehicle_type_id":"4","last_reported":1729537611,"current_range_meters":37600,"station_id":"ce4bhqp2rcd13ifvqhng","pricing_plan_id":"cebpf4jnsgd1na2vs0mg"},{"bike_id":"388b496f-bdc7-4937-9931-9e3af645ca20","system_id":"levelo_inurba_marseille","lat":43.27373,"lon":5.362626,"is_reserved":false,"is_disabled":false,"rental_uris":{"android":"levelo://app?vid=388b496f-bdc7-4937-9931-9e3af645ca20","ios":"levelo://app?vid=388b496f-bdc7-4937-9931-9e3af645ca20"},"vehicle_type_id":"4","last_reported":1729537611,"current_range_meters":38800,"station_id":"ce4bhbh2rcd13ifvqeo0","pricing_plan_id":"cebpf4jnsgd1na2vs0mg"},{"bike_id":"10d26aa5-a840-49f1-884d-cc0d42c9fcc7","system_id":"levelo_inurba_marseille","lat":43.30927,"lon":5.40146,"is_reserved":false,"is_disabled":false,"rental_uris":{"android":"levelo://app?vid=10d26aa5-a840-49f1-884d-cc0d42c9fcc7","ios":"levelo://app?vid=10d26aa5-a840-49f1-884d-cc0d42c9fcc7"},"vehicle_type_id":"4","last_reported":1729537611,"current_range_meters":38800,"station_id":"ce4bgvp2rcd13ifvqct0","pricing_plan_id":"cebpf4jnsgd1na2vs0mg"},{"bike_id":"6c07be62-b3bc-4a76-8867-ab8110211138","system_id":"levelo_inurba_marseille","lat":43.27496,"lon":5.42456,"is_reserved":false,"is_disabled":false,"rental_uris":{"android":"levelo://app?vid=6c07be62-b3bc-4a76-8867-ab8110211138","ios":"levelo://app?vid=6c07be62-b3bc-4a76-8867-ab8110211138"},"vehicle_type_id":"4","last_reported":1729537611,"current_range_meters":27200,"station_id":"ce4bhn92rcd13ifvqgrg","pricing_plan_id":"cebpf4jnsgd1na2vs0mg"},{"bike_id":"13ddbdf9-3757-4801-a1c6-5d4dc1d7881b","system_id":"levelo_inurba_marseille","lat":43.32332,"lon":5.40623,"is_reserved":false,"is_disabled":false,"rental_uris":{"android":"levelo://app?vid=13ddbdf9-3757-4801-a1c6-5d4dc1d7881b","ios":"levelo://app?vid=13ddbdf9-3757-4801-a1c6-5d4dc1d7881b"},"vehicle_type_id":"4","last_reported":1729537611,"current_range_meters":9200,"station_id":"ce4bhq92rcd13ifvqhjg","pricing_plan_id":"cebpf4jnsgd1na2vs0mg"},{"bike_id":"58ae58b8-d7dc-4437-8bfc-70feefef6f76","system_id":"levelo_inurba_marseille","lat":43.2417,"lon":5.39817,"is_reserved":false,"is_disabled":false,"rental_uris":{"android":"levelo://app?vid=58ae58b8-d7dc-4437-8bfc-70feefef6f76","ios":"levelo://app?vid=58ae58b8-d7dc-4437-8bfc-70feefef6f76"},"vehicle_type_id":"4","last_reported":1729537611,"current_range_meters":7200,"station_id":"","pricing_plan_id":"cebpf4jnsgd1na2vs0mg"},{"bike_id":"670dc21c-170f-4654-a499-7714bf8a7425","system_id":"levelo_inurba_marseille","lat":43.28579,"lon":5.39498,"is_reserved":false,"is_disabled":false,"rental_uris":{"android":"levelo://app?vid=670dc21c-170f-4654-a499-7714bf8a7425","ios":"levelo://app?vid=670dc21c-170f-4654-a499-7714bf8a7425"},"vehicle_type_id":"4","last_reported":1729537611,"current_range_meters":24000,"station_id":"ce4bh292rcd13ifvqdg0","pricing_plan_id":"cebpf4jnsgd1na2vs0mg"},{"bike_id":"bdda591d-8e5e-4d2a-944f-c90cc525f38e","system_id":"levelo_inurba_marseille","lat":43.28704,"lon":5.37401,"is_reserved":false,"is_disabled":false,"rental_uris":{"android":"levelo://app?vid=bdda591d-8e5e-4d2a-944f-c90cc525f38e","ios":"levelo://app?vid=bdda591d-8e5e-4d2a-944f-c90cc525f38e"},"vehicle_type_id":"4","last_reported":1729537611,"current_range_meters":28400,"station_id":"ce4bh3p2rcd13ifvqdq0","pricing_plan_id":"cebpf4jnsgd1na2vs0mg"},{"bike_id":"fc05ed07-5be1-4ba1-8075-9048f1e26290","system_id":"levelo_inurba_marseille","lat":43.23968,"lon":5.36632,"is_reserved":false,"is_disabled":false,"rental_uris":{"android":"levelo://app?vid=fc05ed07-5be1-4ba1-8075-9048f1e26290","ios":"levelo://app?vid=fc05ed07-5be1-4ba1-8075-9048f1e26290"},"vehicle_type_id":"4","last_reported":1729537611,"current_range_meters":32800,"station_id":"ce4bhi12rcd13ifvqfp0","pricing_plan_id":"cebpf4jnsgd1na2vs0mg"},{"bike_id":"2aae9bee-3033-4568-a4e8-0adf7d1a3b75","system_id":"levelo_inurba_marseille","lat":43.31327,"lon":5.39697,"is_reserved":false,"is_disabled":false,"rental_uris":{"android":"levelo://app?vid=2aae9bee-3033-4568-a4e8-0adf7d1a3b75","ios":"levelo://app?vid=2aae9bee-3033-4568-a4e8-0adf7d1a3b75"},"vehicle_type_id":"4","last_reported":1729537611,"current_range_meters":38800,"station_id":"ce4bgvp2rcd13ifvqcu0","pricing_plan_id":"cebpf4jnsgd1na2vs0mg"},{"bike_id":"e9047bd8-45fc-4e91-b32c-0808546f0b99","system_id":"levelo_inurba_marseille","lat":43.31262,"lon":5.40166,"is_reserved":false,"is_disabled":false,"rental_uris":{"android":"levelo://app?vid=e9047bd8-45fc-4e91-b32c-0808546f0b99","ios":"levelo://app?vid=e9047bd8-45fc-4e91-b32c-0808546f0b99"},"vehicle_type_id":"4","last_reported":1729537611,"current_range_meters":38000,"station_id":"ce4bh092rcd13ifvqd30","pricing_plan_id":"cebpf4jnsgd1na2vs0mg"},{"bike_id":"e2faad71-1b09-4a9e-8542-1d801af33164","system_id":"levelo_inurba_marseille","lat":43.31714,"lon":5.4371,"is_reserved":false,"is_disabled":false,"rental_uris":{"android":"levelo://app?vid=e2faad71-1b09-4a9e-8542-1d801af33164","ios":"levelo://app?vid=e2faad71-1b09-4a9e-8542-1d801af33164"},"vehicle_type_id":"4","last_reported":1729537611,"current_range_meters":32400,"station_id":"ce4bhp92rcd13ifvqhcg","pricing_plan_id":"cebpf4jnsgd1na2vs0mg"},{"bike_id":"a59b2b04-6835-4d6b-9d91-3f8c9097ba32","system_id":"levelo_inurba_marseille","lat":43.28939,"lon":5.39636,"is_reserved":false,"is_disabled":false,"rental_uris":{"android":"levelo://app?vid=a59b2b04-6835-4d6b-9d91-3f8c9097ba32","ios":"levelo://app?vid=a59b2b04-6835-4d6b-9d91-3f8c9097ba32"},"vehicle_type_id":"4","last_reported":1729537611,"current_range_meters":30000,"station_id":"ce4bh3h2rcd13ifvqdn0","pricing_plan_id":"cebpf4jnsgd1na2vs0mg"},{"bike_id":"5d12c1f8-cfaf-4249-8678-ccb06f02bdd9","system_id":"levelo_inurba_marseille","lat":43.28029,"lon":5.3695,"is_reserved":false,"is_disabled":false,"rental_uris":{"android":"levelo://app?vid=5d12c1f8-cfaf-4249-8678-ccb06f02bdd9","ios":"levelo://app?vid=5d12c1f8-cfaf-4249-8678-ccb06f02bdd9"},"vehicle_type_id":"4","last_reported":1729537611,"current_range_meters":33200,"station_id":"ce4bha12rcd13ifvqef0","pricing_plan_id":"cebpf4jnsgd1na2vs0mg"},{"bike_id":"1ca7e4c1-f47b-4cb4-94d3-9aef3813497b","system_id":"levelo_inurba_marseille","lat":43.26946,"lon":5.40245,"is_reserved":false,"is_disabled":false,"rental_uris":{"android":"levelo://app?vid=1ca7e4c1-f47b-4cb4-94d3-9aef3813497b","ios":"levelo://app?vid=1ca7e4c1-f47b-4cb4-94d3-9aef3813497b"},"vehicle_type_id":"4","last_reported":1729537611,"current_range_meters":27600,"station_id":"cjm6bp8fraef2m0cb0m0","pricing_plan_id":"cebpf4jnsgd1na2vs0mg"},{"bike_id":"685ef20a-82f5-4119-8c1c-c9f4b4d5b0cc","system_id":"levelo_inurba_marseille","lat":43.29871,"lon":5.38905,"is_reserved":false,"is_disabled":false,"rental_uris":{"android":"levelo://app?vid=685ef20a-82f5-4119-8c1c-c9f4b4d5b0cc","ios":"levelo://app?vid=685ef20a-82f5-4119-8c1c-c9f4b4d5b0cc"},"vehicle_type_id":"4","last_reported":1729537611,"current_range_meters":8800,"station_id":"ce4bh392rcd13ifvqdl0","pricing_plan_id":"cebpf4jnsgd1na2vs0mg"},{"bike_id":"174e2676-3906-403a-9558-ab1a8242f071","system_id":"levelo_inurba_marseille","lat":43.30929,"lon":5.40143,"is_reserved":false,"is_disabled":false,"rental_uris":{"android":"levelo://app?vid=174e2676-3906-403a-9558-ab1a8242f071","ios":"levelo://app?vid=174e2676-3906-403a-9558-ab1a8242f071"},"vehicle_type_id":"4","last_reported":1729537611,"current_range_meters":30400,"station_id":"ce4bgvp2rcd13ifvqct0","pricing_plan_id":"cebpf4jnsgd1na2vs0mg"},{"bike_id":"0ce095b6-6795-4d98-a284-db614f54d20f","system_id":"levelo_inurba_marseille","lat":43.27175,"lon":5.40996,"is_reserved":false,"is_disabled":false,"rental_uris":{"android":"levelo://app?vid=0ce095b6-6795-4d98-a284-db614f54d20f","ios":"levelo://app?vid=0ce095b6-6795-4d98-a284-db614f54d20f"},"vehicle_type_id":"4","last_reported":1729537611,"current_range_meters":10800,"station_id":"ce4bhl12rcd13ifvqgf0","pricing_plan_id":"cebpf4jnsgd1na2vs0mg"},{"bike_id":"47475981-d3e4-4136-b942-c083a1c60bf9","system_id":"levelo_inurba_marseille","lat":43.32287,"lon":5.38265,"is_reserved":false,"is_disabled":false,"rental_uris":{"android":"levelo://app?vid=47475981-d3e4-4136-b942-c083a1c60bf9","ios":"levelo://app?vid=47475981-d3e4-4136-b942-c083a1c60bf9"},"vehicle_type_id":"4","last_reported":1729537611,"current_range_meters":8000,"station_id":"ce4bhr12rcd13ifvqhqg","pricing_plan_id":"cebpf4jnsgd1na2vs0mg"},{"bike_id":"eb35e1d5-098d-4116-9199-14678de3b0c9","system_id":"levelo_inurba_marseille","lat":43.29711,"lon":5.3661,"is_reserved":false,"is_disabled":false,"rental_uris":{"android":"levelo://app?vid=eb35e1d5-098d-4116-9199-14678de3b0c9","ios":"levelo://app?vid=eb35e1d5-098d-4116-9199-14678de3b0c9"},"vehicle_type_id":"4","last_reported":1729537611,"current_range_meters":36800,"station_id":"ce4bgn12rcd13ifvqbt0","pricing_plan_id":"cebpf4jnsgd1na2vs0mg"},{"bike_id":"a4780fe5-67b8-4b53-960c-86c617f9e7a3","system_id":"levelo_inurba_marseille","lat":43.31326,"lon":5.39697,"is_reserved":false,"is_disabled":false,"rental_uris":{"android":"levelo://app?vid=a4780fe5-67b8-4b53-960c-86c617f9e7a3","ios":"levelo://app?vid=a4780fe5-67b8-4b53-960c-86c617f9e7a3"},"vehicle_type_id":"4","last_reported":1729537611,"current_range_meters":9200,"station_id":"ce4bgvp2rcd13ifvqcu0","pricing_plan_id":"cebpf4jnsgd1na2vs0mg"},{"bike_id":"3f427812-51d8-4fe2-aab2-203a09c8ac1b","system_id":"levelo_inurba_marseille","lat":43.27587,"lon":5.38425,"is_reserved":false,"is_disabled":false,"rental_uris":{"android":"levelo://app?vid=3f427812-51d8-4fe2-aab2-203a09c8ac1b","ios":"levelo://app?vid=3f427812-51d8-4fe2-aab2-203a09c8ac1b"},"vehicle_type_id":"4","last_reported":1729537611,"current_range_meters":8800,"station_id":"ce4bhh92rcd13ifvqfi0","pricing_plan_id":"cebpf4jnsgd1na2vs0mg"},{"bike_id":"175e164b-15ad-463a-a713-ebe424a5846e","system_id":"levelo_inurba_marseille","lat":43.29261,"lon":5.4091,"is_reserved":false,"is_disabled":false,"rental_uris":{"android":"levelo://app?vid=175e164b-15ad-463a-a713-ebe424a5846e","ios":"levelo://app?vid=175e164b-15ad-463a-a713-ebe424a5846e"},"vehicle_type_id":"4","last_reported":1729537611,"current_range_meters":36800,"station_id":"ce4bh192rcd13ifvqdc0","pricing_plan_id":"cebpf4jnsgd1na2vs0mg"},{"bike_id":"da13b784-14ee-40c7-ab43-87dd47620638","system_id":"levelo_inurba_marseille","lat":43.28614,"lon":5.35111,"is_reserved":false,"is_disabled":false,"rental_uris":{"android":"levelo://app?vid=da13b784-14ee-40c7-ab43-87dd47620638","ios":"levelo://app?vid=da13b784-14ee-40c7-ab43-87dd47620638"},"vehicle_type_id":"4","last_reported":1729537611,"current_range_meters":38800,"station_id":"ce4bhch2rcd13ifvqeug","pricing_plan_id":"cebpf4jnsgd1na2vs0mg"},{"bike_id":"edbbb741-b513-42ed-b9b4-d480e4e2f0c4","system_id":"levelo_inurba_marseille","lat":43.29861,"lon":5.39736,"is_reserved":false,"is_disabled":false,"rental_uris":{"android":"levelo://app?vid=edbbb741-b513-42ed-b9b4-d480e4e2f0c4","ios":"levelo://app?vid=edbbb741-b513-42ed-b9b4-d480e4e2f0c4"},"vehicle_type_id":"4","last_reported":1729537611,"current_range_meters":25600,"station_id":"ce4bh0h2rcd13ifvqd50","pricing_plan_id":"cebpf4jnsgd1na2vs0mg"},{"bike_id":"691f147c-6e9a-4a4e-971c-ad933122022e","system_id":"levelo_inurba_marseille","lat":43.32367,"lon":5.38887,"is_reserved":false,"is_disabled":false,"rental_uris":{"android":"levelo://app?vid=691f147c-6e9a-4a4e-971c-ad933122022e","ios":"levelo://app?vid=691f147c-6e9a-4a4e-971c-ad933122022e"},"vehicle_type_id":"4","last_reported":1729537611,"current_range_meters":17200,"station_id":"ce4bhqp2rcd13ifvqhog","pricing_plan_id":"cebpf4jnsgd1na2vs0mg"},{"bike_id":"f664508d-c703-410b-8571-546ad2f855e9","system_id":"levelo_inurba_marseille","lat":43.22936,"lon":5.35378,"is_reserved":false,"is_disabled":false,"rental_uris":{"android":"levelo://app?vid=f664508d-c703-410b-8571-546ad2f855e9","ios":"levelo://app?vid=f664508d-c703-410b-8571-546ad2f855e9"},"vehicle_type_id":"4","last_reported":1729537611,"current_range_meters":38000,"station_id":"cpo3532slgdg3j2ikp40","pricing_plan_id":"cebpf4jnsgd1na2vs0mg"},{"bike_id":"aab610c8-19fd-4b21-a04f-74f62ee6b07c","system_id":"levelo_inurba_marseille","lat":43.28853,"lon":5.35859,"is_reserved":false,"is_disabled":false,"rental_uris":{"android":"levelo://app?vid=aab610c8-19fd-4b21-a04f-74f62ee6b07c","ios":"levelo://app?vid=aab610c8-19fd-4b21-a04f-74f62ee6b07c"},"vehicle_type_id":"4","last_reported":1729537611,"current_range_meters":39200,"station_id":"ce4bhb12rcd13ifvqem0","pricing_plan_id":"cebpf4jnsgd1na2vs0mg"},{"bike_id":"4a1c3b4e-699c-425d-afc3-3aa87a2bd784","system_id":"levelo_inurba_marseille","lat":43.29527,"lon":5.37513,"is_reserved":false,"is_disabled":false,"rental_uris":{"android":"levelo://app?vid=4a1c3b4e-699c-425d-afc3-3aa87a2bd784","ios":"levelo://app?vid=4a1c3b4e-699c-425d-afc3-3aa87a2bd784"},"vehicle_type_id":"4","last_reported":1729537611,"current_range_meters":29600,"station_id":"ce4bgkp2rcd13ifvqbmg","pricing_plan_id":"cebpf4jnsgd1na2vs0mg"},{"bike_id":"8dc36a9a-634d-4c62-ac49-9a4ab952e295","system_id":"levelo_inurba_marseille","lat":43.28053,"lon":5.40991,"is_reserved":false,"is_disabled":false,"rental_uris":{"android":"levelo://app?vid=8dc36a9a-634d-4c62-ac49-9a4ab952e295","ios":"levelo://app?vid=8dc36a9a-634d-4c62-ac49-9a4ab952e295"},"vehicle_type_id":"4","last_reported":1729537611,"current_range_meters":30400,"station_id":"","pricing_plan_id":"cebpf4jnsgd1na2vs0mg"},{"bike_id":"75ece317-fa13-4073-85db-552e0713fa57","system_id":"levelo_inurba_marseille","lat":43.25819,"lon":5.39438,"is_reserved":false,"is_disabled":false,"rental_uris":{"android":"levelo://app?vid=75ece317-fa13-4073-85db-552e0713fa57","ios":"levelo://app?vid=75ece317-fa13-4073-85db-552e0713fa57"},"vehicle_type_id":"4","last_reported":1729537611,"current_range_meters":38800,"station_id":"ce4bhip2rcd13ifvqft0","pricing_plan_id":"cebpf4jnsgd1na2vs0mg"},{"bike_id":"4b4fdac0-3b2c-4a78-b195-c2e42dd98038","system_id":"levelo_inurba_marseille","lat":43.3054,"lon":5.36718,"is_reserved":false,"is_disabled":false,"rental_uris":{"android":"levelo://app?vid=4b4fdac0-3b2c-4a78-b195-c2e42dd98038","ios":"levelo://app?vid=4b4fdac0-3b2c-4a78-b195-c2e42dd98038"},"vehicle_type_id":"4","last_reported":1729537611,"current_range_meters":19200,"station_id":"ce4bgrp2rcd13ifvqc9g","pricing_plan_id":"cebpf4jnsgd1na2vs0mg"},{"bike_id":"7428e51c-e7ac-4b2e-a596-401a564c3cfd","system_id":"levelo_inurba_marseille","lat":43.3021,"lon":5.3947,"is_reserved":false,"is_disabled":false,"rental_uris":{"android":"levelo://app?vid=7428e51c-e7ac-4b2e-a596-401a564c3cfd","ios":"levelo://app?vid=7428e51c-e7ac-4b2e-a596-401a564c3cfd"},"vehicle_type_id":"4","last_reported":1729537611,"current_range_meters":33200,"station_id":"ce4bh0p2rcd13ifvqd70","pricing_plan_id":"cebpf4jnsgd1na2vs0mg"},{"bike_id":"51533d54-fcbb-4316-97b0-26cfc3f80d54","system_id":"levelo_inurba_marseille","lat":43.27496,"lon":5.42456,"is_reserved":false,"is_disabled":false,"rental_uris":{"android":"levelo://app?vid=51533d54-fcbb-4316-97b0-26cfc3f80d54","ios":"levelo://app?vid=51533d54-fcbb-4316-97b0-26cfc3f80d54"},"vehicle_type_id":"4","last_reported":1729537611,"current_range_meters":28000,"station_id":"ce4bhn92rcd13ifvqgrg","pricing_plan_id":"cebpf4jnsgd1na2vs0mg"},{"bike_id":"b259fd9e-20cd-4ec4-96c3-b8cae166aff0","system_id":"levelo_inurba_marseille","lat":43.26492,"lon":5.3954,"is_reserved":false,"is_disabled":false,"rental_uris":{"android":"levelo://app?vid=b259fd9e-20cd-4ec4-96c3-b8cae166aff0","ios":"levelo://app?vid=b259fd9e-20cd-4ec4-96c3-b8cae166aff0"},"vehicle_type_id":"4","last_reported":1729537611,"current_range_meters":6400,"station_id":"ce4bhi12rcd13ifvqfq0","pricing_plan_id":"cebpf4jnsgd1na2vs0mg"},{"bike_id":"723c448c-f4f6-4e10-9599-a891eb37bc4d","system_id":"levelo_inurba_marseille","lat":43.28467,"lon":5.39229,"is_reserved":false,"is_disabled":false,"rental_uris":{"android":"levelo://app?vid=723c448c-f4f6-4e10-9599-a891eb37bc4d","ios":"levelo://app?vid=723c448c-f4f6-4e10-9599-a891eb37bc4d"},"vehicle_type_id":"4","last_reported":1729537611,"current_range_meters":29600,"station_id":"ce4bhoh2rcd13ifvqh5g","pricing_plan_id":"cebpf4jnsgd1na2vs0mg"},{"bike_id":"7580e3e2-49da-48ae-9e75-6b1fbfc491ed","system_id":"levelo_inurba_marseille","lat":43.28612,"lon":5.35106,"is_reserved":false,"is_disabled":false,"rental_uris":{"android":"levelo://app?vid=7580e3e2-49da-48ae-9e75-6b1fbfc491ed","ios":"levelo://app?vid=7580e3e2-49da-48ae-9e75-6b1fbfc491ed"},"vehicle_type_id":"4","last_reported":1729537611,"current_range_meters":37600,"station_id":"ce4bhch2rcd13ifvqeug","pricing_plan_id":"cebpf4jnsgd1na2vs0mg"},{"bike_id":"37bb7e5a-1dd9-4774-9933-ed0f005c48a1","system_id":"levelo_inurba_marseille","lat":43.25109,"lon":5.40325,"is_reserved":false,"is_disabled":false,"rental_uris":{"android":"levelo://app?vid=37bb7e5a-1dd9-4774-9933-ed0f005c48a1","ios":"levelo://app?vid=37bb7e5a-1dd9-4774-9933-ed0f005c48a1"},"vehicle_type_id":"4","last_reported":1729537611,"current_range_meters":16400,"station_id":"ce4bhlh2rcd13ifvqgig","pricing_plan_id":"cebpf4jnsgd1na2vs0mg"},{"bike_id":"10aa8f6d-3adf-4422-8cd4-9c945439a501","system_id":"levelo_inurba_marseille","lat":43.2955,"lon":5.42282,"is_reserved":false,"is_disabled":false,"rental_uris":{"android":"levelo://app?vid=10aa8f6d-3adf-4422-8cd4-9c945439a501","ios":"levelo://app?vid=10aa8f6d-3adf-4422-8cd4-9c945439a501"},"vehicle_type_id":"4","last_reported":1729537611,"current_range_meters":36000,"station_id":"ce4bhph2rcd13ifvqhdg","pricing_plan_id":"cebpf4jnsgd1na2vs0mg"},{"bike_id":"82f1d964-81a2-4922-96fc-6d8a6c5f6c45","system_id":"levelo_inurba_marseille","lat":43.3064,"lon":5.40091,"is_reserved":false,"is_disabled":false,"rental_uris":{"android":"levelo://app?vid=82f1d964-81a2-4922-96fc-6d8a6c5f6c45","ios":"levelo://app?vid=82f1d964-81a2-4922-96fc-6d8a6c5f6c45"},"vehicle_type_id":"4","last_reported":1729537611,"current_range_meters":10000,"station_id":"ce4bh112rcd13ifvqda0","pricing_plan_id":"cebpf4jnsgd1na2vs0mg"},{"bike_id":"b5bb4d9c-2234-45e1-b0e1-a7c6fb90fc0a","system_id":"levelo_inurba_marseille","lat":43.22937,"lon":5.35381,"is_reserved":false,"is_disabled":false,"rental_uris":{"android":"levelo://app?vid=b5bb4d9c-2234-45e1-b0e1-a7c6fb90fc0a","ios":"levelo://app?vid=b5bb4d9c-2234-45e1-b0e1-a7c6fb90fc0a"},"vehicle_type_id":"4","last_reported":1729537611,"current_range_meters":36000,"station_id":"cpo3532slgdg3j2ikp40","pricing_plan_id":"cebpf4jnsgd1na2vs0mg"},