{"last_updated":1678608517,"ttl":30,"version":"2.2","data":{"bikes":[{"bike_id":"395ca2fd-1793-4170-aea8-3d7d953d665d","system_id":"levelo_inurba_marseille","lat":43.312239,"lon":5.368562,"is_reserved":false,"is_disabled":false,"rental_uris":{"android":"levelo://app?vid=395ca2fd-1793-4170-aea8-3d7d953d665d","ios":"levelo://app?vid=395ca2fd-1793-4170-aea8-3d7d953d665d"},"vehicle_type_id":"4","last_reported":1678608517,"current_range_meters":26800,"station_id":"ce4bgl92rcd13ifvqbq0","pricing_plan_id":"free"},{"bike_id":"6bd2aea1-5a84-404a-bc98-6dcd58ae4375","system_id":"levelo_inurba_marseille","lat":43.312239,"lon":5.368562,"is_reserved":false,"is_disabled":false,"rental_uris":{"android":"levelo://app?vid=6bd2aea1-5a84-404a-bc98-6dcd58ae4375","ios":"levelo://app?vid=6bd2aea1-5a84-404a-bc98-6dcd58ae4375"},"vehicle_type_id":"4","last_reported":1678608517,"current_range_meters":28000,"station_id":"ce4bgl92rcd13ifvqbq0","pricing_plan_id":"free"},{"bike_id":"eaaeb284-2215-4fd3-8a84-9c522f55450b","system_id":"levelo_inurba_marseille","lat":43.30902,"lon":5.36849,"is_reserved":false,"is_disabled":false,"rental_uris":{"android":"levelo://app?vid=eaaeb284-2215-4fd3-8a84-9c522f55450b","ios":"levelo://app?vid=eaaeb284-2215-4fd3-8a84-9c522f55450b"},"vehicle_type_id":"4","last_reported":1678608517,"current_range_meters":5200,"station_id":"","pricing_plan_id":"free"},{"bike_id":"6332c8c2-1270-42ee-93ee-80d81f7d75dd","system_id":"levelo_inurba_marseille","lat":43.314811,"lon":5.373103,"is_reserved":false,"is_disabled":false,"rental_uris":{"android":"levelo://app?vid=6332c8c2-1270-42ee-93ee-80d81f7d75dd","ios":"levelo://app?vid=6332c8c2-1270-42ee-93ee-80d81f7d75dd"},"vehicle_type_id":"4","last_reported":1678608517,"current_range_meters":17600,"station_id":"ce4bgt12rcd13ifvqcd0","pricing_plan_id":"free"},{"bike_id":"dd94706f-e65a-4ce4-b7b5-8c0f80f9b479","system_id":"levelo_inurba_marseille","lat":43.314811,"lon":5.373103,"is_reserved":false,"is_disabled":false,"rental_uris":{"android":"levelo://app?vid=dd94706f-e65a-4ce4-b7b5-8c0f80f9b479","ios":"levelo://app?vid=dd94706f-e65a-4ce4-b7b5-8c0f80f9b479"},"vehicle_type_id":"4","last_reported":1678608517,"current_range_meters":0,"station_id":"ce4bgt12rcd13ifvqcd0","pricing_plan_id":"free"},{"bike_id":"86fba91e-5c02-43be-b20d-5f461908955c","system_id":"levelo_inurba_marseille","lat":43.314811,"lon":5.373103,"is_reserved":false,"is_disabled":false,"rental_uris":{"android":"levelo://app?vid=86fba91e-5c02-43be-b20d-5f461908955c","ios":"levelo://app?vid=86fba91e-5c02-43be-b20d-5f461908955c"},"vehicle_type_id":"4","last_reported":1678608517,"current_range_meters":7200,"station_id":"ce4bgt12rcd13ifvqcd0","pricing_plan_id":"free"},{"bike_id":"5802731a-e56c-49d5-8c85-212a310de983","system_id":"levelo_inurba_marseille","lat":43.314811,"lon":5.373103,"is_reserved":false,"is_disabled":false,"rental_uris":{"android":"levelo://app?vid=5802731a-e56c-49d5-8c85-212a310de983","ios":"levelo://app?vid=5802731a-e56c-49d5-8c85-212a310de983"},"vehicle_type_id":"4","last_reported":1678608517,"current_range_meters":16000,"station_id":"ce4bgt12rcd13ifvqcd0","pricing_plan_id":"free"},{"bike_id":"1765df5a-2e24-41a7-a523-81c4912e8ea2","system_id":"levelo_inurba_marseille","lat":43.31501,"lon":5.372985,"is_reserved":false,"is_disabled":false,"rental_uris":{"android":"levelo://app?vid=1765df5a-2e24-41a7-a523-81c4912e8ea2","ios":"levelo://app?vid=1765df5a-2e24-41a7-a523-81c4912e8ea2"},"vehicle_type_id":"4","last_reported":1678608517,"current_range_meters":25600,"station_id":"","pricing_plan_id":"free"},{"bike_id":"553f79ad-5122-4ab7-83ba-4670fb8b2bf0","system_id":"levelo_inurba_marseille","lat":43.314811,"lon":5.373103,"is_reserved":false,"is_disabled":false,"rental_uris":{"android":"levelo://app?vid=553f79ad-5122-4ab7-83ba-4670fb8b2bf0","ios":"levelo://app?vid=553f79ad-5122-4ab7-83ba-4670fb8b2bf0"},"vehicle_type_id":"4","last_reported":1678608517,"current_range_meters":16800,"station_id":"ce4bgt12rcd13ifvqcd0","pricing_plan_id":"free"},{"bike_id":"d16822fd-6890-4298-99ec-652450906e12","system_id":"levelo_inurba_marseille","lat":43.314811,"lon":5.373103,"is_reserved":false,"is_disabled":false,"rental_uris":{"android":"levelo://app?vid=d16822fd-6890-4298-99ec-652450906e12","ios":"levelo://app?vid=d16822fd-6890-4298-99ec-652450906e12"},"vehicle_type_id":"4","last_reported":1678608517,"current_range_meters":11600,"station_id":"ce4bgt12rcd13ifvqcd0","pricing_plan_id":"free"},{"bike_id":"ccf42d3a-5a2a-44b4-8a68-aa47682ebb3c","system_id":"levelo_inurba_marseille","lat":43.317885,"lon":5.368173,"is_reserved":false,"is_disabled":false,"rental_uris":{"android":"levelo://app?vid=ccf42d3a-5a2a-44b4-8a68-aa47682ebb3c","ios":"levelo://app?vid=ccf42d3a-5a2a-44b4-8a68-aa47682ebb3c"},"vehicle_type_id":"4","last_reported":1678608517,"current_range_meters":10400,"station_id":"","pricing_plan_id":"free"},{"bike_id":"6bfa42e6-f6bd-43de-8d3e-45358b58fa89","system_id":"levelo_inurba_marseille","lat":43.30889,"lon":5.37193,"is_reserved":false,"is_disabled":false,"rental_uris":{"android":"levelo://app?vid=6bfa42e6-f6bd-43de-8d3e-45358b58fa89","ios":"levelo://app?vid=6bfa42e6-f6bd-43de-8d3e-45358b58fa89"},"vehicle_type_id":"4","last_reported":1678608517,"current_range_meters":2400,"station_id":"","pricing_plan_id":"free"},{"bike_id":"7f8f7009-7627-4680-a13e-bfac9dd30a3a","system_id":"levelo_inurba_marseille","lat":43.30881,"lon":5.371985,"is_reserved":false,"is_disabled":false,"rental_uris":{"android":"levelo://app?vid=7f8f7009-7627-4680-a13e-bfac9dd30a3a","ios":"levelo://app?vid=7f8f7009-7627-4680-a13e-bfac9dd30a3a"},"vehicle_type_id":"4","last_reported":1678608517,"current_range_meters":30800,"station_id":"ce4bguh2rcd13ifvqckg","pricing_plan_id":"free"},{"bike_id":"123f9f4e-bfd3-4255-aca3-320c84708e89","system_id":"levelo_inurba_marseille","lat":43.305989,"lon":5.37225,"is_reserved":false,"is_disabled":false,"rental_uris":{"android":"levelo://app?vid=123f9f4e-bfd3-4255-aca3-320c84708e89","ios":"levelo://app?vid=123f9f4e-bfd3-4255-aca3-320c84708e89"},"vehicle_type_id":"4","last_reported":1678608517,"current_range_meters":31600,"station_id":"ce4bgqh2rcd13ifvqc4g","pricing_plan_id":"free"},{"bike_id":"508072fe-5b04-436b-8c2b-04f8a94d9392","system_id":"levelo_inurba_marseille","lat":43.305989,"lon":5.37225,"is_reserved":false,"is_disabled":false,"rental_uris":{"android":"levelo://app?vid=508072fe-5b04-436b-8c2b-04f8a94d9392","ios":"levelo://app?vid=508072fe-5b04-436b-8c2b-04f8a94d9392"},"vehicle_type_id":"4","last_reported":1678608517,"current_range_meters":30400,"station_id":"ce4bgqh2rcd13ifvqc4g","pricing_plan_id":"free"},{"bike_id":"adf0789c-6f65-44e8-a97d-62d252e12558","system_id":"levelo_inurba_marseille","lat":43.305989,"lon":5.37225,"is_reserved":false,"is_disabled":false,"rental_uris":{"android":"levelo://app?vid=adf0789c-6f65-44e8-a97d-62d252e12558","ios":"levelo://app?vid=adf0789c-6f65-44e8-a97d-62d252e12558"},"vehicle_type_id":"4","last_reported":1678608517,"current_range_meters":800,"station_id":"ce4bgqh2rcd13ifvqc4g","pricing_plan_id":"free"},{"bike_id":"cda4997b-e2a3-4e76-ac4d-71e84b36c7eb","system_id":"levelo_inurba_marseille","lat":43.305989,"lon":5.37225,"is_reserved":false,"is_disabled":false,"rental_uris":{"android":"levelo://app?vid=cda4997b-e2a3-4e76-ac4d-71e84b36c7eb","ios":"levelo://app?vid=cda4997b-e2a3-4e76-ac4d-71e84b36c7eb"},"vehicle_type_id":"4","last_reported":1678608517,"current_range_meters":31600,"station_id":"ce4bgqh2rcd13ifvqc4g","pricing_plan_id":"free"},{"bike_id":"1f607d07-d381-4b3b-b8d4-1924fcf5640b","system_id":"levelo_inurba_marseille","lat":43.305989,"lon":5.37225,"is_reserved":false,"is_disabled":false,"rental_uris":{"android":"levelo://app?vid=1f607d07-d381-4b3b-b8d4-1924fcf5640b","ios":"levelo://app?vid=1f607d07-d381-4b3b-b8d4-1924fcf5640b"},"vehicle_type_id":"4","last_reported":1678608517,"current_range_meters":22800,"station_id":"ce4bgqh2rcd13ifvqc4g","pricing_plan_id":"free"},{"bike_id":"9d8b96d7-235c-46b6-a73c-cb841065a454","system_id":"levelo_inurba_marseille","lat":43.317075,"lon":5.377367,"is_reserved":false,"is_disabled":false,"rental_uris":{"android":"levelo://app?vid=9d8b96d7-235c-46b6-a73c-cb841065a454","ios":"levelo://app?vid=9d8b96d7-235c-46b6-a73c-cb841065a454"},"vehicle_type_id":"4","last_reported":1678608517,"current_range_meters":21600,"station_id":"ce4bgth2rcd13ifvqch0","pricing_plan_id":"free"},{"bike_id":"4675e939-40c1-4409-99c3-4593d3aafda5","system_id":"levelo_inurba_marseille","lat":43.317075,"lon":5.377367,"is_reserved":false,"is_disabled":false,"rental_uris":{"android":"levelo://app?vid=4675e939-40c1-4409-99c3-4593d3aafda5","ios":"levelo://app?vid=4675e939-40c1-4409-99c3-4593d3aafda5"},"vehicle_type_id":"4","last_reported":1678608517,"current_range_meters":30400,"station_id":"ce4bgth2rcd13ifvqch0","pricing_plan_id":"free"},{"bike_id":"9c02771f-e498-443a-8c0a-e64df6cd0a64","system_id":"levelo_inurba_marseille","lat":43.317075,"lon":5.377367,"is_reserved":false,"is_disabled":false,"rental_uris":{"android":"levelo://app?vid=9c02771f-e498-443a-8c0a-e64df6cd0a64","ios":"levelo://app?vid=9c02771f-e498-443a-8c0a-e64df6cd0a64"},"vehicle_type_id":"4","last_reported":1678608517,"current_range_meters":29600,"station_id":"ce4bgth2rcd13ifvqch0","pricing_plan_id":"free"},{"bike_id":"d90fac98-62fd-41cc-947b-3496fb0495c1","system_id":"levelo_inurba_marseille","lat":43.30342,"lon":5.37255,"is_reserved":false,"is_disabled":false,"rental_uris":{"android":"levelo://app?vid=d90fac98-62fd-41cc-947b-3496fb0495c1","ios":"levelo://app?vid=d90fac98-62fd-41cc-947b-3496fb0495c1"},"vehicle_type_id":"4","last_reported":1678608517,"current_range_meters":0,"station_id":"","pricing_plan_id":"free"},{"bike_id":"46ce17b8-1a0a-4b1f-a413-35769b78f5fa","system_id":"levelo_inurba_marseille","lat":43.30187,"lon":5.36619,"is_reserved":false,"is_disabled":false,"rental_uris":{"android":"levelo://app?vid=46ce17b8-1a0a-4b1f-a413-35769b78f5fa","ios":"levelo://app?vid=46ce17b8-1a0a-4b1f-a413-35769b78f5fa"},"vehicle_type_id":"4","last_reported":1678608517,"current_range_meters":0,"station_id":"ce4bgrh2rcd13ifvqc8g","pricing_plan_id":"free"},{"bike_id":"611269ff-c0f8-4459-aca0-41019d3b689b","system_id":"levelo_inurba_marseille","lat":43.301939,"lon":5.366286,"is_reserved":false,"is_disabled":false,"rental_uris":{"android":"levelo://app?vid=611269ff-c0f8-4459-aca0-41019d3b689b","ios":"levelo://app?vid=611269ff-c0f8-4459-aca0-41019d3b689b"},"vehicle_type_id":"4","last_reported":1678608517,"current_range_meters":28800,"station_id":"ce4bgrh2rcd13ifvqc8g","pricing_plan_id":"free"},{"bike_id":"3e8aa5f5-7c91-438b-9c05-a740642084e8","system_id":"levelo_inurba_marseille","lat":43.301939,"lon":5.366286,"is_reserved":false,"is_disabled":false,"rental_uris":{"android":"levelo://app?vid=3e8aa5f5-7c91-438b-9c05-a740642084e8","ios":"levelo://app?vid=3e8aa5f5-7c91-438b-9c05-a740642084e8"},"vehicle_type_id":"4","last_reported":1678608517,"current_range_meters":0,"station_id":"ce4bgrh2rcd13ifvqc8g","pricing_plan_id":"free"},{"bike_id":"0d3ed417-1926-4ca9-9605-bc6c7ddee2a3","system_id":"levelo_inurba_marseille","lat":43.308012,"lon":5.381511,"is_reserved":false,"is_disabled":false,"rental_uris":{"android":"levelo://app?vid=0d3ed417-1926-4ca9-9605-bc6c7ddee2a3","ios":"levelo://app?vid=0d3ed417-1926-4ca9-9605-bc6c7ddee2a3"},"vehicle_type_id":"4","last_reported":1678608517,"current_range_meters":0,"station_id":"ce4bgt12rcd13ifvqce0","pricing_plan_id":"free"},{"bike_id":"bd6de697-349c-4d6c-89eb-a0794eca0609","system_id":"levelo_inurba_marseille","lat":43.308012,"lon":5.381511,"is_reserved":false,"is_disabled":false,"rental_uris":{"android":"levelo://app?vid=bd6de697-349c-4d6c-89eb-a0794eca0609","ios":"levelo://app?vid=bd6de697-349c-4d6c-89eb-a0794eca0609"},"vehicle_type_id":"4","last_reported":1678608517,"current_range_meters":28800,"station_id":"ce4bgt12rcd13ifvqce0","pricing_plan_id":"free"},{"bike_id":"d99a30a6-3740-49ff-ba74-ae6aad26b045","system_id":"levelo_inurba_marseille","lat":43.30459,"lon":5.37901,"is_reserved":false,"is_disabled":false,"rental_uris":{"android":"levelo://app?vid=d99a30a6-3740-49ff-ba74-ae6aad26b045","ios":"levelo://app?vid=d99a30a6-3740-49ff-ba74-ae6aad26b045"},"vehicle_type_id":"4","last_reported":1678608517,"current_range_meters":3600,"station_id":"","pricing_plan_id":"free"},{"bike_id":"48a91de8-51fe-4885-b8e6-d6fb5f6edc75","system_id":"levelo_inurba_marseille","lat":43.301429,"lon":5.37413,"is_reserved":false,"is_disabled":false,"rental_uris":{"android":"levelo://app?vid=48a91de8-51fe-4885-b8e6-d6fb5f6edc75","ios":"levelo://app?vid=48a91de8-51fe-4885-b8e6-d6fb5f6edc75"},"vehicle_type_id":"4","last_reported":1678608517,"current_range_meters":15600,"station_id":"ce4bgs92rcd13ifvqcc0","pricing_plan_id":"free"},{"bike_id":"980e1d87-9bff-4775-bf45-20a9a82f071c","system_id":"levelo_inurba_marseille","lat":43.30136,"lon":5.37412,"is_reserved":false,"is_disabled":false,"rental_uris":{"android":"levelo://app?vid=980e1d87-9bff-4775-bf45-20a9a82f071c","ios":"levelo://app?vid=980e1d87-9bff-4775-bf45-20a9a82f071c"},"vehicle_type_id":"4","last_reported":1678608517,"current_range_meters":800,"station_id":"ce4bgs92rcd13ifvqcc0","pricing_plan_id":"free"},{"bike_id":"36b15ef8-54cd-404d-80ac-cb55fa871249","system_id":"levelo_inurba_marseille","lat":43.301346,"lon":5.374135,"is_reserved":false,"is_disabled":false,"rental_uris":{"android":"levelo://app?vid=36b15ef8-54cd-404d-80ac-cb55fa871249","ios":"levelo://app?vid=36b15ef8-54cd-404d-80ac-cb55fa871249"},"vehicle_type_id":"4","last_reported":1678608517,"current_range_meters":0,"station_id":"","pricing_plan_id":"free"},{"bike_id":"22b92c5e-eaaf-47cc-82d8-2c8f398a7c3d","system_id":"levelo_inurba_marseille","lat":43.313571,"lon":5.384829,"is_reserved":false,"is_disabled":false,"rental_uris":{"android":"levelo://app?vid=22b92c5e-eaaf-47cc-82d8-2c8f398a7c3d","ios":"levelo://app?vid=22b92c5e-eaaf-47cc-82d8-2c8f398a7c3d"},"vehicle_type_id":"4","last_reported":1678608517,"current_range_meters":17600,"station_id":"ce4bgt92rcd13ifvqcf0","pricing_plan_id":"free"},{"bike_id":"c3ba4246-2245-4bb8-b6a1-c8d66081702b","system_id":"levelo_inurba_marseille","lat":43.29851,"lon":5.36287,"is_reserved":false,"is_disabled":false,"rental_uris":{"android":"levelo://app?vid=c3ba4246-2245-4bb8-b6a1-c8d66081702b","ios":"levelo://app?vid=c3ba4246-2245-4bb8-b6a1-c8d66081702b"},"vehicle_type_id":"4","last_reported":1678608517,"current_range_meters":0,"station_id":"ce4bgpp2rcd13ifvqc3g","pricing_plan_id":"free"},{"bike_id":"c3045ade-66bc-4e29-a424-8d042e823069","system_id":"levelo_inurba_marseille","lat":43.305385,"lon":5.384305,"is_reserved":false,"is_disabled":false,"rental_uris":{"android":"levelo://app?vid=c3045ade-66bc-4e29-a424-8d042e823069","ios":"levelo://app?vid=c3045ade-66bc-4e29-a424-8d042e823069"},"vehicle_type_id":"4","last_reported":1678608517,"current_range_meters":0,"station_id":"","pricing_plan_id":"free"},{"bike_id":"b37c2b1d-b0e2-44a2-824a-c31dfd9e4b67","system_id":"levelo_inurba_marseille","lat":43.311692,"lon":5.38716,"is_reserved":false,"is_disabled":false,"rental_uris":{"android":"levelo://app?vid=b37c2b1d-b0e2-44a2-824a-c31dfd9e4b67","ios":"levelo://app?vid=b37c2b1d-b0e2-44a2-824a-c31dfd9e4b67"},"vehicle_type_id":"4","last_reported":1678608517,"current_range_meters":4000,"station_id":"","pricing_plan_id":"free"},{"bike_id":"22ebd2a6-f80f-4c38-ada3-263028153afb","system_id":"levelo_inurba_marseille","lat":43.328371,"lon":5.366912,"is_reserved":false,"is_disabled":false,"rental_uris":{"android":"levelo://app?vid=22ebd2a6-f80f-4c38-ada3-263028153afb","ios":"levelo://app?vid=22ebd2a6-f80f-4c38-ada3-263028153afb"},"vehicle_type_id":"4","last_reported":1678608517,"current_range_meters":26400,"station_id":"ce4bhs92rcd13ifvqi0g","pricing_plan_id":"free"},{"bike_id":"8503f1d8-7583-4c7f-991e-fb1bd4254b21","system_id":"levelo_inurba_marseille","lat":43.328278,"lon":5.366887,"is_reserved":false,"is_disabled":false,"rental_uris":{"android":"levelo://app?vid=8503f1d8-7583-4c7f-991e-fb1bd4254b21","ios":"levelo://app?vid=8503f1d8-7583-4c7f-991e-fb1bd4254b21"},"vehicle_type_id":"4","last_reported":1678608517,"current_range_meters":5600,"station_id":"ce4bhs92rcd13ifvqi0g","pricing_plan_id":"free"},{"bike_id":"4e493c3e-eeff-43b2-b22b-01896149b373","system_id":"levelo_inurba_marseille","lat":43.328371,"lon":5.366909,"is_reserved":false,"is_disabled":false,"rental_uris":{"android":"levelo://app?vid=4e493c3e-eeff-43b2-b22b-01896149b373","ios":"levelo://app?vid=4e493c3e-eeff-43b2-b22b-01896149b373"},"vehicle_type_id":"4","last_reported":1678608517,"current_range_meters":6800,"station_id":"ce4bhs92rcd13ifvqi0g","pricing_plan_id":"free"},{"bike_id":"70db027b-5957-4c3d-a2f9-a8a4d79b8eac","system_id":"levelo_inurba_marseille","lat":43.328371,"lon":5.366909,"is_reserved":false,"is_disabled":false,"rental_uris":{"android":"levelo://app?vid=70db027b-5957-4c3d-a2f9-a8a4d79b8eac","ios":"levelo://app?vid=70db027b-5957-4c3d-a2f9-a8a4d79b8eac"},"vehicle_type_id":"4","last_reported":1678608517,"current_range_meters":2000,"station_id":"ce4bhs92rcd13ifvqi0g","pricing_plan_id":"free"},{"bike_id":"2a9054cd-1dd7-49d0-b212-afc2828863cc","system_id":"levelo_inurba_marseille","lat":43.328371,"lon":5.366909,"is_reserved":false,"is_disabled":false,"rental_uris":{"android":"levelo://app?vid=2a9054cd-1dd7-49d0-b212-afc2828863cc","ios":"levelo://app?vid=2a9054cd-1dd7-49d0-b212-afc2828863cc"},"vehicle_type_id":"4","last_reported":1678608517,"current_range_meters":10000,"station_id":"ce4bhs92rcd13ifvqi0g","pricing_plan_id":"free"},{"bike_id":"baf3446a-bc5c-4e90-b451-cf91a8917c7a","system_id":"levelo_inurba_marseille","lat":43.29621,"lon":5.37164,"is_reserved":false,"is_disabled":false,"rental_uris":{"android":"levelo://app?vid=baf3446a-bc5c-4e90-b451-cf91a8917c7a","ios":"levelo://app?vid=baf3446a-bc5c-4e90-b451-cf91a8917c7a"},"vehicle_type_id":"4","last_reported":1678608517,"current_range_meters":23200,"station_id":"","pricing_plan_id":"free"},{"bike_id":"065f295c-09ed-4f7d-baf2-da3fd3dae561","system_id":"levelo_inurba_marseille","lat":43.29619,"lon":5.37165,"is_reserved":false,"is_disabled":false,"rental_uris":{"android":"levelo://app?vid=065f295c-09ed-4f7d-baf2-da3fd3dae561","ios":"levelo://app?vid=065f295c-09ed-4f7d-baf2-da3fd3dae561"},"vehicle_type_id":"4","last_reported":1678608517,"current_range_meters":7200,"station_id":"","pricing_plan_id":"free"},{"bike_id":"557d1983-e9e3-4b52-bb06-419346074ff0","system_id":"levelo_inurba_marseille","lat":43.29573,"lon":5.367355,"is_reserved":false,"is_disabled":false,"rental_uris":{"android":"levelo://app?vid=557d1983-e9e3-4b52-bb06-419346074ff0","ios":"levelo://app?vid=557d1983-e9e3-4b52-bb06-419346074ff0"},"vehicle_type_id":"4","last_reported":1678608517,"current_range_meters":29600,"station_id":"ce4bgph2rcd13ifvqc2g","pricing_plan_id":"free"},{"bike_id":"962c4782-3df5-4c77-98c5-c11c881326ea","system_id":"levelo_inurba_marseille","lat":43.297309,"lon":5.376761,"is_reserved":false,"is_disabled":false,"rental_uris":{"android":"levelo://app?vid=962c4782-3df5-4c77-98c5-c11c881326ea","ios":"levelo://app?vid=962c4782-3df5-4c77-98c5-c11c881326ea"},"vehicle_type_id":"4","last_reported":1678608517,"current_range_meters":0,"station_id":"","pricing_plan_id":"free"},{"bike_id":"62bcc670-5f82-4cb0-883a-5f3737b07cda","system_id":"levelo_inurba_marseille","lat":43.299028,"lon":5.381509,"is_reserved":false,"is_disabled":false,"rental_uris":{"android":"levelo://app?vid=62bcc670-5f82-4cb0-883a-5f3737b07cda","ios":"levelo://app?vid=62bcc670-5f82-4cb0-883a-5f3737b07cda"},"vehicle_type_id":"4","last_reported":1678608517,"current_range_meters":13600,"station_id":"ce4bgj12rcd13ifvqbc0","pricing_plan_id":"free"},{"bike_id":"2d147397-e5a0-45aa-b790-5d6dd30c0c24","system_id":"levelo_inurba_marseille","lat":43.30955,"lon":5.39037,"is_reserved":false,"is_disabled":false,"rental_uris":{"android":"levelo://app?vid=2d147397-e5a0-45aa-b790-5d6dd30c0c24","ios":"levelo://app?vid=2d147397-e5a0-45aa-b790-5d6dd30c0c24"},"vehicle_type_id":"4","last_reported":1678608517,"current_range_meters":27600,"station_id":"","pricing_plan_id":"free"},{"bike_id":"e1ad3640-4749-41f4-a97d-7d0d75faccc0","system_id":"levelo_inurba_marseille","lat":43.309589,"lon":5.390258,"is_reserved":false,"is_disabled":false,"rental_uris":{"android":"levelo://app?vid=e1ad3640-4749-41f4-a97d-7d0d75faccc0","ios":"levelo://app?vid=e1ad3640-4749-41f4-a97d-7d0d75faccc0"},"vehicle_type_id":"4","last_reported":1678608517,"current_range_meters":18000,"station_id":"ce4bgup2rcd13ifvqco0","pricing_plan_id":"free"},{"bike_id":"7662138b-5b95-4b22-a69f-2117d1eecd5d","system_id":"levelo_inurba_marseille","lat":43.309589,"lon":5.390258,"is_reserved":false,"is_disabled":false,"rental_uris":{"android":"levelo://app?vid=7662138b-5b95-4b22-a69f-2117d1eecd5d","ios":"levelo://app?vid=7662138b-5b95-4b22-a69f-2117d1eecd5d"},"vehicle_type_id":"4","last_reported":1678608517,"current_range_meters":16400,"station_id":"ce4bgup2rcd13ifvqco0","pricing_plan_id":"free"},{"bike_id":"e612a666-9b67-4a04-b9c9-ccecefbb580c","system_id":"levelo_inurba_marseille","lat":43.317557,"lon":5.390173,"is_reserved":false,"is_disabled":false,"rental_uris":{"android":"levelo://app?vid=e612a666-9b67-4a04-b9c9-ccecefbb580c","ios":"levelo://app?vid=e612a666-9b67-4a04-b9c9-ccecefbb580c"},"vehicle_type_id":"4","last_reported":1678608517,"current_range_meters":30400,"station_id":"ce4bhqp2rcd13ifvqhng","pricing_plan_id":"free"},{"bike_id":"d2ca529c-cd2d-4b98-968f-6c7185465ba9","system_id":"levelo_inurba_marseille","lat":43.317557,"lon":5.390173,"is_reserved":false,"is_disabled":false,"rental_uris":{"android":"levelo://app?vid=d2ca529c-cd2d-4b98-968f-6c7185465ba9","ios":"levelo://app?vid=d2ca529c-cd2d-4b98-968f-6c7185465ba9"},"vehicle_type_id":"4","last_reported":1678608517,"current_range_meters":30400,"station_id":"ce4bhqp2rcd13ifvqhng","pricing_plan_id":"free"},{"bike_id":"9479aebc-3836-4deb-aba2-7304d044c040","system_id":"levelo_inurba_marseille","lat":43.31756,"lon":5.39019,"is_reserved":false,"is_disabled":false,"rental_uris":{"android":"levelo://app?vid=9479aebc-3836-4deb-aba2-7304d044c040","ios":"levelo://app?vid=9479aebc-3836-4deb-aba2-7304d044c040"},"vehicle_type_id":"4","last_reported":1678608517,"current_range_meters":15600,"station_id":"","pricing_plan_id":"free"},{"bike_id":"0fbf2b6d-77d8-454f-8789-8881ddd2edd7","system_id":"levelo_inurba_marseille","lat":43.317557,"lon":5.390173,"is_reserved":false,"is_disabled":false,"rental_uris":{"android":"levelo://app?vid=0fbf2b6d-77d8-454f-8789-8881ddd2edd7","ios":"levelo://app?vid=0fbf2b6d-77d8-454f-8789-8881ddd2edd7"},"vehicle_type_id":"4","last_reported":1678608517,"current_range_meters":21600,"station_id":"ce4bhqp2rcd13ifvqhng","pricing_plan_id":"free"},{"bike_id":"74349330-5098-49a7-99d4-466e3accc442","system_id":"levelo_inurba_marseille","lat":43.304278,"lon":5.388868,"is_reserved":false,"is_disabled":false,"rental_uris":{"android":"levelo://app?vid=74349330-5098-49a7-99d4-466e3accc442","ios":"levelo://app?vid=74349330-5098-49a7-99d4-466e3accc442"},"vehicle_type_id":"4","last_reported":1678608517,"current_range_meters":0,"station_id":"ce4bgk12rcd13ifvqbi0","pricing_plan_id":"free"},{"bike_id":"1c8d48aa-b778-45e1-93ab-2f00d38594b4","system_id":"levelo_inurba_marseille","lat":43.29792,"lon":5.38097,"is_reserved":false,"is_disabled":false,"rental_uris":{"android":"levelo://app?vid=1c8d48aa-b778-45e1-93ab-2f00d38594b4","ios":"levelo://app?vid=1c8d48aa-b778-45e1-93ab-2f00d38594b4"},"vehicle_type_id":"4","last_reported":1678608517,"current_range_meters":26400,"station_id":"ce4bgip2rcd13ifvqbb0","pricing_plan_id":"free"},{"bike_id":"a08e810c-cf7e-431d-8ec4-8b88915cd6a6","system_id":"levelo_inurba_marseille","lat":43.304278,"lon":5.388868,"is_reserved":false,"is_disabled":false,"rental_uris":{"android":"levelo://app?vid=a08e810c-cf7e-431d-8ec4-8b88915cd6a6","ios":"levelo://app?vid=a08e810c-cf7e-431d-8ec4-8b88915cd6a6"},"vehicle_type_id":"4","last_reported":1678608517,"current_range_meters":18800,"station_id":"ce4bgk12rcd13ifvqbi0","pricing_plan_id":"free"},{"bike_id":"06503a27-ec29-46a6-beaf-170a54070bff","system_id":"levelo_inurba_marseille","lat":43.304278,"lon":5.388868,"is_reserved":false,"is_disabled":false,"rental_uris":{"android":"levelo://app?vid=06503a27-ec29-46a6-beaf-170a54070bff","ios":"levelo://app?vid=06503a27-ec29-46a6-beaf-170a54070bff"},"vehicle_type_id":"4","last_reported":1678608517,"current_range_meters":11600,"station_id":"ce4bgk12rcd13ifvqbi0","pricing_plan_id":"free"},{"bike_id":"19a99cb3-74f2-4179-a175-7009feb35aa4","system_id":"levelo_inurba_marseille","lat":43.304278,"lon":5.388868,"is_reserved":false,"is_disabled":false,"rental_uris":{"android":"levelo://app?vid=19a99cb3-74f2-4179-a175-7009feb35aa4","ios":"levelo://app?vid=19a99cb3-74f2-4179-a175-7009feb35aa4"},"vehicle_type_id":"4","last_reported":1678608517,"current_range_meters":13200,"station_id":"ce4bgk12rcd13ifvqbi0","pricing_plan_id":"free"},{"bike_id":"c1ea223b-0a49-4048-97d5-f8264b1ced12","system_id":"levelo_inurba_marseille","lat":43.304278,"lon":5.388868,"is_reserved":false,"is_disabled":false,"rental_uris":{"android":"levelo://app?vid=c1ea223b-0a49-4048-97d5-f8264b1ced12","ios":"levelo://app?vid=c1ea223b-0a49-4048-97d5-f8264b1ced12"},"vehicle_type_id":"4","last_reported":1678608517,"current_range_meters":13200,"station_id":"ce4bgk12rcd13ifvqbi0","pricing_plan_id":"free"},{"bike_id":"793acc61-3ef9-4ec3-976e-fca22f991010","system_id":"levelo_inurba_marseille","lat":43.304278,"lon":5.388868,"is_reserved":false,"is_disabled":false,"rental_uris":{"android":"levelo://app?vid=793acc61-3ef9-4ec3-976e-fca22f991010","ios":"levelo://app?vid=793acc61-3ef9-4ec3-976e-fca22f991010"},"vehicle_type_id":"4","last_reported":1678608517,"current_range_meters":19200,"station_id":"ce4bgk12rcd13ifvqbi0","pricing_plan_id":"free"},{"bike_id":"ce328218-4e66-4414-8e54-6ce8c96d5431","system_id":"levelo_inurba_marseille","lat":43.295748,"lon":5.37522,"is_reserved":false,"is_disabled":false,"rental_uris":{"android":"levelo://app?vid=ce328218-4e66-4414-8e54-6ce8c96d5431","ios":"levelo://app?vid=ce328218-4e66-4414-8e54-6ce8c96d5431"},"vehicle_type_id":"4","last_reported":1678608517,"current_range_meters":8400,"station_id":"ce4bgh92rcd13ifvqb50","pricing_plan_id":"free"},{"bike_id":"a507fc34-a803-40b9-af53-2ccf5cc451df","system_id":"levelo_inurba_marseille","lat":43.29544,"lon":5.374694,"is_reserved":false,"is_disabled":false,"rental_uris":{"android":"levelo://app?vid=a507fc34-a803-40b9-af53-2ccf5cc451df","ios":"levelo://app?vid=a507fc34-a803-40b9-af53-2ccf5cc451df"},"vehicle_type_id":"4","last_reported":1678608517,"current_range_meters":0,"station_id":"","pricing_plan_id":"free"},{"bike_id":"41b254c6-bbf1-475f-9177-73fbae24cfb1","system_id":"levelo_inurba_marseille","lat":43.295238,"lon":5.375064,"is_reserved":false,"is_disabled":false,"rental_uris":{"android":"levelo://app?vid=41b254c6-bbf1-475f-9177-73fbae24cfb1","ios":"levelo://app?vid=41b254c6-bbf1-475f-9177-73fbae24cfb1"},"vehicle_type_id":"4","last_reported":1678608517,"current_range_meters":13200,"station_id":"","pricing_plan_id":"free"},{"bike_id":"aff48a07-e2ed-4422-9158-a3a011442baf","system_id":"levelo_inurba_marseille","lat":43.295279,"lon":5.375048,"is_reserved":false,"is_disabled":false,"rental_uris":{"android":"levelo://app?vid=aff48a07-e2ed-4422-9158-a3a011442baf","ios":"levelo://app?vid=aff48a07-e2ed-4422-9158-a3a011442baf"},"vehicle_type_id":"4","last_reported":1678608517,"current_range_meters":12800,"station_id":"ce4bgkp2rcd13ifvqbmg","pricing_plan_id":"free"},{"bike_id":"b20c0648-4cf3-44fa-ba1a-61d9b53669a7","system_id":"levelo_inurba_marseille","lat":43.31283,"lon":5.39424,"is_reserved":false,"is_disabled":false,"rental_uris":{"android":"levelo://app?vid=b20c0648-4cf3-44fa-ba1a-61d9b53669a7","ios":"levelo://app?vid=b20c0648-4cf3-44fa-ba1a-61d9b53669a7"},"vehicle_type_id":"4","last_reported":1678608517,"current_range_meters":0,"station_id":"","pricing_plan_id":"free"},{"bike_id":"73c71f6c-4b4e-4af1-b14e-6508b9774587","system_id":"levelo_inurba_marseille","lat":43.293009,"lon":5.374584,"is_reserved":false,"is_disabled":false,"rental_uris":{"android":"levelo://app?vid=73c71f6c-4b4e-4af1-b14e-6508b9774587","ios":"levelo://app?vid=73c71f6c-4b4e-4af1-b14e-6508b9774587"},"vehicle_type_id":"4","last_reported":1678608517,"current_range_meters":10400,"station_id":"ce4bgi12rcd13ifvqb70","pricing_plan_id":"free"},{"bike_id":"335d7406-f02c-49cd-8a4b-ec3e02450816","system_id":"levelo_inurba_marseille","lat":43.293009,"lon":5.374584,"is_reserved":false,"is_disabled":false,"rental_uris":{"android":"levelo://app?vid=335d7406-f02c-49cd-8a4b-ec3e02450816","ios":"levelo://app?vid=335d7406-f02c-49cd-8a4b-ec3e02450816"},"vehicle_type_id":"4","last_reported":1678608517,"current_range_meters":30000,"station_id":"ce4bgi12rcd13ifvqb70","pricing_plan_id":"free"},{"bike_id":"1b292b2f-59af-4ae0-ad0e-5f523d0372cd","system_id":"levelo_inurba_marseille","lat":43.293009,"lon":5.374584,"is_reserved":false,"is_disabled":false,"rental_uris":{"android":"levelo://app?vid=1b292b2f-59af-4ae0-ad0e-5f523d0372cd","ios":"levelo://app?vid=1b292b2f-59af-4ae0-ad0e-5f523d0372cd"},"vehicle_type_id":"4","last_reported":1678608517,"current_range_meters":22000,"station_id":"ce4bgi12rcd13ifvqb70","pricing_plan_id":"free"},{"bike_id":"43abed37-205e-485d-a555-7551fc10fd3e","system_id":"levelo_inurba_marseille","lat":43.293009,"lon":5.374584,"is_reserved":false,"is_disabled":false,"rental_uris":{"android":"levelo://app?vid=43abed37-205e-485d-a555-7551fc10fd3e","ios":"levelo://app?vid=43abed37-205e-485d-a555-7551fc10fd3e"},"vehicle_type_id":"4","last_reported":1678608517,"current_range_meters":29200,"station_id":"ce4bgi12rcd13ifvqb70","pricing_plan_id":"free"},{"bike_id":"0de79683-668c-45c0-95d6-e3155f7d8627","system_id":"levelo_inurba_marseille","lat":43.293009,"lon":5.374584,"is_reserved":false,"is_disabled":false,"rental_uris":{"android":"levelo://app?vid=0de79683-668c-45c0-95d6-e3155f7d8627","ios":"levelo://app?vid=0de79683-668c-45c0-95d6-e3155f7d8627"},"vehicle_type_id":"4","last_reported":1678608517,"current_range_meters":6800,"station_id":"ce4bgi12rcd13ifvqb70","pricing_plan_id":"free"},{"bike_id":"5309d71e-1f74-4566-9b6a-90732ef7f557","system_id":"levelo_inurba_marseille","lat":43.292311,"lon":5.360731,"is_reserved":false,"is_disabled":false,"rental_uris":{"android":"levelo://app?vid=5309d71e-1f74-4566-9b6a-90732ef7f557","ios":"levelo://app?vid=5309d71e-1f74-4566-9b6a-90732ef7f557"},"vehicle_type_id":"4","last_reported":1678608517,"current_range_meters":24000,"station_id":"ce4bhbh2rcd13ifvqeqg","pricing_plan_id":"free"},{"bike_id":"00edf6ab-879c-45bb-99bb-b64694a762f9","system_id":"levelo_inurba_marseille","lat":43.313291,"lon":5.396838,"is_reserved":false,"is_disabled":false,"rental_uris":{"android":"levelo://app?vid=00edf6ab-879c-45bb-99bb-b64694a762f9","ios":"levelo://app?vid=00edf6ab-879c-45bb-99bb-b64694a762f9"},"vehicle_type_id":"4","last_reported":1678608517,"current_range_meters":0,"station_id":"ce4bgvp2rcd13ifvqcu0","pricing_plan_id":"free"},{"bike_id":"f388338e-ff51-42cb-bae8-187ad4340b53","system_id":"levelo_inurba_marseille","lat":43.313291,"lon":5.396838,"is_reserved":false,"is_disabled":false,"rental_uris":{"android":"levelo://app?vid=f388338e-ff51-42cb-bae8-187ad4340b53","ios":"levelo://app?vid=f388338e-ff51-42cb-bae8-187ad4340b53"},"vehicle_type_id":"4","last_reported":1678608517,"current_range_meters":0,"station_id":"ce4bgvp2rcd13ifvqcu0","pricing_plan_id":"free"},{"bike_id":"f704bcbe-9d9f-44c8-af68-4168a4d41c3f","system_id":"levelo_inurba_marseille","lat":43.313291,"lon":5.396838,"is_reserved":false,"is_disabled":false,"rental_uris":{"android":"levelo://app?vid=f704bcbe-9d9f-44c8-af68-4168a4d41c3f","ios":"levelo://app?vid=f704bcbe-9d9f-44c8-af68-4168a4d41c3f"},"vehicle_type_id":"4","last_reported":1678608517,"current_range_meters":4400,"station_id":"ce4bgvp2rcd13ifvqcu0","pricing_plan_id":"free"},{"bike_id":"2437b172-eec0-4784-9001-787a2825f408","system_id":"levelo_inurba_marseille","lat":43.313291,"lon":5.396838,"is_reserved":false,"is_disabled":false,"rental_uris":{"android":"levelo://app?vid=2437b172-eec0-4784-9001-787a2825f408","ios":"levelo://app?vid=2437b172-eec0-4784-9001-787a2825f408"},"vehicle_type_id":"4","last_reported":1678608517,"current_range_meters":23200,"station_id":"ce4bgvp2rcd13ifvqcu0","pricing_plan_id":"free"},{"bike_id":"e2a973a1-e1fb-4bfd-92ab-c70cee61d7b0","system_id":"levelo_inurba_marseille","lat":43.313291,"lon":5.396838,"is_reserved":false,"is_disabled":false,"rental_uris":{"android":"levelo://app?vid=e2a973a1-e1fb-4bfd-92ab-c70cee61d7b0","ios":"levelo://app?vid=e2a973a1-e1fb-4bfd-92ab-c70cee61d7b0"},"vehicle_type_id":"4","last_reported":1678608517,"current_range_meters":10800,"station_id":"ce4bgvp2rcd13ifvqcu0","pricing_plan_id":"free"},{"bike_id":"2bff87c3-a2c4-4fd2-b324-db50e6268092","system_id":"levelo_inurba_marseille","lat":43.313291,"lon":5.396838,"is_reserved":false,"is_disabled":false,"rental_uris":{"android":"levelo://app?vid=2bff87c3-a2c4-4fd2-b324-db50e6268092","ios":"levelo://app?vid=2bff87c3-a2c4-4fd2-b324-db50e6268092"},"vehicle_type_id":"4","last_reported":1678608517,"current_range_meters":2800,"station_id":"ce4bgvp2rcd13ifvqcu0","pricing_plan_id":"free"},{"bike_id":"c1b7a151-dd87-4a5c-bc0e-dea80827bb70","system_id":"levelo_inurba_marseille","lat":43.313291,"lon":5.396838,"is_reserved":false,"is_disabled":false,"rental_uris":{"android":"levelo://app?vid=c1b7a151-dd87-4a5c-bc0e-dea80827bb70","ios":"levelo://app?vid=c1b7a151-dd87-4a5c-bc0e-dea80827bb70"},"vehicle_type_id":"4","last_reported":1678608517,"current_range_meters":11200,"station_id":"ce4bgvp2rcd13ifvqcu0","pricing_plan_id":"free"},{"bike_id":"cd87a1ed-3f35-469d-b141-60a1f8969c9d","system_id":"levelo_inurba_marseille","lat":43.313291,"lon":5.396838,"is_reserved":false,"is_disabled":false,"rental_uris":{"android":"levelo://app?vid=cd87a1ed-3f35-469d-b141-60a1f8969c9d","ios":"levelo://app?vid=cd87a1ed-3f35-469d-b141-60a1f8969c9d"},"vehicle_type_id":"4","last_reported":1678608517,"current_range_meters":8800,"station_id":"ce4bgvp2rcd13ifvqcu0","pricing_plan_id":"free"},{"bike_id":"594dfcec-1bc5-4763-9cea-29d136da9ca1","system_id":"levelo_inurba_marseille","lat":43.313291,"lon":5.396838,"is_reserved":false,"is_disabled":false,"rental_uris":{"android":"levelo://app?vid=594dfcec-1bc5-4763-9cea-29d136da9ca1","ios":"levelo://app?vid=594dfcec-1bc5-4763-9cea-29d136da9ca1"},"vehicle_type_id":"4","last_reported":1678608517,"current_range_meters":5200,"station_id":"ce4bgvp2rcd13ifvqcu0","pricing_plan_id":"free"},{"bike_id":"53949b36-28fa-4eec-b186-1127f12d7723","system_id":"levelo_inurba_marseille","lat":43.313291,"lon":5.396838,"is_reserved":false,"is_disabled":false,"rental_uris":{"android":"levelo://app?vid=53949b36-28fa-4eec-b186-1127f12d7723","ios":"levelo://app?vid=53949b36-28fa-4eec-b186-1127f12d7723"},"vehicle_type_id":"4","last_reported":1678608517,"current_range_meters":4400,"station_id":"ce4bgvp2rcd13ifvqcu0","pricing_plan_id":"free"},{"bike_id":"b8362f4a-a03b-4747-9bce-6f15ca8f2d49","system_id":"levelo_inurba_marseille","lat":43.313291,"lon":5.396838,"is_reserved":false,"is_disabled":false,"rental_uris":{"android":"levelo://app?vid=b8362f4a-a03b-4747-9bce-6f15ca8f2d49","ios":"levelo://app?vid=b8362f4a-a03b-4747-9bce-6f15ca8f2d49"},"vehicle_type_id":"4","last_reported":1678608517,"current_range_meters":13600,"station_id":"ce4bgvp2rcd13ifvqcu0","pricing_plan_id":"free"},{"bike_id":"93e102b9-14be-4219-ac27-d911d4fe75e9","system_id":"levelo_inurba_marseille","lat":43.313291,"lon":5.396838,"is_reserved":false,"is_disabled":false,"rental_uris":{"android":"levelo://app?vid=93e102b9-14be-4219-ac27-d911d4fe75e9","ios":"levelo://app?vid=93e102b9-14be-4219-ac27-d911d4fe75e9"},"vehicle_type_id":"4","last_reported":1678608517,"current_range_meters":26400,"station_id":"ce4bgvp2rcd13ifvqcu0","pricing_plan_id":"free"},{"bike_id":"c8f67244-49a8-4923-81a3-1e96662a5a01","system_id":"levelo_inurba_marseille","lat":43.29529,"lon":5.385581,"is_reserved":false,"is_disabled":false,"rental_uris":{"android":"levelo://app?vid=c8f67244-49a8-4923-81a3-1e96662a5a01","ios":"levelo://app?vid=c8f67244-49a8-4923-81a3-1e96662a5a01"},"vehicle_type_id":"4","last_reported":1678608517,"current_range_meters":11200,"station_id":"ce4bgih2rcd13ifvqba0","pricing_plan_id":"free"},{"bike_id":"b64612dd-54cd-4d7b-ae1d-a34e1c5238ad","system_id":"levelo_inurba_marseille","lat":43.290447,"lon":5.359163,"is_reserved":false,"is_disabled":false,"rental_uris":{"android":"levelo://app?vid=b64612dd-54cd-4d7b-ae1d-a34e1c5238ad","ios":"levelo://app?vid=b64612dd-54cd-4d7b-ae1d-a34e1c5238ad"},"vehicle_type_id":"4","last_reported":1678608517,"current_range_meters":8400,"station_id":"ce4bha92rcd13ifvqeg0","pricing_plan_id":"free"},{"bike_id":"980f0162-a8fc-43e1-8a19-f4855f5843d7","system_id":"levelo_inurba_marseille","lat":43.29042,"lon":5.35911,"is_reserved":false,"is_disabled":false,"rental_uris":{"android":"levelo://app?vid=980f0162-a8fc-43e1-8a19-f4855f5843d7","ios":"levelo://app?vid=980f0162-a8fc-43e1-8a19-f4855f5843d7"},"vehicle_type_id":"4","last_reported":1678608517,"current_range_meters":4400,"station_id":"ce4bha92rcd13ifvqeg0","pricing_plan_id":"free"},{"bike_id":"6b210502-1b20-430b-a303-497d7f998aa1","system_id":"levelo_inurba_marseille","lat":43.292644,"lon":5.384257,"is_reserved":false,"is_disabled":false,"rental_uris":{"android":"levelo://app?vid=6b210502-1b20-430b-a303-497d7f998aa1","ios":"levelo://app?vid=6b210502-1b20-430b-a303-497d7f998aa1"},"vehicle_type_id":"4","last_reported":1678608517,"current_range_meters":0,"station_id":"ce4bh692rcd13ifvqea0","pricing_plan_id":"free"},{"bike_id":"095c57b0-9b4f-44de-bcf5-0ee1658941a0","system_id":"levelo_inurba_marseille","lat":43.301554,"lon":5.396008,"is_reserved":false,"is_disabled":false,"rental_uris":{"android":"levelo://app?vid=095c57b0-9b4f-44de-bcf5-0ee1658941a0","ios":"levelo://app?vid=095c57b0-9b4f-44de-bcf5-0ee1658941a0"},"vehicle_type_id":"4","last_reported":1678608517,"current_range_meters":22800,"station_id":"","pricing_plan_id":"free"},{"bike_id":"d30d104e-54e6-4307-9dc5-6ef881fc6645","system_id":"levelo_inurba_marseille","lat":43.330442,"lon":5.389148,"is_reserved":false,"is_disabled":false,"rental_uris":{"android":"levelo://app?vid=d30d104e-54e6-4307-9dc5-6ef881fc6645","ios":"levelo://app?vid=d30d104e-54e6-4307-9dc5-6ef881fc6645"},"vehicle_type_id":"4","last_reported":1678608517,"current_range_meters":16400,"station_id":"ce4bhr92rcd13ifvqhrg","pricing_plan_id":"free"},{"bike_id":"131b31b7-741c-4a05-94d8-b9d1c9dbf33e","system_id":"levelo_inurba_marseille","lat":43.33041,"lon":5.38918,"is_reserved":false,"is_disabled":false,"rental_uris":{"android":"levelo://app?vid=131b31b7-741c-4a05-94d8-b9d1c9dbf33e","ios":"levelo://app?vid=131b31b7-741c-4a05-94d8-b9d1c9dbf33e"},"vehicle_type_id":"4","last_reported":1678608517,"current_range_meters":13600,"station_id":"ce4bhr92rcd13ifvqhrg","pricing_plan_id":"free"},{"bike_id":"fadca3f6-f342-4b61-ab93-846c87e237ae","system_id":"levelo_inurba_marseille","lat":43.330418,"lon":5.389174,"is_reserved":false,"is_disabled":false,"rental_uris":{"android":"levelo://app?vid=fadca3f6-f342-4b61-ab93-846c87e237ae","ios":"levelo://app?vid=fadca3f6-f342-4b61-ab93-846c87e237ae"},"vehicle_type_id":"4","last_reported":1678608517,"current_range_meters":8400,"station_id":"ce4bhr92rcd13ifvqhrg","pricing_plan_id":"free"},{"bike_id":"92896ed1-7b4f-4962-9afc-06bac85c069a","system_id":"levelo_inurba_marseille","lat":43.33042,"lon":5.38918,"is_reserved":false,"is_disabled":false,"rental_uris":{"android":"levelo://app?vid=92896ed1-7b4f-4962-9afc-06bac85c069a","ios":"levelo://app?vid=92896ed1-7b4f-4962-9afc-06bac85c069a"},"vehicle_type_id":"4","last_reported":1678608517,"current_range_meters":13200,"station_id":"ce4bhr92rcd13ifvqhrg","pricing_plan_id":"free"},{"bike_id":"dbf8c98e-52a6-4efd-81df-ece236c4cceb","system_id":"levelo_inurba_marseille","lat":43.33039,"lon":5.38923,"is_reserved":false,"is_disabled":false,"rental_uris":{"android":"levelo://app?vid=dbf8c98e-52a6-4efd-81df-ece236c4cceb","ios":"levelo://app?vid=dbf8c98e-52a6-4efd-81df-ece236c4cceb"},"vehicle_type_id":"4","last_reported":1678608517,"current_range_meters":19200,"station_id":"ce4bhr92rcd13ifvqhrg","pricing_plan_id":"free"},{"bike_id":"513d8c08-6c50-440b-b153-63305c89126c","system_id":"levelo_inurba_marseille","lat":43.330442,"lon":5.389148,"is_reserved":false,"is_disabled":false,"rental_uris":{"android":"levelo://app?vid=513d8c08-6c50-440b-b153-63305c89126c","ios":"levelo://app?vid=513d8c08-6c50-440b-b153-63305c89126c"},"vehicle_type_id":"4","last_reported":1678608517,"current_range_meters":14400,"station_id":"ce4bhr92rcd13ifvqhrg","pricing_plan_id":"free"},{"bike_id":"3bb2a2fd-7203-4e66-a10c-8493cabe1e9a","system_id":"levelo_inurba_marseille","lat":43.33043,"lon":5.389203,"is_reserved":false,"is_disabled":false,"rental_uris":{"android":"levelo://app?vid=3bb2a2fd-7203-4e66-a10c-8493cabe1e9a","ios":"levelo://app?vid=3bb2a2fd-7203-4e66-a10c-8493cabe1e9a"},"vehicle_type_id":"4","last_reported":1678608517,"current_range_meters":28800,"station_id":"ce4bhr92rcd13ifvqhrg","pricing_plan_id":"free"},{"bike_id":"c22d534d-b4dc-45b7-b21d-2929d8e7470a","system_id":"levelo_inurba_marseille","lat":43.330453,"lon":5.389179,"is_reserved":false,"is_disabled":false,"rental_uris":{"android":"levelo://app?vid=c22d534d-b4dc-45b7-b21d-2929d8e7470a","ios":"levelo://app?vid=c22d534d-b4dc-45b7-b21d-2929d8e7470a"},"vehicle_type_id":"4","last_reported":1678608517,"current_range_meters":21200,"station_id":"ce4bhr92rcd13ifvqhrg","pricing_plan_id":"free"},{"bike_id":"6119f6ce-6d3d-4b42-a8e5-7d6668c62333","system_id":"levelo_inurba_marseille","lat":43.330418,"lon":5.389234,"is_reserved":false,"is_disabled":false,"rental_uris":{"android":"levelo://app?vid=6119f6ce-6d3d-4b42-a8e5-7d6668c62333","ios":"levelo://app?vid=6119f6ce-6d3d-4b42-a8e5-7d6668c62333"},"vehicle_type_id":"4","last_reported":1678608517,"current_range_meters":10800,"station_id":"ce4bhr92rcd13ifvqhrg","pricing_plan_id":"free"},{"bike_id":"bb244818-4f99-4ebd-be35-1beddd115e44","system_id":"levelo_inurba_marseille","lat":43.290104,"lon":5.356111,"is_reserved":false,"is_disabled":false,"rental_uris":{"android":"levelo://app?vid=bb244818-4f99-4ebd-be35-1beddd115e44","ios":"levelo://app?vid=bb244818-4f99-4ebd-be35-1beddd115e44"},"vehicle_type_id":"4","last_reported":1678608517,"current_range_meters":0,"station_id":"ce4bhb92rcd13ifvqen0","pricing_plan_id":"free"},{"bike_id":"6ca8673c-d91f-4a47-af02-31b04e016d09","system_id":"levelo_inurba_marseille","lat":43.289003,"lon":5.358441,"is_reserved":false,"is_disabled":false,"rental_uris":{"android":"levelo://app?vid=6ca8673c-d91f-4a47-af02-31b04e016d09","ios":"levelo://app?vid=6ca8673c-d91f-4a47-af02-31b04e016d09"},"vehicle_type_id":"4","last_reported":1678608517,"current_range_meters":0,"station_id":"","pricing_plan_id":"free"},{"bike_id":"7c54c467-4b72-4810-831d-a137ea47b835","system_id":"levelo_inurba_marseille","lat":43.30642,"lon":5.401031,"is_reserved":false,"is_disabled":false,"rental_uris":{"android":"levelo://app?vid=7c54c467-4b72-4810-831d-a137ea47b835","ios":"levelo://app?vid=7c54c467-4b72-4810-831d-a137ea47b835"},"vehicle_type_id":"4","last_reported":1678608517,"current_range_meters":5200,"station_id":"ce4bh112rcd13ifvqda0","pricing_plan_id":"free"},{"bike_id":"8f34591e-451f-417b-a640-32e601c0115e","system_id":"levelo_inurba_marseille","lat":43.30642,"lon":5.401031,"is_reserved":false,"is_disabled":false,"rental_uris":{"android":"levelo://app?vid=8f34591e-451f-417b-a640-32e601c0115e","ios":"levelo://app?vid=8f34591e-451f-417b-a640-32e601c0115e"},"vehicle_type_id":"4","last_reported":1678608517,"current_range_meters":19200,"station_id":"ce4bh112rcd13ifvqda0","pricing_plan_id":"free"},{"bike_id":"b1997e83-c398-49a8-88e8-0d1da12597b0","system_id":"levelo_inurba_marseille","lat":43.306412,"lon":5.401035,"is_reserved":false,"is_disabled":false,"rental_uris":{"android":"levelo://app?vid=b1997e83-c398-49a8-88e8-0d1da12597b0","ios":"levelo://app?vid=b1997e83-c398-49a8-88e8-0d1da12597b0"},"vehicle_type_id":"4","last_reported":1678608517,"current_range_meters":20000,"station_id":"ce4bh112rcd13ifvqda0","pricing_plan_id":"free"},{"bike_id":"5014d4c7-31a0-4464-9c9b-5fcec1d8b0e9","system_id":"levelo_inurba_marseille","lat":43.30654,"lon":5.400967,"is_reserved":false,"is_disabled":false,"rental_uris":{"android":"levelo://app?vid=5014d4c7-31a0-4464-9c9b-5fcec1d8b0e9","ios":"levelo://app?vid=5014d4c7-31a0-4464-9c9b-5fcec1d8b0e9"},"vehicle_type_id":"4","last_reported":1678608517,"current_range_meters":0,"station_id":"ce4bh112rcd13ifvqda0","pricing_plan_id":"free"},{"bike_id":"6e69b78e-4f14-4aeb-b903-b19cb19b7e86","system_id":"levelo_inurba_marseille","lat":43.298681,"lon":5.397225,"is_reserved":false,"is_disabled":false,"rental_uris":{"android":"levelo://app?vid=6e69b78e-4f14-4aeb-b903-b19cb19b7e86","ios":"levelo://app?vid=6e69b78e-4f14-4aeb-b903-b19cb19b7e86"},"vehicle_type_id":"4","last_reported":1678608517,"current_range_meters":21600,"station_id":"ce4bh0h2rcd13ifvqd50","pricing_plan_id":"free"},{"bike_id":"631b75f4-fe79-4dfa-a692-b79b3c250da9","system_id":"levelo_inurba_marseille","lat":43.298681,"lon":5.397225,"is_reserved":false,"is_disabled":false,"rental_uris":{"android":"levelo://app?vid=631b75f4-fe79-4dfa-a692-b79b3c250da9","ios":"levelo://app?vid=631b75f4-fe79-4dfa-a692-b79b3c250da9"},"vehicle_type_id":"4","last_reported":1678608517,"current_range_meters":17600,"station_id":"ce4bh0h2rcd13ifvqd50","pricing_plan_id":"free"},{"bike_id":"7603576c-d08d-4c17-9462-013fc073a4db","system_id":"levelo_inurba_marseille","lat":43.286593,"lon":5.363346,"is_reserved":false,"is_disabled":false,"rental_uris":{"android":"levelo://app?vid=7603576c-d08d-4c17-9462-013fc073a4db","ios":"levelo://app?vid=7603576c-d08d-4c17-9462-013fc073a4db"},"vehicle_type_id":"4","last_reported":1678608517,"current_range_meters":24000,"station_id":"ce4bhah2rcd13ifvqej0","pricing_plan_id":"free"},{"bike_id":"3ad518a9-98d2-4aa9-bc92-2686cb783824","system_id":"levelo_inurba_marseille","lat":43.286593,"lon":5.363346,"is_reserved":false,"is_disabled":false,"rental_uris":{"android":"levelo://app?vid=3ad518a9-98d2-4aa9-bc92-2686cb783824","ios":"levelo://app?vid=3ad518a9-98d2-4aa9-bc92-2686cb783824"},"vehicle_type_id":"4","last_reported":1678608517,"current_range_meters":22800,"station_id":"ce4bhah2rcd13ifvqej0","pricing_plan_id":"free"},{"bike_id":"16c4eea5-199a-42bd-afef-fdf198701ded","system_id":"levelo_inurba_marseille","lat":43.286593,"lon":5.363346,"is_reserved":false,"is_disabled":false,"rental_uris":{"android":"levelo://app?vid=16c4eea5-199a-42bd-afef-fdf198701ded","ios":"levelo://app?vid=16c4eea5-199a-42bd-afef-fdf198701ded"},"vehicle_type_id":"4","last_reported":1678608517,"current_range_meters":6400,"station_id":"ce4bhah2rcd13ifvqej0","pricing_plan_id":"free"},{"bike_id":"88465ea3-f50d-4d40-8817-f5a88eb84e29","system_id":"levelo_inurba_marseille","lat":43.295164,"lon":5.394058,"is_reserved":false,"is_disabled":false,"rental_uris":{"android":"levelo://app?vid=88465ea3-f50d-4d40-8817-f5a88eb84e29","ios":"levelo://app?vid=88465ea3-f50d-4d40-8817-f5a88eb84e29"},"vehicle_type_id":"4","last_reported":1678608517,"current_range_meters":28000,"station_id":"ce4bh212rcd13ifvqde0","pricing_plan_id":"free"},{"bike_id":"3942baa4-6dc0-4fd6-8346-2eb4d337ee7c","system_id":"levelo_inurba_marseille","lat":43.302759,"lon":5.400793,"is_reserved":false,"is_disabled":false,"rental_uris":{"android":"levelo://app?vid=3942baa4-6dc0-4fd6-8346-2eb4d337ee7c","ios":"levelo://app?vid=3942baa4-6dc0-4fd6-8346-2eb4d337ee7c"},"vehicle_type_id":"4","last_reported":1678608517,"current_range_meters":28000,"station_id":"ce4bgvh2rcd13ifvqcs0","pricing_plan_id":"free"},{"bike_id":"f02c2525-3415-4a4f-a313-02f6b3fbe37f","system_id":"levelo_inurba_marseille","lat":43.302759,"lon":5.400793,"is_reserved":false,"is_disabled":false,"rental_uris":{"android":"levelo://app?vid=f02c2525-3415-4a4f-a313-02f6b3fbe37f","ios":"levelo://app?vid=f02c2525-3415-4a4f-a313-02f6b3fbe37f"},"vehicle_type_id":"4","last_reported":1678608517,"current_range_meters":23200,"station_id":"ce4bgvh2rcd13ifvqcs0","pricing_plan_id":"free"},{"bike_id":"8f815a06-d153-4887-badf-1f8668bdcfa9","system_id":"levelo_inurba_marseille","lat":43.287662,"lon":5.379278,"is_reserved":false,"is_disabled":false,"rental_uris":{"android":"levelo://app?vid=8f815a06-d153-4887-badf-1f8668bdcfa9","ios":"levelo://app?vid=8f815a06-d153-4887-badf-1f8668bdcfa9"},"vehicle_type_id":"4","last_reported":1678608517,"current_range_meters":0,"station_id":"","pricing_plan_id":"free"},{"bike_id":"9cc272c6-d2bb-47a8-a87f-c2760e168328","system_id":"levelo_inurba_marseille","lat":43.287184,"lon":5.37937,"is_reserved":false,"is_disabled":false,"rental_uris":{"android":"levelo://app?vid=9cc272c6-d2bb-47a8-a87f-c2760e168328","ios":"levelo://app?vid=9cc272c6-d2bb-47a8-a87f-c2760e168328"},"vehicle_type_id":"4","last_reported":1678608517,"current_range_meters":4000,"station_id":"ce4bh9p2rcd13ifvqec0","pricing_plan_id":"free"},{"bike_id":"e0e21686-da57-44d7-b288-400c7191166e","system_id":"levelo_inurba_marseille","lat":43.31642,"lon":5.40431,"is_reserved":false,"is_disabled":false,"rental_uris":{"android":"levelo://app?vid=e0e21686-da57-44d7-b288-400c7191166e","ios":"levelo://app?vid=e0e21686-da57-44d7-b288-400c7191166e"},"vehicle_type_id":"4","last_reported":1678608517,"current_range_meters":2800,"station_id":"ce4bh012rcd13ifvqd00","pricing_plan_id":"free"},{"bike_id":"161db933-aeb8-4b83-a76f-f26a0f465db3","system_id":"levelo_inurba_marseille","lat":43.316433,"lon":5.404348,"is_reserved":false,"is_disabled":false,"rental_uris":{"android":"levelo://app?vid=161db933-aeb8-4b83-a76f-f26a0f465db3","ios":"levelo://app?vid=161db933-aeb8-4b83-a76f-f26a0f465db3"},"vehicle_type_id":"4","last_reported":1678608517,"current_range_meters":0,"station_id":"ce4bh012rcd13ifvqd00","pricing_plan_id":"free"},{"bike_id":"30c346fd-0b03-45e6-bb49-246337c1670f","system_id":"levelo_inurba_marseille","lat":43.31645,"lon":5.40437,"is_reserved":false,"is_disabled":false,"rental_uris":{"android":"levelo://app?vid=30c346fd-0b03-45e6-bb49-246337c1670f","ios":"levelo://app?vid=30c346fd-0b03-45e6-bb49-246337c1670f"},"vehicle_type_id":"4","last_reported":1678608517,"current_range_meters":0,"station_id":"","pricing_plan_id":"free"},{"bike_id":"7141eb9b-3646-416a-8311-15b7b93c8d39","system_id":"levelo_inurba_marseille","lat":43.316517,"lon":5.404375,"is_reserved":false,"is_disabled":false,"rental_uris":{"android":"levelo://app?vid=7141eb9b-3646-416a-8311-15b7b93c8d39","ios":"levelo://app?vid=7141eb9b-3646-416a-8311-15b7b93c8d39"},"vehicle_type_id":"4","last_reported":1678608517,"current_range_meters":3600,"station_id":"ce4bh012rcd13ifvqd00","pricing_plan_id":"free"},{"bike_id":"237c76fe-df0b-48c0-976f-344e6a892803","system_id":"levelo_inurba_marseille","lat":43.316687,"lon":5.404458,"is_reserved":false,"is_disabled":false,"rental_uris":{"android":"levelo://app?vid=237c76fe-df0b-48c0-976f-344e6a892803","ios":"levelo://app?vid=237c76fe-df0b-48c0-976f-344e6a892803"},"vehicle_type_id":"4","last_reported":1678608517,"current_range_meters":8800,"station_id":"ce4bh012rcd13ifvqd00","pricing_plan_id":"free"},{"bike_id":"63a711f6-2635-45ab-a1e5-83d61ba42b99","system_id":"levelo_inurba_marseille","lat":43.28463,"lon":5.35895,"is_reserved":false,"is_disabled":false,"rental_uris":{"android":"levelo://app?vid=63a711f6-2635-45ab-a1e5-83d61ba42b99","ios":"levelo://app?vid=63a711f6-2635-45ab-a1e5-83d61ba42b99"},"vehicle_type_id":"4","last_reported":1678608517,"current_range_meters":0,"station_id":"ce4bhah2rcd13ifvqei0","pricing_plan_id":"free"},{"bike_id":"a74db311-6b8e-45eb-b923-d3fc4f6a3ac7","system_id":"levelo_inurba_marseille","lat":43.284594,"lon":5.358927,"is_reserved":false,"is_disabled":false,"rental_uris":{"android":"levelo://app?vid=a74db311-6b8e-45eb-b923-d3fc4f6a3ac7","ios":"levelo://app?vid=a74db311-6b8e-45eb-b923-d3fc4f6a3ac7"},"vehicle_type_id":"4","last_reported":1678608517,"current_range_meters":400,"station_id":"ce4bhah2rcd13ifvqei0","pricing_plan_id":"free"},{"bike_id":"105e6209-9f81-4dd5-8d75-cd70fa323b30","system_id":"levelo_inurba_marseille","lat":43.286595,"lon":5.386795,"is_reserved":false,"is_disabled":false,"rental_uris":{"android":"levelo://app?vid=105e6209-9f81-4dd5-8d75-cd70fa323b30","ios":"levelo://app?vid=105e6209-9f81-4dd5-8d75-cd70fa323b30"},"vehicle_type_id":"4","last_reported":1678608517,"current_range_meters":13600,"station_id":"ce4bh492rcd13ifvqdug","pricing_plan_id":"free"},{"bike_id":"ec2272bf-516c-495d-89ba-40016ca8ea76","system_id":"levelo_inurba_marseille","lat":43.286595,"lon":5.386795,"is_reserved":false,"is_disabled":false,"rental_uris":{"android":"levelo://app?vid=ec2272bf-516c-495d-89ba-40016ca8ea76","ios":"levelo://app?vid=ec2272bf-516c-495d-89ba-40016ca8ea76"},"vehicle_type_id":"4","last_reported":1678608517,"current_range_meters":31600,"station_id":"ce4bh492rcd13ifvqdug","pricing_plan_id":"free"},{"bike_id":"f84b9c81-0fad-440c-b129-792bab1b03ee","system_id":"levelo_inurba_marseille","lat":43.28676,"lon":5.386755,"is_reserved":false,"is_disabled":false,"rental_uris":{"android":"levelo://app?vid=f84b9c81-0fad-440c-b129-792bab1b03ee","ios":"levelo://app?vid=f84b9c81-0fad-440c-b129-792bab1b03ee"},"vehicle_type_id":"4","last_reported":1678608517,"current_range_meters":26800,"station_id":"","pricing_plan_id":"free"},{"bike_id":"184b8929-39a5-4441-b910-03447f4c8fd5","system_id":"levelo_inurba_marseille","lat":43.286595,"lon":5.386795,"is_reserved":false,"is_disabled":false,"rental_uris":{"android":"levelo://app?vid=184b8929-39a5-4441-b910-03447f4c8fd5","ios":"levelo://app?vid=184b8929-39a5-4441-b910-03447f4c8fd5"},"vehicle_type_id":"4","last_reported":1678608517,"current_range_meters":6400,"station_id":"ce4bh492rcd13ifvqdug","pricing_plan_id":"free"},{"bike_id":"7ebff1c8-db28-4930-a896-d6a1bb9e737c","system_id":"levelo_inurba_marseille","lat":43.337168,"lon":5.391825,"is_reserved":false,"is_disabled":false,"rental_uris":{"android":"levelo://app?vid=7ebff1c8-db28-4930-a896-d6a1bb9e737c","ios":"levelo://app?vid=7ebff1c8-db28-4930-a896-d6a1bb9e737c"},"vehicle_type_id":"4","last_reported":1678608517,"current_range_meters":30000,"station_id":"ce4bhr92rcd13ifvqhsg","pricing_plan_id":"free"},{"bike_id":"4e34cadd-607d-4ba4-83f0-da4cac819d45","system_id":"levelo_inurba_marseille","lat":43.337168,"lon":5.391825,"is_reserved":false,"is_disabled":false,"rental_uris":{"android":"levelo://app?vid=4e34cadd-607d-4ba4-83f0-da4cac819d45","ios":"levelo://app?vid=4e34cadd-607d-4ba4-83f0-da4cac819d45"},"vehicle_type_id":"4","last_reported":1678608517,"current_range_meters":25600,"station_id":"ce4bhr92rcd13ifvqhsg","pricing_plan_id":"free"},{"bike_id":"071751a6-2257-4f47-b83d-6a49691737ea","system_id":"levelo_inurba_marseille","lat":43.337248,"lon":5.391792,"is_reserved":false,"is_disabled":false,"rental_uris":{"android":"levelo://app?vid=071751a6-2257-4f47-b83d-6a49691737ea","ios":"levelo://app?vid=071751a6-2257-4f47-b83d-6a49691737ea"},"vehicle_type_id":"4","last_reported":1678608517,"current_range_meters":17600,"station_id":"ce4bhr92rcd13ifvqhsg","pricing_plan_id":"free"},{"bike_id":"16f0dc7b-56a1-4503-831f-4e1fb24172ab","system_id":"levelo_inurba_marseille","lat":43.337168,"lon":5.391825,"is_reserved":false,"is_disabled":false,"rental_uris":{"android":"levelo://app?vid=16f0dc7b-56a1-4503-831f-4e1fb24172ab","ios":"levelo://app?vid=16f0dc7b-56a1-4503-831f-4e1fb24172ab"},"vehicle_type_id":"4","last_reported":1678608517,"current_range_meters":23200,"station_id":"ce4bhr92rcd13ifvqhsg","pricing_plan_id":"free"},{"bike_id":"42e28ab5-8793-4be0-9d7f-ebdfd7e9b678","system_id":"levelo_inurba_marseille","lat":43.337168,"lon":5.391825,"is_reserved":false,"is_disabled":false,"rental_uris":{"android":"levelo://app?vid=42e28ab5-8793-4be0-9d7f-ebdfd7e9b678","ios":"levelo://app?vid=42e28ab5-8793-4be0-9d7f-ebdfd7e9b678"},"vehicle_type_id":"4","last_reported":1678608517,"current_range_meters":12800,"station_id":"ce4bhr92rcd13ifvqhsg","pricing_plan_id":"free"},{"bike_id":"024758cd-58b3-47e4-a65c-1a19a9b716b5","system_id":"levelo_inurba_marseille","lat":43.337168,"lon":5.391825,"is_reserved":false,"is_disabled":false,"rental_uris":{"android":"levelo://app?vid=024758cd-58b3-47e4-a65c-1a19a9b716b5","ios":"levelo://app?vid=024758cd-58b3-47e4-a65c-1a19a9b716b5"},"vehicle_type_id":"4","last_reported":1678608517,"current_range_meters":10800,"station_id":"ce4bhr92rcd13ifvqhsg","pricing_plan_id":"free"},{"bike_id":"bd1ded2d-9285-4bf9-ab3c-0ed37ba1550f","system_id":"levelo_inurba_marseille","lat":43.32337,"lon":5.40622,"is_reserved":false,"is_disabled":false,"rental_uris":{"android":"levelo://app?vid=bd1ded2d-9285-4bf9-ab3c-0ed37ba1550f","ios":"levelo://app?vid=bd1ded2d-9285-4bf9-ab3c-0ed37ba1550f"},"vehicle_type_id":"4","last_reported":1678608517,"current_range_meters":10400,"station_id":"","pricing_plan_id":"free"},{"bike_id":"be89b116-4999-470c-a7d4-b1c9dc279419","system_id":"levelo_inurba_marseille","lat":43.337168,"lon":5.391825,"is_reserved":false,"is_disabled":false,"rental_uris":{"android":"levelo://app?vid=be89b116-4999-470c-a7d4-b1c9dc279419","ios":"levelo://app?vid=be89b116-4999-470c-a7d4-b1c9dc279419"},"vehicle_type_id":"4","last_reported":1678608517,"current_range_meters":27600,"station_id":"ce4bhr92rcd13ifvqhsg","pricing_plan_id":"free"},{"bike_id":"8740c9a6-83bd-4ec0-b313-25a6fb365634","system_id":"levelo_inurba_marseille","lat":43.337168,"lon":5.391825,"is_reserved":false,"is_disabled":false,"rental_uris":{"android":"levelo://app?vid=8740c9a6-83bd-4ec0-b313-25a6fb365634","ios":"levelo://app?vid=8740c9a6-83bd-4ec0-b313-25a6fb365634"},"vehicle_type_id":"4","last_reported":1678608517,"current_range_meters":10000,"station_id":"ce4bhr92rcd13ifvqhsg","pricing_plan_id":"free"},{"bike_id":"dcb1c353-e269-432c-a7d8-02e1d0292eb6","system_id":"levelo_inurba_marseille","lat":43.337168,"lon":5.391825,"is_reserved":false,"is_disabled":false,"rental_uris":{"android":"levelo://app?vid=dcb1c353-e269-432c-a7d8-02e1d0292eb6","ios":"levelo://app?vid=dcb1c353-e269-432c-a7d8-02e1d0292eb6"},"vehicle_type_id":"4","last_reported":1678608517,"current_range_meters":4000,"station_id":"ce4bhr92rcd13ifvqhsg","pricing_plan_id":"free"},{"bike_id":"320da84e-6bd4-41fc-b317-1ec7d173fd59","system_id":"levelo_inurba_marseille","lat":43.28419,"lon":5.34984,"is_reserved":false,"is_disabled":false,"rental_uris":{"android":"levelo://app?vid=320da84e-6bd4-41fc-b317-1ec7d173fd59","ios":"levelo://app?vid=320da84e-6bd4-41fc-b317-1ec7d173fd59"},"vehicle_type_id":"4","last_reported":1678608517,"current_range_meters":0,"station_id":"","pricing_plan_id":"free"},{"bike_id":"e548b0a3-e95d-4b19-b688-e88e86761fc2","system_id":"levelo_inurba_marseille","lat":43.282744,"lon":5.350533,"is_reserved":false,"is_disabled":false,"rental_uris":{"android":"levelo://app?vid=e548b0a3-e95d-4b19-b688-e88e86761fc2","ios":"levelo://app?vid=e548b0a3-e95d-4b19-b688-e88e86761fc2"},"vehicle_type_id":"4","last_reported":1678608517,"current_range_meters":24000,"station_id":"ce4bhbp2rcd13ifvqerg","pricing_plan_id":"free"},{"bike_id":"e35c7b87-fe1a-4462-b427-d5346406dbf7","system_id":"levelo_inurba_marseille","lat":43.282744,"lon":5.350533,"is_reserved":false,"is_disabled":false,"rental_uris":{"android":"levelo://app?vid=e35c7b87-fe1a-4462-b427-d5346406dbf7","ios":"levelo://app?vid=e35c7b87-fe1a-4462-b427-d5346406dbf7"},"vehicle_type_id":"4","last_reported":1678608517,"current_range_meters":18800,"station_id":"ce4bhbp2rcd13ifvqerg","pricing_plan_id":"free"},{"bike_id":"b3ce553d-eec2-4d3b-a223-9baa5de5969e","system_id":"levelo_inurba_marseille","lat":43.282744,"lon":5.350533,"is_reserved":false,"is_disabled":false,"rental_uris":{"android":"levelo://app?vid=b3ce553d-eec2-4d3b-a223-9baa5de5969e","ios":"levelo://app?vid=b3ce553d-eec2-4d3b-a223-9baa5de5969e"},"vehicle_type_id":"4","last_reported":1678608517,"current_range_meters":11600,"station_id":"ce4bhbp2rcd13ifvqerg","pricing_plan_id":"free"},{"bike_id":"7eb945ba-f3c5-49cd-b66b-10616ef3eb62","system_id":"levelo_inurba_marseille","lat":43.283609,"lon":5.386334,"is_reserved":false,"is_disabled":false,"rental_uris":{"android":"levelo://app?vid=7eb945ba-f3c5-49cd-b66b-10616ef3eb62","ios":"levelo://app?vid=7eb945ba-f3c5-49cd-b66b-10616ef3eb62"},"vehicle_type_id":"4","last_reported":1678608517,"current_range_meters":28000,"station_id":"ce4bh492rcd13ifvqdvg","pricing_plan_id":"free"},{"bike_id":"52600047-77e7-44c4-a3b1-3098851ee8f4","system_id":"levelo_inurba_marseille","lat":43.28039,"lon":5.369297,"is_reserved":false,"is_disabled":false,"rental_uris":{"android":"levelo://app?vid=52600047-77e7-44c4-a3b1-3098851ee8f4","ios":"levelo://app?vid=52600047-77e7-44c4-a3b1-3098851ee8f4"},"vehicle_type_id":"4","last_reported":1678608517,"current_range_meters":28800,"station_id":"ce4bha12rcd13ifvqef0","pricing_plan_id":"free"},{"bike_id":"d2d67695-ea3f-4064-b6b9-6af351070314","system_id":"levelo_inurba_marseille","lat":43.280382,"lon":5.369291,"is_reserved":false,"is_disabled":false,"rental_uris":{"android":"levelo://app?vid=d2d67695-ea3f-4064-b6b9-6af351070314","ios":"levelo://app?vid=d2d67695-ea3f-4064-b6b9-6af351070314"},"vehicle_type_id":"4","last_reported":1678608517,"current_range_meters":28000,"station_id":"ce4bha12rcd13ifvqef0","pricing_plan_id":"free"},{"bike_id":"f59f47f7-b975-4c1c-ad36-c725c8d8ddb6","system_id":"levelo_inurba_marseille","lat":43.28039,"lon":5.369297,"is_reserved":false,"is_disabled":false,"rental_uris":{"android":"levelo://app?vid=f59f47f7-b975-4c1c-ad36-c725c8d8ddb6","ios":"levelo://app?vid=f59f47f7-b975-4c1c-ad36-c725c8d8ddb6"},"vehicle_type_id":"4","last_reported":1678608517,"current_range_meters":25200,"station_id":"ce4bha12rcd13ifvqef0","pricing_plan_id":"free"},{"bike_id":"0d0f449d-c179-4335-9d9a-9d94a3f200e3","system_id":"levelo_inurba_marseille","lat":43.28039,"lon":5.369297,"is_reserved":false,"is_disabled":false,"rental_uris":{"android":"levelo://app?vid=0d0f449d-c179-4335-9d9a-9d94a3f200e3","ios":"levelo://app?vid=0d0f449d-c179-4335-9d9a-9d94a3f200e3"},"vehicle_type_id":"4","last_reported":1678608517,"current_range_meters":28000,"station_id":"ce4bha12rcd13ifvqef0","pricing_plan_id":"free"},{"bike_id":"b9ce73d3-bc74-43a1-b32c-9aff711d22c3","system_id":"levelo_inurba_marseille","lat":43.280382,"lon":5.369291,"is_reserved":false,"is_disabled":false,"rental_uris":{"android":"levelo://app?vid=b9ce73d3-bc74-43a1-b32c-9aff711d22c3","ios":"levelo://app?vid=b9ce73d3-bc74-43a1-b32c-9aff711d22c3"},"vehicle_type_id":"4","last_reported":1678608517,"current_range_meters":28000,"station_id":"ce4bha12rcd13ifvqef0","pricing_plan_id":"free"},{"bike_id":"4ff805c4-2817-4f02-a73d-1715dba070d4","system_id":"levelo_inurba_marseille","lat":43.29041,"lon":5.399634,"is_reserved":false,"is_disabled":false,"rental_uris":{"android":"levelo://app?vid=4ff805c4-2817-4f02-a73d-1715dba070d4","ios":"levelo://app?vid=4ff805c4-2817-4f02-a73d-1715dba070d4"},"vehicle_type_id":"4","last_reported":1678608517,"current_range_meters":7200,"station_id":"ce4bh392rcd13ifvqdm0","pricing_plan_id":"free"},{"bike_id":"10e952df-4204-4999-a018-5c63c96ba683","system_id":"levelo_inurba_marseille","lat":43.29041,"lon":5.399634,"is_reserved":false,"is_disabled":false,"rental_uris":{"android":"levelo://app?vid=10e952df-4204-4999-a018-5c63c96ba683","ios":"levelo://app?vid=10e952df-4204-4999-a018-5c63c96ba683"},"vehicle_type_id":"4","last_reported":1678608517,"current_range_meters":27600,"station_id":"ce4bh392rcd13ifvqdm0","pricing_plan_id":"free"},{"bike_id":"7624c5c7-be4b-4316-a31d-e902d6739ff6","system_id":"levelo_inurba_marseille","lat":43.290412,"lon":5.399633,"is_reserved":false,"is_disabled":false,"rental_uris":{"android":"levelo://app?vid=7624c5c7-be4b-4316-a31d-e902d6739ff6","ios":"levelo://app?vid=7624c5c7-be4b-4316-a31d-e902d6739ff6"},"vehicle_type_id":"4","last_reported":1678608517,"current_range_meters":31600,"station_id":"ce4bh392rcd13ifvqdm0","pricing_plan_id":"free"},{"bike_id":"00f9382d-e40f-4e67-8d19-678557782f5b","system_id":"levelo_inurba_marseille","lat":43.29041,"lon":5.399634,"is_reserved":false,"is_disabled":false,"rental_uris":{"android":"levelo://app?vid=00f9382d-e40f-4e67-8d19-678557782f5b","ios":"levelo://app?vid=00f9382d-e40f-4e67-8d19-678557782f5b"},"vehicle_type_id":"4","last_reported":1678608517,"current_range_meters":31600,"station_id":"ce4bh392rcd13ifvqdm0","pricing_plan_id":"free"},{"bike_id":"d9e03ca8-8856-4546-b682-d38a77266dce","system_id":"levelo_inurba_marseille","lat":43.28104,"lon":5.37842,"is_reserved":false,"is_disabled":false,"rental_uris":{"android":"levelo://app?vid=d9e03ca8-8856-4546-b682-d38a77266dce","ios":"levelo://app?vid=d9e03ca8-8856-4546-b682-d38a77266dce"},"vehicle_type_id":"4","last_reported":1678608517,"current_range_meters":19600,"station_id":"ce4bha12rcd13ifvqee0","pricing_plan_id":"free"},{"bike_id":"da8a98a6-1618-4e50-97c7-6f414d5d6e35","system_id":"levelo_inurba_marseille","lat":43.281043,"lon":5.378444,"is_reserved":false,"is_disabled":false,"rental_uris":{"android":"levelo://app?vid=da8a98a6-1618-4e50-97c7-6f414d5d6e35","ios":"levelo://app?vid=da8a98a6-1618-4e50-97c7-6f414d5d6e35"},"vehicle_type_id":"4","last_reported":1678608517,"current_range_meters":18800,"station_id":"ce4bha12rcd13ifvqee0","pricing_plan_id":"free"},{"bike_id":"45609f63-b1fc-4c94-b503-e8fefba33f44","system_id":"levelo_inurba_marseille","lat":43.281026,"lon":5.378396,"is_reserved":false,"is_disabled":false,"rental_uris":{"android":"levelo://app?vid=45609f63-b1fc-4c94-b503-e8fefba33f44","ios":"levelo://app?vid=45609f63-b1fc-4c94-b503-e8fefba33f44"},"vehicle_type_id":"4","last_reported":1678608517,"current_range_meters":4800,"station_id":"ce4bha12rcd13ifvqee0","pricing_plan_id":"free"},{"bike_id":"cdb2f4b4-5639-4686-badb-f85736ab40a9","system_id":"levelo_inurba_marseille","lat":43.296263,"lon":5.40601,"is_reserved":false,"is_disabled":false,"rental_uris":{"android":"levelo://app?vid=cdb2f4b4-5639-4686-badb-f85736ab40a9","ios":"levelo://app?vid=cdb2f4b4-5639-4686-badb-f85736ab40a9"},"vehicle_type_id":"4","last_reported":1678608517,"current_range_meters":31600,"station_id":"ce4bh0h2rcd13ifvqd60","pricing_plan_id":"free"},{"bike_id":"725e176b-013c-481f-982f-06d9f3240a0a","system_id":"levelo_inurba_marseille","lat":43.280977,"lon":5.37844,"is_reserved":false,"is_disabled":false,"rental_uris":{"android":"levelo://app?vid=725e176b-013c-481f-982f-06d9f3240a0a","ios":"levelo://app?vid=725e176b-013c-481f-982f-06d9f3240a0a"},"vehicle_type_id":"4","last_reported":1678608517,"current_range_meters":3200,"station_id":"ce4bha12rcd13ifvqee0","pricing_plan_id":"free"},{"bike_id":"f1f3fa56-74b9-4cb7-843d-8c2e046e3f58","system_id":"levelo_inurba_marseille","lat":43.296263,"lon":5.40601,"is_reserved":false,"is_disabled":false,"rental_uris":{"android":"levelo://app?vid=f1f3fa56-74b9-4cb7-843d-8c2e046e3f58","ios":"levelo://app?vid=f1f3fa56-74b9-4cb7-843d-8c2e046e3f58"},"vehicle_type_id":"4","last_reported":1678608517,"current_range_meters":23600,"station_id":"ce4bh0h2rcd13ifvqd60","pricing_plan_id":"free"},{"bike_id":"785d5401-ab7e-4184-bf57-ff8399663ca8","system_id":"levelo_inurba_marseille","lat":43.30414,"lon":5.41278,"is_reserved":false,"is_disabled":false,"rental_uris":{"android":"levelo://app?vid=785d5401-ab7e-4184-bf57-ff8399663ca8","ios":"levelo://app?vid=785d5401-ab7e-4184-bf57-ff8399663ca8"},"vehicle_type_id":"4","last_reported":1678608517,"current_range_meters":15600,"station_id":"ce4bhop2rcd13ifvqh8g","pricing_plan_id":"free"},{"bike_id":"fadbbe24-6084-4d19-97b5-f7c7e606174f","system_id":"levelo_inurba_marseille","lat":43.30415,"lon":5.41282,"is_reserved":false,"is_disabled":false,"rental_uris":{"android":"levelo://app?vid=fadbbe24-6084-4d19-97b5-f7c7e606174f","ios":"levelo://app?vid=fadbbe24-6084-4d19-97b5-f7c7e606174f"},"vehicle_type_id":"4","last_reported":1678608517,"current_range_meters":2000,"station_id":"ce4bhop2rcd13ifvqh8g","pricing_plan_id":"free"},{"bike_id":"305e92ed-456d-443d-a5af-25c3a1d84ede","system_id":"levelo_inurba_marseille","lat":43.304157,"lon":5.412848,"is_reserved":false,"is_disabled":false,"rental_uris":{"android":"levelo://app?vid=305e92ed-456d-443d-a5af-25c3a1d84ede","ios":"levelo://app?vid=305e92ed-456d-443d-a5af-25c3a1d84ede"},"vehicle_type_id":"4","last_reported":1678608517,"current_range_meters":21600,"station_id":"ce4bhop2rcd13ifvqh8g","pricing_plan_id":"free"},{"bike_id":"2bb7a5d5-5f14-4d76-95c2-75f04486b28b","system_id":"levelo_inurba_marseille","lat":43.287154,"lon":5.399979,"is_reserved":false,"is_disabled":false,"rental_uris":{"android":"levelo://app?vid=2bb7a5d5-5f14-4d76-95c2-75f04486b28b","ios":"levelo://app?vid=2bb7a5d5-5f14-4d76-95c2-75f04486b28b"},"vehicle_type_id":"4","last_reported":1678608517,"current_range_meters":20800,"station_id":"ce4bho92rcd13ifvqh3g","pricing_plan_id":"free"},{"bike_id":"7a4d968a-cb6c-45b4-86ab-003c4cdcdd13","system_id":"levelo_inurba_marseille","lat":43.33252,"lon":5.40734,"is_reserved":false,"is_disabled":false,"rental_uris":{"android":"levelo://app?vid=7a4d968a-cb6c-45b4-86ab-003c4cdcdd13","ios":"levelo://app?vid=7a4d968a-cb6c-45b4-86ab-003c4cdcdd13"},"vehicle_type_id":"4","last_reported":1678608517,"current_range_meters":6800,"station_id":"","pricing_plan_id":"free"},{"bike_id":"8e4be4f1-de8b-4d00-a525-0700a239ec3e","system_id":"levelo_inurba_marseille","lat":43.32073,"lon":5.41532,"is_reserved":false,"is_disabled":false,"rental_uris":{"android":"levelo://app?vid=8e4be4f1-de8b-4d00-a525-0700a239ec3e","ios":"levelo://app?vid=8e4be4f1-de8b-4d00-a525-0700a239ec3e"},"vehicle_type_id":"4","last_reported":1678608517,"current_range_meters":29200,"station_id":"","pricing_plan_id":"free"},{"bike_id":"b193c10f-b1c9-4e3a-a61b-12bc2ed175b1","system_id":"levelo_inurba_marseille","lat":43.32042,"lon":5.41553,"is_reserved":false,"is_disabled":false,"rental_uris":{"android":"levelo://app?vid=b193c10f-b1c9-4e3a-a61b-12bc2ed175b1","ios":"levelo://app?vid=b193c10f-b1c9-4e3a-a61b-12bc2ed175b1"},"vehicle_type_id":"4","last_reported":1678608517,"current_range_meters":29200,"station_id":"","pricing_plan_id":"free"},{"bike_id":"db621c10-dfc1-4007-92ad-2826c9ac61e7","system_id":"levelo_inurba_marseille","lat":43.279673,"lon":5.387161,"is_reserved":false,"is_disabled":false,"rental_uris":{"android":"levelo://app?vid=db621c10-dfc1-4007-92ad-2826c9ac61e7","ios":"levelo://app?vid=db621c10-dfc1-4007-92ad-2826c9ac61e7"},"vehicle_type_id":"4","last_reported":1678608517,"current_range_meters":0,"station_id":"","pricing_plan_id":"free"},{"bike_id":"94410e1e-7d30-4143-8696-fba2d83e8d9e","system_id":"levelo_inurba_marseille","lat":43.325233,"lon":5.414318,"is_reserved":false,"is_disabled":false,"rental_uris":{"android":"levelo://app?vid=94410e1e-7d30-4143-8696-fba2d83e8d9e","ios":"levelo://app?vid=94410e1e-7d30-4143-8696-fba2d83e8d9e"},"vehicle_type_id":"4","last_reported":1678608517,"current_range_meters":0,"station_id":"ce4bhq12rcd13ifvqhhg","pricing_plan_id":"free"},{"bike_id":"888ec31e-7ff1-4415-9121-a594691e70f7","system_id":"levelo_inurba_marseille","lat":43.27618,"lon":5.361009,"is_reserved":false,"is_disabled":false,"rental_uris":{"android":"levelo://app?vid=888ec31e-7ff1-4415-9121-a594691e70f7","ios":"levelo://app?vid=888ec31e-7ff1-4415-9121-a594691e70f7"},"vehicle_type_id":"4","last_reported":1678608517,"current_range_meters":29200,"station_id":"ce4bgj92rcd13ifvqbe0","pricing_plan_id":"free"},{"bike_id":"f337c44f-a883-4a34-8cf7-87d7f52e27e0","system_id":"levelo_inurba_marseille","lat":43.27618,"lon":5.361009,"is_reserved":false,"is_disabled":false,"rental_uris":{"android":"levelo://app?vid=f337c44f-a883-4a34-8cf7-87d7f52e27e0","ios":"levelo://app?vid=f337c44f-a883-4a34-8cf7-87d7f52e27e0"},"vehicle_type_id":"4","last_reported":1678608517,"current_range_meters":19600,"station_id":"ce4bgj92rcd13ifvqbe0","pricing_plan_id":"free"},{"bike_id":"45b0a26b-fbe6-4f16-96bd-187a255706eb","system_id":"levelo_inurba_marseille","lat":43.325233,"lon":5.414318,"is_reserved":false,"is_disabled":false,"rental_uris":{"android":"levelo://app?vid=45b0a26b-fbe6-4f16-96bd-187a255706eb","ios":"levelo://app?vid=45b0a26b-fbe6-4f16-96bd-187a255706eb"},"vehicle_type_id":"4","last_reported":1678608517,"current_range_meters":27200,"station_id":"ce4bhq12rcd13ifvqhhg","pricing_plan_id":"free"},{"bike_id":"18aa44bb-65a4-4112-aada-f68a39a6d620","system_id":"levelo_inurba_marseille","lat":43.27618,"lon":5.361009,"is_reserved":false,"is_disabled":false,"rental_uris":{"android":"levelo://app?vid=18aa44bb-65a4-4112-aada-f68a39a6d620","ios":"levelo://app?vid=18aa44bb-65a4-4112-aada-f68a39a6d620"},"vehicle_type_id":"4","last_reported":1678608517,"current_range_meters":26000,"station_id":"ce4bgj92rcd13ifvqbe0","pricing_plan_id":"free"},{"bike_id":"c81f28f0-8e18-4d86-9832-4d93127084ed","system_id":"levelo_inurba_marseille","lat":43.27618,"lon":5.361009,"is_reserved":false,"is_disabled":false,"rental_uris":{"android":"levelo://app?vid=c81f28f0-8e18-4d86-9832-4d93127084ed","ios":"levelo://app?vid=c81f28f0-8e18-4d86-9832-4d93127084ed"},"vehicle_type_id":"4","last_reported":1678608517,"current_range_meters":26400,"station_id":"ce4bgj92rcd13ifvqbe0","pricing_plan_id":"free"},{"bike_id":"6468e0a6-f2cf-467b-8e75-468defeb1af8","system_id":"levelo_inurba_marseille","lat":43.325243,"lon":5.414326,"is_reserved":false,"is_disabled":false,"rental_uris":{"android":"levelo://app?vid=6468e0a6-f2cf-467b-8e75-468defeb1af8","ios":"levelo://app?vid=6468e0a6-f2cf-467b-8e75-468defeb1af8"},"vehicle_type_id":"4","last_reported":1678608517,"current_range_meters":28800,"station_id":"ce4bhq12rcd13ifvqhhg","pricing_plan_id":"free"},{"bike_id":"8c9726c5-efe4-4657-bcf4-896245da61b0","system_id":"levelo_inurba_marseille","lat":43.27618,"lon":5.361009,"is_reserved":false,"is_disabled":false,"rental_uris":{"android":"levelo://app?vid=8c9726c5-efe4-4657-bcf4-896245da61b0","ios":"levelo://app?vid=8c9726c5-efe4-4657-bcf4-896245da61b0"},"vehicle_type_id":"4","last_reported":1678608517,"current_range_meters":24400,"station_id":"ce4bgj92rcd13ifvqbe0","pricing_plan_id":"free"},{"bike_id":"1d321179-1483-4a22-9355-5170945100a9","system_id":"levelo_inurba_marseille","lat":43.27618,"lon":5.361009,"is_reserved":false,"is_disabled":false,"rental_uris":{"android":"levelo://app?vid=1d321179-1483-4a22-9355-5170945100a9","ios":"levelo://app?vid=1d321179-1483-4a22-9355-5170945100a9"},"vehicle_type_id":"4","last_reported":1678608517,"current_range_meters":24400,"station_id":"ce4bgj92rcd13ifvqbe0","pricing_plan_id":"free"},{"bike_id":"b1dcd4a6-12da-4450-a877-2b2e1584de3c","system_id":"levelo_inurba_marseille","lat":43.273613,"lon":5.362705,"is_reserved":false,"is_disabled":false,"rental_uris":{"android":"levelo://app?vid=b1dcd4a6-12da-4450-a877-2b2e1584de3c","ios":"levelo://app?vid=b1dcd4a6-12da-4450-a877-2b2e1584de3c"},"vehicle_type_id":"4","last_reported":1678608517,"current_range_meters":0,"station_id":"ce4bhbh2rcd13ifvqeo0","pricing_plan_id":"free"},{"bike_id":"bc5b89f3-2855-4d4e-8ee1-2e503e73d318","system_id":"levelo_inurba_marseille","lat":43.273613,"lon":5.362705,"is_reserved":false,"is_disabled":false,"rental_uris":{"android":"levelo://app?vid=bc5b89f3-2855-4d4e-8ee1-2e503e73d318","ios":"levelo://app?vid=bc5b89f3-2855-4d4e-8ee1-2e503e73d318"},"vehicle_type_id":"4","last_reported":1678608517,"current_range_meters":2800,"station_id":"ce4bhbh2rcd13ifvqeo0","pricing_plan_id":"free"},{"bike_id":"c2f34b34-a363-4bc1-bfc9-0c7448be1f19","system_id":"levelo_inurba_marseille","lat":43.33612,"lon":5.410321,"is_reserved":false,"is_disabled":false,"rental_uris":{"android":"levelo://app?vid=c2f34b34-a363-4bc1-bfc9-0c7448be1f19","ios":"levelo://app?vid=c2f34b34-a363-4bc1-bfc9-0c7448be1f19"},"vehicle_type_id":"4","last_reported":1678608517,"current_range_meters":24800,"station_id":"ce4bhqh2rcd13ifvqhmg","pricing_plan_id":"free"},{"bike_id":"036a0818-4cf9-4922-8e82-b3d2537f30ca","system_id":"levelo_inurba_marseille","lat":43.273613,"lon":5.362705,"is_reserved":false,"is_disabled":false,"rental_uris":{"android":"levelo://app?vid=036a0818-4cf9-4922-8e82-b3d2537f30ca","ios":"levelo://app?vid=036a0818-4cf9-4922-8e82-b3d2537f30ca"},"vehicle_type_id":"4","last_reported":1678608517,"current_range_meters":16800,"station_id":"ce4bhbh2rcd13ifvqeo0","pricing_plan_id":"free"},{"bike_id":"d3fe81d4-91e4-4578-ab32-88e674cc8d45","system_id":"levelo_inurba_marseille","lat":43.33612,"lon":5.410321,"is_reserved":false,"is_disabled":false,"rental_uris":{"android":"levelo://app?vid=d3fe81d4-91e4-4578-ab32-88e674cc8d45","ios":"levelo://app?vid=d3fe81d4-91e4-4578-ab32-88e674cc8d45"},"vehicle_type_id":"4","last_reported":1678608517,"current_range_meters":10000,"station_id":"ce4bhqh2rcd13ifvqhmg","pricing_plan_id":"free"},{"bike_id":"788d5e97-caf1-494b-b3ba-a4dffb65a2ff","system_id":"levelo_inurba_marseille","lat":43.33612,"lon":5.410321,"is_reserved":false,"is_disabled":false,"rental_uris":{"android":"levelo://app?vid=788d5e97-caf1-494b-b3ba-a4dffb65a2ff","ios":"levelo://app?vid=788d5e97-caf1-494b-b3ba-a4dffb65a2ff"},"vehicle_type_id":"4","last_reported":1678608517,"current_range_meters":23600,"station_id":"ce4bhqh2rcd13ifvqhmg","pricing_plan_id":"free"},{"bike_id":"a9095612-3d08-4fbd-9fe4-f204badfc2a1","system_id":"levelo_inurba_marseille","lat":43.33612,"lon":5.410321,"is_reserved":false,"is_disabled":false,"rental_uris":{"android":"levelo://app?vid=a9095612-3d08-4fbd-9fe4-f204badfc2a1","ios":"levelo://app?vid=a9095612-3d08-4fbd-9fe4-f204badfc2a1"},"vehicle_type_id":"4","last_reported":1678608517,"current_range_meters":23600,"station_id":"ce4bhqh2rcd13ifvqhmg","pricing_plan_id":"free"},{"bike_id":"dc2569ec-2231-4deb-8a03-59041014ad89","system_id":"levelo_inurba_marseille","lat":43.33612,"lon":5.410321,"is_reserved":false,"is_disabled":false,"rental_uris":{"android":"levelo://app?vid=dc2569ec-2231-4deb-8a03-59041014ad89","ios":"levelo://app?vid=dc2569ec-2231-4deb-8a03-59041014ad89"},"vehicle_type_id":"4","last_reported":1678608517,"current_range_meters":800,"station_id":"ce4bhqh2rcd13ifvqhmg","pricing_plan_id":"free"},{"bike_id":"1df2178c-fd6f-4a51-928c-5da2189db10c","system_id":"levelo_inurba_marseille","lat":43.33612,"lon":5.410321,"is_reserved":false,"is_disabled":false,"rental_uris":{"android":"levelo://app?vid=1df2178c-fd6f-4a51-928c-5da2189db10c","ios":"levelo://app?vid=1df2178c-fd6f-4a51-928c-5da2189db10c"},"vehicle_type_id":"4","last_reported":1678608517,"current_range_meters":6400,"station_id":"ce4bhqh2rcd13ifvqhmg","pricing_plan_id":"free"},{"bike_id":"a0240fa7-344e-4c27-b770-79d300d1f052","system_id":"levelo_inurba_marseille","lat":43.33612,"lon":5.410321,"is_reserved":false,"is_disabled":false,"rental_uris":{"android":"levelo://app?vid=a0240fa7-344e-4c27-b770-79d300d1f052","ios":"levelo://app?vid=a0240fa7-344e-4c27-b770-79d300d1f052"},"vehicle_type_id":"4","last_reported":1678608517,"current_range_meters":18000,"station_id":"ce4bhqh2rcd13ifvqhmg","pricing_plan_id":"free"},{"bike_id":"5443ae52-8a2b-40e0-a313-9119cef256e7","system_id":"levelo_inurba_marseille","lat":43.33612,"lon":5.410321,"is_reserved":false,"is_disabled":false,"rental_uris":{"android":"levelo://app?vid=5443ae52-8a2b-40e0-a313-9119cef256e7","ios":"levelo://app?vid=5443ae52-8a2b-40e0-a313-9119cef256e7"},"vehicle_type_id":"4","last_reported":1678608517,"current_range_meters":19600,"station_id":"ce4bhqh2rcd13ifvqhmg","pricing_plan_id":"free"},{"bike_id":"608a1bbf-a84d-4cb9-94e2-c2d2fdc37de7","system_id":"levelo_inurba_marseille","lat":43.336344,"lon":5.410248,"is_reserved":false,"is_disabled":false,"rental_uris":{"android":"levelo://app?vid=608a1bbf-a84d-4cb9-94e2-c2d2fdc37de7","ios":"levelo://app?vid=608a1bbf-a84d-4cb9-94e2-c2d2fdc37de7"},"vehicle_type_id":"4","last_reported":1678608517,"current_range_meters":26400,"station_id":"ce4bhqh2rcd13ifvqhmg","pricing_plan_id":"free"},{"bike_id":"e579f62b-5fb9-47df-9fe0-b0f3537b2229","system_id":"levelo_inurba_marseille","lat":43.317121,"lon":5.423936,"is_reserved":false,"is_disabled":false,"rental_uris":{"android":"levelo://app?vid=e579f62b-5fb9-47df-9fe0-b0f3537b2229","ios":"levelo://app?vid=e579f62b-5fb9-47df-9fe0-b0f3537b2229"},"vehicle_type_id":"4","last_reported":1678608517,"current_range_meters":28800,"station_id":"ce4bhp92rcd13ifvqhbg","pricing_plan_id":"free"},{"bike_id":"a2de911d-8388-42e0-b98b-d634b727fb60","system_id":"levelo_inurba_marseille","lat":43.33543,"lon":5.41511,"is_reserved":false,"is_disabled":false,"rental_uris":{"android":"levelo://app?vid=a2de911d-8388-42e0-b98b-d634b727fb60","ios":"levelo://app?vid=a2de911d-8388-42e0-b98b-d634b727fb60"},"vehicle_type_id":"4","last_reported":1678608517,"current_range_meters":3600,"station_id":"","pricing_plan_id":"free"},{"bike_id":"6e7e6b58-27e8-42c5-a438-4508638380dc","system_id":"levelo_inurba_marseille","lat":43.317121,"lon":5.423936,"is_reserved":false,"is_disabled":false,"rental_uris":{"android":"levelo://app?vid=6e7e6b58-27e8-42c5-a438-4508638380dc","ios":"levelo://app?vid=6e7e6b58-27e8-42c5-a438-4508638380dc"},"vehicle_type_id":"4","last_reported":1678608517,"current_range_meters":30000,"station_id":"ce4bhp92rcd13ifvqhbg","pricing_plan_id":"free"},{"bike_id":"acb252d6-4137-4734-89dd-f03a2f5a61cc","system_id":"levelo_inurba_marseille","lat":43.317121,"lon":5.423936,"is_reserved":false,"is_disabled":false,"rental_uris":{"android":"levelo://app?vid=acb252d6-4137-4734-89dd-f03a2f5a61cc","ios":"levelo://app?vid=acb252d6-4137-4734-89dd-f03a2f5a61cc"},"vehicle_type_id":"4","last_reported":1678608517,"current_range_meters":31600,"station_id":"ce4bhp92rcd13ifvqhbg","pricing_plan_id":"free"},{"bike_id":"e9bb9968-3a31-43f5-b0ed-0c8cedd1ffef","system_id":"levelo_inurba_marseille","lat":43.31084,"lon":5.42435,"is_reserved":false,"is_disabled":false,"rental_uris":{"android":"levelo://app?vid=e9bb9968-3a31-43f5-b0ed-0c8cedd1ffef","ios":"levelo://app?vid=e9bb9968-3a31-43f5-b0ed-0c8cedd1ffef"},"vehicle_type_id":"4","last_reported":1678608517,"current_range_meters":0,"station_id":"ce4bhp92rcd13ifvqhag","pricing_plan_id":"free"},{"bike_id":"bf0d4544-7a67-44f3-83b6-7f171002c93a","system_id":"levelo_inurba_marseille","lat":43.310785,"lon":5.424305,"is_reserved":false,"is_disabled":false,"rental_uris":{"android":"levelo://app?vid=bf0d4544-7a67-44f3-83b6-7f171002c93a","ios":"levelo://app?vid=bf0d4544-7a67-44f3-83b6-7f171002c93a"},"vehicle_type_id":"4","last_reported":1678608517,"current_range_meters":4400,"station_id":"ce4bhp92rcd13ifvqhag","pricing_plan_id":"free"},{"bike_id":"f2cd6ae5-4841-40c7-8b29-1a3eaa54c23a","system_id":"levelo_inurba_marseille","lat":43.27946,"lon":5.40432,"is_reserved":false,"is_disabled":false,"rental_uris":{"android":"levelo://app?vid=f2cd6ae5-4841-40c7-8b29-1a3eaa54c23a","ios":"levelo://app?vid=f2cd6ae5-4841-40c7-8b29-1a3eaa54c23a"},"vehicle_type_id":"4","last_reported":1678608517,"current_range_meters":20400,"station_id":"","pricing_plan_id":"free"},{"bike_id":"bee1ae3b-8cc3-4ee4-8f54-63bf20cf5133","system_id":"levelo_inurba_marseille","lat":43.274216,"lon":5.394096,"is_reserved":false,"is_disabled":false,"rental_uris":{"android":"levelo://app?vid=bee1ae3b-8cc3-4ee4-8f54-63bf20cf5133","ios":"levelo://app?vid=bee1ae3b-8cc3-4ee4-8f54-63bf20cf5133"},"vehicle_type_id":"4","last_reported":1678608517,"current_range_meters":5200,"station_id":"ce4bhdp2rcd13ifvqf20","pricing_plan_id":"free"},{"bike_id":"b2c1a1bc-f324-4d44-a39f-60393283b976","system_id":"levelo_inurba_marseille","lat":43.274103,"lon":5.394016,"is_reserved":false,"is_disabled":false,"rental_uris":{"android":"levelo://app?vid=b2c1a1bc-f324-4d44-a39f-60393283b976","ios":"levelo://app?vid=b2c1a1bc-f324-4d44-a39f-60393283b976"},"vehicle_type_id":"4","last_reported":1678608517,"current_range_meters":20800,"station_id":"ce4bhdp2rcd13ifvqf20","pricing_plan_id":"free"},{"bike_id":"236da3e4-e24a-4414-9e16-0945b3f5d9f5","system_id":"levelo_inurba_marseille","lat":43.295511,"lon":5.422926,"is_reserved":false,"is_disabled":false,"rental_uris":{"android":"levelo://app?vid=236da3e4-e24a-4414-9e16-0945b3f5d9f5","ios":"levelo://app?vid=236da3e4-e24a-4414-9e16-0945b3f5d9f5"},"vehicle_type_id":"4","last_reported":1678608517,"current_range_meters":21200,"station_id":"ce4bhph2rcd13ifvqhdg","pricing_plan_id":"free"},{"bike_id":"4abe47de-a7db-4e8a-bf9b-ea3749358064","system_id":"levelo_inurba_marseille","lat":43.295511,"lon":5.422926,"is_reserved":false,"is_disabled":false,"rental_uris":{"android":"levelo://app?vid=4abe47de-a7db-4e8a-bf9b-ea3749358064","ios":"levelo://app?vid=4abe47de-a7db-4e8a-bf9b-ea3749358064"},"vehicle_type_id":"4","last_reported":1678608517,"current_range_meters":800,"station_id":"ce4bhph2rcd13ifvqhdg","pricing_plan_id":"free"},{"bike_id":"5af6c2b7-dd3b-40af-ad7e-41f1641ca6ce","system_id":"levelo_inurba_marseille","lat":43.29549,"lon":5.42282,"is_reserved":false,"is_disabled":false,"rental_uris":{"android":"levelo://app?vid=5af6c2b7-dd3b-40af-ad7e-41f1641ca6ce","ios":"levelo://app?vid=5af6c2b7-dd3b-40af-ad7e-41f1641ca6ce"},"vehicle_type_id":"4","last_reported":1678608517,"current_range_meters":3600,"station_id":"ce4bhph2rcd13ifvqhdg","pricing_plan_id":"free"},{"bike_id":"00cd4c4b-75ec-488e-a837-c70d64b67a31","system_id":"levelo_inurba_marseille","lat":43.272,"lon":5.39193,"is_reserved":false,"is_disabled":false,"rental_uris":{"android":"levelo://app?vid=00cd4c4b-75ec-488e-a837-c70d64b67a31","ios":"levelo://app?vid=00cd4c4b-75ec-488e-a837-c70d64b67a31"},"vehicle_type_id":"4","last_reported":1678608517,"current_range_meters":18400,"station_id":"ce4bhhp2rcd13ifvqfm0","pricing_plan_id":"free"},{"bike_id":"a42f4735-50f8-4936-b56d-f9ba87d03b0f","system_id":"levelo_inurba_marseille","lat":43.278128,"lon":5.407195,"is_reserved":false,"is_disabled":false,"rental_uris":{"android":"levelo://app?vid=a42f4735-50f8-4936-b56d-f9ba87d03b0f","ios":"levelo://app?vid=a42f4735-50f8-4936-b56d-f9ba87d03b0f"},"vehicle_type_id":"4","last_reported":1678608517,"current_range_meters":31600,"station_id":"ce4bhnh2rcd13ifvqgtg","pricing_plan_id":"free"},{"bike_id":"b02d97d7-7779-4850-92d4-11627450d29b","system_id":"levelo_inurba_marseille","lat":43.278128,"lon":5.407195,"is_reserved":false,"is_disabled":false,"rental_uris":{"android":"levelo://app?vid=b02d97d7-7779-4850-92d4-11627450d29b","ios":"levelo://app?vid=b02d97d7-7779-4850-92d4-11627450d29b"},"vehicle_type_id":"4","last_reported":1678608517,"current_range_meters":31600,"station_id":"ce4bhnh2rcd13ifvqgtg","pricing_plan_id":"free"},{"bike_id":"571c0bb9-5085-4b1b-ae9d-103e607c8c16","system_id":"levelo_inurba_marseille","lat":43.278128,"lon":5.407195,"is_reserved":false,"is_disabled":false,"rental_uris":{"android":"levelo://app?vid=571c0bb9-5085-4b1b-ae9d-103e607c8c16","ios":"levelo://app?vid=571c0bb9-5085-4b1b-ae9d-103e607c8c16"},"vehicle_type_id":"4","last_reported":1678608517,"current_range_meters":31200,"station_id":"ce4bhnh2rcd13ifvqgtg","pricing_plan_id":"free"},{"bike_id":"eb64aa52-f4ca-45a0-a970-1a3b54c8b40a","system_id":"levelo_inurba_marseille","lat":43.278128,"lon":5.407195,"is_reserved":false,"is_disabled":false,"rental_uris":{"android":"levelo://app?vid=eb64aa52-f4ca-45a0-a970-1a3b54c8b40a","ios":"levelo://app?vid=eb64aa52-f4ca-45a0-a970-1a3b54c8b40a"},"vehicle_type_id":"4","last_reported":1678608517,"current_range_meters":31600,"station_id":"ce4bhnh2rcd13ifvqgtg","pricing_plan_id":"free"},{"bike_id":"f821c69e-0ba7-4264-8c2f-948c9ec835e8","system_id":"levelo_inurba_marseille","lat":43.278128,"lon":5.407195,"is_reserved":false,"is_disabled":false,"rental_uris":{"android":"levelo://app?vid=f821c69e-0ba7-4264-8c2f-948c9ec835e8","ios":"levelo://app?vid=f821c69e-0ba7-4264-8c2f-948c9ec835e8"},"vehicle_type_id":"4","last_reported":1678608517,"current_range_meters":31200,"station_id":"ce4bhnh2rcd13ifvqgtg","pricing_plan_id":"free"},{"bike_id":"a28f4dc1-be3b-4833-9f1d-e980d6ca2734","system_id":"levelo_inurba_marseille","lat":43.278128,"lon":5.407195,"is_reserved":false,"is_disabled":false,"rental_uris":{"android":"levelo://app?vid=a28f4dc1-be3b-4833-9f1d-e980d6ca2734","ios":"levelo://app?vid=a28f4dc1-be3b-4833-9f1d-e980d6ca2734"},"vehicle_type_id":"4","last_reported":1678608517,"current_range_meters":24400,"station_id":"ce4bhnh2rcd13ifvqgtg","pricing_plan_id":"free"},{"bike_id":"76638ba0-a6bb-445d-a93b-8b1006b87e00","system_id":"levelo_inurba_marseille","lat":43.278128,"lon":5.407195,"is_reserved":false,"is_disabled":false,"rental_uris":{"android":"levelo://app?vid=76638ba0-a6bb-445d-a93b-8b1006b87e00","ios":"levelo://app?vid=76638ba0-a6bb-445d-a93b-8b1006b87e00"},"vehicle_type_id":"4","last_reported":1678608517,"current_range_meters":28400,"station_id":"ce4bhnh2rcd13ifvqgtg","pricing_plan_id":"free"},{"bike_id":"f2dfa686-1a9b-4749-b1a0-ebc36d821725","system_id":"levelo_inurba_marseille","lat":43.278128,"lon":5.407195,"is_reserved":false,"is_disabled":false,"rental_uris":{"android":"levelo://app?vid=f2dfa686-1a9b-4749-b1a0-ebc36d821725","ios":"levelo://app?vid=f2dfa686-1a9b-4749-b1a0-ebc36d821725"},"vehicle_type_id":"4","last_reported":1678608517,"current_range_meters":27600,"station_id":"ce4bhnh2rcd13ifvqgtg","pricing_plan_id":"free"},{"bike_id":"057b6b9e-614d-438d-91b4-f77246f3e6ca","system_id":"levelo_inurba_marseille","lat":43.278118,"lon":5.407152,"is_reserved":false,"is_disabled":false,"rental_uris":{"android":"levelo://app?vid=057b6b9e-614d-438d-91b4-f77246f3e6ca","ios":"levelo://app?vid=057b6b9e-614d-438d-91b4-f77246f3e6ca"},"vehicle_type_id":"4","last_reported":1678608517,"current_range_meters":11600,"station_id":"ce4bhnh2rcd13ifvqgtg","pricing_plan_id":"free"},{"bike_id":"fd9ed78f-46b4-4f6b-b96f-ffa72e6f9f24","system_id":"levelo_inurba_marseille","lat":43.278128,"lon":5.407195,"is_reserved":false,"is_disabled":false,"rental_uris":{"android":"levelo://app?vid=fd9ed78f-46b4-4f6b-b96f-ffa72e6f9f24","ios":"levelo://app?vid=fd9ed78f-46b4-4f6b-b96f-ffa72e6f9f24"},"vehicle_type_id":"4","last_reported":1678608517,"current_range_meters":29200,"station_id":"ce4bhnh2rcd13ifvqgtg","pricing_plan_id":"free"},{"bike_id":"5b5eefc3-8df7-4e1f-a397-3d0b43fe8bb1","system_id":"levelo_inurba_marseille","lat":43.278081,"lon":5.407129,"is_reserved":false,"is_disabled":false,"rental_uris":{"android":"levelo://app?vid=5b5eefc3-8df7-4e1f-a397-3d0b43fe8bb1","ios":"levelo://app?vid=5b5eefc3-8df7-4e1f-a397-3d0b43fe8bb1"},"vehicle_type_id":"4","last_reported":1678608517,"current_range_meters":23200,"station_id":"ce4bhnh2rcd13ifvqgtg","pricing_plan_id":"free"},{"bike_id":"fe94bea3-53db-4e61-9c62-f230140f3c73","system_id":"levelo_inurba_marseille","lat":43.27996,"lon":5.416624,"is_reserved":false,"is_disabled":false,"rental_uris":{"android":"levelo://app?vid=fe94bea3-53db-4e61-9c62-f230140f3c73","ios":"levelo://app?vid=fe94bea3-53db-4e61-9c62-f230140f3c73"},"vehicle_type_id":"4","last_reported":1678608517,"current_range_meters":6800,"station_id":"ce4bho12rcd13ifvqh1g","pricing_plan_id":"free"},{"bike_id":"500ac01b-105e-4655-bc69-a12c5739b286","system_id":"levelo_inurba_marseille","lat":43.27996,"lon":5.416624,"is_reserved":false,"is_disabled":false,"rental_uris":{"android":"levelo://app?vid=500ac01b-105e-4655-bc69-a12c5739b286","ios":"levelo://app?vid=500ac01b-105e-4655-bc69-a12c5739b286"},"vehicle_type_id":"4","last_reported":1678608517,"current_range_meters":18400,"station_id":"ce4bho12rcd13ifvqh1g","pricing_plan_id":"free"},{"bike_id":"011e536c-cad2-4ff8-b71d-16ff0bc9a9b6","system_id":"levelo_inurba_marseille","lat":43.27996,"lon":5.416624,"is_reserved":false,"is_disabled":false,"rental_uris":{"android":"levelo://app?vid=011e536c-cad2-4ff8-b71d-16ff0bc9a9b6","ios":"levelo://app?vid=011e536c-cad2-4ff8-b71d-16ff0bc9a9b6"},"vehicle_type_id":"4","last_reported":1678608517,"current_range_meters":0,"station_id":"ce4bho12rcd13ifvqh1g","pricing_plan_id":"free"},{"bike_id":"ff6b782b-d180-4bf1-83f6-ca4896fa5790","system_id":"levelo_inurba_marseille","lat":43.27996,"lon":5.416624,"is_reserved":false,"is_disabled":false,"rental_uris":{"android":"levelo://app?vid=ff6b782b-d180-4bf1-83f6-ca4896fa5790","ios":"levelo://app?vid=ff6b782b-d180-4bf1-83f6-ca4896fa5790"},"vehicle_type_id":"4","last_reported":1678608517,"current_range_meters":20800,"station_id":"ce4bho12rcd13ifvqh1g","pricing_plan_id":"free"},{"bike_id":"7df3ff8b-c42d-45a0-a7bf-ea9b8fdcd1de","system_id":"levelo_inurba_marseille","lat":43.27996,"lon":5.416624,"is_reserved":false,"is_disabled":false,"rental_uris":{"android":"levelo://app?vid=7df3ff8b-c42d-45a0-a7bf-ea9b8fdcd1de","ios":"levelo://app?vid=7df3ff8b-c42d-45a0-a7bf-ea9b8fdcd1de"},"vehicle_type_id":"4","last_reported":1678608517,"current_range_meters":24800,"station_id":"ce4bho12rcd13ifvqh1g","pricing_plan_id":"free"},{"bike_id":"cca29d16-2c18-4930-9ae6-d9dc0948a9bd","system_id":"levelo_inurba_marseille","lat":43.27996,"lon":5.416624,"is_reserved":false,"is_disabled":false,"rental_uris":{"android":"levelo://app?vid=cca29d16-2c18-4930-9ae6-d9dc0948a9bd","ios":"levelo://app?vid=cca29d16-2c18-4930-9ae6-d9dc0948a9bd"},"vehicle_type_id":"4","last_reported":1678608517,"current_range_meters":24000,"station_id":"ce4bho12rcd13ifvqh1g","pricing_plan_id":"free"},{"bike_id":"87a620b4-975a-4181-b493-c69a9a62f68c","system_id":"levelo_inurba_marseille","lat":43.27996,"lon":5.416624,"is_reserved":false,"is_disabled":false,"rental_uris":{"android":"levelo://app?vid=87a620b4-975a-4181-b493-c69a9a62f68c","ios":"levelo://app?vid=87a620b4-975a-4181-b493-c69a9a62f68c"},"vehicle_type_id":"4","last_reported":1678608517,"current_range_meters":7600,"station_id":"ce4bho12rcd13ifvqh1g","pricing_plan_id":"free"},{"bike_id":"29469ad4-36d6-4003-8e51-6c7287c7f35c","system_id":"levelo_inurba_marseille","lat":43.27996,"lon":5.416624,"is_reserved":false,"is_disabled":false,"rental_uris":{"android":"levelo://app?vid=29469ad4-36d6-4003-8e51-6c7287c7f35c","ios":"levelo://app?vid=29469ad4-36d6-4003-8e51-6c7287c7f35c"},"vehicle_type_id":"4","last_reported":1678608517,"current_range_meters":6000,"station_id":"ce4bho12rcd13ifvqh1g","pricing_plan_id":"free"},{"bike_id":"22db97a7-3cc0-4f91-8de3-4138b35e21cf","system_id":"levelo_inurba_marseille","lat":43.26786,"lon":5.39418,"is_reserved":false,"is_disabled":false,"rental_uris":{"android":"levelo://app?vid=22db97a7-3cc0-4f91-8de3-4138b35e21cf","ios":"levelo://app?vid=22db97a7-3cc0-4f91-8de3-4138b35e21cf"},"vehicle_type_id":"4","last_reported":1678608517,"current_range_meters":2800,"station_id":"ce4bhh12rcd13ifvqfg0","pricing_plan_id":"free"},{"bike_id":"ebb7dab2-7aa6-4f91-90ea-65dca7c2fa0a","system_id":"levelo_inurba_marseille","lat":43.308051,"lon":5.43527,"is_reserved":false,"is_disabled":false,"rental_uris":{"android":"levelo://app?vid=ebb7dab2-7aa6-4f91-90ea-65dca7c2fa0a","ios":"levelo://app?vid=ebb7dab2-7aa6-4f91-90ea-65dca7c2fa0a"},"vehicle_type_id":"4","last_reported":1678608517,"current_range_meters":9600,"station_id":"ce4bhph2rcd13ifvqheg","pricing_plan_id":"free"},{"bike_id":"cd539627-d7f8-4b6a-b58a-e5b3a0221475","system_id":"levelo_inurba_marseille","lat":43.295511,"lon":5.422926,"is_reserved":false,"is_disabled":false,"rental_uris":{"android":"levelo://app?vid=cd539627-d7f8-4b6a-b58a-e5b3a0221475","ios":"levelo://app?vid=cd539627-d7f8-4b6a-b58a-e5b3a0221475"},"vehicle_type_id":"4","last_reported":1678608517,"current_range_meters":20800,"station_id":"ce4bhph2rcd13ifvqhdg","pricing_plan_id":"free"},{"bike_id":"0ef4118d-b1e2-4b95-b142-c04e5848c9f7","system_id":"levelo_inurba_marseille","lat":43.317104,"lon":5.436818,"is_reserved":false,"is_disabled":false,"rental_uris":{"android":"levelo://app?vid=0ef4118d-b1e2-4b95-b142-c04e5848c9f7","ios":"levelo://app?vid=0ef4118d-b1e2-4b95-b142-c04e5848c9f7"},"vehicle_type_id":"4","last_reported":1678608517,"current_range_meters":9600,"station_id":"ce4bhp92rcd13ifvqhcg","pricing_plan_id":"free"},{"bike_id":"ae41ff7a-096e-414e-a6db-a5af36211263","system_id":"levelo_inurba_marseille","lat":43.261782,"lon":5.374515,"is_reserved":false,"is_disabled":false,"rental_uris":{"android":"levelo://app?vid=ae41ff7a-096e-414e-a6db-a5af36211263","ios":"levelo://app?vid=ae41ff7a-096e-414e-a6db-a5af36211263"},"vehicle_type_id":"4","last_reported":1678608517,"current_range_meters":11200,"station_id":"ce4bhgp2rcd13ifvqfc0","pricing_plan_id":"free"},{"bike_id":"1ce346f0-a5cf-4658-8031-a7329921c248","system_id":"levelo_inurba_marseille","lat":43.317104,"lon":5.436818,"is_reserved":false,"is_disabled":false,"rental_uris":{"android":"levelo://app?vid=1ce346f0-a5cf-4658-8031-a7329921c248","ios":"levelo://app?vid=1ce346f0-a5cf-4658-8031-a7329921c248"},"vehicle_type_id":"4","last_reported":1678608517,"current_range_meters":8800,"station_id":"ce4bhp92rcd13ifvqhcg","pricing_plan_id":"free"},{"bike_id":"c228581d-99f3-4e86-b29b-87d794f4b64b","system_id":"levelo_inurba_marseille","lat":43.31713,"lon":5.437067,"is_reserved":false,"is_disabled":false,"rental_uris":{"android":"levelo://app?vid=c228581d-99f3-4e86-b29b-87d794f4b64b","ios":"levelo://app?vid=c228581d-99f3-4e86-b29b-87d794f4b64b"},"vehicle_type_id":"4","last_reported":1678608517,"current_range_meters":2000,"station_id":"ce4bhp92rcd13ifvqhcg","pricing_plan_id":"free"},{"bike_id":"3d8a7c96-a7eb-4c1d-a171-a78574eb0626","system_id":"levelo_inurba_marseille","lat":43.26202,"lon":5.379299,"is_reserved":false,"is_disabled":false,"rental_uris":{"android":"levelo://app?vid=3d8a7c96-a7eb-4c1d-a171-a78574eb0626","ios":"levelo://app?vid=3d8a7c96-a7eb-4c1d-a171-a78574eb0626"},"vehicle_type_id":"4","last_reported":1678608517,"current_range_meters":3200,"station_id":"ce4bhjp2rcd13ifvqg90","pricing_plan_id":"free"},{"bike_id":"c4d2ce6c-d5f3-45e5-87a2-d15e43420bca","system_id":"levelo_inurba_marseille","lat":43.26202,"lon":5.379299,"is_reserved":false,"is_disabled":false,"rental_uris":{"android":"levelo://app?vid=c4d2ce6c-d5f3-45e5-87a2-d15e43420bca","ios":"levelo://app?vid=c4d2ce6c-d5f3-45e5-87a2-d15e43420bca"},"vehicle_type_id":"4","last_reported":1678608517,"current_range_meters":23600,"station_id":"ce4bhjp2rcd13ifvqg90","pricing_plan_id":"free"},{"bike_id":"ef0f2998-b036-4a14-ace6-5a7f5efd30fd","system_id":"levelo_inurba_marseille","lat":43.26202,"lon":5.379299,"is_reserved":false,"is_disabled":false,"rental_uris":{"android":"levelo://app?vid=ef0f2998-b036-4a14-ace6-5a7f5efd30fd","ios":"levelo://app?vid=ef0f2998-b036-4a14-ace6-5a7f5efd30fd"},"vehicle_type_id":"4","last_reported":1678608517,"current_range_meters":21600,"station_id":"ce4bhjp2rcd13ifvqg90","pricing_plan_id":"free"},{"bike_id":"e8cf1224-314e-4b3b-aa08-12641a085f69","system_id":"levelo_inurba_marseille","lat":43.26193,"lon":5.37933,"is_reserved":false,"is_disabled":false,"rental_uris":{"android":"levelo://app?vid=e8cf1224-314e-4b3b-aa08-12641a085f69","ios":"levelo://app?vid=e8cf1224-314e-4b3b-aa08-12641a085f69"},"vehicle_type_id":"4","last_reported":1678608517,"current_range_meters":23200,"station_id":"ce4bhjp2rcd13ifvqg90","pricing_plan_id":"free"},{"bike_id":"bf78922f-0d72-4632-b4a3-5d737ef01131","system_id":"levelo_inurba_marseille","lat":43.267959,"lon":5.402685,"is_reserved":false,"is_disabled":false,"rental_uris":{"android":"levelo://app?vid=bf78922f-0d72-4632-b4a3-5d737ef01131","ios":"levelo://app?vid=bf78922f-0d72-4632-b4a3-5d737ef01131"},"vehicle_type_id":"4","last_reported":1678608517,"current_range_meters":5600,"station_id":"ce501612rcd8frsf0b60","pricing_plan_id":"free"},{"bike_id":"f654cebd-ef06-4599-82a6-2e4cc5fef4eb","system_id":"levelo_inurba_marseille","lat":43.268049,"lon":5.402573,"is_reserved":false,"is_disabled":false,"rental_uris":{"android":"levelo://app?vid=f654cebd-ef06-4599-82a6-2e4cc5fef4eb","ios":"levelo://app?vid=f654cebd-ef06-4599-82a6-2e4cc5fef4eb"},"vehicle_type_id":"4","last_reported":1678608517,"current_range_meters":0,"station_id":"ce501612rcd8frsf0b60","pricing_plan_id":"free"},