{"last_updated":1731697631,"ttl":60,"version":"2.2","data":{"bikes":[{"bike_id":"d23182b5-adfc-48c3-b485-8166e71322f6","system_id":"levelo_inurba_marseille","lat":43.2847,"lon":5.35894,"is_reserved":false,"is_disabled":false,"rental_uris":{"android":"levelo://app?vid=d23182b5-adfc-48c3-b485-8166e71322f6","ios":"levelo://app?vid=d23182b5-adfc-48c3-b485-8166e71322f6"},"vehicle_type_id":"4","last_reported":1731697631,"current_range_meters":4400,"station_id":"ce4bhah2rcd13ifvqei0","pricing_plan_id":"cebpf4jnsgd1na2vs0mg"},{"bike_id":"ac044103-3d53-41c7-80f9-f8ff015e3c1b","system_id":"levelo_inurba_marseille","lat":43.28611,"lon":5.37063,"is_reserved":false,"is_disabled":false,"rental_uris":{"android":"levelo://app?vid=ac044103-3d53-41c7-80f9-f8ff015e3c1b","ios":"levelo://app?vid=ac044103-3d53-41c7-80f9-f8ff015e3c1b"},"vehicle_type_id":"4","last_reported":1731697631,"current_range_meters":5600,"station_id":"ce4bht12rcd13ifvqi60","pricing_plan_id":"cebpf4jnsgd1na2vs0mg"},{"bike_id":"5856ad94-bc0e-4f57-993d-864d7234767f","system_id":"levelo_inurba_marseille","lat":43.33763,"lon":5.37483,"is_reserved":false,"is_disabled":false,"rental_uris":{"android":"levelo://app?vid=5856ad94-bc0e-4f57-993d-864d7234767f","ios":"levelo://app?vid=5856ad94-bc0e-4f57-993d-864d7234767f"},"vehicle_type_id":"4","last_reported":1731697631,"current_range_meters":36400,"station_id":"","pricing_plan_id":"cebpf4jnsgd1na2vs0mg"},{"bike_id":"ad0119b6-f36e-41d0-aff8-49bbee3c2d02","system_id":"levelo_inurba_marseille","lat":43.31689,"lon":5.40477,"is_reserved":false,"is_disabled":false,"rental_uris":{"android":"levelo://app?vid=ad0119b6-f36e-41d0-aff8-49bbee3c2d02","ios":"levelo://app?vid=ad0119b6-f36e-41d0-aff8-49bbee3c2d02"},"vehicle_type_id":"4","last_reported":1731697631,"current_range_meters":11200,"station_id":"ce4bh012rcd13ifvqd00","pricing_plan_id":"cebpf4jnsgd1na2vs0mg"},{"bike_id":"983b4636-dce4-431f-a309-9422eb5f9f58","system_id":"levelo_inurba_marseille","lat":43.29525,"lon":5.38541,"is_reserved":false,"is_disabled":false,"rental_uris":{"android":"levelo://app?vid=983b4636-dce4-431f-a309-9422eb5f9f58","ios":"levelo://app?vid=983b4636-dce4-431f-a309-9422eb5f9f58"},"vehicle_type_id":"4","last_reported":1731697631,"current_range_meters":2800,"station_id":"ce4bgih2rcd13ifvqba0","pricing_plan_id":"cebpf4jnsgd1na2vs0mg"},{"bike_id":"e669f0ce-dbeb-4431-b052-0fd7081a0115","system_id":"levelo_inurba_marseille","lat":43.31689,"lon":5.40472,"is_reserved":false,"is_disabled":false,"rental_uris":{"android":"levelo://app?vid=e669f0ce-dbeb-4431-b052-0fd7081a0115","ios":"levelo://app?vid=e669f0ce-dbeb-4431-b052-0fd7081a0115"},"vehicle_type_id":"4","last_reported":1731697631,"current_range_meters":3200,"station_id":"ce4bh012rcd13ifvqd00","pricing_plan_id":"cebpf4jnsgd1na2vs0mg"},{"bike_id":"54084a44-85c2-4b80-b91a-12f393fec9d2","system_id":"levelo_inurba_marseille","lat":43.27173,"lon":5.4099,"is_reserved":false,"is_disabled":false,"rental_uris":{"android":"levelo://app?vid=54084a44-85c2-4b80-b91a-12f393fec9d2","ios":"levelo://app?vid=54084a44-85c2-4b80-b91a-12f393fec9d2"},"vehicle_type_id":"4","last_reported":1731697631,"current_range_meters":3600,"station_id":"ce4bhl12rcd13ifvqgf0","pricing_plan_id":"cebpf4jnsgd1na2vs0mg"},{"bike_id":"10c06adc-4535-4981-8dab-8cc15da57141","system_id":"levelo_inurba_marseille","lat":43.33023,"lon":5.39043,"is_reserved":false,"is_disabled":false,"rental_uris":{"android":"levelo://app?vid=10c06adc-4535-4981-8dab-8cc15da57141","ios":"levelo://app?vid=10c06adc-4535-4981-8dab-8cc15da57141"},"vehicle_type_id":"4","last_reported":1731697631,"current_range_meters":24800,"station_id":"ce4bhr92rcd13ifvqhrg","pricing_plan_id":"cebpf4jnsgd1na2vs0mg"},{"bike_id":"fbd1cb10-acb2-4965-bd11-6565f9b6c98f","system_id":"levelo_inurba_marseille","lat":43.295344,"lon":5.385411,"is_reserved":false,"is_disabled":false,"rental_uris":{"android":"levelo://app?vid=fbd1cb10-acb2-4965-bd11-6565f9b6c98f","ios":"levelo://app?vid=fbd1cb10-acb2-4965-bd11-6565f9b6c98f"},"vehicle_type_id":"4","last_reported":1731697631,"current_range_meters":20800,"station_id":"ce4bgih2rcd13ifvqba0","pricing_plan_id":"cebpf4jnsgd1na2vs0mg"},{"bike_id":"301c37c7-8102-484a-bb27-9b181007b646","system_id":"levelo_inurba_marseille","lat":43.32287,"lon":5.38255,"is_reserved":false,"is_disabled":false,"rental_uris":{"android":"levelo://app?vid=301c37c7-8102-484a-bb27-9b181007b646","ios":"levelo://app?vid=301c37c7-8102-484a-bb27-9b181007b646"},"vehicle_type_id":"4","last_reported":1731697631,"current_range_meters":35600,"station_id":"ce4bhr12rcd13ifvqhqg","pricing_plan_id":"cebpf4jnsgd1na2vs0mg"},{"bike_id":"032ce453-8eab-4e86-a761-033f2cb26fc2","system_id":"levelo_inurba_marseille","lat":43.29404,"lon":5.38613,"is_reserved":false,"is_disabled":false,"rental_uris":{"android":"levelo://app?vid=032ce453-8eab-4e86-a761-033f2cb26fc2","ios":"levelo://app?vid=032ce453-8eab-4e86-a761-033f2cb26fc2"},"vehicle_type_id":"4","last_reported":1731697631,"current_range_meters":4000,"station_id":"ce4bh2h2rcd13ifvqdh0","pricing_plan_id":"cebpf4jnsgd1na2vs0mg"},{"bike_id":"f79acbfd-6146-4924-a6bb-e41ff2145134","system_id":"levelo_inurba_marseille","lat":43.28707,"lon":5.37386,"is_reserved":false,"is_disabled":false,"rental_uris":{"android":"levelo://app?vid=f79acbfd-6146-4924-a6bb-e41ff2145134","ios":"levelo://app?vid=f79acbfd-6146-4924-a6bb-e41ff2145134"},"vehicle_type_id":"4","last_reported":1731697631,"current_range_meters":38400,"station_id":"ce4bh3p2rcd13ifvqdq0","pricing_plan_id":"cebpf4jnsgd1na2vs0mg"},{"bike_id":"65f441b7-c611-47af-8181-eff63a577b92","system_id":"levelo_inurba_marseille","lat":43.28269,"lon":5.35059,"is_reserved":false,"is_disabled":false,"rental_uris":{"android":"levelo://app?vid=65f441b7-c611-47af-8181-eff63a577b92","ios":"levelo://app?vid=65f441b7-c611-47af-8181-eff63a577b92"},"vehicle_type_id":"4","last_reported":1731697631,"current_range_meters":12800,"station_id":"ce4bhbp2rcd13ifvqerg","pricing_plan_id":"cebpf4jnsgd1na2vs0mg"},{"bike_id":"19d74dfb-15c9-47d0-859a-f6a70d86118a","system_id":"levelo_inurba_marseille","lat":43.31693,"lon":5.40482,"is_reserved":false,"is_disabled":false,"rental_uris":{"android":"levelo://app?vid=19d74dfb-15c9-47d0-859a-f6a70d86118a","ios":"levelo://app?vid=19d74dfb-15c9-47d0-859a-f6a70d86118a"},"vehicle_type_id":"4","last_reported":1731697631,"current_range_meters":8800,"station_id":"ce4bh012rcd13ifvqd00","pricing_plan_id":"cebpf4jnsgd1na2vs0mg"},{"bike_id":"0d218d69-6f2b-4723-97e8-b51e4d9b09db","system_id":"levelo_inurba_marseille","lat":43.29421,"lon":5.38622,"is_reserved":false,"is_disabled":false,"rental_uris":{"android":"levelo://app?vid=0d218d69-6f2b-4723-97e8-b51e4d9b09db","ios":"levelo://app?vid=0d218d69-6f2b-4723-97e8-b51e4d9b09db"},"vehicle_type_id":"4","last_reported":1731697631,"current_range_meters":27200,"station_id":"ce4bh2h2rcd13ifvqdh0","pricing_plan_id":"cebpf4jnsgd1na2vs0mg"},{"bike_id":"e2ec4497-8fe7-4706-935e-333913044e01","system_id":"levelo_inurba_marseille","lat":43.299652,"lon":5.384805,"is_reserved":false,"is_disabled":false,"rental_uris":{"android":"levelo://app?vid=e2ec4497-8fe7-4706-935e-333913044e01","ios":"levelo://app?vid=e2ec4497-8fe7-4706-935e-333913044e01"},"vehicle_type_id":"4","last_reported":1731697631,"current_range_meters":39200,"station_id":"ce4bgj92rcd13ifvqbd0","pricing_plan_id":"cebpf4jnsgd1na2vs0mg"},{"bike_id":"6b0ea79e-cb12-4a50-9845-e4686b3cacc8","system_id":"levelo_inurba_marseille","lat":43.295751,"lon":5.399791,"is_reserved":false,"is_disabled":false,"rental_uris":{"android":"levelo://app?vid=6b0ea79e-cb12-4a50-9845-e4686b3cacc8","ios":"levelo://app?vid=6b0ea79e-cb12-4a50-9845-e4686b3cacc8"},"vehicle_type_id":"4","last_reported":1731697631,"current_range_meters":17600,"station_id":"","pricing_plan_id":"cebpf4jnsgd1na2vs0mg"},{"bike_id":"d1658b93-d7f7-40d5-8254-375e20319a01","system_id":"levelo_inurba_marseille","lat":43.28934,"lon":5.36407,"is_reserved":false,"is_disabled":false,"rental_uris":{"android":"levelo://app?vid=d1658b93-d7f7-40d5-8254-375e20319a01","ios":"levelo://app?vid=d1658b93-d7f7-40d5-8254-375e20319a01"},"vehicle_type_id":"4","last_reported":1731697631,"current_range_meters":38800,"station_id":"ce4bhc92rcd13ifvqetg","pricing_plan_id":"cebpf4jnsgd1na2vs0mg"},{"bike_id":"e06a1b4f-ebd4-4e9b-a5f0-e098517fda3c","system_id":"levelo_inurba_marseille","lat":43.29421,"lon":5.38626,"is_reserved":false,"is_disabled":false,"rental_uris":{"android":"levelo://app?vid=e06a1b4f-ebd4-4e9b-a5f0-e098517fda3c","ios":"levelo://app?vid=e06a1b4f-ebd4-4e9b-a5f0-e098517fda3c"},"vehicle_type_id":"4","last_reported":1731697631,"current_range_meters":4400,"station_id":"ce4bh2h2rcd13ifvqdh0","pricing_plan_id":"cebpf4jnsgd1na2vs0mg"},{"bike_id":"4a74f469-1d99-48ee-a8ca-9199898c00a4","system_id":"levelo_inurba_marseille","lat":43.23192,"lon":5.35544,"is_reserved":false,"is_disabled":false,"rental_uris":{"android":"levelo://app?vid=4a74f469-1d99-48ee-a8ca-9199898c00a4","ios":"levelo://app?vid=4a74f469-1d99-48ee-a8ca-9199898c00a4"},"vehicle_type_id":"4","last_reported":1731697631,"current_range_meters":12800,"station_id":"ce4bhu92rcd13ifvqi70","pricing_plan_id":"cebpf4jnsgd1na2vs0mg"},{"bike_id":"880ce09c-7bfa-4708-8aa5-c0367b69c9c0","system_id":"levelo_inurba_marseille","lat":43.30884,"lon":5.37203,"is_reserved":false,"is_disabled":false,"rental_uris":{"android":"levelo://app?vid=880ce09c-7bfa-4708-8aa5-c0367b69c9c0","ios":"levelo://app?vid=880ce09c-7bfa-4708-8aa5-c0367b69c9c0"},"vehicle_type_id":"4","last_reported":1731697631,"current_range_meters":6800,"station_id":"ce4bguh2rcd13ifvqckg","pricing_plan_id":"cebpf4jnsgd1na2vs0mg"},{"bike_id":"80c583dd-7b7a-4ca0-919e-53ec756eaf80","system_id":"levelo_inurba_marseille","lat":43.25727,"lon":5.41107,"is_reserved":false,"is_disabled":false,"rental_uris":{"android":"levelo://app?vid=80c583dd-7b7a-4ca0-919e-53ec756eaf80","ios":"levelo://app?vid=80c583dd-7b7a-4ca0-919e-53ec756eaf80"},"vehicle_type_id":"4","last_reported":1731697631,"current_range_meters":26000,"station_id":"ce4bhkp2rcd13ifvqgd0","pricing_plan_id":"cebpf4jnsgd1na2vs0mg"},{"bike_id":"7c3d1871-a8ba-49b7-bc5b-66d9c2984b89","system_id":"levelo_inurba_marseille","lat":43.28678,"lon":5.38679,"is_reserved":false,"is_disabled":false,"rental_uris":{"android":"levelo://app?vid=7c3d1871-a8ba-49b7-bc5b-66d9c2984b89","ios":"levelo://app?vid=7c3d1871-a8ba-49b7-bc5b-66d9c2984b89"},"vehicle_type_id":"4","last_reported":1731697631,"current_range_meters":39200,"station_id":"ce4bh492rcd13ifvqdug","pricing_plan_id":"cebpf4jnsgd1na2vs0mg"},{"bike_id":"5f553ee6-3a65-4d44-830e-271ebbbebd7b","system_id":"levelo_inurba_marseille","lat":43.29304,"lon":5.37172,"is_reserved":false,"is_disabled":false,"rental_uris":{"android":"levelo://app?vid=5f553ee6-3a65-4d44-830e-271ebbbebd7b","ios":"levelo://app?vid=5f553ee6-3a65-4d44-830e-271ebbbebd7b"},"vehicle_type_id":"4","last_reported":1731697631,"current_range_meters":27200,"station_id":"ce4bgh92rcd13ifvqb40","pricing_plan_id":"cebpf4jnsgd1na2vs0mg"},{"bike_id":"4b2cd2b2-50d8-4cb8-9078-56b92e346f11","system_id":"levelo_inurba_marseille","lat":43.31117,"lon":5.37758,"is_reserved":false,"is_disabled":false,"rental_uris":{"android":"levelo://app?vid=4b2cd2b2-50d8-4cb8-9078-56b92e346f11","ios":"levelo://app?vid=4b2cd2b2-50d8-4cb8-9078-56b92e346f11"},"vehicle_type_id":"4","last_reported":1731697631,"current_range_meters":17600,"station_id":"ce4bgt92rcd13ifvqcg0","pricing_plan_id":"cebpf4jnsgd1na2vs0mg"},{"bike_id":"d76396e6-fe71-4d8a-9550-4ec9bda212cf","system_id":"levelo_inurba_marseille","lat":43.25084,"lon":5.39519,"is_reserved":false,"is_disabled":false,"rental_uris":{"android":"levelo://app?vid=d76396e6-fe71-4d8a-9550-4ec9bda212cf","ios":"levelo://app?vid=d76396e6-fe71-4d8a-9550-4ec9bda212cf"},"vehicle_type_id":"4","last_reported":1731697631,"current_range_meters":21600,"station_id":"ce4bhm12rcd13ifvqgkg","pricing_plan_id":"cebpf4jnsgd1na2vs0mg"},{"bike_id":"0594fe76-2949-40de-9814-cbc59039ee4a","system_id":"levelo_inurba_marseille","lat":43.299622,"lon":5.384751,"is_reserved":false,"is_disabled":false,"rental_uris":{"android":"levelo://app?vid=0594fe76-2949-40de-9814-cbc59039ee4a","ios":"levelo://app?vid=0594fe76-2949-40de-9814-cbc59039ee4a"},"vehicle_type_id":"4","last_reported":1731697631,"current_range_meters":27600,"station_id":"ce4bgkh2rcd13ifvqbk0","pricing_plan_id":"cebpf4jnsgd1na2vs0mg"},{"bike_id":"50c4e2db-02d5-478c-8d49-db41ad6a1473","system_id":"levelo_inurba_marseille","lat":43.28157,"lon":5.42638,"is_reserved":false,"is_disabled":false,"rental_uris":{"android":"levelo://app?vid=50c4e2db-02d5-478c-8d49-db41ad6a1473","ios":"levelo://app?vid=50c4e2db-02d5-478c-8d49-db41ad6a1473"},"vehicle_type_id":"4","last_reported":1731697631,"current_range_meters":5600,"station_id":"ce4bhnh2rcd13ifvqgug","pricing_plan_id":"cebpf4jnsgd1na2vs0mg"},{"bike_id":"163bc152-5555-4932-96f3-2bd060bede8c","system_id":"levelo_inurba_marseille","lat":43.29262,"lon":5.38441,"is_reserved":false,"is_disabled":false,"rental_uris":{"android":"levelo://app?vid=163bc152-5555-4932-96f3-2bd060bede8c","ios":"levelo://app?vid=163bc152-5555-4932-96f3-2bd060bede8c"},"vehicle_type_id":"4","last_reported":1731697631,"current_range_meters":5600,"station_id":"ce4bh692rcd13ifvqea0","pricing_plan_id":"cebpf4jnsgd1na2vs0mg"},{"bike_id":"0b029aa1-9e00-46f0-8b0b-152b3d836d3b","system_id":"levelo_inurba_marseille","lat":43.2871,"lon":5.37926,"is_reserved":false,"is_disabled":false,"rental_uris":{"android":"levelo://app?vid=0b029aa1-9e00-46f0-8b0b-152b3d836d3b","ios":"levelo://app?vid=0b029aa1-9e00-46f0-8b0b-152b3d836d3b"},"vehicle_type_id":"4","last_reported":1731697631,"current_range_meters":4400,"station_id":"ce4bh9p2rcd13ifvqec0","pricing_plan_id":"cebpf4jnsgd1na2vs0mg"},{"bike_id":"7fbcaa09-ee1e-403f-9e05-adf885eb6ec4","system_id":"levelo_inurba_marseille","lat":43.31328,"lon":5.39691,"is_reserved":false,"is_disabled":false,"rental_uris":{"android":"levelo://app?vid=7fbcaa09-ee1e-403f-9e05-adf885eb6ec4","ios":"levelo://app?vid=7fbcaa09-ee1e-403f-9e05-adf885eb6ec4"},"vehicle_type_id":"4","last_reported":1731697631,"current_range_meters":11200,"station_id":"ce4bgvp2rcd13ifvqcu0","pricing_plan_id":"cebpf4jnsgd1na2vs0mg"},{"bike_id":"eccd315b-d70c-4451-a513-1ce100d6aac6","system_id":"levelo_inurba_marseille","lat":43.25107,"lon":5.40326,"is_reserved":false,"is_disabled":false,"rental_uris":{"android":"levelo://app?vid=eccd315b-d70c-4451-a513-1ce100d6aac6","ios":"levelo://app?vid=eccd315b-d70c-4451-a513-1ce100d6aac6"},"vehicle_type_id":"4","last_reported":1731697631,"current_range_meters":26800,"station_id":"ce4bhlh2rcd13ifvqgig","pricing_plan_id":"cebpf4jnsgd1na2vs0mg"},{"bike_id":"03accde3-7de1-4018-8798-8325189cbd06","system_id":"levelo_inurba_marseille","lat":43.29279,"lon":5.36848,"is_reserved":false,"is_disabled":false,"rental_uris":{"android":"levelo://app?vid=03accde3-7de1-4018-8798-8325189cbd06","ios":"levelo://app?vid=03accde3-7de1-4018-8798-8325189cbd06"},"vehicle_type_id":"4","last_reported":1731697631,"current_range_meters":6400,"station_id":"ce4bhbp2rcd13ifvqesg","pricing_plan_id":"cebpf4jnsgd1na2vs0mg"},{"bike_id":"27084692-3a0b-4f83-af97-8a07ff91debe","system_id":"levelo_inurba_marseille","lat":43.29781,"lon":5.39339,"is_reserved":false,"is_disabled":false,"rental_uris":{"android":"levelo://app?vid=27084692-3a0b-4f83-af97-8a07ff91debe","ios":"levelo://app?vid=27084692-3a0b-4f83-af97-8a07ff91debe"},"vehicle_type_id":"4","last_reported":1731697631,"current_range_meters":16000,"station_id":"chh1huq6cuj3fo74tm60","pricing_plan_id":"cebpf4jnsgd1na2vs0mg"},{"bike_id":"c8cba179-3cf0-42e2-993a-845728c427ad","system_id":"levelo_inurba_marseille","lat":43.25721,"lon":5.41116,"is_reserved":false,"is_disabled":false,"rental_uris":{"android":"levelo://app?vid=c8cba179-3cf0-42e2-993a-845728c427ad","ios":"levelo://app?vid=c8cba179-3cf0-42e2-993a-845728c427ad"},"vehicle_type_id":"4","last_reported":1731697631,"current_range_meters":25200,"station_id":"ce4bhkp2rcd13ifvqgd0","pricing_plan_id":"cebpf4jnsgd1na2vs0mg"},{"bike_id":"a71adc12-31a2-4702-82ec-108c5d269938","system_id":"levelo_inurba_marseille","lat":43.28153,"lon":5.42643,"is_reserved":false,"is_disabled":false,"rental_uris":{"android":"levelo://app?vid=a71adc12-31a2-4702-82ec-108c5d269938","ios":"levelo://app?vid=a71adc12-31a2-4702-82ec-108c5d269938"},"vehicle_type_id":"4","last_reported":1731697631,"current_range_meters":28400,"station_id":"ce4bhnh2rcd13ifvqgug","pricing_plan_id":"cebpf4jnsgd1na2vs0mg"},{"bike_id":"99d91fdb-2646-48c7-bb12-bd08517cac5d","system_id":"levelo_inurba_marseille","lat":43.23966,"lon":5.36627,"is_reserved":false,"is_disabled":false,"rental_uris":{"android":"levelo://app?vid=99d91fdb-2646-48c7-bb12-bd08517cac5d","ios":"levelo://app?vid=99d91fdb-2646-48c7-bb12-bd08517cac5d"},"vehicle_type_id":"4","last_reported":1731697631,"current_range_meters":26000,"station_id":"ce4bhi12rcd13ifvqfp0","pricing_plan_id":"cebpf4jnsgd1na2vs0mg"},{"bike_id":"89e40877-dc63-466e-86d5-115b808df076","system_id":"levelo_inurba_marseille","lat":43.29257,"lon":5.4091,"is_reserved":false,"is_disabled":false,"rental_uris":{"android":"levelo://app?vid=89e40877-dc63-466e-86d5-115b808df076","ios":"levelo://app?vid=89e40877-dc63-466e-86d5-115b808df076"},"vehicle_type_id":"4","last_reported":1731697631,"current_range_meters":7200,"station_id":"ce4bh192rcd13ifvqdc0","pricing_plan_id":"cebpf4jnsgd1na2vs0mg"},{"bike_id":"0ac04b8b-4e9c-452a-8385-f0d6193cf49d","system_id":"levelo_inurba_marseille","lat":43.29656,"lon":5.37751,"is_reserved":false,"is_disabled":false,"rental_uris":{"android":"levelo://app?vid=0ac04b8b-4e9c-452a-8385-f0d6193cf49d","ios":"levelo://app?vid=0ac04b8b-4e9c-452a-8385-f0d6193cf49d"},"vehicle_type_id":"4","last_reported":1731697631,"current_range_meters":21600,"station_id":"ce4bgqh2rcd13ifvqc5g","pricing_plan_id":"cebpf4jnsgd1na2vs0mg"},{"bike_id":"238f6c16-51b6-4393-a3e7-d7a06b8f3566","system_id":"levelo_inurba_marseille","lat":43.30157,"lon":5.38083,"is_reserved":false,"is_disabled":false,"rental_uris":{"android":"levelo://app?vid=238f6c16-51b6-4393-a3e7-d7a06b8f3566","ios":"levelo://app?vid=238f6c16-51b6-4393-a3e7-d7a06b8f3566"},"vehicle_type_id":"4","last_reported":1731697631,"current_range_meters":16800,"station_id":"ce4bgjp2rcd13ifvqbh0","pricing_plan_id":"cebpf4jnsgd1na2vs0mg"},{"bike_id":"712ca738-8afa-47be-a2bf-b34feb7209b4","system_id":"levelo_inurba_marseille","lat":43.29093,"lon":5.38133,"is_reserved":false,"is_disabled":false,"rental_uris":{"android":"levelo://app?vid=712ca738-8afa-47be-a2bf-b34feb7209b4","ios":"levelo://app?vid=712ca738-8afa-47be-a2bf-b34feb7209b4"},"vehicle_type_id":"4","last_reported":1731697631,"current_range_meters":24400,"station_id":"ce4bh512rcd13ifvqe2g","pricing_plan_id":"cebpf4jnsgd1na2vs0mg"},{"bike_id":"ec2a35d8-3761-4bbc-9003-dac10621c5e4","system_id":"levelo_inurba_marseille","lat":43.25011,"lon":5.38928,"is_reserved":false,"is_disabled":false,"rental_uris":{"android":"levelo://app?vid=ec2a35d8-3761-4bbc-9003-dac10621c5e4","ios":"levelo://app?vid=ec2a35d8-3761-4bbc-9003-dac10621c5e4"},"vehicle_type_id":"4","last_reported":1731697631,"current_range_meters":26800,"station_id":"ce4bhgp2rcd13ifvqfd0","pricing_plan_id":"cebpf4jnsgd1na2vs0mg"},{"bike_id":"105e4c00-ac1a-4be9-b939-5e10fc981fc8","system_id":"levelo_inurba_marseille","lat":43.28467,"lon":5.38407,"is_reserved":false,"is_disabled":false,"rental_uris":{"android":"levelo://app?vid=105e4c00-ac1a-4be9-b939-5e10fc981fc8","ios":"levelo://app?vid=105e4c00-ac1a-4be9-b939-5e10fc981fc8"},"vehicle_type_id":"4","last_reported":1731697631,"current_range_meters":36800,"station_id":"ce4bh512rcd13ifvqe3g","pricing_plan_id":"cebpf4jnsgd1na2vs0mg"},{"bike_id":"220ffe1a-d2c7-4352-8868-16422b34be78","system_id":"levelo_inurba_marseille","lat":43.31715,"lon":5.43701,"is_reserved":false,"is_disabled":false,"rental_uris":{"android":"levelo://app?vid=220ffe1a-d2c7-4352-8868-16422b34be78","ios":"levelo://app?vid=220ffe1a-d2c7-4352-8868-16422b34be78"},"vehicle_type_id":"4","last_reported":1731697631,"current_range_meters":4800,"station_id":"ce4bhp92rcd13ifvqhcg","pricing_plan_id":"cebpf4jnsgd1na2vs0mg"},{"bike_id":"eb0ea09e-bffe-47b9-9af7-9a1a5899a1a3","system_id":"levelo_inurba_marseille","lat":43.31081,"lon":5.38352,"is_reserved":false,"is_disabled":false,"rental_uris":{"android":"levelo://app?vid=eb0ea09e-bffe-47b9-9af7-9a1a5899a1a3","ios":"levelo://app?vid=eb0ea09e-bffe-47b9-9af7-9a1a5899a1a3"},"vehicle_type_id":"4","last_reported":1731697631,"current_range_meters":38800,"station_id":"ce4bgv92rcd13ifvqcr0","pricing_plan_id":"cebpf4jnsgd1na2vs0mg"},{"bike_id":"69bde109-ac07-4d8e-a2f0-ac53ac03469c","system_id":"levelo_inurba_marseille","lat":43.30296,"lon":5.37698,"is_reserved":false,"is_disabled":false,"rental_uris":{"android":"levelo://app?vid=69bde109-ac07-4d8e-a2f0-ac53ac03469c","ios":"levelo://app?vid=69bde109-ac07-4d8e-a2f0-ac53ac03469c"},"vehicle_type_id":"4","last_reported":1731697631,"current_range_meters":38800,"station_id":"ce4bguh2rcd13ifvqcj0","pricing_plan_id":"cebpf4jnsgd1na2vs0mg"},{"bike_id":"6b8eba9e-251e-401f-9b82-4a96d08ef40f","system_id":"levelo_inurba_marseille","lat":43.33015,"lon":5.39043,"is_reserved":false,"is_disabled":false,"rental_uris":{"android":"levelo://app?vid=6b8eba9e-251e-401f-9b82-4a96d08ef40f","ios":"levelo://app?vid=6b8eba9e-251e-401f-9b82-4a96d08ef40f"},"vehicle_type_id":"4","last_reported":1731697631,"current_range_meters":22400,"station_id":"ce4bhr92rcd13ifvqhrg","pricing_plan_id":"cebpf4jnsgd1na2vs0mg"},{"bike_id":"106d9115-a436-4409-a2e0-d906ea8cfc28","system_id":"levelo_inurba_marseille","lat":43.26195,"lon":5.374537,"is_reserved":false,"is_disabled":false,"rental_uris":{"android":"levelo://app?vid=106d9115-a436-4409-a2e0-d906ea8cfc28","ios":"levelo://app?vid=106d9115-a436-4409-a2e0-d906ea8cfc28"},"vehicle_type_id":"4","last_reported":1731697631,"current_range_meters":38800,"station_id":"ce4bhgp2rcd13ifvqfc0","pricing_plan_id":"cebpf4jnsgd1na2vs0mg"},{"bike_id":"c974cc8b-299b-4d52-81c8-4e50a91b9225","system_id":"levelo_inurba_marseille","lat":43.33745,"lon":5.37487,"is_reserved":false,"is_disabled":false,"rental_uris":{"android":"levelo://app?vid=c974cc8b-299b-4d52-81c8-4e50a91b9225","ios":"levelo://app?vid=c974cc8b-299b-4d52-81c8-4e50a91b9225"},"vehicle_type_id":"4","last_reported":1731697631,"current_range_meters":38000,"station_id":"","pricing_plan_id":"cebpf4jnsgd1na2vs0mg"},{"bike_id":"f86a601e-26e3-440e-a7e5-894f75bad9f4","system_id":"levelo_inurba_marseille","lat":43.337444,"lon":5.374475,"is_reserved":false,"is_disabled":false,"rental_uris":{"android":"levelo://app?vid=f86a601e-26e3-440e-a7e5-894f75bad9f4","ios":"levelo://app?vid=f86a601e-26e3-440e-a7e5-894f75bad9f4"},"vehicle_type_id":"4","last_reported":1731697631,"current_range_meters":22400,"station_id":"","pricing_plan_id":"cebpf4jnsgd1na2vs0mg"},{"bike_id":"b02cad58-3de4-410a-a29d-78e174a9d94a","system_id":"levelo_inurba_marseille","lat":43.23194,"lon":5.35549,"is_reserved":false,"is_disabled":false,"rental_uris":{"android":"levelo://app?vid=b02cad58-3de4-410a-a29d-78e174a9d94a","ios":"levelo://app?vid=b02cad58-3de4-410a-a29d-78e174a9d94a"},"vehicle_type_id":"4","last_reported":1731697631,"current_range_meters":38800,"station_id":"ce4bhu92rcd13ifvqi70","pricing_plan_id":"cebpf4jnsgd1na2vs0mg"},{"bike_id":"ee1e4939-aa74-42bd-92c2-fe0bb52c8a09","system_id":"levelo_inurba_marseille","lat":43.28273,"lon":5.35059,"is_reserved":false,"is_disabled":false,"rental_uris":{"android":"levelo://app?vid=ee1e4939-aa74-42bd-92c2-fe0bb52c8a09","ios":"levelo://app?vid=ee1e4939-aa74-42bd-92c2-fe0bb52c8a09"},"vehicle_type_id":"4","last_reported":1731697631,"current_range_meters":32400,"station_id":"ce4bhbp2rcd13ifvqerg","pricing_plan_id":"cebpf4jnsgd1na2vs0mg"},{"bike_id":"642f5def-6e78-4f7e-9ac0-941a94e86de5","system_id":"levelo_inurba_marseille","lat":43.31685,"lon":5.40477,"is_reserved":false,"is_disabled":false,"rental_uris":{"android":"levelo://app?vid=642f5def-6e78-4f7e-9ac0-941a94e86de5","ios":"levelo://app?vid=642f5def-6e78-4f7e-9ac0-941a94e86de5"},"vehicle_type_id":"4","last_reported":1731697631,"current_range_meters":14800,"station_id":"ce4bh012rcd13ifvqd00","pricing_plan_id":"cebpf4jnsgd1na2vs0mg"},{"bike_id":"2db05483-21d3-4d13-9bfb-ebdb41dfbf54","system_id":"levelo_inurba_marseille","lat":43.28684,"lon":5.38655,"is_reserved":false,"is_disabled":false,"rental_uris":{"android":"levelo://app?vid=2db05483-21d3-4d13-9bfb-ebdb41dfbf54","ios":"levelo://app?vid=2db05483-21d3-4d13-9bfb-ebdb41dfbf54"},"vehicle_type_id":"4","last_reported":1731697631,"current_range_meters":20800,"station_id":"ce4bh492rcd13ifvqdug","pricing_plan_id":"cebpf4jnsgd1na2vs0mg"},{"bike_id":"bca5e146-5d3a-4955-90af-37041c2e8012","system_id":"levelo_inurba_marseille","lat":43.2958,"lon":5.36731,"is_reserved":false,"is_disabled":false,"rental_uris":{"android":"levelo://app?vid=bca5e146-5d3a-4955-90af-37041c2e8012","ios":"levelo://app?vid=bca5e146-5d3a-4955-90af-37041c2e8012"},"vehicle_type_id":"4","last_reported":1731697631,"current_range_meters":36800,"station_id":"ce4bgph2rcd13ifvqc2g","pricing_plan_id":"cebpf4jnsgd1na2vs0mg"},{"bike_id":"35ee0d2d-bc56-4ca6-acf4-c54779c2e868","system_id":"levelo_inurba_marseille","lat":43.26995,"lon":5.39953,"is_reserved":false,"is_disabled":false,"rental_uris":{"android":"levelo://app?vid=35ee0d2d-bc56-4ca6-acf4-c54779c2e868","ios":"levelo://app?vid=35ee0d2d-bc56-4ca6-acf4-c54779c2e868"},"vehicle_type_id":"4","last_reported":1731697631,"current_range_meters":24800,"station_id":"","pricing_plan_id":"cebpf4jnsgd1na2vs0mg"},{"bike_id":"64121eb1-1cd1-4b91-ae8d-ec5240440754","system_id":"levelo_inurba_marseille","lat":43.2781,"lon":5.40709,"is_reserved":false,"is_disabled":false,"rental_uris":{"android":"levelo://app?vid=64121eb1-1cd1-4b91-ae8d-ec5240440754","ios":"levelo://app?vid=64121eb1-1cd1-4b91-ae8d-ec5240440754"},"vehicle_type_id":"4","last_reported":1731697631,"current_range_meters":13600,"station_id":"ce4bhnh2rcd13ifvqgtg","pricing_plan_id":"cebpf4jnsgd1na2vs0mg"},{"bike_id":"a7085ce0-53ef-4d0a-84f4-b0e99cadec26","system_id":"levelo_inurba_marseille","lat":43.29189,"lon":5.39328,"is_reserved":false,"is_disabled":false,"rental_uris":{"android":"levelo://app?vid=a7085ce0-53ef-4d0a-84f4-b0e99cadec26","ios":"levelo://app?vid=a7085ce0-53ef-4d0a-84f4-b0e99cadec26"},"vehicle_type_id":"4","last_reported":1731697631,"current_range_meters":24400,"station_id":"ce4bh192rcd13ifvqdd0","pricing_plan_id":"cebpf4jnsgd1na2vs0mg"},{"bike_id":"7c033157-f21b-4369-9708-1f8e0c296e6a","system_id":"levelo_inurba_marseille","lat":43.3107,"lon":5.3835,"is_reserved":false,"is_disabled":false,"rental_uris":{"android":"levelo://app?vid=7c033157-f21b-4369-9708-1f8e0c296e6a","ios":"levelo://app?vid=7c033157-f21b-4369-9708-1f8e0c296e6a"},"vehicle_type_id":"4","last_reported":1731697631,"current_range_meters":38800,"station_id":"ce4bgv92rcd13ifvqcr0","pricing_plan_id":"cebpf4jnsgd1na2vs0mg"},{"bike_id":"5c28af49-1311-42ec-956b-05a6cb87cb8d","system_id":"levelo_inurba_marseille","lat":43.27938,"lon":5.41035,"is_reserved":false,"is_disabled":false,"rental_uris":{"android":"levelo://app?vid=5c28af49-1311-42ec-956b-05a6cb87cb8d","ios":"levelo://app?vid=5c28af49-1311-42ec-956b-05a6cb87cb8d"},"vehicle_type_id":"4","last_reported":1731697631,"current_range_meters":38800,"station_id":"ce4bhnp2rcd13ifvqh0g","pricing_plan_id":"cebpf4jnsgd1na2vs0mg"},{"bike_id":"20aeb8b8-a232-4469-8cb0-cb029954d047","system_id":"levelo_inurba_marseille","lat":43.28406,"lon":5.37511,"is_reserved":false,"is_disabled":false,"rental_uris":{"android":"levelo://app?vid=20aeb8b8-a232-4469-8cb0-cb029954d047","ios":"levelo://app?vid=20aeb8b8-a232-4469-8cb0-cb029954d047"},"vehicle_type_id":"4","last_reported":1731697631,"current_range_meters":17600,"station_id":"ce4bh412rcd13ifvqds0","pricing_plan_id":"cebpf4jnsgd1na2vs0mg"},{"bike_id":"7fbcc6b7-d738-4fd3-bccc-87d88cee9e5f","system_id":"levelo_inurba_marseille","lat":43.299652,"lon":5.384891,"is_reserved":false,"is_disabled":false,"rental_uris":{"android":"levelo://app?vid=7fbcc6b7-d738-4fd3-bccc-87d88cee9e5f","ios":"levelo://app?vid=7fbcc6b7-d738-4fd3-bccc-87d88cee9e5f"},"vehicle_type_id":"4","last_reported":1731697631,"current_range_meters":30000,"station_id":"ce4bh512rcd13ifvqe2g","pricing_plan_id":"cebpf4jnsgd1na2vs0mg"},{"bike_id":"2c7da520-bf3f-4579-bbaf-d8bed38515fb","system_id":"levelo_inurba_marseille","lat":43.24652,"lon":5.38897,"is_reserved":false,"is_disabled":false,"rental_uris":{"android":"levelo://app?vid=2c7da520-bf3f-4579-bbaf-d8bed38515fb","ios":"levelo://app?vid=2c7da520-bf3f-4579-bbaf-d8bed38515fb"},"vehicle_type_id":"4","last_reported":1731697631,"current_range_meters":33600,"station_id":"ce4bhg12rcd13ifvqf60","pricing_plan_id":"cebpf4jnsgd1na2vs0mg"},{"bike_id":"8893f2f1-2edb-4438-9753-3811227c3612","system_id":"levelo_inurba_marseille","lat":43.29418,"lon":5.38625,"is_reserved":false,"is_disabled":false,"rental_uris":{"android":"levelo://app?vid=8893f2f1-2edb-4438-9753-3811227c3612","ios":"levelo://app?vid=8893f2f1-2edb-4438-9753-3811227c3612"},"vehicle_type_id":"4","last_reported":1731697631,"current_range_meters":38800,"station_id":"ce4bh2h2rcd13ifvqdh0","pricing_plan_id":"cebpf4jnsgd1na2vs0mg"},{"bike_id":"b8e0adfd-dc7d-42dd-a2e4-574f06410f3c","system_id":"levelo_inurba_marseille","lat":43.27811,"lon":5.40705,"is_reserved":false,"is_disabled":false,"rental_uris":{"android":"levelo://app?vid=b8e0adfd-dc7d-42dd-a2e4-574f06410f3c","ios":"levelo://app?vid=b8e0adfd-dc7d-42dd-a2e4-574f06410f3c"},"vehicle_type_id":"4","last_reported":1731697631,"current_range_meters":9600,"station_id":"ce4bhnh2rcd13ifvqgtg","pricing_plan_id":"cebpf4jnsgd1na2vs0mg"},{"bike_id":"5ae1b6d8-8b91-47e7-ba4c-33af259774da","system_id":"levelo_inurba_marseille","lat":43.29404,"lon":5.38613,"is_reserved":false,"is_disabled":false,"rental_uris":{"android":"levelo://app?vid=5ae1b6d8-8b91-47e7-ba4c-33af259774da","ios":"levelo://app?vid=5ae1b6d8-8b91-47e7-ba4c-33af259774da"},"vehicle_type_id":"4","last_reported":1731697631,"current_range_meters":36800,"station_id":"ce4bh2h2rcd13ifvqdh0","pricing_plan_id":"cebpf4jnsgd1na2vs0mg"},{"bike_id":"96a193d8-6394-42f9-9e8e-163a54445954","system_id":"levelo_inurba_marseille","lat":43.29533,"lon":5.38539,"is_reserved":false,"is_disabled":false,"rental_uris":{"android":"levelo://app?vid=96a193d8-6394-42f9-9e8e-163a54445954","ios":"levelo://app?vid=96a193d8-6394-42f9-9e8e-163a54445954"},"vehicle_type_id":"4","last_reported":1731697631,"current_range_meters":38000,"station_id":"ce4bgih2rcd13ifvqba0","pricing_plan_id":"cebpf4jnsgd1na2vs0mg"},{"bike_id":"60346686-846e-43e0-b1f0-095f872d71c2","system_id":"levelo_inurba_marseille","lat":43.337444,"lon":5.374475,"is_reserved":false,"is_disabled":false,"rental_uris":{"android":"levelo://app?vid=60346686-846e-43e0-b1f0-095f872d71c2","ios":"levelo://app?vid=60346686-846e-43e0-b1f0-095f872d71c2"},"vehicle_type_id":"4","last_reported":1731697631,"current_range_meters":38000,"station_id":"","pricing_plan_id":"cebpf4jnsgd1na2vs0mg"},{"bike_id":"70f55387-e0bd-4b67-b498-16cbc0544051","system_id":"levelo_inurba_marseille","lat":43.317,"lon":5.37771,"is_reserved":false,"is_disabled":false,"rental_uris":{"android":"levelo://app?vid=70f55387-e0bd-4b67-b498-16cbc0544051","ios":"levelo://app?vid=70f55387-e0bd-4b67-b498-16cbc0544051"},"vehicle_type_id":"4","last_reported":1731697631,"current_range_meters":34000,"station_id":"ce4bgth2rcd13ifvqch0","pricing_plan_id":"cebpf4jnsgd1na2vs0mg"},{"bike_id":"5bc6d64d-1a30-48cc-9dd5-35de33deebca","system_id":"levelo_inurba_marseille","lat":43.29198,"lon":5.39321,"is_reserved":false,"is_disabled":false,"rental_uris":{"android":"levelo://app?vid=5bc6d64d-1a30-48cc-9dd5-35de33deebca","ios":"levelo://app?vid=5bc6d64d-1a30-48cc-9dd5-35de33deebca"},"vehicle_type_id":"4","last_reported":1731697631,"current_range_meters":16800,"station_id":"ce4bh192rcd13ifvqdd0","pricing_plan_id":"cebpf4jnsgd1na2vs0mg"},{"bike_id":"a65a2419-69e6-4d19-b1e3-3abe61fd327b","system_id":"levelo_inurba_marseille","lat":43.24813,"lon":5.37463,"is_reserved":false,"is_disabled":false,"rental_uris":{"android":"levelo://app?vid=a65a2419-69e6-4d19-b1e3-3abe61fd327b","ios":"levelo://app?vid=a65a2419-69e6-4d19-b1e3-3abe61fd327b"},"vehicle_type_id":"4","last_reported":1731697631,"current_range_meters":38800,"station_id":"ce4bhgh2rcd13ifvqfb0","pricing_plan_id":"cebpf4jnsgd1na2vs0mg"},{"bike_id":"d206d41a-8ea1-48b7-8dea-76f005b54e28","system_id":"levelo_inurba_marseille","lat":43.337444,"lon":5.374475,"is_reserved":false,"is_disabled":false,"rental_uris":{"android":"levelo://app?vid=d206d41a-8ea1-48b7-8dea-76f005b54e28","ios":"levelo://app?vid=d206d41a-8ea1-48b7-8dea-76f005b54e28"},"vehicle_type_id":"4","last_reported":1731697631,"current_range_meters":26800,"station_id":"","pricing_plan_id":"cebpf4jnsgd1na2vs0mg"},{"bike_id":"7386319e-0d6c-493a-904a-1c5207db3d50","system_id":"levelo_inurba_marseille","lat":43.23206,"lon":5.39981,"is_reserved":false,"is_disabled":false,"rental_uris":{"android":"levelo://app?vid=7386319e-0d6c-493a-904a-1c5207db3d50","ios":"levelo://app?vid=7386319e-0d6c-493a-904a-1c5207db3d50"},"vehicle_type_id":"4","last_reported":1731697631,"current_range_meters":22400,"station_id":"ce4bhn12rcd13ifvqgqg","pricing_plan_id":"cebpf4jnsgd1na2vs0mg"},{"bike_id":"833e03e1-4c2a-4d48-b02a-e51996b7b259","system_id":"levelo_inurba_marseille","lat":43.26496,"lon":5.39541,"is_reserved":false,"is_disabled":false,"rental_uris":{"android":"levelo://app?vid=833e03e1-4c2a-4d48-b02a-e51996b7b259","ios":"levelo://app?vid=833e03e1-4c2a-4d48-b02a-e51996b7b259"},"vehicle_type_id":"4","last_reported":1731697631,"current_range_meters":2800,"station_id":"ce4bhi12rcd13ifvqfq0","pricing_plan_id":"cebpf4jnsgd1na2vs0mg"},{"bike_id":"0c74b2b4-80f3-40b0-b2f6-d790f2096ec6","system_id":"levelo_inurba_marseille","lat":43.29304,"lon":5.37174,"is_reserved":false,"is_disabled":false,"rental_uris":{"android":"levelo://app?vid=0c74b2b4-80f3-40b0-b2f6-d790f2096ec6","ios":"levelo://app?vid=0c74b2b4-80f3-40b0-b2f6-d790f2096ec6"},"vehicle_type_id":"4","last_reported":1731697631,"current_range_meters":20400,"station_id":"ce4bgh92rcd13ifvqb40","pricing_plan_id":"cebpf4jnsgd1na2vs0mg"},{"bike_id":"965b3a46-4f76-4aa9-b5ba-b1a6e45b1bb3","system_id":"levelo_inurba_marseille","lat":43.31622,"lon":5.38272,"is_reserved":false,"is_disabled":false,"rental_uris":{"android":"levelo://app?vid=965b3a46-4f76-4aa9-b5ba-b1a6e45b1bb3","ios":"levelo://app?vid=965b3a46-4f76-4aa9-b5ba-b1a6e45b1bb3"},"vehicle_type_id":"4","last_reported":1731697631,"current_range_meters":6400,"station_id":"","pricing_plan_id":"cebpf4jnsgd1na2vs0mg"},{"bike_id":"c1cebe5c-e27c-4ff7-958e-58c8b9d56ad6","system_id":"levelo_inurba_marseille","lat":43.28275,"lon":5.35061,"is_reserved":false,"is_disabled":false,"rental_uris":{"android":"levelo://app?vid=c1cebe5c-e27c-4ff7-958e-58c8b9d56ad6","ios":"levelo://app?vid=c1cebe5c-e27c-4ff7-958e-58c8b9d56ad6"},"vehicle_type_id":"4","last_reported":1731697631,"current_range_meters":38400,"station_id":"ce4bhbp2rcd13ifvqerg","pricing_plan_id":"cebpf4jnsgd1na2vs0mg"},{"bike_id":"5326c5f8-bba7-40e6-bfc7-8e986a3bddf3","system_id":"levelo_inurba_marseille","lat":43.31565,"lon":5.38019,"is_reserved":false,"is_disabled":false,"rental_uris":{"android":"levelo://app?vid=5326c5f8-bba7-40e6-bfc7-8e986a3bddf3","ios":"levelo://app?vid=5326c5f8-bba7-40e6-bfc7-8e986a3bddf3"},"vehicle_type_id":"4","last_reported":1731697631,"current_range_meters":22000,"station_id":"ce4bhsp2rcd13ifvqi50","pricing_plan_id":"cebpf4jnsgd1na2vs0mg"},{"bike_id":"1252811b-6a0c-4c35-bf70-d3d61b2082c0","system_id":"levelo_inurba_marseille","lat":43.29422,"lon":5.38621,"is_reserved":false,"is_disabled":false,"rental_uris":{"android":"levelo://app?vid=1252811b-6a0c-4c35-bf70-d3d61b2082c0","ios":"levelo://app?vid=1252811b-6a0c-4c35-bf70-d3d61b2082c0"},"vehicle_type_id":"4","last_reported":1731697631,"current_range_meters":33600,"station_id":"ce4bh2h2rcd13ifvqdh0","pricing_plan_id":"cebpf4jnsgd1na2vs0mg"},{"bike_id":"af8b8071-04c1-4a21-b440-b986dfe536bc","system_id":"levelo_inurba_marseille","lat":43.31678,"lon":5.40471,"is_reserved":false,"is_disabled":false,"rental_uris":{"android":"levelo://app?vid=af8b8071-04c1-4a21-b440-b986dfe536bc","ios":"levelo://app?vid=af8b8071-04c1-4a21-b440-b986dfe536bc"},"vehicle_type_id":"4","last_reported":1731697631,"current_range_meters":8000,"station_id":"ce4bh012rcd13ifvqd00","pricing_plan_id":"cebpf4jnsgd1na2vs0mg"},{"bike_id":"1d1da4c9-e222-4045-a315-95ad45a051f4","system_id":"levelo_inurba_marseille","lat":43.29421,"lon":5.38622,"is_reserved":false,"is_disabled":false,"rental_uris":{"android":"levelo://app?vid=1d1da4c9-e222-4045-a315-95ad45a051f4","ios":"levelo://app?vid=1d1da4c9-e222-4045-a315-95ad45a051f4"},"vehicle_type_id":"4","last_reported":1731697631,"current_range_meters":18800,"station_id":"ce4bh2h2rcd13ifvqdh0","pricing_plan_id":"cebpf4jnsgd1na2vs0mg"},{"bike_id":"98aa09b3-aa31-4abf-92f1-8e7a564ec42a","system_id":"levelo_inurba_marseille","lat":43.30405,"lon":5.41262,"is_reserved":false,"is_disabled":false,"rental_uris":{"android":"levelo://app?vid=98aa09b3-aa31-4abf-92f1-8e7a564ec42a","ios":"levelo://app?vid=98aa09b3-aa31-4abf-92f1-8e7a564ec42a"},"vehicle_type_id":"4","last_reported":1731697631,"current_range_meters":2000,"station_id":"ce4bhop2rcd13ifvqh8g","pricing_plan_id":"cebpf4jnsgd1na2vs0mg"},{"bike_id":"d31a6e09-2b17-425b-bb86-650ed8d3ab37","system_id":"levelo_inurba_marseille","lat":43.29261,"lon":5.38423,"is_reserved":false,"is_disabled":false,"rental_uris":{"android":"levelo://app?vid=d31a6e09-2b17-425b-bb86-650ed8d3ab37","ios":"levelo://app?vid=d31a6e09-2b17-425b-bb86-650ed8d3ab37"},"vehicle_type_id":"4","last_reported":1731697631,"current_range_meters":38400,"station_id":"ce4bh692rcd13ifvqea0","pricing_plan_id":"cebpf4jnsgd1na2vs0mg"},{"bike_id":"d37e4715-30ea-441f-8c84-c54564da1df2","system_id":"levelo_inurba_marseille","lat":43.28154,"lon":5.42643,"is_reserved":false,"is_disabled":false,"rental_uris":{"android":"levelo://app?vid=d37e4715-30ea-441f-8c84-c54564da1df2","ios":"levelo://app?vid=d37e4715-30ea-441f-8c84-c54564da1df2"},"vehicle_type_id":"4","last_reported":1731697631,"current_range_meters":6400,"station_id":"ce4bhnh2rcd13ifvqgug","pricing_plan_id":"cebpf4jnsgd1na2vs0mg"},{"bike_id":"87156f78-2e09-4e66-89df-0a85c184e89b","system_id":"levelo_inurba_marseille","lat":43.27946,"lon":5.41047,"is_reserved":false,"is_disabled":false,"rental_uris":{"android":"levelo://app?vid=87156f78-2e09-4e66-89df-0a85c184e89b","ios":"levelo://app?vid=87156f78-2e09-4e66-89df-0a85c184e89b"},"vehicle_type_id":"4","last_reported":1731697631,"current_range_meters":29600,"station_id":"ce4bhnp2rcd13ifvqh0g","pricing_plan_id":"cebpf4jnsgd1na2vs0mg"},{"bike_id":"746b906b-c165-41be-9202-d075c0b1a9d5","system_id":"levelo_inurba_marseille","lat":43.2396,"lon":5.36626,"is_reserved":false,"is_disabled":false,"rental_uris":{"android":"levelo://app?vid=746b906b-c165-41be-9202-d075c0b1a9d5","ios":"levelo://app?vid=746b906b-c165-41be-9202-d075c0b1a9d5"},"vehicle_type_id":"4","last_reported":1731697631,"current_range_meters":38800,"station_id":"ce4bhi12rcd13ifvqfp0","pricing_plan_id":"cebpf4jnsgd1na2vs0mg"},{"bike_id":"b46ba578-bd62-46b1-9df2-99f5c3519fb2","system_id":"levelo_inurba_marseille","lat":43.29039,"lon":5.3756,"is_reserved":false,"is_disabled":false,"rental_uris":{"android":"levelo://app?vid=b46ba578-bd62-46b1-9df2-99f5c3519fb2","ios":"levelo://app?vid=b46ba578-bd62-46b1-9df2-99f5c3519fb2"},"vehicle_type_id":"4","last_reported":1731697631,"current_range_meters":38800,"station_id":"ce4bh692rcd13ifvqe90","pricing_plan_id":"cebpf4jnsgd1na2vs0mg"},{"bike_id":"04246129-5461-4657-8b0a-917c23e4a028","system_id":"levelo_inurba_marseille","lat":43.27172,"lon":5.40987,"is_reserved":false,"is_disabled":false,"rental_uris":{"android":"levelo://app?vid=04246129-5461-4657-8b0a-917c23e4a028","ios":"levelo://app?vid=04246129-5461-4657-8b0a-917c23e4a028"},"vehicle_type_id":"4","last_reported":1731697631,"current_range_meters":19200,"station_id":"ce4bhl12rcd13ifvqgf0","pricing_plan_id":"cebpf4jnsgd1na2vs0mg"},{"bike_id":"6b930bb0-3ea4-403c-9be6-f331472051b4","system_id":"levelo_inurba_marseille","lat":43.298,"lon":5.38091,"is_reserved":false,"is_disabled":false,"rental_uris":{"android":"levelo://app?vid=6b930bb0-3ea4-403c-9be6-f331472051b4","ios":"levelo://app?vid=6b930bb0-3ea4-403c-9be6-f331472051b4"},"vehicle_type_id":"4","last_reported":1731697631,"current_range_meters":25200,"station_id":"ce4bgip2rcd13ifvqbb0","pricing_plan_id":"cebpf4jnsgd1na2vs0mg"},{"bike_id":"83806030-b0ab-4190-8460-b682dd2859d0","system_id":"levelo_inurba_marseille","lat":43.28563,"lon":5.39496,"is_reserved":false,"is_disabled":false,"rental_uris":{"android":"levelo://app?vid=83806030-b0ab-4190-8460-b682dd2859d0","ios":"levelo://app?vid=83806030-b0ab-4190-8460-b682dd2859d0"},"vehicle_type_id":"4","last_reported":1731697631,"current_range_meters":38800,"station_id":"ce4bh292rcd13ifvqdg0","pricing_plan_id":"cebpf4jnsgd1na2vs0mg"},{"bike_id":"250d617e-f82c-4dfe-91a0-44ede95a841f","system_id":"levelo_inurba_marseille","lat":43.29265,"lon":5.38439,"is_reserved":false,"is_disabled":false,"rental_uris":{"android":"levelo://app?vid=250d617e-f82c-4dfe-91a0-44ede95a841f","ios":"levelo://app?vid=250d617e-f82c-4dfe-91a0-44ede95a841f"},"vehicle_type_id":"4","last_reported":1731697631,"current_range_meters":26800,"station_id":"ce4bh692rcd13ifvqea0","pricing_plan_id":"cebpf4jnsgd1na2vs0mg"},{"bike_id":"7bdfd04a-2860-4618-b4ed-bf7f85157df9","system_id":"levelo_inurba_marseille","lat":43.29166,"lon":5.37155,"is_reserved":false,"is_disabled":false,"rental_uris":{"android":"levelo://app?vid=7bdfd04a-2860-4618-b4ed-bf7f85157df9","ios":"levelo://app?vid=7bdfd04a-2860-4618-b4ed-bf7f85157df9"},"vehicle_type_id":"4","last_reported":1731697631,"current_range_meters":26800,"station_id":"ce4bha92rcd13ifvqeh0","pricing_plan_id":"cebpf4jnsgd1na2vs0mg"},{"bike_id":"a798fe7f-4776-4faa-b5a2-c09f11cc633c","system_id":"levelo_inurba_marseille","lat":43.301412,"lon":5.398573,"is_reserved":false,"is_disabled":false,"rental_uris":{"android":"levelo://app?vid=a798fe7f-4776-4faa-b5a2-c09f11cc633c","ios":"levelo://app?vid=a798fe7f-4776-4faa-b5a2-c09f11cc633c"},"vehicle_type_id":"4","last_reported":1731697631,"current_range_meters":29600,"station_id":"ce4bh0h2rcd13ifvqd40","pricing_plan_id":"cebpf4jnsgd1na2vs0mg"},{"bike_id":"e40acb1f-7c3b-464f-a385-d83d7c01e615","system_id":"levelo_inurba_marseille","lat":43.32287,"lon":5.38257,"is_reserved":false,"is_disabled":false,"rental_uris":{"android":"levelo://app?vid=e40acb1f-7c3b-464f-a385-d83d7c01e615","ios":"levelo://app?vid=e40acb1f-7c3b-464f-a385-d83d7c01e615"},"vehicle_type_id":"4","last_reported":1731697631,"current_range_meters":20000,"station_id":"ce4bhr12rcd13ifvqhqg","pricing_plan_id":"cebpf4jnsgd1na2vs0mg"},{"bike_id":"383dbfdd-dadc-4957-9c5a-2d452e2c74c2","system_id":"levelo_inurba_marseille","lat":43.29533,"lon":5.38543,"is_reserved":false,"is_disabled":false,"rental_uris":{"android":"levelo://app?vid=383dbfdd-dadc-4957-9c5a-2d452e2c74c2","ios":"levelo://app?vid=383dbfdd-dadc-4957-9c5a-2d452e2c74c2"},"vehicle_type_id":"4","last_reported":1731697631,"current_range_meters":36400,"station_id":"ce4bgih2rcd13ifvqba0","pricing_plan_id":"cebpf4jnsgd1na2vs0mg"},{"bike_id":"9267eaff-932d-40f5-8681-b471c217336a","system_id":"levelo_inurba_marseille","lat":43.24647,"lon":5.38885,"is_reserved":false,"is_disabled":false,"rental_uris":{"android":"levelo://app?vid=9267eaff-932d-40f5-8681-b471c217336a","ios":"levelo://app?vid=9267eaff-932d-40f5-8681-b471c217336a"},"vehicle_type_id":"4","last_reported":1731697631,"current_range_meters":38800,"station_id":"ce4bhg12rcd13ifvqf60","pricing_plan_id":"cebpf4jnsgd1na2vs0mg"},{"bike_id":"6130b50e-237e-4455-bf2d-e5209d08270f","system_id":"levelo_inurba_marseille","lat":43.33023,"lon":5.39044,"is_reserved":false,"is_disabled":false,"rental_uris":{"android":"levelo://app?vid=6130b50e-237e-4455-bf2d-e5209d08270f","ios":"levelo://app?vid=6130b50e-237e-4455-bf2d-e5209d08270f"},"vehicle_type_id":"4","last_reported":1731697631,"current_range_meters":22400,"station_id":"ce4bhr92rcd13ifvqhrg","pricing_plan_id":"cebpf4jnsgd1na2vs0mg"},{"bike_id":"a864e236-0496-4a4e-ae47-3579f4163e98","system_id":"levelo_inurba_marseille","lat":43.2569,"lon":5.4114,"is_reserved":false,"is_disabled":false,"rental_uris":{"android":"levelo://app?vid=a864e236-0496-4a4e-ae47-3579f4163e98","ios":"levelo://app?vid=a864e236-0496-4a4e-ae47-3579f4163e98"},"vehicle_type_id":"4","last_reported":1731697631,"current_range_meters":28800,"station_id":"ce4bhkp2rcd13ifvqgd0","pricing_plan_id":"cebpf4jnsgd1na2vs0mg"},{"bike_id":"1cf741d7-e403-4869-b6f3-8348c73bd258","system_id":"levelo_inurba_marseille","lat":43.27999,"lon":5.39996,"is_reserved":false,"is_disabled":false,"rental_uris":{"android":"levelo://app?vid=1cf741d7-e403-4869-b6f3-8348c73bd258","ios":"levelo://app?vid=1cf741d7-e403-4869-b6f3-8348c73bd258"},"vehicle_type_id":"4","last_reported":1731697631,"current_range_meters":8400,"station_id":"ce4bho92rcd13ifvqh4g","pricing_plan_id":"cebpf4jnsgd1na2vs0mg"},{"bike_id":"f140ca5b-bc00-4c6f-b4a2-ebda32cde9bd","system_id":"levelo_inurba_marseille","lat":43.28001,"lon":5.40011,"is_reserved":false,"is_disabled":false,"rental_uris":{"android":"levelo://app?vid=f140ca5b-bc00-4c6f-b4a2-ebda32cde9bd","ios":"levelo://app?vid=f140ca5b-bc00-4c6f-b4a2-ebda32cde9bd"},"vehicle_type_id":"4","last_reported":1731697631,"current_range_meters":8400,"station_id":"ce4bho92rcd13ifvqh4g","pricing_plan_id":"cebpf4jnsgd1na2vs0mg"},{"bike_id":"29e46f70-c8da-4b7b-abf1-93acba2bbb98","system_id":"levelo_inurba_marseille","lat":43.29781,"lon":5.38052,"is_reserved":false,"is_disabled":false,"rental_uris":{"android":"levelo://app?vid=29e46f70-c8da-4b7b-abf1-93acba2bbb98","ios":"levelo://app?vid=29e46f70-c8da-4b7b-abf1-93acba2bbb98"},"vehicle_type_id":"4","last_reported":1731697631,"current_range_meters":36800,"station_id":"ce4bgip2rcd13ifvqbb0","pricing_plan_id":"cebpf4jnsgd1na2vs0mg"},{"bike_id":"c74f110d-168f-41a7-a48a-157d79ae2196","system_id":"levelo_inurba_marseille","lat":43.33017,"lon":5.39045,"is_reserved":false,"is_disabled":false,"rental_uris":{"android":"levelo://app?vid=c74f110d-168f-41a7-a48a-157d79ae2196","ios":"levelo://app?vid=c74f110d-168f-41a7-a48a-157d79ae2196"},"vehicle_type_id":"4","last_reported":1731697631,"current_range_meters":36800,"station_id":"ce4bhr92rcd13ifvqhrg","pricing_plan_id":"cebpf4jnsgd1na2vs0mg"},{"bike_id":"caf4f242-e64f-44e9-a152-92b036f59ba6","system_id":"levelo_inurba_marseille","lat":43.3414,"lon":5.40899,"is_reserved":false,"is_disabled":false,"rental_uris":{"android":"levelo://app?vid=caf4f242-e64f-44e9-a152-92b036f59ba6","ios":"levelo://app?vid=caf4f242-e64f-44e9-a152-92b036f59ba6"},"vehicle_type_id":"4","last_reported":1731697631,"current_range_meters":6400,"station_id":"ce4bhqh2rcd13ifvqhlg","pricing_plan_id":"cebpf4jnsgd1na2vs0mg"},{"bike_id":"60000695-b60c-402b-8a73-53db1460db14","system_id":"levelo_inurba_marseille","lat":43.31645,"lon":5.4042,"is_reserved":false,"is_disabled":false,"rental_uris":{"android":"levelo://app?vid=60000695-b60c-402b-8a73-53db1460db14","ios":"levelo://app?vid=60000695-b60c-402b-8a73-53db1460db14"},"vehicle_type_id":"4","last_reported":1731697631,"current_range_meters":26000,"station_id":"","pricing_plan_id":"cebpf4jnsgd1na2vs0mg"},{"bike_id":"76fda271-4bcd-4529-8397-8074a1eff7fe","system_id":"levelo_inurba_marseille","lat":43.337444,"lon":5.374475,"is_reserved":false,"is_disabled":false,"rental_uris":{"android":"levelo://app?vid=76fda271-4bcd-4529-8397-8074a1eff7fe","ios":"levelo://app?vid=76fda271-4bcd-4529-8397-8074a1eff7fe"},"vehicle_type_id":"4","last_reported":1731697631,"current_range_meters":36400,"station_id":"","pricing_plan_id":"cebpf4jnsgd1na2vs0mg"},{"bike_id":"7125cda5-6cac-4f0d-b24c-2d801b2955b5","system_id":"levelo_inurba_marseille","lat":43.2318,"lon":5.39982,"is_reserved":false,"is_disabled":false,"rental_uris":{"android":"levelo://app?vid=7125cda5-6cac-4f0d-b24c-2d801b2955b5","ios":"levelo://app?vid=7125cda5-6cac-4f0d-b24c-2d801b2955b5"},"vehicle_type_id":"4","last_reported":1731697631,"current_range_meters":39200,"station_id":"ce4bhn12rcd13ifvqgqg","pricing_plan_id":"cebpf4jnsgd1na2vs0mg"},{"bike_id":"879cdc73-033c-4531-816b-b2dbda098047","system_id":"levelo_inurba_marseille","lat":43.2318,"lon":5.39986,"is_reserved":false,"is_disabled":false,"rental_uris":{"android":"levelo://app?vid=879cdc73-033c-4531-816b-b2dbda098047","ios":"levelo://app?vid=879cdc73-033c-4531-816b-b2dbda098047"},"vehicle_type_id":"4","last_reported":1731697631,"current_range_meters":32400,"station_id":"ce4bhn12rcd13ifvqgqg","pricing_plan_id":"cebpf4jnsgd1na2vs0mg"},{"bike_id":"0a286d96-f63e-47b6-906b-e71a59b7d115","system_id":"levelo_inurba_marseille","lat":43.30912,"lon":5.36852,"is_reserved":false,"is_disabled":false,"rental_uris":{"android":"levelo://app?vid=0a286d96-f63e-47b6-906b-e71a59b7d115","ios":"levelo://app?vid=0a286d96-f63e-47b6-906b-e71a59b7d115"},"vehicle_type_id":"4","last_reported":1731697631,"current_range_meters":34000,"station_id":"ce4bgn92rcd13ifvqbvg","pricing_plan_id":"cebpf4jnsgd1na2vs0mg"},{"bike_id":"63aef2f9-be99-4992-9977-92067e6c7012","system_id":"levelo_inurba_marseille","lat":43.31531,"lon":5.38036,"is_reserved":false,"is_disabled":false,"rental_uris":{"android":"levelo://app?vid=63aef2f9-be99-4992-9977-92067e6c7012","ios":"levelo://app?vid=63aef2f9-be99-4992-9977-92067e6c7012"},"vehicle_type_id":"4","last_reported":1731697631,"current_range_meters":28400,"station_id":"ce4bh092rcd13ifvqd30","pricing_plan_id":"cebpf4jnsgd1na2vs0mg"},{"bike_id":"0798270e-42c9-4323-819e-b75eb6dce35a","system_id":"levelo_inurba_marseille","lat":43.27813,"lon":5.40706,"is_reserved":false,"is_disabled":false,"rental_uris":{"android":"levelo://app?vid=0798270e-42c9-4323-819e-b75eb6dce35a","ios":"levelo://app?vid=0798270e-42c9-4323-819e-b75eb6dce35a"},"vehicle_type_id":"4","last_reported":1731697631,"current_range_meters":38800,"station_id":"ce4bhnh2rcd13ifvqgtg","pricing_plan_id":"cebpf4jnsgd1na2vs0mg"},{"bike_id":"862a0738-37c6-4949-a1c7-43ce857c2ac1","system_id":"levelo_inurba_marseille","lat":43.29316,"lon":5.37173,"is_reserved":false,"is_disabled":false,"rental_uris":{"android":"levelo://app?vid=862a0738-37c6-4949-a1c7-43ce857c2ac1","ios":"levelo://app?vid=862a0738-37c6-4949-a1c7-43ce857c2ac1"},"vehicle_type_id":"4","last_reported":1731697631,"current_range_meters":28800,"station_id":"ce4bgh92rcd13ifvqb40","pricing_plan_id":"cebpf4jnsgd1na2vs0mg"},{"bike_id":"6d757fef-4f26-43f9-ac2c-ffab39bf7dae","system_id":"levelo_inurba_marseille","lat":43.32249,"lon":5.36901,"is_reserved":false,"is_disabled":false,"rental_uris":{"android":"levelo://app?vid=6d757fef-4f26-43f9-ac2c-ffab39bf7dae","ios":"levelo://app?vid=6d757fef-4f26-43f9-ac2c-ffab39bf7dae"},"vehicle_type_id":"4","last_reported":1731697631,"current_range_meters":22800,"station_id":"","pricing_plan_id":"cebpf4jnsgd1na2vs0mg"},{"bike_id":"aec93d03-95e9-4c76-980a-735748bbdad5","system_id":"levelo_inurba_marseille","lat":43.28156,"lon":5.42639,"is_reserved":false,"is_disabled":false,"rental_uris":{"android":"levelo://app?vid=aec93d03-95e9-4c76-980a-735748bbdad5","ios":"levelo://app?vid=aec93d03-95e9-4c76-980a-735748bbdad5"},"vehicle_type_id":"4","last_reported":1731697631,"current_range_meters":17600,"station_id":"ce4bhnh2rcd13ifvqgug","pricing_plan_id":"cebpf4jnsgd1na2vs0mg"},{"bike_id":"4629a649-f7e5-452a-a6b5-bf305c77da68","system_id":"levelo_inurba_marseille","lat":43.28705,"lon":5.37391,"is_reserved":false,"is_disabled":false,"rental_uris":{"android":"levelo://app?vid=4629a649-f7e5-452a-a6b5-bf305c77da68","ios":"levelo://app?vid=4629a649-f7e5-452a-a6b5-bf305c77da68"},"vehicle_type_id":"4","last_reported":1731697631,"current_range_meters":38800,"station_id":"ce4bh3p2rcd13ifvqdq0","pricing_plan_id":"cebpf4jnsgd1na2vs0mg"},{"bike_id":"9ea18f81-8b1f-4777-b35f-e3d99be27e4f","system_id":"levelo_inurba_marseille","lat":43.26029,"lon":5.37549,"is_reserved":false,"is_disabled":false,"rental_uris":{"android":"levelo://app?vid=9ea18f81-8b1f-4777-b35f-e3d99be27e4f","ios":"levelo://app?vid=9ea18f81-8b1f-4777-b35f-e3d99be27e4f"},"vehicle_type_id":"4","last_reported":1731697631,"current_range_meters":38800,"station_id":"ce4bhgh2rcd13ifvqfa0","pricing_plan_id":"cebpf4jnsgd1na2vs0mg"},{"bike_id":"dec3c85d-a8ae-4aba-998c-73f2529a4f2a","system_id":"levelo_inurba_marseille","lat":43.31687,"lon":5.4048,"is_reserved":false,"is_disabled":false,"rental_uris":{"android":"levelo://app?vid=dec3c85d-a8ae-4aba-998c-73f2529a4f2a","ios":"levelo://app?vid=dec3c85d-a8ae-4aba-998c-73f2529a4f2a"},"vehicle_type_id":"4","last_reported":1731697631,"current_range_meters":5600,"station_id":"ce4bh012rcd13ifvqd00","pricing_plan_id":"cebpf4jnsgd1na2vs0mg"},{"bike_id":"004af383-0d61-41f0-979b-fe8d5ecec5f1","system_id":"levelo_inurba_marseille","lat":43.28466,"lon":5.35894,"is_reserved":false,"is_disabled":false,"rental_uris":{"android":"levelo://app?vid=004af383-0d61-41f0-979b-fe8d5ecec5f1","ios":"levelo://app?vid=004af383-0d61-41f0-979b-fe8d5ecec5f1"},"vehicle_type_id":"4","last_reported":1731697631,"current_range_meters":32400,"station_id":"ce4bhah2rcd13ifvqei0","pricing_plan_id":"cebpf4jnsgd1na2vs0mg"},{"bike_id":"0a9751da-8684-43f9-b53f-6389ddca1500","system_id":"levelo_inurba_marseille","lat":43.31884,"lon":5.40726,"is_reserved":false,"is_disabled":false,"rental_uris":{"android":"levelo://app?vid=0a9751da-8684-43f9-b53f-6389ddca1500","ios":"levelo://app?vid=0a9751da-8684-43f9-b53f-6389ddca1500"},"vehicle_type_id":"4","last_reported":1731697631,"current_range_meters":28400,"station_id":"ce4bhq12rcd13ifvqhig","pricing_plan_id":"cebpf4jnsgd1na2vs0mg"},{"bike_id":"10fad15c-179d-4cd6-bcd4-04a8998cadcc","system_id":"levelo_inurba_marseille","lat":43.25102,"lon":5.40322,"is_reserved":false,"is_disabled":false,"rental_uris":{"android":"levelo://app?vid=10fad15c-179d-4cd6-bcd4-04a8998cadcc","ios":"levelo://app?vid=10fad15c-179d-4cd6-bcd4-04a8998cadcc"},"vehicle_type_id":"4","last_reported":1731697631,"current_range_meters":9200,"station_id":"ce4bhlh2rcd13ifvqgig","pricing_plan_id":"cebpf4jnsgd1na2vs0mg"},{"bike_id":"e850e753-c63a-47c3-bfbe-84aca2dd76a3","system_id":"levelo_inurba_marseille","lat":43.30533,"lon":5.38421,"is_reserved":false,"is_disabled":false,"rental_uris":{"android":"levelo://app?vid=e850e753-c63a-47c3-bfbe-84aca2dd76a3","ios":"levelo://app?vid=e850e753-c63a-47c3-bfbe-84aca2dd76a3"},"vehicle_type_id":"4","last_reported":1731697631,"current_range_meters":13600,"station_id":"ce4bgg92rcd13ifvqb30","pricing_plan_id":"cebpf4jnsgd1na2vs0mg"},{"bike_id":"d27a3475-2e52-4b6c-9dea-c67313b855a8","system_id":"levelo_inurba_marseille","lat":43.31889,"lon":5.40732,"is_reserved":false,"is_disabled":false,"rental_uris":{"android":"levelo://app?vid=d27a3475-2e52-4b6c-9dea-c67313b855a8","ios":"levelo://app?vid=d27a3475-2e52-4b6c-9dea-c67313b855a8"},"vehicle_type_id":"4","last_reported":1731697631,"current_range_meters":32400,"station_id":"ce4bhq12rcd13ifvqhig","pricing_plan_id":"cebpf4jnsgd1na2vs0mg"},{"bike_id":"d0a33f3e-77e0-42b9-b35b-ff7c08929662","system_id":"levelo_inurba_marseille","lat":43.28002,"lon":5.4001,"is_reserved":false,"is_disabled":false,"rental_uris":{"android":"levelo://app?vid=d0a33f3e-77e0-42b9-b35b-ff7c08929662","ios":"levelo://app?vid=d0a33f3e-77e0-42b9-b35b-ff7c08929662"},"vehicle_type_id":"4","last_reported":1731697631,"current_range_meters":38000,"station_id":"ce4bho92rcd13ifvqh4g","pricing_plan_id":"cebpf4jnsgd1na2vs0mg"},{"bike_id":"a656af2c-c1be-4467-9586-df39760237d0","system_id":"levelo_inurba_marseille","lat":43.29267,"lon":5.38426,"is_reserved":false,"is_disabled":false,"rental_uris":{"android":"levelo://app?vid=a656af2c-c1be-4467-9586-df39760237d0","ios":"levelo://app?vid=a656af2c-c1be-4467-9586-df39760237d0"},"vehicle_type_id":"4","last_reported":1731697631,"current_range_meters":35600,"station_id":"ce4bh692rcd13ifvqea0","pricing_plan_id":"cebpf4jnsgd1na2vs0mg"},{"bike_id":"c32cb617-b374-4b74-8210-e0f4e45c9111","system_id":"levelo_inurba_marseille","lat":43.2781,"lon":5.40712,"is_reserved":false,"is_disabled":false,"rental_uris":{"android":"levelo://app?vid=c32cb617-b374-4b74-8210-e0f4e45c9111","ios":"levelo://app?vid=c32cb617-b374-4b74-8210-e0f4e45c9111"},"vehicle_type_id":"4","last_reported":1731697631,"current_range_meters":36800,"station_id":"ce4bhnh2rcd13ifvqgtg","pricing_plan_id":"cebpf4jnsgd1na2vs0mg"},{"bike_id":"f18ac10f-6435-4c86-8aa6-dec322b6ab39","system_id":"levelo_inurba_marseille","lat":43.29531,"lon":5.38527,"is_reserved":false,"is_disabled":false,"rental_uris":{"android":"levelo://app?vid=f18ac10f-6435-4c86-8aa6-dec322b6ab39","ios":"levelo://app?vid=f18ac10f-6435-4c86-8aa6-dec322b6ab39"},"vehicle_type_id":"4","last_reported":1731697631,"current_range_meters":37600,"station_id":"ce4bgih2rcd13ifvqba0","pricing_plan_id":"cebpf4jnsgd1na2vs0mg"},{"bike_id":"171b7bcf-bb1e-4664-8af2-207bb84288cd","system_id":"levelo_inurba_marseille","lat":43.3021,"lon":5.39468,"is_reserved":false,"is_disabled":false,"rental_uris":{"android":"levelo://app?vid=171b7bcf-bb1e-4664-8af2-207bb84288cd","ios":"levelo://app?vid=171b7bcf-bb1e-4664-8af2-207bb84288cd"},"vehicle_type_id":"4","last_reported":1731697631,"current_range_meters":13600,"station_id":"ce4bh0p2rcd13ifvqd70","pricing_plan_id":"cebpf4jnsgd1na2vs0mg"},{"bike_id":"9f14b78e-c624-463b-b456-804c241a4be2","system_id":"levelo_inurba_marseille","lat":43.29228,"lon":5.36062,"is_reserved":false,"is_disabled":false,"rental_uris":{"android":"levelo://app?vid=9f14b78e-c624-463b-b456-804c241a4be2","ios":"levelo://app?vid=9f14b78e-c624-463b-b456-804c241a4be2"},"vehicle_type_id":"4","last_reported":1731697631,"current_range_meters":25600,"station_id":"ce4bhbh2rcd13ifvqeqg","pricing_plan_id":"cebpf4jnsgd1na2vs0mg"},{"bike_id":"3e04bdf5-fc90-4bb1-ade5-1b4a85c77e85","system_id":"levelo_inurba_marseille","lat":43.23964,"lon":5.36633,"is_reserved":false,"is_disabled":false,"rental_uris":{"android":"levelo://app?vid=3e04bdf5-fc90-4bb1-ade5-1b4a85c77e85","ios":"levelo://app?vid=3e04bdf5-fc90-4bb1-ade5-1b4a85c77e85"},"vehicle_type_id":"4","last_reported":1731697631,"current_range_meters":38800,"station_id":"ce4bhi12rcd13ifvqfp0","pricing_plan_id":"cebpf4jnsgd1na2vs0mg"},{"bike_id":"32107c51-e52e-4075-a4e9-7f9a27092348","system_id":"levelo_inurba_marseille","lat":43.29783,"lon":5.3809,"is_reserved":false,"is_disabled":false,"rental_uris":{"android":"levelo://app?vid=32107c51-e52e-4075-a4e9-7f9a27092348","ios":"levelo://app?vid=32107c51-e52e-4075-a4e9-7f9a27092348"},"vehicle_type_id":"4","last_reported":1731697631,"current_range_meters":16000,"station_id":"ce4bgip2rcd13ifvqbb0","pricing_plan_id":"cebpf4jnsgd1na2vs0mg"},{"bike_id":"bead405f-dff8-4037-a3bb-b4311741c25a","system_id":"levelo_inurba_marseille","lat":43.291,"lon":5.38134,"is_reserved":false,"is_disabled":false,"rental_uris":{"android":"levelo://app?vid=bead405f-dff8-4037-a3bb-b4311741c25a","ios":"levelo://app?vid=bead405f-dff8-4037-a3bb-b4311741c25a"},"vehicle_type_id":"4","last_reported":1731697631,"current_range_meters":12800,"station_id":"ce4bh512rcd13ifvqe2g","pricing_plan_id":"cebpf4jnsgd1na2vs0mg"},{"bike_id":"a9941116-74e4-439d-98cf-87b4495be9d8","system_id":"levelo_inurba_marseille","lat":43.28613,"lon":5.35106,"is_reserved":false,"is_disabled":false,"rental_uris":{"android":"levelo://app?vid=a9941116-74e4-439d-98cf-87b4495be9d8","ios":"levelo://app?vid=a9941116-74e4-439d-98cf-87b4495be9d8"},"vehicle_type_id":"4","last_reported":1731697631,"current_range_meters":36800,"station_id":"ce4bhch2rcd13ifvqeug","pricing_plan_id":"cebpf4jnsgd1na2vs0mg"},{"bike_id":"a2e3c0ea-a40c-4f19-bedf-88286d87645e","system_id":"levelo_inurba_marseille","lat":43.30552,"lon":5.36712,"is_reserved":false,"is_disabled":false,"rental_uris":{"android":"levelo://app?vid=a2e3c0ea-a40c-4f19-bedf-88286d87645e","ios":"levelo://app?vid=a2e3c0ea-a40c-4f19-bedf-88286d87645e"},"vehicle_type_id":"4","last_reported":1731697631,"current_range_meters":38000,"station_id":"ce4bgrp2rcd13ifvqc9g","pricing_plan_id":"cebpf4jnsgd1na2vs0mg"},{"bike_id":"b54f4471-f146-477a-ade3-58e1dea1b85e","system_id":"levelo_inurba_marseille","lat":43.337444,"lon":5.374475,"is_reserved":false,"is_disabled":false,"rental_uris":{"android":"levelo://app?vid=b54f4471-f146-477a-ade3-58e1dea1b85e","ios":"levelo://app?vid=b54f4471-f146-477a-ade3-58e1dea1b85e"},"vehicle_type_id":"4","last_reported":1731697631,"current_range_meters":36400,"station_id":"","pricing_plan_id":"cebpf4jnsgd1na2vs0mg"},{"bike_id":"d31c9501-665a-4fd9-a1bb-9e5e800cf2d1","system_id":"levelo_inurba_marseille","lat":43.29106,"lon":5.38142,"is_reserved":false,"is_disabled":false,"rental_uris":{"android":"levelo://app?vid=d31c9501-665a-4fd9-a1bb-9e5e800cf2d1","ios":"levelo://app?vid=d31c9501-665a-4fd9-a1bb-9e5e800cf2d1"},"vehicle_type_id":"4","last_reported":1731697631,"current_range_meters":34000,"station_id":"ce4bh512rcd13ifvqe2g","pricing_plan_id":"cebpf4jnsgd1na2vs0mg"},{"bike_id":"ce271d8c-9618-4bf4-aea2-241c8cbfb2c6","system_id":"levelo_inurba_marseille","lat":43.28081,"lon":5.3966,"is_reserved":false,"is_disabled":false,"rental_uris":{"android":"levelo://app?vid=ce271d8c-9618-4bf4-aea2-241c8cbfb2c6","ios":"levelo://app?vid=ce271d8c-9618-4bf4-aea2-241c8cbfb2c6"},"vehicle_type_id":"4","last_reported":1731697631,"current_range_meters":6000,"station_id":"ce4bho12rcd13ifvqh2g","pricing_plan_id":"cebpf4jnsgd1na2vs0mg"},{"bike_id":"8b844abe-db80-4882-8dd9-9fd9c238539c","system_id":"levelo_inurba_marseille","lat":43.24387,"lon":5.37057,"is_reserved":false,"is_disabled":false,"rental_uris":{"android":"levelo://app?vid=8b844abe-db80-4882-8dd9-9fd9c238539c","ios":"levelo://app?vid=8b844abe-db80-4882-8dd9-9fd9c238539c"},"vehicle_type_id":"4","last_reported":1731697631,"current_range_meters":19200,"station_id":"ce4bhhh2rcd13ifvqfk0","pricing_plan_id":"cebpf4jnsgd1na2vs0mg"},{"bike_id":"805cfe6b-be44-4949-bab5-57b1ce8478a4","system_id":"levelo_inurba_marseille","lat":43.33752,"lon":5.37459,"is_reserved":false,"is_disabled":false,"rental_uris":{"android":"levelo://app?vid=805cfe6b-be44-4949-bab5-57b1ce8478a4","ios":"levelo://app?vid=805cfe6b-be44-4949-bab5-57b1ce8478a4"},"vehicle_type_id":"4","last_reported":1731697631,"current_range_meters":32800,"station_id":"","pricing_plan_id":"cebpf4jnsgd1na2vs0mg"},{"bike_id":"45bd19fe-6bd7-4d15-aae3-edb1aadf005b","system_id":"levelo_inurba_marseille","lat":43.279907,"lon":5.404177,"is_reserved":false,"is_disabled":false,"rental_uris":{"android":"levelo://app?vid=45bd19fe-6bd7-4d15-aae3-edb1aadf005b","ios":"levelo://app?vid=45bd19fe-6bd7-4d15-aae3-edb1aadf005b"},"vehicle_type_id":"4","last_reported":1731697631,"current_range_meters":9200,"station_id":"ce4bhnh2rcd13ifvqgtg","pricing_plan_id":"cebpf4jnsgd1na2vs0mg"},{"bike_id":"2ac3496b-c8e5-41c0-9515-f9dd3f076430","system_id":"levelo_inurba_marseille","lat":43.28152,"lon":5.4264,"is_reserved":false,"is_disabled":false,"rental_uris":{"android":"levelo://app?vid=2ac3496b-c8e5-41c0-9515-f9dd3f076430","ios":"levelo://app?vid=2ac3496b-c8e5-41c0-9515-f9dd3f076430"},"vehicle_type_id":"4","last_reported":1731697631,"current_range_meters":9600,"station_id":"ce4bhnh2rcd13ifvqgug","pricing_plan_id":"cebpf4jnsgd1na2vs0mg"},{"bike_id":"b38c59a0-ce08-4eb9-b870-02b578ca24a3","system_id":"levelo_inurba_marseille","lat":43.31923,"lon":5.38658,"is_reserved":false,"is_disabled":false,"rental_uris":{"android":"levelo://app?vid=b38c59a0-ce08-4eb9-b870-02b578ca24a3","ios":"levelo://app?vid=b38c59a0-ce08-4eb9-b870-02b578ca24a3"},"vehicle_type_id":"4","last_reported":1731697631,"current_range_meters":30400,"station_id":"","pricing_plan_id":"cebpf4jnsgd1na2vs0mg"},{"bike_id":"1fc81097-8511-49c5-ae4a-11d72e27fadc","system_id":"levelo_inurba_marseille","lat":43.32052,"lon":5.41545,"is_reserved":false,"is_disabled":false,"rental_uris":{"android":"levelo://app?vid=1fc81097-8511-49c5-ae4a-11d72e27fadc","ios":"levelo://app?vid=1fc81097-8511-49c5-ae4a-11d72e27fadc"},"vehicle_type_id":"4","last_reported":1731697631,"current_range_meters":8000,"station_id":"ce4bhq92rcd13ifvqhkg","pricing_plan_id":"cebpf4jnsgd1na2vs0mg"},{"bike_id":"26fb0474-c49b-4a7e-a9fa-2582d466b905","system_id":"levelo_inurba_marseille","lat":43.296997,"lon":5.367293,"is_reserved":false,"is_disabled":false,"rental_uris":{"android":"levelo://app?vid=26fb0474-c49b-4a7e-a9fa-2582d466b905","ios":"levelo://app?vid=26fb0474-c49b-4a7e-a9fa-2582d466b905"},"vehicle_type_id":"4","last_reported":1731697631,"current_range_meters":6000,"station_id":"ce4bgn12rcd13ifvqbt0","pricing_plan_id":"cebpf4jnsgd1na2vs0mg"},{"bike_id":"42e58bf6-d12a-443e-be7b-82b95e2c98bd","system_id":"levelo_inurba_marseille","lat":43.29895,"lon":5.38151,"is_reserved":false,"is_disabled":false,"rental_uris":{"android":"levelo://app?vid=42e58bf6-d12a-443e-be7b-82b95e2c98bd","ios":"levelo://app?vid=42e58bf6-d12a-443e-be7b-82b95e2c98bd"},"vehicle_type_id":"4","last_reported":1731697631,"current_range_meters":12400,"station_id":"ce4bgj12rcd13ifvqbc0","pricing_plan_id":"cebpf4jnsgd1na2vs0mg"},{"bike_id":"555e2007-40ad-4ec7-89b8-96ee1c974228","system_id":"levelo_inurba_marseille","lat":43.32336,"lon":5.40621,"is_reserved":false,"is_disabled":false,"rental_uris":{"android":"levelo://app?vid=555e2007-40ad-4ec7-89b8-96ee1c974228","ios":"levelo://app?vid=555e2007-40ad-4ec7-89b8-96ee1c974228"},"vehicle_type_id":"4","last_reported":1731697631,"current_range_meters":2000,"station_id":"ce4bhq92rcd13ifvqhjg","pricing_plan_id":"cebpf4jnsgd1na2vs0mg"},{"bike_id":"e01b2486-a57f-4936-91d8-9fa278df0ba4","system_id":"levelo_inurba_marseille","lat":43.31166,"lon":5.38704,"is_reserved":false,"is_disabled":false,"rental_uris":{"android":"levelo://app?vid=e01b2486-a57f-4936-91d8-9fa278df0ba4","ios":"levelo://app?vid=e01b2486-a57f-4936-91d8-9fa278df0ba4"},"vehicle_type_id":"4","last_reported":1731697631,"current_range_meters":22800,"station_id":"ce4bgv12rcd13ifvqcp0","pricing_plan_id":"cebpf4jnsgd1na2vs0mg"},{"bike_id":"ca655f3b-8380-4045-b3f8-8acaa0e83ede","system_id":"levelo_inurba_marseille","lat":43.33733,"lon":5.37456,"is_reserved":false,"is_disabled":false,"rental_uris":{"android":"levelo://app?vid=ca655f3b-8380-4045-b3f8-8acaa0e83ede","ios":"levelo://app?vid=ca655f3b-8380-4045-b3f8-8acaa0e83ede"},"vehicle_type_id":"4","last_reported":1731697631,"current_range_meters":35600,"station_id":"","pricing_plan_id":"cebpf4jnsgd1na2vs0mg"},{"bike_id":"72428783-0e7c-4a2c-894d-22a1b4a71084","system_id":"levelo_inurba_marseille","lat":43.32487,"lon":5.36556,"is_reserved":false,"is_disabled":false,"rental_uris":{"android":"levelo://app?vid=72428783-0e7c-4a2c-894d-22a1b4a71084","ios":"levelo://app?vid=72428783-0e7c-4a2c-894d-22a1b4a71084"},"vehicle_type_id":"4","last_reported":1731697631,"current_range_meters":16000,"station_id":"ce4bhs12rcd13ifvqhvg","pricing_plan_id":"cebpf4jnsgd1na2vs0mg"},{"bike_id":"2c5e1694-3d68-4b81-9237-78a8f4b3b450","system_id":"levelo_inurba_marseille","lat":43.2836,"lon":5.38612,"is_reserved":false,"is_disabled":false,"rental_uris":{"android":"levelo://app?vid=2c5e1694-3d68-4b81-9237-78a8f4b3b450","ios":"levelo://app?vid=2c5e1694-3d68-4b81-9237-78a8f4b3b450"},"vehicle_type_id":"4","last_reported":1731697631,"current_range_meters":10000,"station_id":"ce4bh492rcd13ifvqdvg","pricing_plan_id":"cebpf4jnsgd1na2vs0mg"},{"bike_id":"a6b8c285-acc9-4039-9531-1aae39136a33","system_id":"levelo_inurba_marseille","lat":43.312042,"lon":5.367348,"is_reserved":false,"is_disabled":false,"rental_uris":{"android":"levelo://app?vid=a6b8c285-acc9-4039-9531-1aae39136a33","ios":"levelo://app?vid=a6b8c285-acc9-4039-9531-1aae39136a33"},"vehicle_type_id":"4","last_reported":1731697631,"current_range_meters":18000,"station_id":"","pricing_plan_id":"cebpf4jnsgd1na2vs0mg"},{"bike_id":"ebcbc26a-0484-40a4-8792-8bd74acf68ef","system_id":"levelo_inurba_marseille","lat":43.29253,"lon":5.38443,"is_reserved":false,"is_disabled":false,"rental_uris":{"android":"levelo://app?vid=ebcbc26a-0484-40a4-8792-8bd74acf68ef","ios":"levelo://app?vid=ebcbc26a-0484-40a4-8792-8bd74acf68ef"},"vehicle_type_id":"4","last_reported":1731697631,"current_range_meters":16400,"station_id":"ce4bh692rcd13ifvqea0","pricing_plan_id":"cebpf4jnsgd1na2vs0mg"},{"bike_id":"5c254126-8805-4ed8-9520-9f63561143b3","system_id":"levelo_inurba_marseille","lat":43.2417,"lon":5.36403,"is_reserved":false,"is_disabled":false,"rental_uris":{"android":"levelo://app?vid=5c254126-8805-4ed8-9520-9f63561143b3","ios":"levelo://app?vid=5c254126-8805-4ed8-9520-9f63561143b3"},"vehicle_type_id":"4","last_reported":1731697631,"current_range_meters":25600,"station_id":"cpo36qri1sfpv3e86is0","pricing_plan_id":"cebpf4jnsgd1na2vs0mg"},{"bike_id":"40a00824-9105-42da-bd2d-cd332ad8945e","system_id":"levelo_inurba_marseille","lat":43.30138,"lon":5.38782,"is_reserved":false,"is_disabled":false,"rental_uris":{"android":"levelo://app?vid=40a00824-9105-42da-bd2d-cd332ad8945e","ios":"levelo://app?vid=40a00824-9105-42da-bd2d-cd332ad8945e"},"vehicle_type_id":"4","last_reported":1731697631,"current_range_meters":38800,"station_id":"ce4bghh2rcd13ifvqb60","pricing_plan_id":"cebpf4jnsgd1na2vs0mg"},{"bike_id":"50ae3ec0-9f46-43fd-819a-4c7a80c3cf46","system_id":"levelo_inurba_marseille","lat":43.28852,"lon":5.35844,"is_reserved":false,"is_disabled":false,"rental_uris":{"android":"levelo://app?vid=50ae3ec0-9f46-43fd-819a-4c7a80c3cf46","ios":"levelo://app?vid=50ae3ec0-9f46-43fd-819a-4c7a80c3cf46"},"vehicle_type_id":"4","last_reported":1731697631,"current_range_meters":38000,"station_id":"ce4bhb12rcd13ifvqem0","pricing_plan_id":"cebpf4jnsgd1na2vs0mg"},{"bike_id":"548e9f4c-a977-452a-96e7-c05e9758b95e","system_id":"levelo_inurba_marseille","lat":43.29417,"lon":5.38623,"is_reserved":false,"is_disabled":false,"rental_uris":{"android":"levelo://app?vid=548e9f4c-a977-452a-96e7-c05e9758b95e","ios":"levelo://app?vid=548e9f4c-a977-452a-96e7-c05e9758b95e"},"vehicle_type_id":"4","last_reported":1731697631,"current_range_meters":18800,"station_id":"ce4bh2h2rcd13ifvqdh0","pricing_plan_id":"cebpf4jnsgd1na2vs0mg"},{"bike_id":"6ef266d1-92eb-440d-9bcd-6ee947c0d029","system_id":"levelo_inurba_marseille","lat":43.27496,"lon":5.42451,"is_reserved":false,"is_disabled":false,"rental_uris":{"android":"levelo://app?vid=6ef266d1-92eb-440d-9bcd-6ee947c0d029","ios":"levelo://app?vid=6ef266d1-92eb-440d-9bcd-6ee947c0d029"},"vehicle_type_id":"4","last_reported":1731697631,"current_range_meters":27600,"station_id":"ce4bhn92rcd13ifvqgrg","pricing_plan_id":"cebpf4jnsgd1na2vs0mg"},{"bike_id":"56e128db-d281-4e18-8304-040ffeba0eed","system_id":"levelo_inurba_marseille","lat":43.2942,"lon":5.38629,"is_reserved":false,"is_disabled":false,"rental_uris":{"android":"levelo://app?vid=56e128db-d281-4e18-8304-040ffeba0eed","ios":"levelo://app?vid=56e128db-d281-4e18-8304-040ffeba0eed"},"vehicle_type_id":"4","last_reported":1731697631,"current_range_meters":20400,"station_id":"ce4bh2h2rcd13ifvqdh0","pricing_plan_id":"cebpf4jnsgd1na2vs0mg"},{"bike_id":"1ae8fe75-00ad-479b-a755-74d45d76bfbe","system_id":"levelo_inurba_marseille","lat":43.24169,"lon":5.36404,"is_reserved":false,"is_disabled":false,"rental_uris":{"android":"levelo://app?vid=1ae8fe75-00ad-479b-a755-74d45d76bfbe","ios":"levelo://app?vid=1ae8fe75-00ad-479b-a755-74d45d76bfbe"},"vehicle_type_id":"4","last_reported":1731697631,"current_range_meters":9600,"station_id":"cpo36qri1sfpv3e86is0","pricing_plan_id":"cebpf4jnsgd1na2vs0mg"},{"bike_id":"25814bd3-d4dd-4170-aae5-5225113c94cc","system_id":"levelo_inurba_marseille","lat":43.29273,"lon":5.38525,"is_reserved":false,"is_disabled":false,"rental_uris":{"android":"levelo://app?vid=25814bd3-d4dd-4170-aae5-5225113c94cc","ios":"levelo://app?vid=25814bd3-d4dd-4170-aae5-5225113c94cc"},"vehicle_type_id":"4","last_reported":1731697631,"current_range_meters":9200,"station_id":"","pricing_plan_id":"cebpf4jnsgd1na2vs0mg"},{"bike_id":"5df34f29-1a7a-4221-97e5-c009d97a2929","system_id":"levelo_inurba_marseille","lat":43.238384,"lon":5.365344,"is_reserved":false,"is_disabled":false,"rental_uris":{"android":"levelo://app?vid=5df34f29-1a7a-4221-97e5-c009d97a2929","ios":"levelo://app?vid=5df34f29-1a7a-4221-97e5-c009d97a2929"},"vehicle_type_id":"4","last_reported":1731697631,"current_range_meters":12800,"station_id":"","pricing_plan_id":"cebpf4jnsgd1na2vs0mg"},{"bike_id":"92ac4858-87d6-4ceb-8f6e-004635a816a8","system_id":"levelo_inurba_marseille","lat":43.2779,"lon":5.4073,"is_reserved":false,"is_disabled":false,"rental_uris":{"android":"levelo://app?vid=92ac4858-87d6-4ceb-8f6e-004635a816a8","ios":"levelo://app?vid=92ac4858-87d6-4ceb-8f6e-004635a816a8"},"vehicle_type_id":"4","last_reported":1731697631,"current_range_meters":36000,"station_id":"ce4bhnh2rcd13ifvqgtg","pricing_plan_id":"cebpf4jnsgd1na2vs0mg"},{"bike_id":"ca4ac24d-53cc-414b-91b7-a7f846e71667","system_id":"levelo_inurba_marseille","lat":43.31081,"lon":5.42428,"is_reserved":false,"is_disabled":false,"rental_uris":{"android":"levelo://app?vid=ca4ac24d-53cc-414b-91b7-a7f846e71667","ios":"levelo://app?vid=ca4ac24d-53cc-414b-91b7-a7f846e71667"},"vehicle_type_id":"4","last_reported":1731697631,"current_range_meters":22800,"station_id":"ce4bhp92rcd13ifvqhag","pricing_plan_id":"cebpf4jnsgd1na2vs0mg"},{"bike_id":"acccc9dd-ae8e-4182-bf16-701672e8ed55","system_id":"levelo_inurba_marseille","lat":43.25718,"lon":5.41106,"is_reserved":false,"is_disabled":false,"rental_uris":{"android":"levelo://app?vid=acccc9dd-ae8e-4182-bf16-701672e8ed55","ios":"levelo://app?vid=acccc9dd-ae8e-4182-bf16-701672e8ed55"},"vehicle_type_id":"4","last_reported":1731697631,"current_range_meters":38800,"station_id":"ce4bhkp2rcd13ifvqgd0","pricing_plan_id":"cebpf4jnsgd1na2vs0mg"},{"bike_id":"3354b99e-e729-4b9e-913a-ea62990cac5c","system_id":"levelo_inurba_marseille","lat":43.24551,"lon":5.38078,"is_reserved":false,"is_disabled":false,"rental_uris":{"android":"levelo://app?vid=3354b99e-e729-4b9e-913a-ea62990cac5c","ios":"levelo://app?vid=3354b99e-e729-4b9e-913a-ea62990cac5c"},"vehicle_type_id":"4","last_reported":1731697631,"current_range_meters":26000,"station_id":"","pricing_plan_id":"cebpf4jnsgd1na2vs0mg"},{"bike_id":"347c7842-b74d-475c-9f43-0b98799e9df1","system_id":"levelo_inurba_marseille","lat":43.32338,"lon":5.40625,"is_reserved":false,"is_disabled":false,"rental_uris":{"android":"levelo://app?vid=347c7842-b74d-475c-9f43-0b98799e9df1","ios":"levelo://app?vid=347c7842-b74d-475c-9f43-0b98799e9df1"},"vehicle_type_id":"4","last_reported":1731697631,"current_range_meters":6400,"station_id":"ce4bhq92rcd13ifvqhjg","pricing_plan_id":"cebpf4jnsgd1na2vs0mg"},{"bike_id":"ec2cfdc2-4f84-4e38-a19d-43ff2b2c9286","system_id":"levelo_inurba_marseille","lat":43.31692,"lon":5.40467,"is_reserved":false,"is_disabled":false,"rental_uris":{"android":"levelo://app?vid=ec2cfdc2-4f84-4e38-a19d-43ff2b2c9286","ios":"levelo://app?vid=ec2cfdc2-4f84-4e38-a19d-43ff2b2c9286"},"vehicle_type_id":"4","last_reported":1731697631,"current_range_meters":11200,"station_id":"ce4bh012rcd13ifvqd00","pricing_plan_id":"cebpf4jnsgd1na2vs0mg"},{"bike_id":"139d00fc-e67b-449a-9fd4-0db893561dc2","system_id":"levelo_inurba_marseille","lat":43.33756,"lon":5.37418,"is_reserved":false,"is_disabled":false,"rental_uris":{"android":"levelo://app?vid=139d00fc-e67b-449a-9fd4-0db893561dc2","ios":"levelo://app?vid=139d00fc-e67b-449a-9fd4-0db893561dc2"},"vehicle_type_id":"4","last_reported":1731697631,"current_range_meters":8800,"station_id":"","pricing_plan_id":"cebpf4jnsgd1na2vs0mg"},{"bike_id":"bdda4347-118f-4304-b506-09b4b5e15b39","system_id":"levelo_inurba_marseille","lat":43.33723,"lon":5.39186,"is_reserved":false,"is_disabled":false,"rental_uris":{"android":"levelo://app?vid=bdda4347-118f-4304-b506-09b4b5e15b39","ios":"levelo://app?vid=bdda4347-118f-4304-b506-09b4b5e15b39"},"vehicle_type_id":"4","last_reported":1731697631,"current_range_meters":18800,"station_id":"ce4bhr92rcd13ifvqhsg","pricing_plan_id":"cebpf4jnsgd1na2vs0mg"},{"bike_id":"a1328758-1fdf-4ab2-963f-6d61454d33fb","system_id":"levelo_inurba_marseille","lat":43.30133,"lon":5.39858,"is_reserved":false,"is_disabled":false,"rental_uris":{"android":"levelo://app?vid=a1328758-1fdf-4ab2-963f-6d61454d33fb","ios":"levelo://app?vid=a1328758-1fdf-4ab2-963f-6d61454d33fb"},"vehicle_type_id":"4","last_reported":1731697631,"current_range_meters":28000,"station_id":"ce4bh0h2rcd13ifvqd40","pricing_plan_id":"cebpf4jnsgd1na2vs0mg"},{"bike_id":"93836c9b-e66c-420c-b66f-2beb013edc25","system_id":"levelo_inurba_marseille","lat":43.31162,"lon":5.38718,"is_reserved":false,"is_disabled":false,"rental_uris":{"android":"levelo://app?vid=93836c9b-e66c-420c-b66f-2beb013edc25","ios":"levelo://app?vid=93836c9b-e66c-420c-b66f-2beb013edc25"},"vehicle_type_id":"4","last_reported":1731697631,"current_range_meters":15200,"station_id":"ce4bgv12rcd13ifvqcp0","pricing_plan_id":"cebpf4jnsgd1na2vs0mg"},{"bike_id":"e26514c9-8183-489c-83ac-aa92a5c7dfd1","system_id":"levelo_inurba_marseille","lat":43.25118,"lon":5.40317,"is_reserved":false,"is_disabled":false,"rental_uris":{"android":"levelo://app?vid=e26514c9-8183-489c-83ac-aa92a5c7dfd1","ios":"levelo://app?vid=e26514c9-8183-489c-83ac-aa92a5c7dfd1"},"vehicle_type_id":"4","last_reported":1731697631,"current_range_meters":28800,"station_id":"ce4bhlh2rcd13ifvqgig","pricing_plan_id":"cebpf4jnsgd1na2vs0mg"},{"bike_id":"8f6ae77b-bf97-41b8-bd53-a56dc603e570","system_id":"levelo_inurba_marseille","lat":43.285596,"lon":5.384022,"is_reserved":false,"is_disabled":false,"rental_uris":{"android":"levelo://app?vid=8f6ae77b-bf97-41b8-bd53-a56dc603e570","ios":"levelo://app?vid=8f6ae77b-bf97-41b8-bd53-a56dc603e570"},"vehicle_type_id":"4","last_reported":1731697631,"current_range_meters":19200,"station_id":"ce4bh512rcd13ifvqe3g","pricing_plan_id":"cebpf4jnsgd1na2vs0mg"},{"bike_id":"c2094ffa-e822-4e6c-aa10-bf5dfb60ae2c","system_id":"levelo_inurba_marseille","lat":43.30883,"lon":5.37186,"is_reserved":false,"is_disabled":false,"rental_uris":{"android":"levelo://app?vid=c2094ffa-e822-4e6c-aa10-bf5dfb60ae2c","ios":"levelo://app?vid=c2094ffa-e822-4e6c-aa10-bf5dfb60ae2c"},"vehicle_type_id":"4","last_reported":1731697631,"current_range_meters":16000,"station_id":"ce4bguh2rcd13ifvqckg","pricing_plan_id":"cebpf4jnsgd1na2vs0mg"},{"bike_id":"7618ec4b-01bd-434e-80e3-08eba015e693","system_id":"levelo_inurba_marseille","lat":43.31154,"lon":5.38724,"is_reserved":false,"is_disabled":false,"rental_uris":{"android":"levelo://app?vid=7618ec4b-01bd-434e-80e3-08eba015e693","ios":"levelo://app?vid=7618ec4b-01bd-434e-80e3-08eba015e693"},"vehicle_type_id":"4","last_reported":1731697631,"current_range_meters":12800,"station_id":"ce4bgv12rcd13ifvqcp0","pricing_plan_id":"cebpf4jnsgd1na2vs0mg"},{"bike_id":"46ac7ef8-1a9d-432b-b6df-06c2c5bfd183","system_id":"levelo_inurba_marseille","lat":43.3078,"lon":5.37649,"is_reserved":false,"is_disabled":false,"rental_uris":{"android":"levelo://app?vid=46ac7ef8-1a9d-432b-b6df-06c2c5bfd183","ios":"levelo://app?vid=46ac7ef8-1a9d-432b-b6df-06c2c5bfd183"},"vehicle_type_id":"4","last_reported":1731697631,"current_range_meters":16400,"station_id":"ce4bgv92rcd13ifvqcq0","pricing_plan_id":"cebpf4jnsgd1na2vs0mg"},{"bike_id":"037d1d01-2d7d-4633-aa8f-e9a2f7158ca1","system_id":"levelo_inurba_marseille","lat":43.31685,"lon":5.40478,"is_reserved":false,"is_disabled":false,"rental_uris":{"android":"levelo://app?vid=037d1d01-2d7d-4633-aa8f-e9a2f7158ca1","ios":"levelo://app?vid=037d1d01-2d7d-4633-aa8f-e9a2f7158ca1"},"vehicle_type_id":"4","last_reported":1731697631,"current_range_meters":28000,"station_id":"ce4bh012rcd13ifvqd00","pricing_plan_id":"cebpf4jnsgd1na2vs0mg"},{"bike_id":"03d1db55-50b8-4b7f-aebc-97c9e70bb1be","system_id":"levelo_inurba_marseille","lat":43.31685,"lon":5.40473,"is_reserved":false,"is_disabled":false,"rental_uris":{"android":"levelo://app?vid=03d1db55-50b8-4b7f-aebc-97c9e70bb1be","ios":"levelo://app?vid=03d1db55-50b8-4b7f-aebc-97c9e70bb1be"},"vehicle_type_id":"4","last_reported":1731697631,"current_range_meters":7200,"station_id":"ce4bh012rcd13ifvqd00","pricing_plan_id":"cebpf4jnsgd1na2vs0mg"},{"bike_id":"e1fdae3d-859b-438c-8667-d45338d823a7","system_id":"levelo_inurba_marseille","lat":43.32284,"lon":5.38256,"is_reserved":false,"is_disabled":false,"rental_uris":{"android":"levelo://app?vid=e1fdae3d-859b-438c-8667-d45338d823a7","ios":"levelo://app?vid=e1fdae3d-859b-438c-8667-d45338d823a7"},"vehicle_type_id":"4","last_reported":1731697631,"current_range_meters":38400,"station_id":"ce4bhr12rcd13ifvqhqg","pricing_plan_id":"cebpf4jnsgd1na2vs0mg"},{"bike_id":"6d6992bf-ade3-4a22-a168-306dafdc4544","system_id":"levelo_inurba_marseille","lat":43.24167,"lon":5.36403,"is_reserved":false,"is_disabled":false,"rental_uris":{"android":"levelo://app?vid=6d6992bf-ade3-4a22-a168-306dafdc4544","ios":"levelo://app?vid=6d6992bf-ade3-4a22-a168-306dafdc4544"},"vehicle_type_id":"4","last_reported":1731697631,"current_range_meters":36800,"station_id":"cpo36qri1sfpv3e86is0","pricing_plan_id":"cebpf4jnsgd1na2vs0mg"},{"bike_id":"074c6971-4ae7-4906-8673-1607af29a7e1","system_id":"levelo_inurba_marseille","lat":43.2509,"lon":5.39496,"is_reserved":false,"is_disabled":false,"rental_uris":{"android":"levelo://app?vid=074c6971-4ae7-4906-8673-1607af29a7e1","ios":"levelo://app?vid=074c6971-4ae7-4906-8673-1607af29a7e1"},"vehicle_type_id":"4","last_reported":1731697631,"current_range_meters":36400,"station_id":"ce4bhm12rcd13ifvqgkg","pricing_plan_id":"cebpf4jnsgd1na2vs0mg"},{"bike_id":"d9863df9-9176-4865-a7b9-ef43f3b6aef5","system_id":"levelo_inurba_marseille","lat":43.29532,"lon":5.38539,"is_reserved":false,"is_disabled":false,"rental_uris":{"android":"levelo://app?vid=d9863df9-9176-4865-a7b9-ef43f3b6aef5","ios":"levelo://app?vid=d9863df9-9176-4865-a7b9-ef43f3b6aef5"},"vehicle_type_id":"4","last_reported":1731697631,"current_range_meters":38000,"station_id":"ce4bgih2rcd13ifvqba0","pricing_plan_id":"cebpf4jnsgd1na2vs0mg"},{"bike_id":"eef5d37c-5bfd-4c76-81bd-46afa511c5a9","system_id":"levelo_inurba_marseille","lat":43.33019,"lon":5.39037,"is_reserved":false,"is_disabled":false,"rental_uris":{"android":"levelo://app?vid=eef5d37c-5bfd-4c76-81bd-46afa511c5a9","ios":"levelo://app?vid=eef5d37c-5bfd-4c76-81bd-46afa511c5a9"},"vehicle_type_id":"4","last_reported":1731697631,"current_range_meters":38800,"station_id":"ce4bhr92rcd13ifvqhrg","pricing_plan_id":"cebpf4jnsgd1na2vs0mg"},{"bike_id":"2d5bdd54-9caa-4cdc-8ac1-291a6d544e67","system_id":"levelo_inurba_marseille","lat":43.33024,"lon":5.39036,"is_reserved":false,"is_disabled":false,"rental_uris":{"android":"levelo://app?vid=2d5bdd54-9caa-4cdc-8ac1-291a6d544e67","ios":"levelo://app?vid=2d5bdd54-9caa-4cdc-8ac1-291a6d544e67"},"vehicle_type_id":"4","last_reported":1731697631,"current_range_meters":28800,"station_id":"ce4bhr92rcd13ifvqhrg","pricing_plan_id":"cebpf4jnsgd1na2vs0mg"},{"bike_id":"1707cb1e-404f-449a-8ec1-810d24d3f970","system_id":"levelo_inurba_marseille","lat":43.23168,"lon":5.39977,"is_reserved":false,"is_disabled":false,"rental_uris":{"android":"levelo://app?vid=1707cb1e-404f-449a-8ec1-810d24d3f970","ios":"levelo://app?vid=1707cb1e-404f-449a-8ec1-810d24d3f970"},"vehicle_type_id":"4","last_reported":1731697631,"current_range_meters":29600,"station_id":"ce4bhn12rcd13ifvqgqg","pricing_plan_id":"cebpf4jnsgd1na2vs0mg"},{"bike_id":"4664768e-086d-4a50-ad23-6a77c7174da1","system_id":"levelo_inurba_marseille","lat":43.26066,"lon":5.39393,"is_reserved":false,"is_disabled":false,"rental_uris":{"android":"levelo://app?vid=4664768e-086d-4a50-ad23-6a77c7174da1","ios":"levelo://app?vid=4664768e-086d-4a50-ad23-6a77c7174da1"},"vehicle_type_id":"4","last_reported":1731697631,"current_range_meters":26800,"station_id":"ce4bhh92rcd13ifvqfj0","pricing_plan_id":"cebpf4jnsgd1na2vs0mg"},{"bike_id":"2fc5b865-05f8-4489-a186-4ae7dc3ed783","system_id":"levelo_inurba_marseille","lat":43.24391,"lon":5.37062,"is_reserved":false,"is_disabled":false,"rental_uris":{"android":"levelo://app?vid=2fc5b865-05f8-4489-a186-4ae7dc3ed783","ios":"levelo://app?vid=2fc5b865-05f8-4489-a186-4ae7dc3ed783"},"vehicle_type_id":"4","last_reported":1731697631,"current_range_meters":36800,"station_id":"ce4bhhh2rcd13ifvqfk0","pricing_plan_id":"cebpf4jnsgd1na2vs0mg"},{"bike_id":"f80bdfef-f8f0-4ab6-becb-dc894773cd01","system_id":"levelo_inurba_marseille","lat":43.27863,"lon":5.38319,"is_reserved":false,"is_disabled":false,"rental_uris":{"android":"levelo://app?vid=f80bdfef-f8f0-4ab6-becb-dc894773cd01","ios":"levelo://app?vid=f80bdfef-f8f0-4ab6-becb-dc894773cd01"},"vehicle_type_id":"4","last_reported":1731697631,"current_range_meters":32800,"station_id":"ce4bhf92rcd13ifvqf50","pricing_plan_id":"cebpf4jnsgd1na2vs0mg"},{"bike_id":"ff273380-c91d-4de0-97f4-4e62bfd1e6c1","system_id":"levelo_inurba_marseille","lat":43.29649,"lon":5.37648,"is_reserved":false,"is_disabled":false,"rental_uris":{"android":"levelo://app?vid=ff273380-c91d-4de0-97f4-4e62bfd1e6c1","ios":"levelo://app?vid=ff273380-c91d-4de0-97f4-4e62bfd1e6c1"},"vehicle_type_id":"4","last_reported":1731697631,"current_range_meters":16000,"station_id":"","pricing_plan_id":"cebpf4jnsgd1na2vs0mg"},{"bike_id":"4ee4605c-22f2-4532-b44d-f5fb03fd5142","system_id":"levelo_inurba_marseille","lat":43.30803,"lon":5.4352,"is_reserved":false,"is_disabled":false,"rental_uris":{"android":"levelo://app?vid=4ee4605c-22f2-4532-b44d-f5fb03fd5142","ios":"levelo://app?vid=4ee4605c-22f2-4532-b44d-f5fb03fd5142"},"vehicle_type_id":"4","last_reported":1731697631,"current_range_meters":24400,"station_id":"ce4bhph2rcd13ifvqheg","pricing_plan_id":"cebpf4jnsgd1na2vs0mg"},{"bike_id":"7a4340a3-d5e2-40c3-b571-a1952418ba61","system_id":"levelo_inurba_marseille","lat":43.25576,"lon":5.38228,"is_reserved":false,"is_disabled":false,"rental_uris":{"android":"levelo://app?vid=7a4340a3-d5e2-40c3-b571-a1952418ba61","ios":"levelo://app?vid=7a4340a3-d5e2-40c3-b571-a1952418ba61"},"vehicle_type_id":"4","last_reported":1731697631,"current_range_meters":25600,"station_id":"ce4bhih2rcd13ifvqfs0","pricing_plan_id":"cebpf4jnsgd1na2vs0mg"},{"bike_id":"d5ca87ef-1eaf-43ac-b7c5-feab87b033b7","system_id":"levelo_inurba_marseille","lat":43.29416,"lon":5.38624,"is_reserved":false,"is_disabled":false,"rental_uris":{"android":"levelo://app?vid=d5ca87ef-1eaf-43ac-b7c5-feab87b033b7","ios":"levelo://app?vid=d5ca87ef-1eaf-43ac-b7c5-feab87b033b7"},"vehicle_type_id":"4","last_reported":1731697631,"current_range_meters":6400,"station_id":"ce4bh2h2rcd13ifvqdh0","pricing_plan_id":"cebpf4jnsgd1na2vs0mg"},{"bike_id":"ffc56c39-f6da-4d00-bd37-57df1eff0c09","system_id":"levelo_inurba_marseille","lat":43.29416,"lon":5.3862,"is_reserved":false,"is_disabled":false,"rental_uris":{"android":"levelo://app?vid=ffc56c39-f6da-4d00-bd37-57df1eff0c09","ios":"levelo://app?vid=ffc56c39-f6da-4d00-bd37-57df1eff0c09"},"vehicle_type_id":"4","last_reported":1731697631,"current_range_meters":6000,"station_id":"ce4bh2h2rcd13ifvqdh0","pricing_plan_id":"cebpf4jnsgd1na2vs0mg"},{"bike_id":"f915aedc-ffac-4f8e-b5cc-80fde1e7dfb5","system_id":"levelo_inurba_marseille","lat":43.31712,"lon":5.43705,"is_reserved":false,"is_disabled":false,"rental_uris":{"android":"levelo://app?vid=f915aedc-ffac-4f8e-b5cc-80fde1e7dfb5","ios":"levelo://app?vid=f915aedc-ffac-4f8e-b5cc-80fde1e7dfb5"},"vehicle_type_id":"4","last_reported":1731697631,"current_range_meters":12800,"station_id":"ce4bhp92rcd13ifvqhcg","pricing_plan_id":"cebpf4jnsgd1na2vs0mg"},{"bike_id":"33d2cecb-1721-412b-a019-cc221a64400e","system_id":"levelo_inurba_marseille","lat":43.32483,"lon":5.36578,"is_reserved":false,"is_disabled":false,"rental_uris":{"android":"levelo://app?vid=33d2cecb-1721-412b-a019-cc221a64400e","ios":"levelo://app?vid=33d2cecb-1721-412b-a019-cc221a64400e"},"vehicle_type_id":"4","last_reported":1731697631,"current_range_meters":38800,"station_id":"ce4bhs12rcd13ifvqhvg","pricing_plan_id":"cebpf4jnsgd1na2vs0mg"},{"bike_id":"0b995157-1459-44e1-80f1-7f93392c219c","system_id":"levelo_inurba_marseille","lat":43.29909,"lon":5.38136,"is_reserved":false,"is_disabled":false,"rental_uris":{"android":"levelo://app?vid=0b995157-1459-44e1-80f1-7f93392c219c","ios":"levelo://app?vid=0b995157-1459-44e1-80f1-7f93392c219c"},"vehicle_type_id":"4","last_reported":1731697631,"current_range_meters":3200,"station_id":"ce4bgj12rcd13ifvqbc0","pricing_plan_id":"cebpf4jnsgd1na2vs0mg"},{"bike_id":"b154e065-83b5-4bee-b680-9c74a6d1b5d1","system_id":"levelo_inurba_marseille","lat":43.29106,"lon":5.3814,"is_reserved":false,"is_disabled":false,"rental_uris":{"android":"levelo://app?vid=b154e065-83b5-4bee-b680-9c74a6d1b5d1","ios":"levelo://app?vid=b154e065-83b5-4bee-b680-9c74a6d1b5d1"},"vehicle_type_id":"4","last_reported":1731697631,"current_range_meters":7200,"station_id":"ce4bh512rcd13ifvqe2g","pricing_plan_id":"cebpf4jnsgd1na2vs0mg"},{"bike_id":"99ef64cb-274b-4df9-be85-b826d8f358f5","system_id":"levelo_inurba_marseille","lat":43.31682,"lon":5.40475,"is_reserved":false,"is_disabled":false,"rental_uris":{"android":"levelo://app?vid=99ef64cb-274b-4df9-be85-b826d8f358f5","ios":"levelo://app?vid=99ef64cb-274b-4df9-be85-b826d8f358f5"},"vehicle_type_id":"4","last_reported":1731697631,"current_range_meters":9600,"station_id":"ce4bh012rcd13ifvqd00","pricing_plan_id":"cebpf4jnsgd1na2vs0mg"},{"bike_id":"661797ee-6021-443f-b8a4-f6411356c767","system_id":"levelo_inurba_marseille","lat":43.29035,"lon":5.38633,"is_reserved":false,"is_disabled":false,"rental_uris":{"android":"levelo://app?vid=661797ee-6021-443f-b8a4-f6411356c767","ios":"levelo://app?vid=661797ee-6021-443f-b8a4-f6411356c767"},"vehicle_type_id":"4","last_reported":1731697631,"current_range_meters":29600,"station_id":"ce4bh4p2rcd13ifvqe0g","pricing_plan_id":"cebpf4jnsgd1na2vs0mg"},{"bike_id":"5779215c-93b1-4fd6-aed7-cc5815212cf5","system_id":"levelo_inurba_marseille","lat":43.2743,"lon":5.39423,"is_reserved":false,"is_disabled":false,"rental_uris":{"android":"levelo://app?vid=5779215c-93b1-4fd6-aed7-cc5815212cf5","ios":"levelo://app?vid=5779215c-93b1-4fd6-aed7-cc5815212cf5"},"vehicle_type_id":"4","last_reported":1731697631,"current_range_meters":21600,"station_id":"ce4bhdp2rcd13ifvqf20","pricing_plan_id":"cebpf4jnsgd1na2vs0mg"},{"bike_id":"1b47df33-d3bc-4063-af4a-efa470339da6","system_id":"levelo_inurba_marseille","lat":43.27425,"lon":5.39425,"is_reserved":false,"is_disabled":false,"rental_uris":{"android":"levelo://app?vid=1b47df33-d3bc-4063-af4a-efa470339da6","ios":"levelo://app?vid=1b47df33-d3bc-4063-af4a-efa470339da6"},"vehicle_type_id":"4","last_reported":1731697631,"current_range_meters":8000,"station_id":"ce4bhdp2rcd13ifvqf20","pricing_plan_id":"cebpf4jnsgd1na2vs0mg"},{"bike_id":"8e670fae-75ac-428f-9d9f-5094234db099","system_id":"levelo_inurba_marseille","lat":43.29456,"lon":5.37446,"is_reserved":false,"is_disabled":false,"rental_uris":{"android":"levelo://app?vid=8e670fae-75ac-428f-9d9f-5094234db099","ios":"levelo://app?vid=8e670fae-75ac-428f-9d9f-5094234db099"},"vehicle_type_id":"4","last_reported":1731697631,"current_range_meters":32800,"station_id":"ce4bhbh2rcd13ifvqepg","pricing_plan_id":"cebpf4jnsgd1na2vs0mg"},{"bike_id":"641e0ebe-5948-4060-b7d8-b8af0485b03b","system_id":"levelo_inurba_marseille","lat":43.290192,"lon":5.381307,"is_reserved":false,"is_disabled":false,"rental_uris":{"android":"levelo://app?vid=641e0ebe-5948-4060-b7d8-b8af0485b03b","ios":"levelo://app?vid=641e0ebe-5948-4060-b7d8-b8af0485b03b"},"vehicle_type_id":"4","last_reported":1731697631,"current_range_meters":8800,"station_id":"ce4bh4p2rcd13ifvqe1g","pricing_plan_id":"cebpf4jnsgd1na2vs0mg"},{"bike_id":"7165df18-8a1e-40e8-adf6-4ed1ba222d78","system_id":"levelo_inurba_marseille","lat":43.28003,"lon":5.40003,"is_reserved":false,"is_disabled":false,"rental_uris":{"android":"levelo://app?vid=7165df18-8a1e-40e8-adf6-4ed1ba222d78","ios":"levelo://app?vid=7165df18-8a1e-40e8-adf6-4ed1ba222d78"},"vehicle_type_id":"4","last_reported":1731697631,"current_range_meters":30400,"station_id":"ce4bho92rcd13ifvqh4g","pricing_plan_id":"cebpf4jnsgd1na2vs0mg"},{"bike_id":"8cd6f690-5454-4b0c-8152-51d258474e21","system_id":"levelo_inurba_marseille","lat":43.29909,"lon":5.37486,"is_reserved":false,"is_disabled":false,"rental_uris":{"android":"levelo://app?vid=8cd6f690-5454-4b0c-8152-51d258474e21","ios":"levelo://app?vid=8cd6f690-5454-4b0c-8152-51d258474e21"},"vehicle_type_id":"4","last_reported":1731697631,"current_range_meters":22000,"station_id":"ce4bgjh2rcd13ifvqbg0","pricing_plan_id":"cebpf4jnsgd1na2vs0mg"},{"bike_id":"b0445855-a466-4909-b74a-d5e35dc7452b","system_id":"levelo_inurba_marseille","lat":43.31278,"lon":5.40165,"is_reserved":false,"is_disabled":false,"rental_uris":{"android":"levelo://app?vid=b0445855-a466-4909-b74a-d5e35dc7452b","ios":"levelo://app?vid=b0445855-a466-4909-b74a-d5e35dc7452b"},"vehicle_type_id":"4","last_reported":1731697631,"current_range_meters":8800,"station_id":"ce4bh092rcd13ifvqd30","pricing_plan_id":"cebpf4jnsgd1na2vs0mg"},{"bike_id":"f07e33b5-73e1-448c-ab2f-843013b9e1c1","system_id":"levelo_inurba_marseille","lat":43.296506,"lon":5.397767,"is_reserved":false,"is_disabled":false,"rental_uris":{"android":"levelo://app?vid=f07e33b5-73e1-448c-ab2f-843013b9e1c1","ios":"levelo://app?vid=f07e33b5-73e1-448c-ab2f-843013b9e1c1"},"vehicle_type_id":"4","last_reported":1731697631,"current_range_meters":34000,"station_id":"ce4bgh92rcd13ifvqb50","pricing_plan_id":"cebpf4jnsgd1na2vs0mg"},{"bike_id":"142bdb44-d253-4a90-9219-6fdba6672b4f","system_id":"levelo_inurba_marseille","lat":43.23149,"lon":5.43707,"is_reserved":false,"is_disabled":false,"rental_uris":{"android":"levelo://app?vid=142bdb44-d253-4a90-9219-6fdba6672b4f","ios":"levelo://app?vid=142bdb44-d253-4a90-9219-6fdba6672b4f"},"vehicle_type_id":"4","last_reported":1731697631,"current_range_meters":33200,"station_id":"ce4bhmp2rcd13ifvqgog","pricing_plan_id":"cebpf4jnsgd1na2vs0mg"},{"bike_id":"94da90dd-4d71-41a3-9c51-1db1a2fe992c","system_id":"levelo_inurba_marseille","lat":43.26503,"lon":5.39532,"is_reserved":false,"is_disabled":false,"rental_uris":{"android":"levelo://app?vid=94da90dd-4d71-41a3-9c51-1db1a2fe992c","ios":"levelo://app?vid=94da90dd-4d71-41a3-9c51-1db1a2fe992c"},"vehicle_type_id":"4","last_reported":1731697631,"current_range_meters":4800,"station_id":"ce4bhi12rcd13ifvqfq0","pricing_plan_id":"cebpf4jnsgd1na2vs0mg"},{"bike_id":"f2af9365-fdc2-4b99-9391-e30a9e3e43b3","system_id":"levelo_inurba_marseille","lat":43.32361,"lon":5.36748,"is_reserved":false,"is_disabled":false,"rental_uris":{"android":"levelo://app?vid=f2af9365-fdc2-4b99-9391-e30a9e3e43b3","ios":"levelo://app?vid=f2af9365-fdc2-4b99-9391-e30a9e3e43b3"},"vehicle_type_id":"4","last_reported":1731697631,"current_range_meters":25200,"station_id":"ce4bhsh2rcd13ifvqi2g","pricing_plan_id":"cebpf4jnsgd1na2vs0mg"},{"bike_id":"d8db9d84-a07f-4162-bc04-b5b6526cd57f","system_id":"levelo_inurba_marseille","lat":43.29899,"lon":5.43668,"is_reserved":false,"is_disabled":false,"rental_uris":{"android":"levelo://app?vid=d8db9d84-a07f-4162-bc04-b5b6526cd57f","ios":"levelo://app?vid=d8db9d84-a07f-4162-bc04-b5b6526cd57f"},"vehicle_type_id":"4","last_reported":1731697631,"current_range_meters":9600,"station_id":"ce4bhpp2rcd13ifvqhfg","pricing_plan_id":"cebpf4jnsgd1na2vs0mg"},{"bike_id":"01eea76d-6a17-47ce-b4e7-1fcb794e4268","system_id":"levelo_inurba_marseille","lat":43.311175,"lon":5.377715,"is_reserved":false,"is_disabled":false,"rental_uris":{"android":"levelo://app?vid=01eea76d-6a17-47ce-b4e7-1fcb794e4268","ios":"levelo://app?vid=01eea76d-6a17-47ce-b4e7-1fcb794e4268"},"vehicle_type_id":"4","last_reported":1731697631,"current_range_meters":28400,"station_id":"ce4bgt92rcd13ifvqcg0","pricing_plan_id":"cebpf4jnsgd1na2vs0mg"},{"bike_id":"9838735e-0e49-4996-9c46-6ad028996327","system_id":"levelo_inurba_marseille","lat":43.29798,"lon":5.40408,"is_reserved":false,"is_disabled":false,"rental_uris":{"android":"levelo://app?vid=9838735e-0e49-4996-9c46-6ad028996327","ios":"levelo://app?vid=9838735e-0e49-4996-9c46-6ad028996327"},"vehicle_type_id":"4","last_reported":1731697631,"current_range_meters":38400,"station_id":"ce4bh112rcd13ifvqd90","pricing_plan_id":"cebpf4jnsgd1na2vs0mg"},{"bike_id":"6cceeb09-431c-4b48-a5cf-db847b8faddb","system_id":"levelo_inurba_marseille","lat":43.337444,"lon":5.374475,"is_reserved":false,"is_disabled":false,"rental_uris":{"android":"levelo://app?vid=6cceeb09-431c-4b48-a5cf-db847b8faddb","ios":"levelo://app?vid=6cceeb09-431c-4b48-a5cf-db847b8faddb"},"vehicle_type_id":"4","last_reported":1731697631,"current_range_meters":33200,"station_id":"","pricing_plan_id":"cebpf4jnsgd1na2vs0mg"},{"bike_id":"4d164941-a4fe-429f-977f-982f0af93299","system_id":"levelo_inurba_marseille","lat":43.32576,"lon":5.37495,"is_reserved":false,"is_disabled":false,"rental_uris":{"android":"levelo://app?vid=4d164941-a4fe-429f-977f-982f0af93299","ios":"levelo://app?vid=4d164941-a4fe-429f-977f-982f0af93299"},"vehicle_type_id":"4","last_reported":1731697631,"current_range_meters":38400,"station_id":"","pricing_plan_id":"cebpf4jnsgd1na2vs0mg"},{"bike_id":"694afa4d-3843-445b-81d1-95d35820a092","system_id":"levelo_inurba_marseille","lat":43.27906,"lon":5.38002,"is_reserved":false,"is_disabled":false,"rental_uris":{"android":"levelo://app?vid=694afa4d-3843-445b-81d1-95d35820a092","ios":"levelo://app?vid=694afa4d-3843-445b-81d1-95d35820a092"},"vehicle_type_id":"4","last_reported":1731697631,"current_range_meters":28800,"station_id":"ce4bhf92rcd13ifvqf50","pricing_plan_id":"cebpf4jnsgd1na2vs0mg"},{"bike_id":"fe34e79d-89a4-4c9d-9e26-e258e0391b41","system_id":"levelo_inurba_marseille","lat":43.2318,"lon":5.39988,"is_reserved":false,"is_disabled":false,"rental_uris":{"android":"levelo://app?vid=fe34e79d-89a4-4c9d-9e26-e258e0391b41","ios":"levelo://app?vid=fe34e79d-89a4-4c9d-9e26-e258e0391b41"},"vehicle_type_id":"4","last_reported":1731697631,"current_range_meters":37600,"station_id":"ce4bhn12rcd13ifvqgqg","pricing_plan_id":"cebpf4jnsgd1na2vs0mg"},{"bike_id":"03a78b5f-061c-4009-845b-cbe5c61d8ff3","system_id":"levelo_inurba_marseille","lat":43.32365,"lon":5.38882,"is_reserved":false,"is_disabled":false,"rental_uris":{"android":"levelo://app?vid=03a78b5f-061c-4009-845b-cbe5c61d8ff3","ios":"levelo://app?vid=03a78b5f-061c-4009-845b-cbe5c61d8ff3"},"vehicle_type_id":"4","last_reported":1731697631,"current_range_meters":30000,"station_id":"ce4bhqp2rcd13ifvqhog","pricing_plan_id":"cebpf4jnsgd1na2vs0mg"},{"bike_id":"80a8e716-1486-4baa-bdbf-3f9e2b7c69fe","system_id":"levelo_inurba_marseille","lat":43.337444,"lon":5.374475,"is_reserved":false,"is_disabled":false,"rental_uris":{"android":"levelo://app?vid=80a8e716-1486-4baa-bdbf-3f9e2b7c69fe","ios":"levelo://app?vid=80a8e716-1486-4baa-bdbf-3f9e2b7c69fe"},"vehicle_type_id":"4","last_reported":1731697631,"current_range_meters":37600,"station_id":"","pricing_plan_id":"cebpf4jnsgd1na2vs0mg"},{"bike_id":"560ecb54-b263-4295-9f1c-422c832ccf54","system_id":"levelo_inurba_marseille","lat":43.31714,"lon":5.43709,"is_reserved":false,"is_disabled":false,"rental_uris":{"android":"levelo://app?vid=560ecb54-b263-4295-9f1c-422c832ccf54","ios":"levelo://app?vid=560ecb54-b263-4295-9f1c-422c832ccf54"},"vehicle_type_id":"4","last_reported":1731697631,"current_range_meters":12400,"station_id":"ce4bhp92rcd13ifvqhcg","pricing_plan_id":"cebpf4jnsgd1na2vs0mg"},{"bike_id":"498b1bc6-9e43-42ca-a64e-78dff6a239b9","system_id":"levelo_inurba_marseille","lat":43.27945,"lon":5.41043,"is_reserved":false,"is_disabled":false,"rental_uris":{"android":"levelo://app?vid=498b1bc6-9e43-42ca-a64e-78dff6a239b9","ios":"levelo://app?vid=498b1bc6-9e43-42ca-a64e-78dff6a239b9"},"vehicle_type_id":"4","last_reported":1731697631,"current_range_meters":38800,"station_id":"ce4bhnp2rcd13ifvqh0g","pricing_plan_id":"cebpf4jnsgd1na2vs0mg"},{"bike_id":"b8f46549-5bad-4589-977e-98bdd86a2b76","system_id":"levelo_inurba_marseille","lat":43.28938,"lon":5.3664,"is_reserved":false,"is_disabled":false,"rental_uris":{"android":"levelo://app?vid=b8f46549-5bad-4589-977e-98bdd86a2b76","ios":"levelo://app?vid=b8f46549-5bad-4589-977e-98bdd86a2b76"},