{"last_updated":1749546722,"ttl":60,"version":"2.2","data":{"bikes":[{"bike_id":"5878f80c-b2bb-4352-99ea-67e3a7136bd9","system_id":"levelo_inurba_marseille","lat":43.330273,"lon":5.390307,"is_reserved":false,"is_disabled":false,"rental_uris":{"android":"levelo://app?vid=5878f80c-b2bb-4352-99ea-67e3a7136bd9","ios":"levelo://app?vid=5878f80c-b2bb-4352-99ea-67e3a7136bd9"},"vehicle_type_id":"4","last_reported":1749546723,"current_range_meters":2800,"station_id":"ce4bhr92rcd13ifvqhrg","pricing_plan_id":"cebpf4jnsgd1na2vs0mg"},{"bike_id":"8c03ec80-dc19-4c9d-b151-e0210828c13a","system_id":"levelo_inurba_marseille","lat":43.29674,"lon":5.39423,"is_reserved":false,"is_disabled":false,"rental_uris":{"android":"levelo://app?vid=8c03ec80-dc19-4c9d-b151-e0210828c13a","ios":"levelo://app?vid=8c03ec80-dc19-4c9d-b151-e0210828c13a"},"vehicle_type_id":"4","last_reported":1749546723,"current_range_meters":3200,"station_id":"","pricing_plan_id":"cebpf4jnsgd1na2vs0mg"},{"bike_id":"0e66646a-b4b3-4d2c-9f57-afdc64769cd8","system_id":"levelo_inurba_marseille","lat":43.26211,"lon":5.37428,"is_reserved":false,"is_disabled":false,"rental_uris":{"android":"levelo://app?vid=0e66646a-b4b3-4d2c-9f57-afdc64769cd8","ios":"levelo://app?vid=0e66646a-b4b3-4d2c-9f57-afdc64769cd8"},"vehicle_type_id":"4","last_reported":1749546723,"current_range_meters":4000,"station_id":"ce4bhgp2rcd13ifvqfc0","pricing_plan_id":"cebpf4jnsgd1na2vs0mg"},{"bike_id":"4a69a511-c77b-4db1-a705-35f27b546b9c","system_id":"levelo_inurba_marseille","lat":43.27811,"lon":5.40709,"is_reserved":false,"is_disabled":false,"rental_uris":{"android":"levelo://app?vid=4a69a511-c77b-4db1-a705-35f27b546b9c","ios":"levelo://app?vid=4a69a511-c77b-4db1-a705-35f27b546b9c"},"vehicle_type_id":"4","last_reported":1749546723,"current_range_meters":4400,"station_id":"ce4bhnh2rcd13ifvqgtg","pricing_plan_id":"cebpf4jnsgd1na2vs0mg"},{"bike_id":"dedb97c1-14b6-4d23-b4cb-f5ba2d82a6ad","system_id":"levelo_inurba_marseille","lat":43.32337,"lon":5.36727,"is_reserved":false,"is_disabled":false,"rental_uris":{"android":"levelo://app?vid=dedb97c1-14b6-4d23-b4cb-f5ba2d82a6ad","ios":"levelo://app?vid=dedb97c1-14b6-4d23-b4cb-f5ba2d82a6ad"},"vehicle_type_id":"4","last_reported":1749546723,"current_range_meters":4400,"station_id":"ce4bhsh2rcd13ifvqi2g","pricing_plan_id":"cebpf4jnsgd1na2vs0mg"},{"bike_id":"efadf1ae-3fd9-44c1-96d3-35175f388472","system_id":"levelo_inurba_marseille","lat":43.29621,"lon":5.37168,"is_reserved":false,"is_disabled":false,"rental_uris":{"android":"levelo://app?vid=efadf1ae-3fd9-44c1-96d3-35175f388472","ios":"levelo://app?vid=efadf1ae-3fd9-44c1-96d3-35175f388472"},"vehicle_type_id":"4","last_reported":1749546723,"current_range_meters":4400,"station_id":"ce4bgnh2rcd13ifvqc0g","pricing_plan_id":"cebpf4jnsgd1na2vs0mg"},{"bike_id":"8a860edc-a1f9-406b-b82a-f0557120d6b5","system_id":"levelo_inurba_marseille","lat":43.32366,"lon":5.3887,"is_reserved":false,"is_disabled":false,"rental_uris":{"android":"levelo://app?vid=8a860edc-a1f9-406b-b82a-f0557120d6b5","ios":"levelo://app?vid=8a860edc-a1f9-406b-b82a-f0557120d6b5"},"vehicle_type_id":"4","last_reported":1749546723,"current_range_meters":4800,"station_id":"ce4bhqp2rcd13ifvqhog","pricing_plan_id":"cebpf4jnsgd1na2vs0mg"},{"bike_id":"11d99533-1239-4522-b0b5-f8a3bff696e7","system_id":"levelo_inurba_marseille","lat":43.30139,"lon":5.4244,"is_reserved":false,"is_disabled":false,"rental_uris":{"android":"levelo://app?vid=11d99533-1239-4522-b0b5-f8a3bff696e7","ios":"levelo://app?vid=11d99533-1239-4522-b0b5-f8a3bff696e7"},"vehicle_type_id":"4","last_reported":1749546723,"current_range_meters":5600,"station_id":"","pricing_plan_id":"cebpf4jnsgd1na2vs0mg"},{"bike_id":"2d866861-0641-432a-be65-d4ab929adce1","system_id":"levelo_inurba_marseille","lat":43.320448,"lon":5.415822,"is_reserved":false,"is_disabled":false,"rental_uris":{"android":"levelo://app?vid=2d866861-0641-432a-be65-d4ab929adce1","ios":"levelo://app?vid=2d866861-0641-432a-be65-d4ab929adce1"},"vehicle_type_id":"4","last_reported":1749546723,"current_range_meters":5600,"station_id":"ce4bhq92rcd13ifvqhkg","pricing_plan_id":"cebpf4jnsgd1na2vs0mg"},{"bike_id":"8b4caff4-6ee7-47a5-a64f-5ccaa83c132f","system_id":"levelo_inurba_marseille","lat":43.29526,"lon":5.42503,"is_reserved":false,"is_disabled":false,"rental_uris":{"android":"levelo://app?vid=8b4caff4-6ee7-47a5-a64f-5ccaa83c132f","ios":"levelo://app?vid=8b4caff4-6ee7-47a5-a64f-5ccaa83c132f"},"vehicle_type_id":"4","last_reported":1749546723,"current_range_meters":5600,"station_id":"","pricing_plan_id":"cebpf4jnsgd1na2vs0mg"},{"bike_id":"9cd7e3b6-3a6c-4599-87c4-09cad6e5304c","system_id":"levelo_inurba_marseille","lat":43.32369,"lon":5.38872,"is_reserved":false,"is_disabled":false,"rental_uris":{"android":"levelo://app?vid=9cd7e3b6-3a6c-4599-87c4-09cad6e5304c","ios":"levelo://app?vid=9cd7e3b6-3a6c-4599-87c4-09cad6e5304c"},"vehicle_type_id":"4","last_reported":1749546723,"current_range_meters":5600,"station_id":"ce4bhqp2rcd13ifvqhog","pricing_plan_id":"cebpf4jnsgd1na2vs0mg"},{"bike_id":"47b79782-a36a-43ae-acf9-699633b64926","system_id":"levelo_inurba_marseille","lat":43.31486,"lon":5.37307,"is_reserved":false,"is_disabled":false,"rental_uris":{"android":"levelo://app?vid=47b79782-a36a-43ae-acf9-699633b64926","ios":"levelo://app?vid=47b79782-a36a-43ae-acf9-699633b64926"},"vehicle_type_id":"4","last_reported":1749546723,"current_range_meters":6000,"station_id":"ce4bgt12rcd13ifvqcd0","pricing_plan_id":"cebpf4jnsgd1na2vs0mg"},{"bike_id":"c0b01f50-571c-4cae-9ea0-11d99f77112d","system_id":"levelo_inurba_marseille","lat":43.27496,"lon":5.42462,"is_reserved":false,"is_disabled":false,"rental_uris":{"android":"levelo://app?vid=c0b01f50-571c-4cae-9ea0-11d99f77112d","ios":"levelo://app?vid=c0b01f50-571c-4cae-9ea0-11d99f77112d"},"vehicle_type_id":"4","last_reported":1749546723,"current_range_meters":6000,"station_id":"ce4bhn92rcd13ifvqgrg","pricing_plan_id":"cebpf4jnsgd1na2vs0mg"},{"bike_id":"9ab5dcb2-22af-49e2-b2c1-32117ad578dc","system_id":"levelo_inurba_marseille","lat":43.29518,"lon":5.4257,"is_reserved":false,"is_disabled":false,"rental_uris":{"android":"levelo://app?vid=9ab5dcb2-22af-49e2-b2c1-32117ad578dc","ios":"levelo://app?vid=9ab5dcb2-22af-49e2-b2c1-32117ad578dc"},"vehicle_type_id":"4","last_reported":1749546723,"current_range_meters":6000,"station_id":"","pricing_plan_id":"cebpf4jnsgd1na2vs0mg"},{"bike_id":"e3883ef6-8731-4737-9b27-8973ba71059f","system_id":"levelo_inurba_marseille","lat":43.31355,"lon":5.36723,"is_reserved":false,"is_disabled":false,"rental_uris":{"android":"levelo://app?vid=e3883ef6-8731-4737-9b27-8973ba71059f","ios":"levelo://app?vid=e3883ef6-8731-4737-9b27-8973ba71059f"},"vehicle_type_id":"4","last_reported":1749546723,"current_range_meters":6000,"station_id":"ce4bgr92rcd13ifvqc6g","pricing_plan_id":"cebpf4jnsgd1na2vs0mg"},{"bike_id":"732689cd-1e11-4323-94ce-fac7b1a98ec0","system_id":"levelo_inurba_marseille","lat":43.31387,"lon":5.3673,"is_reserved":false,"is_disabled":false,"rental_uris":{"android":"levelo://app?vid=732689cd-1e11-4323-94ce-fac7b1a98ec0","ios":"levelo://app?vid=732689cd-1e11-4323-94ce-fac7b1a98ec0"},"vehicle_type_id":"4","last_reported":1749546723,"current_range_meters":6000,"station_id":"","pricing_plan_id":"cebpf4jnsgd1na2vs0mg"},{"bike_id":"64130708-4f05-4190-8956-4713ebac5267","system_id":"levelo_inurba_marseille","lat":43.27673,"lon":5.38886,"is_reserved":false,"is_disabled":false,"rental_uris":{"android":"levelo://app?vid=64130708-4f05-4190-8956-4713ebac5267","ios":"levelo://app?vid=64130708-4f05-4190-8956-4713ebac5267"},"vehicle_type_id":"4","last_reported":1749546723,"current_range_meters":6400,"station_id":"ce4bhi12rcd13ifvqfo0","pricing_plan_id":"cebpf4jnsgd1na2vs0mg"},{"bike_id":"dd67f108-95bf-4a1e-b619-4bb77e009c5b","system_id":"levelo_inurba_marseille","lat":43.29058,"lon":5.42768,"is_reserved":false,"is_disabled":false,"rental_uris":{"android":"levelo://app?vid=dd67f108-95bf-4a1e-b619-4bb77e009c5b","ios":"levelo://app?vid=dd67f108-95bf-4a1e-b619-4bb77e009c5b"},"vehicle_type_id":"4","last_reported":1749546723,"current_range_meters":6400,"station_id":"","pricing_plan_id":"cebpf4jnsgd1na2vs0mg"},{"bike_id":"face3f4f-ed5e-448e-97cb-093774dcb28c","system_id":"levelo_inurba_marseille","lat":43.31479,"lon":5.37308,"is_reserved":false,"is_disabled":false,"rental_uris":{"android":"levelo://app?vid=face3f4f-ed5e-448e-97cb-093774dcb28c","ios":"levelo://app?vid=face3f4f-ed5e-448e-97cb-093774dcb28c"},"vehicle_type_id":"4","last_reported":1749546723,"current_range_meters":6400,"station_id":"ce4bgt12rcd13ifvqcd0","pricing_plan_id":"cebpf4jnsgd1na2vs0mg"},{"bike_id":"d5fe4636-8b81-43fd-8de0-8d77e82b7742","system_id":"levelo_inurba_marseille","lat":43.31232,"lon":5.36846,"is_reserved":false,"is_disabled":false,"rental_uris":{"android":"levelo://app?vid=d5fe4636-8b81-43fd-8de0-8d77e82b7742","ios":"levelo://app?vid=d5fe4636-8b81-43fd-8de0-8d77e82b7742"},"vehicle_type_id":"4","last_reported":1749546723,"current_range_meters":6400,"station_id":"ce4bgl92rcd13ifvqbq0","pricing_plan_id":"cebpf4jnsgd1na2vs0mg"},{"bike_id":"b7389bb2-2329-409d-bbfc-3cf111ab8dec","system_id":"levelo_inurba_marseille","lat":43.31113,"lon":5.37769,"is_reserved":false,"is_disabled":false,"rental_uris":{"android":"levelo://app?vid=b7389bb2-2329-409d-bbfc-3cf111ab8dec","ios":"levelo://app?vid=b7389bb2-2329-409d-bbfc-3cf111ab8dec"},"vehicle_type_id":"4","last_reported":1749546723,"current_range_meters":6400,"station_id":"ce4bgt92rcd13ifvqcg0","pricing_plan_id":"cebpf4jnsgd1na2vs0mg"},{"bike_id":"0c3666ee-1fb6-443d-a863-478ff81615de","system_id":"levelo_inurba_marseille","lat":43.30141,"lon":5.38087,"is_reserved":false,"is_disabled":false,"rental_uris":{"android":"levelo://app?vid=0c3666ee-1fb6-443d-a863-478ff81615de","ios":"levelo://app?vid=0c3666ee-1fb6-443d-a863-478ff81615de"},"vehicle_type_id":"4","last_reported":1749546723,"current_range_meters":6800,"station_id":"ce4bgjp2rcd13ifvqbh0","pricing_plan_id":"cebpf4jnsgd1na2vs0mg"},{"bike_id":"f6fee909-8c7c-482b-a8a0-a055892561e0","system_id":"levelo_inurba_marseille","lat":43.31231,"lon":5.36843,"is_reserved":false,"is_disabled":false,"rental_uris":{"android":"levelo://app?vid=f6fee909-8c7c-482b-a8a0-a055892561e0","ios":"levelo://app?vid=f6fee909-8c7c-482b-a8a0-a055892561e0"},"vehicle_type_id":"4","last_reported":1749546723,"current_range_meters":6800,"station_id":"ce4bgl92rcd13ifvqbq0","pricing_plan_id":"cebpf4jnsgd1na2vs0mg"},{"bike_id":"b627a4bc-ec3d-4a3d-b098-2cb9e5bfa8f1","system_id":"levelo_inurba_marseille","lat":43.2898,"lon":5.47899,"is_reserved":false,"is_disabled":true,"rental_uris":{"android":"levelo://app?vid=b627a4bc-ec3d-4a3d-b098-2cb9e5bfa8f1","ios":"levelo://app?vid=b627a4bc-ec3d-4a3d-b098-2cb9e5bfa8f1"},"vehicle_type_id":"4","last_reported":1749546723,"current_range_meters":6800,"station_id":"","pricing_plan_id":"cebpf4jnsgd1na2vs0mg"},{"bike_id":"0fc7e70d-f200-483b-8a1a-65f695351b4a","system_id":"levelo_inurba_marseille","lat":43.32498,"lon":5.36547,"is_reserved":false,"is_disabled":false,"rental_uris":{"android":"levelo://app?vid=0fc7e70d-f200-483b-8a1a-65f695351b4a","ios":"levelo://app?vid=0fc7e70d-f200-483b-8a1a-65f695351b4a"},"vehicle_type_id":"4","last_reported":1749546723,"current_range_meters":6800,"station_id":"ce4bhs12rcd13ifvqhvg","pricing_plan_id":"cebpf4jnsgd1na2vs0mg"},{"bike_id":"2e5b7a2e-ae80-4b63-807c-0d74d0713d36","system_id":"levelo_inurba_marseille","lat":43.28419,"lon":5.34999,"is_reserved":false,"is_disabled":false,"rental_uris":{"android":"levelo://app?vid=2e5b7a2e-ae80-4b63-807c-0d74d0713d36","ios":"levelo://app?vid=2e5b7a2e-ae80-4b63-807c-0d74d0713d36"},"vehicle_type_id":"4","last_reported":1749546723,"current_range_meters":7200,"station_id":"ce4bhbh2rcd13ifvqepg","pricing_plan_id":"cebpf4jnsgd1na2vs0mg"},{"bike_id":"9c7cc04b-260a-4c4d-abff-ddccd152cd76","system_id":"levelo_inurba_marseille","lat":43.24994,"lon":5.38936,"is_reserved":false,"is_disabled":false,"rental_uris":{"android":"levelo://app?vid=9c7cc04b-260a-4c4d-abff-ddccd152cd76","ios":"levelo://app?vid=9c7cc04b-260a-4c4d-abff-ddccd152cd76"},"vehicle_type_id":"4","last_reported":1749546723,"current_range_meters":7200,"station_id":"ce4bhgp2rcd13ifvqfd0","pricing_plan_id":"cebpf4jnsgd1na2vs0mg"},{"bike_id":"7a286b17-17df-491a-a381-1330c2f7a715","system_id":"levelo_inurba_marseille","lat":43.299048,"lon":5.436641,"is_reserved":false,"is_disabled":false,"rental_uris":{"android":"levelo://app?vid=7a286b17-17df-491a-a381-1330c2f7a715","ios":"levelo://app?vid=7a286b17-17df-491a-a381-1330c2f7a715"},"vehicle_type_id":"4","last_reported":1749546723,"current_range_meters":7200,"station_id":"ce4bhpp2rcd13ifvqhfg","pricing_plan_id":"cebpf4jnsgd1na2vs0mg"},{"bike_id":"43a56205-4a34-4bff-89d5-084de43293df","system_id":"levelo_inurba_marseille","lat":43.33592,"lon":5.40998,"is_reserved":false,"is_disabled":false,"rental_uris":{"android":"levelo://app?vid=43a56205-4a34-4bff-89d5-084de43293df","ios":"levelo://app?vid=43a56205-4a34-4bff-89d5-084de43293df"},"vehicle_type_id":"4","last_reported":1749546723,"current_range_meters":7200,"station_id":"ce4bhqh2rcd13ifvqhmg","pricing_plan_id":"cebpf4jnsgd1na2vs0mg"},{"bike_id":"744fa010-b75f-4fd7-ac23-cc808ecd0bf7","system_id":"levelo_inurba_marseille","lat":43.31491,"lon":5.37281,"is_reserved":false,"is_disabled":false,"rental_uris":{"android":"levelo://app?vid=744fa010-b75f-4fd7-ac23-cc808ecd0bf7","ios":"levelo://app?vid=744fa010-b75f-4fd7-ac23-cc808ecd0bf7"},"vehicle_type_id":"4","last_reported":1749546723,"current_range_meters":7200,"station_id":"ce4bgt12rcd13ifvqcd0","pricing_plan_id":"cebpf4jnsgd1na2vs0mg"},{"bike_id":"f511734b-78f6-466c-a632-23e9869ef2bc","system_id":"levelo_inurba_marseille","lat":43.312273,"lon":5.36864,"is_reserved":false,"is_disabled":false,"rental_uris":{"android":"levelo://app?vid=f511734b-78f6-466c-a632-23e9869ef2bc","ios":"levelo://app?vid=f511734b-78f6-466c-a632-23e9869ef2bc"},"vehicle_type_id":"4","last_reported":1749546723,"current_range_meters":7200,"station_id":"ce4bgl92rcd13ifvqbq0","pricing_plan_id":"cebpf4jnsgd1na2vs0mg"},{"bike_id":"18e66f60-d51d-498a-ba54-2614b595bc93","system_id":"levelo_inurba_marseille","lat":43.30322,"lon":5.40434,"is_reserved":false,"is_disabled":false,"rental_uris":{"android":"levelo://app?vid=18e66f60-d51d-498a-ba54-2614b595bc93","ios":"levelo://app?vid=18e66f60-d51d-498a-ba54-2614b595bc93"},"vehicle_type_id":"4","last_reported":1749546723,"current_range_meters":8000,"station_id":"ce4bh012rcd13ifvqd10","pricing_plan_id":"cebpf4jnsgd1na2vs0mg"},{"bike_id":"1087cbe1-d3d6-4b86-835b-89dda5119d98","system_id":"levelo_inurba_marseille","lat":43.270699,"lon":5.422832,"is_reserved":false,"is_disabled":false,"rental_uris":{"android":"levelo://app?vid=1087cbe1-d3d6-4b86-835b-89dda5119d98","ios":"levelo://app?vid=1087cbe1-d3d6-4b86-835b-89dda5119d98"},"vehicle_type_id":"4","last_reported":1749546723,"current_range_meters":8000,"station_id":"ce4bhk92rcd13ifvqgb0","pricing_plan_id":"cebpf4jnsgd1na2vs0mg"},{"bike_id":"a861e9b0-dbbc-4bfb-b28d-2fc66ad12674","system_id":"levelo_inurba_marseille","lat":43.29126,"lon":5.38105,"is_reserved":false,"is_disabled":false,"rental_uris":{"android":"levelo://app?vid=a861e9b0-dbbc-4bfb-b28d-2fc66ad12674","ios":"levelo://app?vid=a861e9b0-dbbc-4bfb-b28d-2fc66ad12674"},"vehicle_type_id":"4","last_reported":1749546723,"current_range_meters":8000,"station_id":"ce4bh512rcd13ifvqe2g","pricing_plan_id":"cebpf4jnsgd1na2vs0mg"},{"bike_id":"08b866fb-7f94-47bf-a10f-e2720d8e29b2","system_id":"levelo_inurba_marseille","lat":43.31359,"lon":5.38486,"is_reserved":false,"is_disabled":false,"rental_uris":{"android":"levelo://app?vid=08b866fb-7f94-47bf-a10f-e2720d8e29b2","ios":"levelo://app?vid=08b866fb-7f94-47bf-a10f-e2720d8e29b2"},"vehicle_type_id":"4","last_reported":1749546723,"current_range_meters":7200,"station_id":"ce4bgt92rcd13ifvqcf0","pricing_plan_id":"cebpf4jnsgd1na2vs0mg"},{"bike_id":"d998165d-c4ad-45b9-a421-48c9e449c0da","system_id":"levelo_inurba_marseille","lat":43.28264,"lon":5.35063,"is_reserved":false,"is_disabled":false,"rental_uris":{"android":"levelo://app?vid=d998165d-c4ad-45b9-a421-48c9e449c0da","ios":"levelo://app?vid=d998165d-c4ad-45b9-a421-48c9e449c0da"},"vehicle_type_id":"4","last_reported":1749546723,"current_range_meters":8000,"station_id":"ce4bhbp2rcd13ifvqerg","pricing_plan_id":"cebpf4jnsgd1na2vs0mg"},{"bike_id":"a233f62a-6fd5-4a6b-9f06-b347acf39130","system_id":"levelo_inurba_marseille","lat":43.30326,"lon":5.40432,"is_reserved":false,"is_disabled":false,"rental_uris":{"android":"levelo://app?vid=a233f62a-6fd5-4a6b-9f06-b347acf39130","ios":"levelo://app?vid=a233f62a-6fd5-4a6b-9f06-b347acf39130"},"vehicle_type_id":"4","last_reported":1749546723,"current_range_meters":8000,"station_id":"ce4bh012rcd13ifvqd10","pricing_plan_id":"cebpf4jnsgd1na2vs0mg"},{"bike_id":"e85c2c6e-6986-4a93-bf0f-808d2d8ea1f6","system_id":"levelo_inurba_marseille","lat":43.31757,"lon":5.39018,"is_reserved":false,"is_disabled":false,"rental_uris":{"android":"levelo://app?vid=e85c2c6e-6986-4a93-bf0f-808d2d8ea1f6","ios":"levelo://app?vid=e85c2c6e-6986-4a93-bf0f-808d2d8ea1f6"},"vehicle_type_id":"4","last_reported":1749546723,"current_range_meters":8000,"station_id":"ce4bhqp2rcd13ifvqhng","pricing_plan_id":"cebpf4jnsgd1na2vs0mg"},{"bike_id":"ee7a2e6a-3e65-41f6-b8b3-501fb42682dc","system_id":"levelo_inurba_marseille","lat":43.27565,"lon":5.38428,"is_reserved":false,"is_disabled":false,"rental_uris":{"android":"levelo://app?vid=ee7a2e6a-3e65-41f6-b8b3-501fb42682dc","ios":"levelo://app?vid=ee7a2e6a-3e65-41f6-b8b3-501fb42682dc"},"vehicle_type_id":"4","last_reported":1749546723,"current_range_meters":8000,"station_id":"ce4bhh92rcd13ifvqfi0","pricing_plan_id":"cebpf4jnsgd1na2vs0mg"},{"bike_id":"5bc37d38-2a8f-4b63-ac5c-2e0fa88bb7b5","system_id":"levelo_inurba_marseille","lat":43.30242,"lon":5.40055,"is_reserved":false,"is_disabled":false,"rental_uris":{"android":"levelo://app?vid=5bc37d38-2a8f-4b63-ac5c-2e0fa88bb7b5","ios":"levelo://app?vid=5bc37d38-2a8f-4b63-ac5c-2e0fa88bb7b5"},"vehicle_type_id":"4","last_reported":1749546723,"current_range_meters":8400,"station_id":"ce4bgvh2rcd13ifvqcs0","pricing_plan_id":"cebpf4jnsgd1na2vs0mg"},{"bike_id":"bff53a0e-8e29-41cf-bed6-c5595d352307","system_id":"levelo_inurba_marseille","lat":43.29177,"lon":5.3713,"is_reserved":false,"is_disabled":false,"rental_uris":{"android":"levelo://app?vid=bff53a0e-8e29-41cf-bed6-c5595d352307","ios":"levelo://app?vid=bff53a0e-8e29-41cf-bed6-c5595d352307"},"vehicle_type_id":"4","last_reported":1749546723,"current_range_meters":8400,"station_id":"ce4bha92rcd13ifvqeh0","pricing_plan_id":"cebpf4jnsgd1na2vs0mg"},{"bike_id":"40b91e50-0460-4574-8639-4dfcbacb1861","system_id":"levelo_inurba_marseille","lat":43.27674,"lon":5.38893,"is_reserved":false,"is_disabled":false,"rental_uris":{"android":"levelo://app?vid=40b91e50-0460-4574-8639-4dfcbacb1861","ios":"levelo://app?vid=40b91e50-0460-4574-8639-4dfcbacb1861"},"vehicle_type_id":"4","last_reported":1749546723,"current_range_meters":8400,"station_id":"ce4bhi12rcd13ifvqfo0","pricing_plan_id":"cebpf4jnsgd1na2vs0mg"},{"bike_id":"c09b1c1e-6d5b-4a72-8f97-eccd430a9e54","system_id":"levelo_inurba_marseille","lat":43.26677,"lon":5.38264,"is_reserved":false,"is_disabled":true,"rental_uris":{"android":"levelo://app?vid=c09b1c1e-6d5b-4a72-8f97-eccd430a9e54","ios":"levelo://app?vid=c09b1c1e-6d5b-4a72-8f97-eccd430a9e54"},"vehicle_type_id":"4","last_reported":1749546723,"current_range_meters":8400,"station_id":"ce4bhgp2rcd13ifvqfc0","pricing_plan_id":"cebpf4jnsgd1na2vs0mg"},{"bike_id":"799a81f7-17c6-468d-a848-32f1307afe19","system_id":"levelo_inurba_marseille","lat":43.29255,"lon":5.3762,"is_reserved":false,"is_disabled":false,"rental_uris":{"android":"levelo://app?vid=799a81f7-17c6-468d-a848-32f1307afe19","ios":"levelo://app?vid=799a81f7-17c6-468d-a848-32f1307afe19"},"vehicle_type_id":"4","last_reported":1749546723,"current_range_meters":8400,"station_id":"ce4bgi12rcd13ifvqb80","pricing_plan_id":"cebpf4jnsgd1na2vs0mg"},{"bike_id":"692fd961-2bc8-4186-b31b-f977c16d0768","system_id":"levelo_inurba_marseille","lat":43.2439,"lon":5.37061,"is_reserved":false,"is_disabled":false,"rental_uris":{"android":"levelo://app?vid=692fd961-2bc8-4186-b31b-f977c16d0768","ios":"levelo://app?vid=692fd961-2bc8-4186-b31b-f977c16d0768"},"vehicle_type_id":"4","last_reported":1749546723,"current_range_meters":6400,"station_id":"ce4bhhh2rcd13ifvqfk0","pricing_plan_id":"cebpf4jnsgd1na2vs0mg"},{"bike_id":"98b4c3ea-c754-4544-bcc5-9a15b5aecff4","system_id":"levelo_inurba_marseille","lat":43.301628,"lon":5.380766,"is_reserved":false,"is_disabled":false,"rental_uris":{"android":"levelo://app?vid=98b4c3ea-c754-4544-bcc5-9a15b5aecff4","ios":"levelo://app?vid=98b4c3ea-c754-4544-bcc5-9a15b5aecff4"},"vehicle_type_id":"4","last_reported":1749546723,"current_range_meters":8400,"station_id":"ce4bgjp2rcd13ifvqbh0","pricing_plan_id":"cebpf4jnsgd1na2vs0mg"},{"bike_id":"da14da1f-7442-42b5-98f6-365f4fbd4c56","system_id":"levelo_inurba_marseille","lat":43.32472,"lon":5.41147,"is_reserved":false,"is_disabled":false,"rental_uris":{"android":"levelo://app?vid=da14da1f-7442-42b5-98f6-365f4fbd4c56","ios":"levelo://app?vid=da14da1f-7442-42b5-98f6-365f4fbd4c56"},"vehicle_type_id":"4","last_reported":1749546723,"current_range_meters":8800,"station_id":"","pricing_plan_id":"cebpf4jnsgd1na2vs0mg"},{"bike_id":"b999e088-ad38-4e66-a6c0-e320752fc7db","system_id":"levelo_inurba_marseille","lat":43.27378,"lon":5.36265,"is_reserved":false,"is_disabled":false,"rental_uris":{"android":"levelo://app?vid=b999e088-ad38-4e66-a6c0-e320752fc7db","ios":"levelo://app?vid=b999e088-ad38-4e66-a6c0-e320752fc7db"},"vehicle_type_id":"4","last_reported":1749546723,"current_range_meters":8800,"station_id":"ce4bhbh2rcd13ifvqeo0","pricing_plan_id":"cebpf4jnsgd1na2vs0mg"},{"bike_id":"1808194b-62fe-4be5-bb2f-30e7e94de3be","system_id":"levelo_inurba_marseille","lat":43.30801,"lon":5.43525,"is_reserved":false,"is_disabled":false,"rental_uris":{"android":"levelo://app?vid=1808194b-62fe-4be5-bb2f-30e7e94de3be","ios":"levelo://app?vid=1808194b-62fe-4be5-bb2f-30e7e94de3be"},"vehicle_type_id":"4","last_reported":1749546723,"current_range_meters":9200,"station_id":"ce4bhph2rcd13ifvqheg","pricing_plan_id":"cebpf4jnsgd1na2vs0mg"},{"bike_id":"2c7090d1-c839-4ec7-bd95-0645b8b9acf2","system_id":"levelo_inurba_marseille","lat":43.29595,"lon":5.38097,"is_reserved":false,"is_disabled":false,"rental_uris":{"android":"levelo://app?vid=2c7090d1-c839-4ec7-bd95-0645b8b9acf2","ios":"levelo://app?vid=2c7090d1-c839-4ec7-bd95-0645b8b9acf2"},"vehicle_type_id":"4","last_reported":1749546723,"current_range_meters":9200,"station_id":"ce4bgl12rcd13ifvqbo0","pricing_plan_id":"cebpf4jnsgd1na2vs0mg"},{"bike_id":"2f32b755-3ca4-4102-8e33-37fff5e1ff8d","system_id":"levelo_inurba_marseille","lat":43.27145,"lon":5.40171,"is_reserved":false,"is_disabled":false,"rental_uris":{"android":"levelo://app?vid=2f32b755-3ca4-4102-8e33-37fff5e1ff8d","ios":"levelo://app?vid=2f32b755-3ca4-4102-8e33-37fff5e1ff8d"},"vehicle_type_id":"4","last_reported":1749546723,"current_range_meters":9200,"station_id":"","pricing_plan_id":"cebpf4jnsgd1na2vs0mg"},{"bike_id":"7fa8fe03-e761-44b8-8ced-e506fdbc1a3a","system_id":"levelo_inurba_marseille","lat":43.32111,"lon":5.36768,"is_reserved":false,"is_disabled":false,"rental_uris":{"android":"levelo://app?vid=7fa8fe03-e761-44b8-8ced-e506fdbc1a3a","ios":"levelo://app?vid=7fa8fe03-e761-44b8-8ced-e506fdbc1a3a"},"vehicle_type_id":"4","last_reported":1749546723,"current_range_meters":9200,"station_id":"ce4bhrh2rcd13ifvqhug","pricing_plan_id":"cebpf4jnsgd1na2vs0mg"},{"bike_id":"5aee6e98-5d72-4a58-8068-559ee9f9703d","system_id":"levelo_inurba_marseille","lat":43.21173,"lon":5.35056,"is_reserved":false,"is_disabled":false,"rental_uris":{"android":"levelo://app?vid=5aee6e98-5d72-4a58-8068-559ee9f9703d","ios":"levelo://app?vid=5aee6e98-5d72-4a58-8068-559ee9f9703d"},"vehicle_type_id":"4","last_reported":1749546723,"current_range_meters":9200,"station_id":"st_cvj6sg6p6f1abm77japg","pricing_plan_id":"cebpf4jnsgd1na2vs0mg"},{"bike_id":"b85be41e-2140-41ca-9627-a0ca198e2d51","system_id":"levelo_inurba_marseille","lat":43.31487,"lon":5.372916,"is_reserved":false,"is_disabled":false,"rental_uris":{"android":"levelo://app?vid=b85be41e-2140-41ca-9627-a0ca198e2d51","ios":"levelo://app?vid=b85be41e-2140-41ca-9627-a0ca198e2d51"},"vehicle_type_id":"4","last_reported":1749546723,"current_range_meters":9600,"station_id":"ce4bgt12rcd13ifvqcd0","pricing_plan_id":"cebpf4jnsgd1na2vs0mg"},{"bike_id":"4b9eb7f0-61d0-4628-a7e2-d737cbbeb8ac","system_id":"levelo_inurba_marseille","lat":43.25492,"lon":5.41989,"is_reserved":false,"is_disabled":false,"rental_uris":{"android":"levelo://app?vid=4b9eb7f0-61d0-4628-a7e2-d737cbbeb8ac","ios":"levelo://app?vid=4b9eb7f0-61d0-4628-a7e2-d737cbbeb8ac"},"vehicle_type_id":"4","last_reported":1749546723,"current_range_meters":9600,"station_id":"","pricing_plan_id":"cebpf4jnsgd1na2vs0mg"},{"bike_id":"461b7b2a-ae3a-4f8f-a1ae-d6c92f352fed","system_id":"levelo_inurba_marseille","lat":43.2558,"lon":5.38225,"is_reserved":false,"is_disabled":false,"rental_uris":{"android":"levelo://app?vid=461b7b2a-ae3a-4f8f-a1ae-d6c92f352fed","ios":"levelo://app?vid=461b7b2a-ae3a-4f8f-a1ae-d6c92f352fed"},"vehicle_type_id":"4","last_reported":1749546723,"current_range_meters":9600,"station_id":"ce4bhih2rcd13ifvqfs0","pricing_plan_id":"cebpf4jnsgd1na2vs0mg"},{"bike_id":"2649ef45-0b6a-4349-a65a-a2f74f74f74f","system_id":"levelo_inurba_marseille","lat":43.26473,"lon":5.39229,"is_reserved":false,"is_disabled":false,"rental_uris":{"android":"levelo://app?vid=2649ef45-0b6a-4349-a65a-a2f74f74f74f","ios":"levelo://app?vid=2649ef45-0b6a-4349-a65a-a2f74f74f74f"},"vehicle_type_id":"4","last_reported":1749546723,"current_range_meters":9600,"station_id":"","pricing_plan_id":"cebpf4jnsgd1na2vs0mg"},{"bike_id":"88113087-f0bb-4133-ab2a-bbfce1f3d99a","system_id":"levelo_inurba_marseille","lat":43.31714,"lon":5.40457,"is_reserved":false,"is_disabled":true,"rental_uris":{"android":"levelo://app?vid=88113087-f0bb-4133-ab2a-bbfce1f3d99a","ios":"levelo://app?vid=88113087-f0bb-4133-ab2a-bbfce1f3d99a"},"vehicle_type_id":"4","last_reported":1749546723,"current_range_meters":9600,"station_id":"ce4bh012rcd13ifvqd00","pricing_plan_id":"cebpf4jnsgd1na2vs0mg"},{"bike_id":"f156dd16-bfc6-4d9c-8774-e71864afe86d","system_id":"levelo_inurba_marseille","lat":43.27984,"lon":5.41653,"is_reserved":false,"is_disabled":true,"rental_uris":{"android":"levelo://app?vid=f156dd16-bfc6-4d9c-8774-e71864afe86d","ios":"levelo://app?vid=f156dd16-bfc6-4d9c-8774-e71864afe86d"},"vehicle_type_id":"4","last_reported":1749546723,"current_range_meters":9600,"station_id":"ce4bho12rcd13ifvqh1g","pricing_plan_id":"cebpf4jnsgd1na2vs0mg"},{"bike_id":"c8c4af1d-070c-484a-a3f7-babd17d99646","system_id":"levelo_inurba_marseille","lat":43.33682,"lon":5.39214,"is_reserved":false,"is_disabled":false,"rental_uris":{"android":"levelo://app?vid=c8c4af1d-070c-484a-a3f7-babd17d99646","ios":"levelo://app?vid=c8c4af1d-070c-484a-a3f7-babd17d99646"},"vehicle_type_id":"4","last_reported":1749546723,"current_range_meters":9600,"station_id":"ce4bhr92rcd13ifvqhsg","pricing_plan_id":"cebpf4jnsgd1na2vs0mg"},{"bike_id":"82be120d-595b-4301-b926-71200afa0fe4","system_id":"levelo_inurba_marseille","lat":43.29254,"lon":5.37615,"is_reserved":false,"is_disabled":false,"rental_uris":{"android":"levelo://app?vid=82be120d-595b-4301-b926-71200afa0fe4","ios":"levelo://app?vid=82be120d-595b-4301-b926-71200afa0fe4"},"vehicle_type_id":"4","last_reported":1749546723,"current_range_meters":9600,"station_id":"ce4bgi12rcd13ifvqb80","pricing_plan_id":"cebpf4jnsgd1na2vs0mg"},{"bike_id":"ba609ec6-8112-4f37-923a-9c355ed0c8fe","system_id":"levelo_inurba_marseille","lat":43.29358,"lon":5.37842,"is_reserved":false,"is_disabled":false,"rental_uris":{"android":"levelo://app?vid=ba609ec6-8112-4f37-923a-9c355ed0c8fe","ios":"levelo://app?vid=ba609ec6-8112-4f37-923a-9c355ed0c8fe"},"vehicle_type_id":"4","last_reported":1749546723,"current_range_meters":9600,"station_id":"ce4bgjh2rcd13ifvqbf0","pricing_plan_id":"cebpf4jnsgd1na2vs0mg"},{"bike_id":"05d515d4-f9a4-4d33-9344-77da9a44570b","system_id":"levelo_inurba_marseille","lat":43.27616,"lon":5.3612,"is_reserved":false,"is_disabled":false,"rental_uris":{"android":"levelo://app?vid=05d515d4-f9a4-4d33-9344-77da9a44570b","ios":"levelo://app?vid=05d515d4-f9a4-4d33-9344-77da9a44570b"},"vehicle_type_id":"4","last_reported":1749546723,"current_range_meters":9600,"station_id":"ce4bgj92rcd13ifvqbe0","pricing_plan_id":"cebpf4jnsgd1na2vs0mg"},{"bike_id":"5fa2334e-3a20-495f-97ad-0f14556e6585","system_id":"levelo_inurba_marseille","lat":43.31356,"lon":5.36687,"is_reserved":false,"is_disabled":false,"rental_uris":{"android":"levelo://app?vid=5fa2334e-3a20-495f-97ad-0f14556e6585","ios":"levelo://app?vid=5fa2334e-3a20-495f-97ad-0f14556e6585"},"vehicle_type_id":"4","last_reported":1749546723,"current_range_meters":10000,"station_id":"ce4bgr92rcd13ifvqc6g","pricing_plan_id":"cebpf4jnsgd1na2vs0mg"},{"bike_id":"76f2e036-4de2-49b4-90be-a3e9ad69cb08","system_id":"levelo_inurba_marseille","lat":43.28402,"lon":5.3808,"is_reserved":false,"is_disabled":false,"rental_uris":{"android":"levelo://app?vid=76f2e036-4de2-49b4-90be-a3e9ad69cb08","ios":"levelo://app?vid=76f2e036-4de2-49b4-90be-a3e9ad69cb08"},"vehicle_type_id":"4","last_reported":1749546723,"current_range_meters":10000,"station_id":"ce4bh412rcd13ifvqdr0","pricing_plan_id":"cebpf4jnsgd1na2vs0mg"},{"bike_id":"b7f9d57d-dc12-4caa-b1b6-85ffad9f4eac","system_id":"levelo_inurba_marseille","lat":43.28264,"lon":5.35057,"is_reserved":false,"is_disabled":false,"rental_uris":{"android":"levelo://app?vid=b7f9d57d-dc12-4caa-b1b6-85ffad9f4eac","ios":"levelo://app?vid=b7f9d57d-dc12-4caa-b1b6-85ffad9f4eac"},"vehicle_type_id":"4","last_reported":1749546723,"current_range_meters":10000,"station_id":"ce4bhbp2rcd13ifvqerg","pricing_plan_id":"cebpf4jnsgd1na2vs0mg"},{"bike_id":"8acac7a6-117e-4b2f-b484-9c122bd76b74","system_id":"levelo_inurba_marseille","lat":43.23194,"lon":5.35551,"is_reserved":false,"is_disabled":false,"rental_uris":{"android":"levelo://app?vid=8acac7a6-117e-4b2f-b484-9c122bd76b74","ios":"levelo://app?vid=8acac7a6-117e-4b2f-b484-9c122bd76b74"},"vehicle_type_id":"4","last_reported":1749546723,"current_range_meters":10000,"station_id":"ce4bhu92rcd13ifvqi70","pricing_plan_id":"cebpf4jnsgd1na2vs0mg"},{"bike_id":"7dd5ed6e-564d-4083-8226-912007fa5e21","system_id":"levelo_inurba_marseille","lat":43.245827,"lon":5.374024,"is_reserved":false,"is_disabled":false,"rental_uris":{"android":"levelo://app?vid=7dd5ed6e-564d-4083-8226-912007fa5e21","ios":"levelo://app?vid=7dd5ed6e-564d-4083-8226-912007fa5e21"},"vehicle_type_id":"4","last_reported":1749546723,"current_range_meters":10000,"station_id":"ce4bhhh2rcd13ifvqfk0","pricing_plan_id":"cebpf4jnsgd1na2vs0mg"},{"bike_id":"fbe96220-fbe3-42fc-8068-66bbb1db8626","system_id":"levelo_inurba_marseille","lat":43.2693,"lon":5.38917,"is_reserved":false,"is_disabled":false,"rental_uris":{"android":"levelo://app?vid=fbe96220-fbe3-42fc-8068-66bbb1db8626","ios":"levelo://app?vid=fbe96220-fbe3-42fc-8068-66bbb1db8626"},"vehicle_type_id":"4","last_reported":1749546723,"current_range_meters":10000,"station_id":"ce4bhhh2rcd13ifvqfl0","pricing_plan_id":"cebpf4jnsgd1na2vs0mg"},{"bike_id":"34911fcf-3a0b-4fa1-8d5a-d28ea9163d4d","system_id":"levelo_inurba_marseille","lat":43.26683,"lon":5.38262,"is_reserved":false,"is_disabled":false,"rental_uris":{"android":"levelo://app?vid=34911fcf-3a0b-4fa1-8d5a-d28ea9163d4d","ios":"levelo://app?vid=34911fcf-3a0b-4fa1-8d5a-d28ea9163d4d"},"vehicle_type_id":"4","last_reported":1749546723,"current_range_meters":10000,"station_id":"ce4bhg92rcd13ifvqf90","pricing_plan_id":"cebpf4jnsgd1na2vs0mg"},{"bike_id":"00ca30c3-b636-4824-8f37-e641de8b6bdb","system_id":"levelo_inurba_marseille","lat":43.30546,"lon":5.36704,"is_reserved":false,"is_disabled":false,"rental_uris":{"android":"levelo://app?vid=00ca30c3-b636-4824-8f37-e641de8b6bdb","ios":"levelo://app?vid=00ca30c3-b636-4824-8f37-e641de8b6bdb"},"vehicle_type_id":"4","last_reported":1749546723,"current_range_meters":10800,"station_id":"ce4bgrp2rcd13ifvqc9g","pricing_plan_id":"cebpf4jnsgd1na2vs0mg"},{"bike_id":"c1545d9e-8bbf-4f65-bbab-3354fddad98e","system_id":"levelo_inurba_marseille","lat":43.28152,"lon":5.42643,"is_reserved":false,"is_disabled":false,"rental_uris":{"android":"levelo://app?vid=c1545d9e-8bbf-4f65-bbab-3354fddad98e","ios":"levelo://app?vid=c1545d9e-8bbf-4f65-bbab-3354fddad98e"},"vehicle_type_id":"4","last_reported":1749546723,"current_range_meters":10800,"station_id":"ce4bhnh2rcd13ifvqgug","pricing_plan_id":"cebpf4jnsgd1na2vs0mg"},{"bike_id":"3658bf30-0c15-4e18-a876-dcb09458a2ab","system_id":"levelo_inurba_marseille","lat":43.32479,"lon":5.3656,"is_reserved":false,"is_disabled":false,"rental_uris":{"android":"levelo://app?vid=3658bf30-0c15-4e18-a876-dcb09458a2ab","ios":"levelo://app?vid=3658bf30-0c15-4e18-a876-dcb09458a2ab"},"vehicle_type_id":"4","last_reported":1749546723,"current_range_meters":10800,"station_id":"","pricing_plan_id":"cebpf4jnsgd1na2vs0mg"},{"bike_id":"b6285f6b-e9e7-470d-9b6d-1afe99ab71bf","system_id":"levelo_inurba_marseille","lat":43.26189,"lon":5.420723,"is_reserved":false,"is_disabled":false,"rental_uris":{"android":"levelo://app?vid=b6285f6b-e9e7-470d-9b6d-1afe99ab71bf","ios":"levelo://app?vid=b6285f6b-e9e7-470d-9b6d-1afe99ab71bf"},"vehicle_type_id":"4","last_reported":1749546723,"current_range_meters":10800,"station_id":"","pricing_plan_id":"cebpf4jnsgd1na2vs0mg"},{"bike_id":"0b87baf5-0191-4be3-9088-26dcf479d979","system_id":"levelo_inurba_marseille","lat":43.32448,"lon":5.36554,"is_reserved":false,"is_disabled":false,"rental_uris":{"android":"levelo://app?vid=0b87baf5-0191-4be3-9088-26dcf479d979","ios":"levelo://app?vid=0b87baf5-0191-4be3-9088-26dcf479d979"},"vehicle_type_id":"4","last_reported":1749546723,"current_range_meters":10800,"station_id":"ce4bhs12rcd13ifvqhvg","pricing_plan_id":"cebpf4jnsgd1na2vs0mg"},{"bike_id":"fea03510-d732-494e-a818-113e6eebaa67","system_id":"levelo_inurba_marseille","lat":43.22935,"lon":5.35365,"is_reserved":false,"is_disabled":false,"rental_uris":{"android":"levelo://app?vid=fea03510-d732-494e-a818-113e6eebaa67","ios":"levelo://app?vid=fea03510-d732-494e-a818-113e6eebaa67"},"vehicle_type_id":"4","last_reported":1749546723,"current_range_meters":10800,"station_id":"cpo3532slgdg3j2ikp40","pricing_plan_id":"cebpf4jnsgd1na2vs0mg"},{"bike_id":"c07a7351-aaaf-465f-b00c-b9ca4162fcb9","system_id":"levelo_inurba_marseille","lat":43.29265,"lon":5.376174,"is_reserved":false,"is_disabled":false,"rental_uris":{"android":"levelo://app?vid=c07a7351-aaaf-465f-b00c-b9ca4162fcb9","ios":"levelo://app?vid=c07a7351-aaaf-465f-b00c-b9ca4162fcb9"},"vehicle_type_id":"4","last_reported":1749546723,"current_range_meters":10800,"station_id":"ce4bgi12rcd13ifvqb80","pricing_plan_id":"cebpf4jnsgd1na2vs0mg"},{"bike_id":"0053f0bd-3481-4f8f-a19e-7dd7a6624507","system_id":"levelo_inurba_marseille","lat":43.29875,"lon":5.43645,"is_reserved":false,"is_disabled":false,"rental_uris":{"android":"levelo://app?vid=0053f0bd-3481-4f8f-a19e-7dd7a6624507","ios":"levelo://app?vid=0053f0bd-3481-4f8f-a19e-7dd7a6624507"},"vehicle_type_id":"4","last_reported":1749546723,"current_range_meters":11200,"station_id":"ce4bhpp2rcd13ifvqhfg","pricing_plan_id":"cebpf4jnsgd1na2vs0mg"},{"bike_id":"8f957c09-cb4b-453c-9cb7-b922ce8003f6","system_id":"levelo_inurba_marseille","lat":43.27495,"lon":5.42462,"is_reserved":false,"is_disabled":false,"rental_uris":{"android":"levelo://app?vid=8f957c09-cb4b-453c-9cb7-b922ce8003f6","ios":"levelo://app?vid=8f957c09-cb4b-453c-9cb7-b922ce8003f6"},"vehicle_type_id":"4","last_reported":1749546723,"current_range_meters":11200,"station_id":"ce4bhn92rcd13ifvqgrg","pricing_plan_id":"cebpf4jnsgd1na2vs0mg"},{"bike_id":"1aea7cfc-afca-4737-8f8d-ae60132524de","system_id":"levelo_inurba_marseille","lat":43.28783,"lon":5.3987,"is_reserved":false,"is_disabled":false,"rental_uris":{"android":"levelo://app?vid=1aea7cfc-afca-4737-8f8d-ae60132524de","ios":"levelo://app?vid=1aea7cfc-afca-4737-8f8d-ae60132524de"},"vehicle_type_id":"4","last_reported":1749546723,"current_range_meters":11200,"station_id":"","pricing_plan_id":"cebpf4jnsgd1na2vs0mg"},{"bike_id":"6cb4ce7f-ba79-4b5c-89c6-9471cc4909d9","system_id":"levelo_inurba_marseille","lat":43.30464,"lon":5.37911,"is_reserved":false,"is_disabled":false,"rental_uris":{"android":"levelo://app?vid=6cb4ce7f-ba79-4b5c-89c6-9471cc4909d9","ios":"levelo://app?vid=6cb4ce7f-ba79-4b5c-89c6-9471cc4909d9"},"vehicle_type_id":"4","last_reported":1749546723,"current_range_meters":11200,"station_id":"ce4bgup2rcd13ifvqcn0","pricing_plan_id":"cebpf4jnsgd1na2vs0mg"},{"bike_id":"9cb7516c-f680-48d6-a201-e4f230fdf23e","system_id":"levelo_inurba_marseille","lat":43.27661,"lon":5.38892,"is_reserved":false,"is_disabled":false,"rental_uris":{"android":"levelo://app?vid=9cb7516c-f680-48d6-a201-e4f230fdf23e","ios":"levelo://app?vid=9cb7516c-f680-48d6-a201-e4f230fdf23e"},"vehicle_type_id":"4","last_reported":1749546723,"current_range_meters":11200,"station_id":"ce4bhi12rcd13ifvqfo0","pricing_plan_id":"cebpf4jnsgd1na2vs0mg"},{"bike_id":"39d32260-51d5-455a-ba53-6471389bd255","system_id":"levelo_inurba_marseille","lat":43.320024,"lon":5.376146,"is_reserved":false,"is_disabled":false,"rental_uris":{"android":"levelo://app?vid=39d32260-51d5-455a-ba53-6471389bd255","ios":"levelo://app?vid=39d32260-51d5-455a-ba53-6471389bd255"},"vehicle_type_id":"4","last_reported":1749546723,"current_range_meters":11200,"station_id":"","pricing_plan_id":"cebpf4jnsgd1na2vs0mg"},{"bike_id":"5a55eb0f-0567-487e-a6a7-2cfcfc5473aa","system_id":"levelo_inurba_marseille","lat":43.33767,"lon":5.3742,"is_reserved":false,"is_disabled":false,"rental_uris":{"android":"levelo://app?vid=5a55eb0f-0567-487e-a6a7-2cfcfc5473aa","ios":"levelo://app?vid=5a55eb0f-0567-487e-a6a7-2cfcfc5473aa"},"vehicle_type_id":"4","last_reported":1749546723,"current_range_meters":12000,"station_id":"","pricing_plan_id":"cebpf4jnsgd1na2vs0mg"},{"bike_id":"223b679b-8545-49e8-9b77-08d6ab9b31d8","system_id":"levelo_inurba_marseille","lat":43.29352,"lon":5.37843,"is_reserved":false,"is_disabled":false,"rental_uris":{"android":"levelo://app?vid=223b679b-8545-49e8-9b77-08d6ab9b31d8","ios":"levelo://app?vid=223b679b-8545-49e8-9b77-08d6ab9b31d8"},"vehicle_type_id":"4","last_reported":1749546723,"current_range_meters":12000,"station_id":"ce4bgjh2rcd13ifvqbf0","pricing_plan_id":"cebpf4jnsgd1na2vs0mg"},{"bike_id":"5077581b-cebb-46fc-ba69-4fa8272d4810","system_id":"levelo_inurba_marseille","lat":43.21358,"lon":5.35526,"is_reserved":false,"is_disabled":false,"rental_uris":{"android":"levelo://app?vid=5077581b-cebb-46fc-ba69-4fa8272d4810","ios":"levelo://app?vid=5077581b-cebb-46fc-ba69-4fa8272d4810"},"vehicle_type_id":"4","last_reported":1749546723,"current_range_meters":12000,"station_id":"","pricing_plan_id":"cebpf4jnsgd1na2vs0mg"},{"bike_id":"d56be43a-7469-418a-a279-2976f63fe04e","system_id":"levelo_inurba_marseille","lat":43.29044,"lon":5.39935,"is_reserved":false,"is_disabled":false,"rental_uris":{"android":"levelo://app?vid=d56be43a-7469-418a-a279-2976f63fe04e","ios":"levelo://app?vid=d56be43a-7469-418a-a279-2976f63fe04e"},"vehicle_type_id":"4","last_reported":1749546723,"current_range_meters":12000,"station_id":"ce4bh392rcd13ifvqdm0","pricing_plan_id":"cebpf4jnsgd1na2vs0mg"},{"bike_id":"ea70cfcf-a0b4-4263-ade9-99779399be9f","system_id":"levelo_inurba_marseille","lat":43.29616,"lon":5.3716,"is_reserved":false,"is_disabled":false,"rental_uris":{"android":"levelo://app?vid=ea70cfcf-a0b4-4263-ade9-99779399be9f","ios":"levelo://app?vid=ea70cfcf-a0b4-4263-ade9-99779399be9f"},"vehicle_type_id":"4","last_reported":1749546723,"current_range_meters":12000,"station_id":"ce4bgnh2rcd13ifvqc0g","pricing_plan_id":"cebpf4jnsgd1na2vs0mg"},{"bike_id":"ef555bdb-3115-4b1f-9398-9c76776e1204","system_id":"levelo_inurba_marseille","lat":43.26034,"lon":5.37431,"is_reserved":false,"is_disabled":false,"rental_uris":{"android":"levelo://app?vid=ef555bdb-3115-4b1f-9398-9c76776e1204","ios":"levelo://app?vid=ef555bdb-3115-4b1f-9398-9c76776e1204"},"vehicle_type_id":"4","last_reported":1749546723,"current_range_meters":12400,"station_id":"","pricing_plan_id":"cebpf4jnsgd1na2vs0mg"},{"bike_id":"402b268f-51d8-4319-85da-3f411d4d5d91","system_id":"levelo_inurba_marseille","lat":43.21201,"lon":5.35058,"is_reserved":false,"is_disabled":false,"rental_uris":{"android":"levelo://app?vid=402b268f-51d8-4319-85da-3f411d4d5d91","ios":"levelo://app?vid=402b268f-51d8-4319-85da-3f411d4d5d91"},"vehicle_type_id":"4","last_reported":1749546723,"current_range_meters":12400,"station_id":"st_cvj6sg6p6f1abm77japg","pricing_plan_id":"cebpf4jnsgd1na2vs0mg"},{"bike_id":"723463b1-0fed-42a8-b7db-10ce5befe814","system_id":"levelo_inurba_marseille","lat":43.309552,"lon":5.390352,"is_reserved":false,"is_disabled":false,"rental_uris":{"android":"levelo://app?vid=723463b1-0fed-42a8-b7db-10ce5befe814","ios":"levelo://app?vid=723463b1-0fed-42a8-b7db-10ce5befe814"},"vehicle_type_id":"4","last_reported":1749546723,"current_range_meters":12400,"station_id":"ce4bgup2rcd13ifvqco0","pricing_plan_id":"cebpf4jnsgd1na2vs0mg"},{"bike_id":"bd893a1d-efb6-4254-a08f-ea9291620f61","system_id":"levelo_inurba_marseille","lat":43.29705,"lon":5.37695,"is_reserved":false,"is_disabled":false,"rental_uris":{"android":"levelo://app?vid=bd893a1d-efb6-4254-a08f-ea9291620f61","ios":"levelo://app?vid=bd893a1d-efb6-4254-a08f-ea9291620f61"},"vehicle_type_id":"4","last_reported":1749546723,"current_range_meters":12800,"station_id":"ce4bgkh2rcd13ifvqbl0","pricing_plan_id":"cebpf4jnsgd1na2vs0mg"},{"bike_id":"1ef37c59-3b3d-4016-85d9-222ea0d08abb","system_id":"levelo_inurba_marseille","lat":43.23966,"lon":5.36631,"is_reserved":false,"is_disabled":false,"rental_uris":{"android":"levelo://app?vid=1ef37c59-3b3d-4016-85d9-222ea0d08abb","ios":"levelo://app?vid=1ef37c59-3b3d-4016-85d9-222ea0d08abb"},"vehicle_type_id":"4","last_reported":1749546723,"current_range_meters":12800,"station_id":"ce4bhi12rcd13ifvqfp0","pricing_plan_id":"cebpf4jnsgd1na2vs0mg"},{"bike_id":"54c94be1-c0a0-480e-baf3-cde6bf247775","system_id":"levelo_inurba_marseille","lat":43.292965,"lon":5.37464,"is_reserved":false,"is_disabled":false,"rental_uris":{"android":"levelo://app?vid=54c94be1-c0a0-480e-baf3-cde6bf247775","ios":"levelo://app?vid=54c94be1-c0a0-480e-baf3-cde6bf247775"},"vehicle_type_id":"4","last_reported":1749546723,"current_range_meters":12800,"station_id":"ce4bgi12rcd13ifvqb70","pricing_plan_id":"cebpf4jnsgd1na2vs0mg"},{"bike_id":"b7651752-8eb3-4b67-91fc-0a6e006c8d1f","system_id":"levelo_inurba_marseille","lat":43.2119,"lon":5.35084,"is_reserved":false,"is_disabled":false,"rental_uris":{"android":"levelo://app?vid=b7651752-8eb3-4b67-91fc-0a6e006c8d1f","ios":"levelo://app?vid=b7651752-8eb3-4b67-91fc-0a6e006c8d1f"},"vehicle_type_id":"4","last_reported":1749546723,"current_range_meters":13600,"station_id":"st_cvj6sg6p6f1abm77japg","pricing_plan_id":"cebpf4jnsgd1na2vs0mg"},{"bike_id":"a6a1718f-8387-4674-b7a2-ec1279087551","system_id":"levelo_inurba_marseille","lat":43.292649,"lon":5.384369,"is_reserved":false,"is_disabled":false,"rental_uris":{"android":"levelo://app?vid=a6a1718f-8387-4674-b7a2-ec1279087551","ios":"levelo://app?vid=a6a1718f-8387-4674-b7a2-ec1279087551"},"vehicle_type_id":"4","last_reported":1749546723,"current_range_meters":13600,"station_id":"ce4bhoh2rcd13ifvqh5g","pricing_plan_id":"cebpf4jnsgd1na2vs0mg"},{"bike_id":"54902d6e-73f4-4adf-baf3-1b4db838a3c2","system_id":"levelo_inurba_marseille","lat":43.26679,"lon":5.38259,"is_reserved":false,"is_disabled":false,"rental_uris":{"android":"levelo://app?vid=54902d6e-73f4-4adf-baf3-1b4db838a3c2","ios":"levelo://app?vid=54902d6e-73f4-4adf-baf3-1b4db838a3c2"},"vehicle_type_id":"4","last_reported":1749546723,"current_range_meters":13600,"station_id":"ce4bhg92rcd13ifvqf90","pricing_plan_id":"cebpf4jnsgd1na2vs0mg"},{"bike_id":"ca27e12a-1f2d-4cf2-be29-12a2b9ff1547","system_id":"levelo_inurba_marseille","lat":43.31715,"lon":5.42387,"is_reserved":false,"is_disabled":false,"rental_uris":{"android":"levelo://app?vid=ca27e12a-1f2d-4cf2-be29-12a2b9ff1547","ios":"levelo://app?vid=ca27e12a-1f2d-4cf2-be29-12a2b9ff1547"},"vehicle_type_id":"4","last_reported":1749546723,"current_range_meters":13600,"station_id":"ce4bhp92rcd13ifvqhbg","pricing_plan_id":"cebpf4jnsgd1na2vs0mg"},{"bike_id":"154fe73d-3435-496e-b9d6-7f8cad0c5609","system_id":"levelo_inurba_marseille","lat":43.31353,"lon":5.36715,"is_reserved":false,"is_disabled":false,"rental_uris":{"android":"levelo://app?vid=154fe73d-3435-496e-b9d6-7f8cad0c5609","ios":"levelo://app?vid=154fe73d-3435-496e-b9d6-7f8cad0c5609"},"vehicle_type_id":"4","last_reported":1749546723,"current_range_meters":13600,"station_id":"ce4bgr92rcd13ifvqc6g","pricing_plan_id":"cebpf4jnsgd1na2vs0mg"},{"bike_id":"74e594b7-d92c-4a41-92e0-1c28e874e5ed","system_id":"levelo_inurba_marseille","lat":43.23192,"lon":5.35552,"is_reserved":false,"is_disabled":false,"rental_uris":{"android":"levelo://app?vid=74e594b7-d92c-4a41-92e0-1c28e874e5ed","ios":"levelo://app?vid=74e594b7-d92c-4a41-92e0-1c28e874e5ed"},"vehicle_type_id":"4","last_reported":1749546723,"current_range_meters":13600,"station_id":"ce4bhu92rcd13ifvqi70","pricing_plan_id":"cebpf4jnsgd1na2vs0mg"},{"bike_id":"8e401600-8bcb-4aca-a609-303bd5c43190","system_id":"levelo_inurba_marseille","lat":43.31254,"lon":5.36857,"is_reserved":false,"is_disabled":false,"rental_uris":{"android":"levelo://app?vid=8e401600-8bcb-4aca-a609-303bd5c43190","ios":"levelo://app?vid=8e401600-8bcb-4aca-a609-303bd5c43190"},"vehicle_type_id":"4","last_reported":1749546723,"current_range_meters":14000,"station_id":"ce4bgl92rcd13ifvqbq0","pricing_plan_id":"cebpf4jnsgd1na2vs0mg"},{"bike_id":"e32875c6-e226-4e1b-9b7c-e624d47deae1","system_id":"levelo_inurba_marseille","lat":43.30337,"lon":5.40446,"is_reserved":false,"is_disabled":false,"rental_uris":{"android":"levelo://app?vid=e32875c6-e226-4e1b-9b7c-e624d47deae1","ios":"levelo://app?vid=e32875c6-e226-4e1b-9b7c-e624d47deae1"},"vehicle_type_id":"4","last_reported":1749546723,"current_range_meters":14000,"station_id":"ce4bh012rcd13ifvqd10","pricing_plan_id":"cebpf4jnsgd1na2vs0mg"},{"bike_id":"bb41175f-a5fb-4930-8fee-df39c06f7c60","system_id":"levelo_inurba_marseille","lat":43.298788,"lon":5.397767,"is_reserved":false,"is_disabled":false,"rental_uris":{"android":"levelo://app?vid=bb41175f-a5fb-4930-8fee-df39c06f7c60","ios":"levelo://app?vid=bb41175f-a5fb-4930-8fee-df39c06f7c60"},"vehicle_type_id":"4","last_reported":1749546723,"current_range_meters":14000,"station_id":"ce4bh0h2rcd13ifvqd50","pricing_plan_id":"cebpf4jnsgd1na2vs0mg"},{"bike_id":"e925ed2b-babc-4cf9-b75b-bac898fd5635","system_id":"levelo_inurba_marseille","lat":43.21186,"lon":5.35078,"is_reserved":false,"is_disabled":false,"rental_uris":{"android":"levelo://app?vid=e925ed2b-babc-4cf9-b75b-bac898fd5635","ios":"levelo://app?vid=e925ed2b-babc-4cf9-b75b-bac898fd5635"},"vehicle_type_id":"4","last_reported":1749546723,"current_range_meters":14000,"station_id":"st_cvj6sg6p6f1abm77japg","pricing_plan_id":"cebpf4jnsgd1na2vs0mg"},{"bike_id":"d7671809-ada6-41d9-87af-f8ce6de72169","system_id":"levelo_inurba_marseille","lat":43.27376,"lon":5.3626,"is_reserved":false,"is_disabled":false,"rental_uris":{"android":"levelo://app?vid=d7671809-ada6-41d9-87af-f8ce6de72169","ios":"levelo://app?vid=d7671809-ada6-41d9-87af-f8ce6de72169"},"vehicle_type_id":"4","last_reported":1749546723,"current_range_meters":14400,"station_id":"ce4bhbh2rcd13ifvqeo0","pricing_plan_id":"cebpf4jnsgd1na2vs0mg"},{"bike_id":"cd42e18e-9f95-41f7-858b-76b820fdd45e","system_id":"levelo_inurba_marseille","lat":43.29711,"lon":5.3769,"is_reserved":false,"is_disabled":false,"rental_uris":{"android":"levelo://app?vid=cd42e18e-9f95-41f7-858b-76b820fdd45e","ios":"levelo://app?vid=cd42e18e-9f95-41f7-858b-76b820fdd45e"},"vehicle_type_id":"4","last_reported":1749546723,"current_range_meters":14400,"station_id":"ce4bgkh2rcd13ifvqbl0","pricing_plan_id":"cebpf4jnsgd1na2vs0mg"},{"bike_id":"b2a55171-9e11-4eba-beeb-f2e7c5d27df2","system_id":"levelo_inurba_marseille","lat":43.21195,"lon":5.3506,"is_reserved":false,"is_disabled":false,"rental_uris":{"android":"levelo://app?vid=b2a55171-9e11-4eba-beeb-f2e7c5d27df2","ios":"levelo://app?vid=b2a55171-9e11-4eba-beeb-f2e7c5d27df2"},"vehicle_type_id":"4","last_reported":1749546723,"current_range_meters":14400,"station_id":"st_cvj6sg6p6f1abm77japg","pricing_plan_id":"cebpf4jnsgd1na2vs0mg"},{"bike_id":"c6830c0d-e468-46fa-b9c2-96c1aec56a2d","system_id":"levelo_inurba_marseille","lat":43.272826,"lon":5.43104,"is_reserved":false,"is_disabled":false,"rental_uris":{"android":"levelo://app?vid=c6830c0d-e468-46fa-b9c2-96c1aec56a2d","ios":"levelo://app?vid=c6830c0d-e468-46fa-b9c2-96c1aec56a2d"},"vehicle_type_id":"4","last_reported":1749546723,"current_range_meters":14400,"station_id":"","pricing_plan_id":"cebpf4jnsgd1na2vs0mg"},{"bike_id":"2b3c2b0b-29fb-400d-8c57-9132a4e351f9","system_id":"levelo_inurba_marseille","lat":43.29906,"lon":5.38136,"is_reserved":false,"is_disabled":false,"rental_uris":{"android":"levelo://app?vid=2b3c2b0b-29fb-400d-8c57-9132a4e351f9","ios":"levelo://app?vid=2b3c2b0b-29fb-400d-8c57-9132a4e351f9"},"vehicle_type_id":"4","last_reported":1749546723,"current_range_meters":14800,"station_id":"ce4bgj12rcd13ifvqbc0","pricing_plan_id":"cebpf4jnsgd1na2vs0mg"},{"bike_id":"e4c92553-820d-4bab-bd78-8b1843ca23ce","system_id":"levelo_inurba_marseille","lat":43.24178,"lon":5.39724,"is_reserved":false,"is_disabled":false,"rental_uris":{"android":"levelo://app?vid=e4c92553-820d-4bab-bd78-8b1843ca23ce","ios":"levelo://app?vid=e4c92553-820d-4bab-bd78-8b1843ca23ce"},"vehicle_type_id":"4","last_reported":1749546723,"current_range_meters":14800,"station_id":"ce4bhn12rcd13ifvqgpg","pricing_plan_id":"cebpf4jnsgd1na2vs0mg"},{"bike_id":"7fbb8cf5-f563-4c4a-90cf-1a5ac10b01c4","system_id":"levelo_inurba_marseille","lat":43.212,"lon":5.35075,"is_reserved":false,"is_disabled":false,"rental_uris":{"android":"levelo://app?vid=7fbb8cf5-f563-4c4a-90cf-1a5ac10b01c4","ios":"levelo://app?vid=7fbb8cf5-f563-4c4a-90cf-1a5ac10b01c4"},"vehicle_type_id":"4","last_reported":1749546723,"current_range_meters":15200,"station_id":"st_cvj6sg6p6f1abm77japg","pricing_plan_id":"cebpf4jnsgd1na2vs0mg"},{"bike_id":"187b0a7b-e256-4c19-9794-bb250a6c5653","system_id":"levelo_inurba_marseille","lat":43.31843,"lon":5.37953,"is_reserved":false,"is_disabled":false,"rental_uris":{"android":"levelo://app?vid=187b0a7b-e256-4c19-9794-bb250a6c5653","ios":"levelo://app?vid=187b0a7b-e256-4c19-9794-bb250a6c5653"},"vehicle_type_id":"4","last_reported":1749546723,"current_range_meters":15200,"station_id":"","pricing_plan_id":"cebpf4jnsgd1na2vs0mg"},{"bike_id":"22825dbd-00bb-4d29-ad1e-975cb4757cac","system_id":"levelo_inurba_marseille","lat":43.29007,"lon":5.35608,"is_reserved":false,"is_disabled":false,"rental_uris":{"android":"levelo://app?vid=22825dbd-00bb-4d29-ad1e-975cb4757cac","ios":"levelo://app?vid=22825dbd-00bb-4d29-ad1e-975cb4757cac"},"vehicle_type_id":"4","last_reported":1749546723,"current_range_meters":16000,"station_id":"ce4bhb92rcd13ifvqen0","pricing_plan_id":"cebpf4jnsgd1na2vs0mg"},{"bike_id":"c30dbedc-c866-492b-a092-32c1ee0c1f22","system_id":"levelo_inurba_marseille","lat":43.29541,"lon":5.38539,"is_reserved":false,"is_disabled":true,"rental_uris":{"android":"levelo://app?vid=c30dbedc-c866-492b-a092-32c1ee0c1f22","ios":"levelo://app?vid=c30dbedc-c866-492b-a092-32c1ee0c1f22"},"vehicle_type_id":"4","last_reported":1749546723,"current_range_meters":16000,"station_id":"ce4bgih2rcd13ifvqba0","pricing_plan_id":"cebpf4jnsgd1na2vs0mg"},{"bike_id":"456fd0fb-6b00-49e3-944b-55516afdf508","system_id":"levelo_inurba_marseille","lat":43.282641,"lon":5.350597,"is_reserved":false,"is_disabled":false,"rental_uris":{"android":"levelo://app?vid=456fd0fb-6b00-49e3-944b-55516afdf508","ios":"levelo://app?vid=456fd0fb-6b00-49e3-944b-55516afdf508"},"vehicle_type_id":"4","last_reported":1749546723,"current_range_meters":16000,"station_id":"ce4bhbp2rcd13ifvqerg","pricing_plan_id":"cebpf4jnsgd1na2vs0mg"},{"bike_id":"a7e979e5-7afa-4658-b3e7-2502946031d3","system_id":"levelo_inurba_marseille","lat":43.25467,"lon":5.42074,"is_reserved":false,"is_disabled":false,"rental_uris":{"android":"levelo://app?vid=a7e979e5-7afa-4658-b3e7-2502946031d3","ios":"levelo://app?vid=a7e979e5-7afa-4658-b3e7-2502946031d3"},"vehicle_type_id":"4","last_reported":1749546723,"current_range_meters":16000,"station_id":"","pricing_plan_id":"cebpf4jnsgd1na2vs0mg"},{"bike_id":"1e20f032-0f6a-40b2-ad29-e4d2225496fa","system_id":"levelo_inurba_marseille","lat":43.30296,"lon":5.37075,"is_reserved":false,"is_disabled":false,"rental_uris":{"android":"levelo://app?vid=1e20f032-0f6a-40b2-ad29-e4d2225496fa","ios":"levelo://app?vid=1e20f032-0f6a-40b2-ad29-e4d2225496fa"},"vehicle_type_id":"4","last_reported":1749546723,"current_range_meters":16000,"station_id":"","pricing_plan_id":"cebpf4jnsgd1na2vs0mg"},{"bike_id":"abcd2dc9-4396-440f-85b3-9d9064401860","system_id":"levelo_inurba_marseille","lat":43.31313,"lon":5.36805,"is_reserved":false,"is_disabled":false,"rental_uris":{"android":"levelo://app?vid=abcd2dc9-4396-440f-85b3-9d9064401860","ios":"levelo://app?vid=abcd2dc9-4396-440f-85b3-9d9064401860"},"vehicle_type_id":"4","last_reported":1749546723,"current_range_meters":16000,"station_id":"","pricing_plan_id":"cebpf4jnsgd1na2vs0mg"},{"bike_id":"8d40b566-02c8-4dfb-ae5f-53cce8dc604c","system_id":"levelo_inurba_marseille","lat":43.281523,"lon":5.426397,"is_reserved":false,"is_disabled":false,"rental_uris":{"android":"levelo://app?vid=8d40b566-02c8-4dfb-ae5f-53cce8dc604c","ios":"levelo://app?vid=8d40b566-02c8-4dfb-ae5f-53cce8dc604c"},"vehicle_type_id":"4","last_reported":1749546723,"current_range_meters":16000,"station_id":"ce4bhnh2rcd13ifvqgug","pricing_plan_id":"cebpf4jnsgd1na2vs0mg"},{"bike_id":"89c20e90-6d33-4b21-a313-2ad127172117","system_id":"levelo_inurba_marseille","lat":43.26194,"lon":5.37453,"is_reserved":false,"is_disabled":false,"rental_uris":{"android":"levelo://app?vid=89c20e90-6d33-4b21-a313-2ad127172117","ios":"levelo://app?vid=89c20e90-6d33-4b21-a313-2ad127172117"},"vehicle_type_id":"4","last_reported":1749546723,"current_range_meters":16400,"station_id":"ce4bhgp2rcd13ifvqfc0","pricing_plan_id":"cebpf4jnsgd1na2vs0mg"},{"bike_id":"d61cd136-3af0-4370-afb9-4fce757a84f8","system_id":"levelo_inurba_marseille","lat":43.29887,"lon":5.43681,"is_reserved":false,"is_disabled":false,"rental_uris":{"android":"levelo://app?vid=d61cd136-3af0-4370-afb9-4fce757a84f8","ios":"levelo://app?vid=d61cd136-3af0-4370-afb9-4fce757a84f8"},"vehicle_type_id":"4","last_reported":1749546723,"current_range_meters":16400,"station_id":"ce4bhpp2rcd13ifvqhfg","pricing_plan_id":"cebpf4jnsgd1na2vs0mg"},{"bike_id":"cf519ebf-4b6e-425e-9767-bf7c3dbc9e5e","system_id":"levelo_inurba_marseille","lat":43.29081,"lon":5.3716,"is_reserved":false,"is_disabled":false,"rental_uris":{"android":"levelo://app?vid=cf519ebf-4b6e-425e-9767-bf7c3dbc9e5e","ios":"levelo://app?vid=cf519ebf-4b6e-425e-9767-bf7c3dbc9e5e"},"vehicle_type_id":"4","last_reported":1749546723,"current_range_meters":16000,"station_id":"ce4bh5p2rcd13ifvqe4g","pricing_plan_id":"cebpf4jnsgd1na2vs0mg"},{"bike_id":"557104e5-12ad-4811-8d87-d8392375329d","system_id":"levelo_inurba_marseille","lat":43.28268,"lon":5.35077,"is_reserved":false,"is_disabled":false,"rental_uris":{"android":"levelo://app?vid=557104e5-12ad-4811-8d87-d8392375329d","ios":"levelo://app?vid=557104e5-12ad-4811-8d87-d8392375329d"},"vehicle_type_id":"4","last_reported":1749546723,"current_range_meters":16400,"station_id":"ce4bhbp2rcd13ifvqerg","pricing_plan_id":"cebpf4jnsgd1na2vs0mg"},{"bike_id":"fad9b98f-1bfd-41b0-be76-c725e485d072","system_id":"levelo_inurba_marseille","lat":43.21196,"lon":5.35065,"is_reserved":false,"is_disabled":false,"rental_uris":{"android":"levelo://app?vid=fad9b98f-1bfd-41b0-be76-c725e485d072","ios":"levelo://app?vid=fad9b98f-1bfd-41b0-be76-c725e485d072"},"vehicle_type_id":"4","last_reported":1749546723,"current_range_meters":16400,"station_id":"st_cvj6sg6p6f1abm77japg","pricing_plan_id":"cebpf4jnsgd1na2vs0mg"},{"bike_id":"7e481483-c664-4a74-b716-d216d03a96ac","system_id":"levelo_inurba_marseille","lat":43.300615,"lon":5.399757,"is_reserved":false,"is_disabled":false,"rental_uris":{"android":"levelo://app?vid=7e481483-c664-4a74-b716-d216d03a96ac","ios":"levelo://app?vid=7e481483-c664-4a74-b716-d216d03a96ac"},"vehicle_type_id":"4","last_reported":1749546723,"current_range_meters":16400,"station_id":"ce4bghh2rcd13ifvqb60","pricing_plan_id":"cebpf4jnsgd1na2vs0mg"},{"bike_id":"f47be119-bfcb-4a6a-b442-d0ce0aaf9e3f","system_id":"levelo_inurba_marseille","lat":43.292554,"lon":5.409124,"is_reserved":false,"is_disabled":true,"rental_uris":{"android":"levelo://app?vid=f47be119-bfcb-4a6a-b442-d0ce0aaf9e3f","ios":"levelo://app?vid=f47be119-bfcb-4a6a-b442-d0ce0aaf9e3f"},"vehicle_type_id":"4","last_reported":1749546723,"current_range_meters":16400,"station_id":"ce4bh192rcd13ifvqdc0","pricing_plan_id":"cebpf4jnsgd1na2vs0mg"},{"bike_id":"36324dd2-9fd3-4219-b734-4311e8a76e78","system_id":"levelo_inurba_marseille","lat":43.292958,"lon":5.369161,"is_reserved":false,"is_disabled":false,"rental_uris":{"android":"levelo://app?vid=36324dd2-9fd3-4219-b734-4311e8a76e78","ios":"levelo://app?vid=36324dd2-9fd3-4219-b734-4311e8a76e78"},"vehicle_type_id":"4","last_reported":1749546723,"current_range_meters":16400,"station_id":"ce4bgi92rcd13ifvqb90","pricing_plan_id":"cebpf4jnsgd1na2vs0mg"},{"bike_id":"262903a9-22b9-4b2d-96c2-2e5dbd155090","system_id":"levelo_inurba_marseille","lat":43.32489,"lon":5.36559,"is_reserved":false,"is_disabled":false,"rental_uris":{"android":"levelo://app?vid=262903a9-22b9-4b2d-96c2-2e5dbd155090","ios":"levelo://app?vid=262903a9-22b9-4b2d-96c2-2e5dbd155090"},"vehicle_type_id":"4","last_reported":1749546723,"current_range_meters":16800,"station_id":"ce4bhs12rcd13ifvqhvg","pricing_plan_id":"cebpf4jnsgd1na2vs0mg"},{"bike_id":"2fba4263-3889-4a12-b2e8-665d585e72c2","system_id":"levelo_inurba_marseille","lat":43.28268,"lon":5.35059,"is_reserved":false,"is_disabled":false,"rental_uris":{"android":"levelo://app?vid=2fba4263-3889-4a12-b2e8-665d585e72c2","ios":"levelo://app?vid=2fba4263-3889-4a12-b2e8-665d585e72c2"},"vehicle_type_id":"4","last_reported":1749546723,"current_range_meters":16800,"station_id":"ce4bhbp2rcd13ifvqerg","pricing_plan_id":"cebpf4jnsgd1na2vs0mg"},{"bike_id":"31f59fe9-74d7-4837-aa17-6c24a16b32b6","system_id":"levelo_inurba_marseille","lat":43.23183,"lon":5.39984,"is_reserved":false,"is_disabled":false,"rental_uris":{"android":"levelo://app?vid=31f59fe9-74d7-4837-aa17-6c24a16b32b6","ios":"levelo://app?vid=31f59fe9-74d7-4837-aa17-6c24a16b32b6"},"vehicle_type_id":"4","last_reported":1749546723,"current_range_meters":16800,"station_id":"ce4bhn12rcd13ifvqgqg","pricing_plan_id":"cebpf4jnsgd1na2vs0mg"},{"bike_id":"84f5a926-1dd6-4535-b647-2764ce0ca103","system_id":"levelo_inurba_marseille","lat":43.32113,"lon":5.36783,"is_reserved":false,"is_disabled":false,"rental_uris":{"android":"levelo://app?vid=84f5a926-1dd6-4535-b647-2764ce0ca103","ios":"levelo://app?vid=84f5a926-1dd6-4535-b647-2764ce0ca103"},"vehicle_type_id":"4","last_reported":1749546723,"current_range_meters":16800,"station_id":"ce4bhrh2rcd13ifvqhug","pricing_plan_id":"cebpf4jnsgd1na2vs0mg"},{"bike_id":"002ad4e8-6140-4bdd-b14b-f38ee707447e","system_id":"levelo_inurba_marseille","lat":43.30987,"lon":5.38578,"is_reserved":false,"is_disabled":false,"rental_uris":{"android":"levelo://app?vid=002ad4e8-6140-4bdd-b14b-f38ee707447e","ios":"levelo://app?vid=002ad4e8-6140-4bdd-b14b-f38ee707447e"},"vehicle_type_id":"4","last_reported":1749546723,"current_range_meters":16800,"station_id":"","pricing_plan_id":"cebpf4jnsgd1na2vs0mg"},{"bike_id":"66bfda14-7ebe-400d-a3a8-40b2e6f58cb4","system_id":"levelo_inurba_marseille","lat":43.337444,"lon":5.374475,"is_reserved":false,"is_disabled":false,"rental_uris":{"android":"levelo://app?vid=66bfda14-7ebe-400d-a3a8-40b2e6f58cb4","ios":"levelo://app?vid=66bfda14-7ebe-400d-a3a8-40b2e6f58cb4"},"vehicle_type_id":"4","last_reported":1749546723,"current_range_meters":16800,"station_id":"","pricing_plan_id":"cebpf4jnsgd1na2vs0mg"},{"bike_id":"38f3574c-6050-4f7b-b824-25609fb7b634","system_id":"levelo_inurba_marseille","lat":43.29977,"lon":5.38492,"is_reserved":false,"is_disabled":true,"rental_uris":{"android":"levelo://app?vid=38f3574c-6050-4f7b-b824-25609fb7b634","ios":"levelo://app?vid=38f3574c-6050-4f7b-b824-25609fb7b634"},"vehicle_type_id":"4","last_reported":1749546723,"current_range_meters":16800,"station_id":"ce4bgj92rcd13ifvqbd0","pricing_plan_id":"cebpf4jnsgd1na2vs0mg"},{"bike_id":"7f7a5694-8b5b-48f8-a362-c1111a83a96c","system_id":"levelo_inurba_marseille","lat":43.30805,"lon":5.38155,"is_reserved":false,"is_disabled":false,"rental_uris":{"android":"levelo://app?vid=7f7a5694-8b5b-48f8-a362-c1111a83a96c","ios":"levelo://app?vid=7f7a5694-8b5b-48f8-a362-c1111a83a96c"},"vehicle_type_id":"4","last_reported":1749546723,"current_range_meters":17200,"station_id":"ce4bgt12rcd13ifvqce0","pricing_plan_id":"cebpf4jnsgd1na2vs0mg"},{"bike_id":"f86c871e-5691-4061-a487-aa146b09dc41","system_id":"levelo_inurba_marseille","lat":43.28411,"lon":5.34988,"is_reserved":false,"is_disabled":false,"rental_uris":{"android":"levelo://app?vid=f86c871e-5691-4061-a487-aa146b09dc41","ios":"levelo://app?vid=f86c871e-5691-4061-a487-aa146b09dc41"},"vehicle_type_id":"4","last_reported":1749546723,"current_range_meters":17200,"station_id":"ce4bhbh2rcd13ifvqepg","pricing_plan_id":"cebpf4jnsgd1na2vs0mg"},{"bike_id":"e61a5abb-c900-4d6e-8217-a46fab06e9f4","system_id":"levelo_inurba_marseille","lat":43.32991,"lon":5.39452,"is_reserved":false,"is_disabled":false,"rental_uris":{"android":"levelo://app?vid=e61a5abb-c900-4d6e-8217-a46fab06e9f4","ios":"levelo://app?vid=e61a5abb-c900-4d6e-8217-a46fab06e9f4"},"vehicle_type_id":"4","last_reported":1749546723,"current_range_meters":17600,"station_id":"","pricing_plan_id":"cebpf4jnsgd1na2vs0mg"},{"bike_id":"0abd7fe4-085c-4c8b-a77f-174bd23fa865","system_id":"levelo_inurba_marseille","lat":43.309472,"lon":5.390424,"is_reserved":false,"is_disabled":false,"rental_uris":{"android":"levelo://app?vid=0abd7fe4-085c-4c8b-a77f-174bd23fa865","ios":"levelo://app?vid=0abd7fe4-085c-4c8b-a77f-174bd23fa865"},"vehicle_type_id":"4","last_reported":1749546723,"current_range_meters":17600,"station_id":"ce4bgup2rcd13ifvqco0","pricing_plan_id":"cebpf4jnsgd1na2vs0mg"},{"bike_id":"64c1f8b6-0907-40f1-a7be-f1f2211911aa","system_id":"levelo_inurba_marseille","lat":43.24665,"lon":5.38164,"is_reserved":false,"is_disabled":false,"rental_uris":{"android":"levelo://app?vid=64c1f8b6-0907-40f1-a7be-f1f2211911aa","ios":"levelo://app?vid=64c1f8b6-0907-40f1-a7be-f1f2211911aa"},"vehicle_type_id":"4","last_reported":1749546723,"current_range_meters":17600,"station_id":"ce4bhih2rcd13ifvqfr0","pricing_plan_id":"cebpf4jnsgd1na2vs0mg"},{"bike_id":"787e4fac-022a-42a6-a25c-cb35361bbd97","system_id":"levelo_inurba_marseille","lat":43.29188,"lon":5.35783,"is_reserved":false,"is_disabled":false,"rental_uris":{"android":"levelo://app?vid=787e4fac-022a-42a6-a25c-cb35361bbd97","ios":"levelo://app?vid=787e4fac-022a-42a6-a25c-cb35361bbd97"},"vehicle_type_id":"4","last_reported":1749546723,"current_range_meters":17600,"station_id":"ce4bhb12rcd13ifvqel0","pricing_plan_id":"cebpf4jnsgd1na2vs0mg"},{"bike_id":"2dfb1439-d102-48c6-8268-1b39c5e28a08","system_id":"levelo_inurba_marseille","lat":43.29299,"lon":5.37455,"is_reserved":false,"is_disabled":false,"rental_uris":{"android":"levelo://app?vid=2dfb1439-d102-48c6-8268-1b39c5e28a08","ios":"levelo://app?vid=2dfb1439-d102-48c6-8268-1b39c5e28a08"},"vehicle_type_id":"4","last_reported":1749546723,"current_range_meters":17600,"station_id":"ce4bgi12rcd13ifvqb70","pricing_plan_id":"cebpf4jnsgd1na2vs0mg"},{"bike_id":"f800f7dd-3e67-4e35-8721-4206b2ba51ef","system_id":"levelo_inurba_marseille","lat":43.30963,"lon":5.39034,"is_reserved":false,"is_disabled":false,"rental_uris":{"android":"levelo://app?vid=f800f7dd-3e67-4e35-8721-4206b2ba51ef","ios":"levelo://app?vid=f800f7dd-3e67-4e35-8721-4206b2ba51ef"},"vehicle_type_id":"4","last_reported":1749546723,"current_range_meters":17600,"station_id":"ce4bgup2rcd13ifvqco0","pricing_plan_id":"cebpf4jnsgd1na2vs0mg"},{"bike_id":"74270b3d-89a4-4e3c-976c-62373a4ee1b7","system_id":"levelo_inurba_marseille","lat":43.30484,"lon":5.36506,"is_reserved":false,"is_disabled":false,"rental_uris":{"android":"levelo://app?vid=74270b3d-89a4-4e3c-976c-62373a4ee1b7","ios":"levelo://app?vid=74270b3d-89a4-4e3c-976c-62373a4ee1b7"},"vehicle_type_id":"4","last_reported":1749546723,"current_range_meters":18000,"station_id":"","pricing_plan_id":"cebpf4jnsgd1na2vs0mg"},{"bike_id":"7722e534-bd57-43ff-88e0-47a2e003863a","system_id":"levelo_inurba_marseille","lat":43.2622,"lon":5.37437,"is_reserved":false,"is_disabled":false,"rental_uris":{"android":"levelo://app?vid=7722e534-bd57-43ff-88e0-47a2e003863a","ios":"levelo://app?vid=7722e534-bd57-43ff-88e0-47a2e003863a"},"vehicle_type_id":"4","last_reported":1749546723,"current_range_meters":18000,"station_id":"ce4bhgp2rcd13ifvqfc0","pricing_plan_id":"cebpf4jnsgd1na2vs0mg"},{"bike_id":"fa185753-3794-480a-a16f-f1cd2396c7b0","system_id":"levelo_inurba_marseille","lat":43.31361,"lon":5.36698,"is_reserved":false,"is_disabled":false,"rental_uris":{"android":"levelo://app?vid=fa185753-3794-480a-a16f-f1cd2396c7b0","ios":"levelo://app?vid=fa185753-3794-480a-a16f-f1cd2396c7b0"},"vehicle_type_id":"4","last_reported":1749546723,"current_range_meters":18000,"station_id":"ce4bgr92rcd13ifvqc6g","pricing_plan_id":"cebpf4jnsgd1na2vs0mg"},{"bike_id":"0bbf31e5-a70a-4b17-9d87-301c462078d7","system_id":"levelo_inurba_marseille","lat":43.29758,"lon":5.37662,"is_reserved":false,"is_disabled":false,"rental_uris":{"android":"levelo://app?vid=0bbf31e5-a70a-4b17-9d87-301c462078d7","ios":"levelo://app?vid=0bbf31e5-a70a-4b17-9d87-301c462078d7"},"vehicle_type_id":"4","last_reported":1749546723,"current_range_meters":18000,"station_id":"ce4bgkh2rcd13ifvqbl0","pricing_plan_id":"cebpf4jnsgd1na2vs0mg"},{"bike_id":"d3bb4de2-759b-4fe9-9525-da9f14e62788","system_id":"levelo_inurba_marseille","lat":43.25583,"lon":5.38236,"is_reserved":false,"is_disabled":false,"rental_uris":{"android":"levelo://app?vid=d3bb4de2-759b-4fe9-9525-da9f14e62788","ios":"levelo://app?vid=d3bb4de2-759b-4fe9-9525-da9f14e62788"},"vehicle_type_id":"4","last_reported":1749546723,"current_range_meters":18000,"station_id":"ce4bhih2rcd13ifvqfs0","pricing_plan_id":"cebpf4jnsgd1na2vs0mg"},{"bike_id":"5d3016e0-312c-4b72-8484-4c5d7ec442ef","system_id":"levelo_inurba_marseille","lat":43.36674,"lon":5.33998,"is_reserved":false,"is_disabled":true,"rental_uris":{"android":"levelo://app?vid=5d3016e0-312c-4b72-8484-4c5d7ec442ef","ios":"levelo://app?vid=5d3016e0-312c-4b72-8484-4c5d7ec442ef"},"vehicle_type_id":"4","last_reported":1749546723,"current_range_meters":18000,"station_id":"","pricing_plan_id":"cebpf4jnsgd1na2vs0mg"},{"bike_id":"4497bc7b-bd64-47d5-92de-a3021c6fff2f","system_id":"levelo_inurba_marseille","lat":43.32471,"lon":5.36506,"is_reserved":false,"is_disabled":false,"rental_uris":{"android":"levelo://app?vid=4497bc7b-bd64-47d5-92de-a3021c6fff2f","ios":"levelo://app?vid=4497bc7b-bd64-47d5-92de-a3021c6fff2f"},"vehicle_type_id":"4","last_reported":1749546723,"current_range_meters":18000,"station_id":"ce4bhs12rcd13ifvqhvg","pricing_plan_id":"cebpf4jnsgd1na2vs0mg"},{"bike_id":"f6a61804-330d-4f30-8fcc-2bb88b5a7142","system_id":"levelo_inurba_marseille","lat":43.25721,"lon":5.41056,"is_reserved":false,"is_disabled":false,"rental_uris":{"android":"levelo://app?vid=f6a61804-330d-4f30-8fcc-2bb88b5a7142","ios":"levelo://app?vid=f6a61804-330d-4f30-8fcc-2bb88b5a7142"},"vehicle_type_id":"4","last_reported":1749546723,"current_range_meters":18000,"station_id":"ce4bhkp2rcd13ifvqgd0","pricing_plan_id":"cebpf4jnsgd1na2vs0mg"},{"bike_id":"1acfb620-cad7-48c0-8901-d7a5b74a5b65","system_id":"levelo_inurba_marseille","lat":43.33751,"lon":5.37456,"is_reserved":false,"is_disabled":false,"rental_uris":{"android":"levelo://app?vid=1acfb620-cad7-48c0-8901-d7a5b74a5b65","ios":"levelo://app?vid=1acfb620-cad7-48c0-8901-d7a5b74a5b65"},"vehicle_type_id":"4","last_reported":1749546723,"current_range_meters":18000,"station_id":"","pricing_plan_id":"cebpf4jnsgd1na2vs0mg"},{"bike_id":"f53bc08c-3129-4fc3-9174-862ec7b43c8b","system_id":"levelo_inurba_marseille","lat":43.28275,"lon":5.35063,"is_reserved":false,"is_disabled":false,"rental_uris":{"android":"levelo://app?vid=f53bc08c-3129-4fc3-9174-862ec7b43c8b","ios":"levelo://app?vid=f53bc08c-3129-4fc3-9174-862ec7b43c8b"},"vehicle_type_id":"4","last_reported":1749546723,"current_range_meters":18800,"station_id":"ce4bhbp2rcd13ifvqerg","pricing_plan_id":"cebpf4jnsgd1na2vs0mg"},{"bike_id":"72c1ffbe-b6ca-406d-960d-a9616882f308","system_id":"levelo_inurba_marseille","lat":43.241776,"lon":5.397281,"is_reserved":false,"is_disabled":false,"rental_uris":{"android":"levelo://app?vid=72c1ffbe-b6ca-406d-960d-a9616882f308","ios":"levelo://app?vid=72c1ffbe-b6ca-406d-960d-a9616882f308"},"vehicle_type_id":"4","last_reported":1749546723,"current_range_meters":18800,"station_id":"ce4bhn12rcd13ifvqgpg","pricing_plan_id":"cebpf4jnsgd1na2vs0mg"},{"bike_id":"cff174c6-6ba3-44b0-a9d2-aee572f9c64a","system_id":"levelo_inurba_marseille","lat":43.29719,"lon":5.3612,"is_reserved":false,"is_disabled":true,"rental_uris":{"android":"levelo://app?vid=cff174c6-6ba3-44b0-a9d2-aee572f9c64a","ios":"levelo://app?vid=cff174c6-6ba3-44b0-a9d2-aee572f9c64a"},"vehicle_type_id":"4","last_reported":1749546723,"current_range_meters":18800,"station_id":"","pricing_plan_id":"cebpf4jnsgd1na2vs0mg"},{"bike_id":"65a3b701-666c-4909-a49b-6ba55c8bc584","system_id":"levelo_inurba_marseille","lat":43.25499,"lon":5.37651,"is_reserved":false,"is_disabled":false,"rental_uris":{"android":"levelo://app?vid=65a3b701-666c-4909-a49b-6ba55c8bc584","ios":"levelo://app?vid=65a3b701-666c-4909-a49b-6ba55c8bc584"},"vehicle_type_id":"4","last_reported":1749546723,"current_range_meters":19200,"station_id":"ce4bhh12rcd13ifvqff0","pricing_plan_id":"cebpf4jnsgd1na2vs0mg"},{"bike_id":"0a61a83d-30f6-461d-afb3-c145799620b8","system_id":"levelo_inurba_marseille","lat":43.32492,"lon":5.36548,"is_reserved":false,"is_disabled":false,"rental_uris":{"android":"levelo://app?vid=0a61a83d-30f6-461d-afb3-c145799620b8","ios":"levelo://app?vid=0a61a83d-30f6-461d-afb3-c145799620b8"},"vehicle_type_id":"4","last_reported":1749546723,"current_range_meters":19200,"station_id":"ce4bhs12rcd13ifvqhvg","pricing_plan_id":"cebpf4jnsgd1na2vs0mg"},{"bike_id":"57656fed-84ae-496a-bb1e-270a341ff568","system_id":"levelo_inurba_marseille","lat":43.26558,"lon":5.37289,"is_reserved":false,"is_disabled":false,"rental_uris":{"android":"levelo://app?vid=57656fed-84ae-496a-bb1e-270a341ff568","ios":"levelo://app?vid=57656fed-84ae-496a-bb1e-270a341ff568"},"vehicle_type_id":"4","last_reported":1749546723,"current_range_meters":19200,"station_id":"ce4bhg12rcd13ifvqf70","pricing_plan_id":"cebpf4jnsgd1na2vs0mg"},{"bike_id":"c24128ee-cd14-41fb-849a-bbed2f9cd4b1","system_id":"levelo_inurba_marseille","lat":43.31481,"lon":5.37311,"is_reserved":false,"is_disabled":false,"rental_uris":{"android":"levelo://app?vid=c24128ee-cd14-41fb-849a-bbed2f9cd4b1","ios":"levelo://app?vid=c24128ee-cd14-41fb-849a-bbed2f9cd4b1"},"vehicle_type_id":"4","last_reported":1749546723,"current_range_meters":19200,"station_id":"ce4bgt12rcd13ifvqcd0","pricing_plan_id":"cebpf4jnsgd1na2vs0mg"},{"bike_id":"b70d7916-062b-4bc8-aa3b-dad0da303d25","system_id":"levelo_inurba_marseille","lat":43.29268,"lon":5.36847,"is_reserved":false,"is_disabled":false,"rental_uris":{"android":"levelo://app?vid=b70d7916-062b-4bc8-aa3b-dad0da303d25","ios":"levelo://app?vid=b70d7916-062b-4bc8-aa3b-dad0da303d25"},"vehicle_type_id":"4","last_reported":1749546723,"current_range_meters":19200,"station_id":"ce4bhbp2rcd13ifvqesg","pricing_plan_id":"cebpf4jnsgd1na2vs0mg"},{"bike_id":"035e1f3a-d3d4-4c3f-ba01-23ba92700bc3","system_id":"levelo_inurba_marseille","lat":43.30948,"lon":5.39037,"is_reserved":false,"is_disabled":false,"rental_uris":{"android":"levelo://app?vid=035e1f3a-d3d4-4c3f-ba01-23ba92700bc3","ios":"levelo://app?vid=035e1f3a-d3d4-4c3f-ba01-23ba92700bc3"},"vehicle_type_id":"4","last_reported":1749546723,"current_range_meters":19200,"station_id":"ce4bgup2rcd13ifvqco0","pricing_plan_id":"cebpf4jnsgd1na2vs0mg"},{"bike_id":"514dae38-668e-4d4f-8a6c-e53dd4e1c4fe","system_id":"levelo_inurba_marseille","lat":43.25956,"lon":5.40894,"is_reserved":false,"is_disabled":false,"rental_uris":{"android":"levelo://app?vid=514dae38-668e-4d4f-8a6c-e53dd4e1c4fe","ios":"levelo://app?vid=514dae38-668e-4d4f-8a6c-e53dd4e1c4fe"},"vehicle_type_id":"4","last_reported":1749546723,"current_range_meters":19200,"station_id":"ce4bhm92rcd13ifvqglg","pricing_plan_id":"cebpf4jnsgd1na2vs0mg"},{"bike_id":"821b9850-5239-4189-a2b1-e5322e55f75e","system_id":"levelo_inurba_marseille","lat":43.31289,"lon":5.36714,"is_reserved":false,"is_disabled":false,"rental_uris":{"android":"levelo://app?vid=821b9850-5239-4189-a2b1-e5322e55f75e","ios":"levelo://app?vid=821b9850-5239-4189-a2b1-e5322e55f75e"},"vehicle_type_id":"4","last_reported":1749546723,"current_range_meters":19200,"station_id":"","pricing_plan_id":"cebpf4jnsgd1na2vs0mg"},{"bike_id":"61c3047c-933c-413d-91fb-0a1b2df9ed6e","system_id":"levelo_inurba_marseille","lat":43.29937,"lon":5.36552,"is_reserved":false,"is_disabled":false,"rental_uris":{"android":"levelo://app?vid=61c3047c-933c-413d-91fb-0a1b2df9ed6e","ios":"levelo://app?vid=61c3047c-933c-413d-91fb-0a1b2df9ed6e"},"vehicle_type_id":"4","last_reported":1749546723,"current_range_meters":19200,"station_id":"ce4bgm92rcd13ifvqbr0","pricing_plan_id":"cebpf4jnsgd1na2vs0mg"},{"bike_id":"314bac2c-e47f-46cd-afcd-53cd84a7d142","system_id":"levelo_inurba_marseille","lat":43.27635,"lon":5.36109,"is_reserved":false,"is_disabled":true,"rental_uris":{"android":"levelo://app?vid=314bac2c-e47f-46cd-afcd-53cd84a7d142","ios":"levelo://app?vid=314bac2c-e47f-46cd-afcd-53cd84a7d142"},"vehicle_type_id":"4","last_reported":1749546723,"current_range_meters":19200,"station_id":"ce4bgj92rcd13ifvqbe0","pricing_plan_id":"cebpf4jnsgd1na2vs0mg"},{"bike_id":"e93073ab-c17c-467a-b540-f93334fc1a8a","system_id":"levelo_inurba_marseille","lat":43.211901,"lon":5.350734,"is_reserved":false,"is_disabled":true,"rental_uris":{"android":"levelo://app?vid=e93073ab-c17c-467a-b540-f93334fc1a8a","ios":"levelo://app?vid=e93073ab-c17c-467a-b540-f93334fc1a8a"},"vehicle_type_id":"4","last_reported":1749546723,"current_range_meters":19200,"station_id":"","pricing_plan_id":"cebpf4jnsgd1na2vs0mg"},{"bike_id":"0c2cd831-dce1-4444-b808-d346232c5b6b","system_id":"levelo_inurba_marseille","lat":43.26213,"lon":5.37445,"is_reserved":false,"is_disabled":false,"rental_uris":{"android":"levelo://app?vid=0c2cd831-dce1-4444-b808-d346232c5b6b","ios":"levelo://app?vid=0c2cd831-dce1-4444-b808-d346232c5b6b"},"vehicle_type_id":"4","last_reported":1749546723,"current_range_meters":19600,"station_id":"ce4bhgp2rcd13ifvqfc0","pricing_plan_id":"cebpf4jnsgd1na2vs0mg"},{"bike_id":"9b1eb0f6-6827-4685-b354-0317017c2855","system_id":"levelo_inurba_marseille","lat":43.29049,"lon":5.37566,"is_reserved":false,"is_disabled":false,"rental_uris":{"android":"levelo://app?vid=9b1eb0f6-6827-4685-b354-0317017c2855","ios":"levelo://app?vid=9b1eb0f6-6827-4685-b354-0317017c2855"},"vehicle_type_id":"4","last_reported":1749546723,"current_range_meters":19600,"station_id":"ce4bh692rcd13ifvqe90","pricing_plan_id":"cebpf4jnsgd1na2vs0mg"},{"bike_id":"9fed7935-0e05-4611-8412-b176c6a74123","system_id":"levelo_inurba_marseille","lat":43.317002,"lon":5.404636,"is_reserved":false,"is_disabled":false,"rental_uris":{"android":"levelo://app?vid=9fed7935-0e05-4611-8412-b176c6a74123","ios":"levelo://app?vid=9fed7935-0e05-4611-8412-b176c6a74123"},"vehicle_type_id":"4","last_reported":1749546723,"current_range_meters":19600,"station_id":"ce4bh012rcd13ifvqd00","pricing_plan_id":"cebpf4jnsgd1na2vs0mg"},{"bike_id":"797850f1-ed08-48e1-b2d1-4b70d9d26537","system_id":"levelo_inurba_marseille","lat":43.30533,"lon":5.36713,"is_reserved":false,"is_disabled":false,"rental_uris":{"android":"levelo://app?vid=797850f1-ed08-48e1-b2d1-4b70d9d26537","ios":"levelo://app?vid=797850f1-ed08-48e1-b2d1-4b70d9d26537"},"vehicle_type_id":"4","last_reported":1749546723,"current_range_meters":19600,"station_id":"ce4bgrp2rcd13ifvqc9g","pricing_plan_id":"cebpf4jnsgd1na2vs0mg"},{"bike_id":"63e40138-141f-4768-876a-d09ed0ddb6e8","system_id":"levelo_inurba_marseille","lat":43.28618,"lon":5.35111,"is_reserved":false,"is_disabled":false,"rental_uris":{"android":"levelo://app?vid=63e40138-141f-4768-876a-d09ed0ddb6e8","ios":"levelo://app?vid=63e40138-141f-4768-876a-d09ed0ddb6e8"},"vehicle_type_id":"4","last_reported":1749546723,"current_range_meters":19600,"station_id":"ce4bhch2rcd13ifvqeug","pricing_plan_id":"cebpf4jnsgd1na2vs0mg"},{"bike_id":"4cb78e2c-8e63-4812-81ef-1980f9de8b37","system_id":"levelo_inurba_marseille","lat":43.32394,"lon":5.38929,"is_reserved":false,"is_disabled":false,"rental_uris":{"android":"levelo://app?vid=4cb78e2c-8e63-4812-81ef-1980f9de8b37","ios":"levelo://app?vid=4cb78e2c-8e63-4812-81ef-1980f9de8b37"},"vehicle_type_id":"4","last_reported":1749546723,"current_range_meters":19600,"station_id":"ce4bhqp2rcd13ifvqhog","pricing_plan_id":"cebpf4jnsgd1na2vs0mg"},{"bike_id":"1a22e168-8710-40d1-b452-e1b78d1c1291","system_id":"levelo_inurba_marseille","lat":43.30528,"lon":5.36549,"is_reserved":false,"is_disabled":false,"rental_uris":{"android":"levelo://app?vid=1a22e168-8710-40d1-b452-e1b78d1c1291","ios":"levelo://app?vid=1a22e168-8710-40d1-b452-e1b78d1c1291"},"vehicle_type_id":"4","last_reported":1749546723,"current_range_meters":19600,"station_id":"ce4bgs12rcd13ifvqcag","pricing_plan_id":"cebpf4jnsgd1na2vs0mg"},{"bike_id":"a2421370-e442-436f-a98a-844d44299694","system_id":"levelo_inurba_marseille","lat":43.32358,"lon":5.3675,"is_reserved":false,"is_disabled":false,"rental_uris":{"android":"levelo://app?vid=a2421370-e442-436f-a98a-844d44299694","ios":"levelo://app?vid=a2421370-e442-436f-a98a-844d44299694"},"vehicle_type_id":"4","last_reported":1749546723,"current_range_meters":20000,"station_id":"ce4bhsh2rcd13ifvqi2g","pricing_plan_id":"cebpf4jnsgd1na2vs0mg"},{"bike_id":"8bdd603f-2e2b-4b21-9b8a-8ccc725d6316","system_id":"levelo_inurba_marseille","lat":43.28263,"lon":5.35061,"is_reserved":false,"is_disabled":false,"rental_uris":{"android":"levelo://app?vid=8bdd603f-2e2b-4b21-9b8a-8ccc725d6316","ios":"levelo://app?vid=8bdd603f-2e2b-4b21-9b8a-8ccc725d6316"},"vehicle_type_id":"4","last_reported":1749546723,"current_range_meters":20000,"station_id":"ce4bhbp2rcd13ifvqerg","pricing_plan_id":"cebpf4jnsgd1na2vs0mg"},{"bike_id":"d6005db3-520a-4475-a5f6-8ec57777fe80","system_id":"levelo_inurba_marseille","lat":43.32286,"lon":5.38275,"is_reserved":false,"is_disabled":false,"rental_uris":{"android":"levelo://app?vid=d6005db3-520a-4475-a5f6-8ec57777fe80","ios":"levelo://app?vid=d6005db3-520a-4475-a5f6-8ec57777fe80"},"vehicle_type_id":"4","last_reported":1749546723,"current_range_meters":20000,"station_id":"ce4bhr12rcd13ifvqhqg","pricing_plan_id":"cebpf4jnsgd1na2vs0mg"},{"bike_id":"32b0a7c2-1f42-4346-ae2f-5210dc629ddc","system_id":"levelo_inurba_marseille","lat":43.27055,"lon":5.40252,"is_reserved":false,"is_disabled":false,"rental_uris":{"android":"levelo://app?vid=32b0a7c2-1f42-4346-ae2f-5210dc629ddc","ios":"levelo://app?vid=32b0a7c2-1f42-4346-ae2f-5210dc629ddc"},"vehicle_type_id":"4","last_reported":1749546723,"current_range_meters":20000,"station_id":"ce4bhk92rcd13ifvqgc0","pricing_plan_id":"cebpf4jnsgd1na2vs0mg"},{"bike_id":"0509747e-8e83-44e0-a642-c1bc88d90254","system_id":"levelo_inurba_marseille","lat":43.2119,"lon":5.35066,"is_reserved":false,"is_disabled":false,"rental_uris":{"android":"levelo://app?vid=0509747e-8e83-44e0-a642-c1bc88d90254","ios":"levelo://app?vid=0509747e-8e83-44e0-a642-c1bc88d90254"},"vehicle_type_id":"4","last_reported":1749546723,"current_range_meters":20000,"station_id":"st_cvj6sg6p6f1abm77japg","pricing_plan_id":"cebpf4jnsgd1na2vs0mg"},{"bike_id":"03797e56-a0ad-462d-90ac-f7d3101dc4ba","system_id":"levelo_inurba_marseille","lat":43.34142,"lon":5.40899,"is_reserved":false,"is_disabled":false,"rental_uris":{"android":"levelo://app?vid=03797e56-a0ad-462d-90ac-f7d3101dc4ba","ios":"levelo://app?vid=03797e56-a0ad-462d-90ac-f7d3101dc4ba"},"vehicle_type_id":"4","last_reported":1749546723,"current_range_meters":20400,"station_id":"ce4bhqh2rcd13ifvqhlg","pricing_plan_id":"cebpf4jnsgd1na2vs0mg"},{"bike_id":"4f17250c-2427-4004-8f07-5bc7534e1c29","system_id":"levelo_inurba_marseille","lat":43.23204,"lon":5.39976,"is_reserved":false,"is_disabled":false,"rental_uris":{"android":"levelo://app?vid=4f17250c-2427-4004-8f07-5bc7534e1c29","ios":"levelo://app?vid=4f17250c-2427-4004-8f07-5bc7534e1c29"},"vehicle_type_id":"4","last_reported":1749546723,"current_range_meters":20400,"station_id":"ce4bhn12rcd13ifvqgqg","pricing_plan_id":"cebpf4jnsgd1na2vs0mg"},{"bike_id":"b9e75cef-2422-4bcf-a0b2-7723163fc367","system_id":"levelo_inurba_marseille","lat":43.30096,"lon":5.39055,"is_reserved":false,"is_disabled":false,"rental_uris":{"android":"levelo://app?vid=b9e75cef-2422-4bcf-a0b2-7723163fc367","ios":"levelo://app?vid=b9e75cef-2422-4bcf-a0b2-7723163fc367"},"vehicle_type_id":"4","last_reported":1749546723,"current_range_meters":20400,"station_id":"ce4bh192rcd13ifvqdb0","pricing_plan_id":"cebpf4jnsgd1na2vs0mg"},{"bike_id":"184f97e5-27c3-4c49-a973-ca3b6f3254c4","system_id":"levelo_inurba_marseille","lat":43.309493,"lon":5.39027,"is_reserved":false,"is_disabled":false,"rental_uris":{"android":"levelo://app?vid=184f97e5-27c3-4c49-a973-ca3b6f3254c4","ios":"levelo://app?vid=184f97e5-27c3-4c49-a973-ca3b6f3254c4"},"vehicle_type_id":"4","last_reported":1749546723,"current_range_meters":20400,"station_id":"ce4bgup2rcd13ifvqco0","pricing_plan_id":"cebpf4jnsgd1na2vs0mg"},{"bike_id":"4791d8c6-61ac-4062-9d0d-84d5cf0d80d7","system_id":"levelo_inurba_marseille","lat":43.26229,"lon":5.40456,"is_reserved":false,"is_disabled":false,"rental_uris":{"android":"levelo://app?vid=4791d8c6-61ac-4062-9d0d-84d5cf0d80d7","ios":"levelo://app?vid=4791d8c6-61ac-4062-9d0d-84d5cf0d80d7"},"vehicle_type_id":"4","last_reported":1749546723,"current_range_meters":20400,"station_id":"ce4bhmh2rcd13ifvqgmg","pricing_plan_id":"cebpf4jnsgd1na2vs0mg"},{"bike_id":"1e1f7885-7a89-42b3-8e2d-ad30c32fe4c3","system_id":"levelo_inurba_marseille","lat":43.29421,"lon":5.38607,"is_reserved":false,"is_disabled":true,"rental_uris":{"android":"levelo://app?vid=1e1f7885-7a89-42b3-8e2d-ad30c32fe4c3","ios":"levelo://app?vid=1e1f7885-7a89-42b3-8e2d-ad30c32fe4c3"},"vehicle_type_id":"4","last_reported":1749546723,"current_range_meters":20400,"station_id":"ce4bh2h2rcd13ifvqdh0","pricing_plan_id":"cebpf4jnsgd1na2vs0mg"},{"bike_id":"1504a779-d126-45e1-8fb7-cc15c40d16dd","system_id":"levelo_inurba_marseille","lat":43.30896,"lon":5.37175,"is_reserved":false,"is_disabled":false,"rental_uris":{"android":"levelo://app?vid=1504a779-d126-45e1-8fb7-cc15c40d16dd","ios":"levelo://app?vid=1504a779-d126-45e1-8fb7-cc15c40d16dd"},"vehicle_type_id":"4","last_reported":1749546723,"current_range_meters":20400,"station_id":"ce4bguh2rcd13ifvqckg","pricing_plan_id":"cebpf4jnsgd1na2vs0mg"},{"bike_id":"9cc9e211-06e0-4138-a603-3b74e5071fd9","system_id":"levelo_inurba_marseille","lat":43.27954,"lon":5.41034,"is_reserved":false,"is_disabled":false,"rental_uris":{"android":"levelo://app?vid=9cc9e211-06e0-4138-a603-3b74e5071fd9","ios":"levelo://app?vid=9cc9e211-06e0-4138-a603-3b74e5071fd9"},"vehicle_type_id":"4","last_reported":1749546723,"current_range_meters":20400,"station_id":"ce4bhnp2rcd13ifvqh0g","pricing_plan_id":"cebpf4jnsgd1na2vs0mg"},{"bike_id":"de6d3527-7f3c-4975-88dc-476495382ad2","system_id":"levelo_inurba_marseille","lat":43.30476,"lon":5.37887,"is_reserved":false,"is_disabled":false,"rental_uris":{"android":"levelo://app?vid=de6d3527-7f3c-4975-88dc-476495382ad2","ios":"levelo://app?vid=de6d3527-7f3c-4975-88dc-476495382ad2"},"vehicle_type_id":"4","last_reported":1749546723,"current_range_meters":20400,"station_id":"ce4bgup2rcd13ifvqcn0","pricing_plan_id":"cebpf4jnsgd1na2vs0mg"},{"bike_id":"300c4962-758c-4fd7-b0ad-24cbd142cc06","system_id":"levelo_inurba_marseille","lat":43.30184,"lon":5.3662,"is_reserved":false,"is_disabled":false,"rental_uris":{"android":"levelo://app?vid=300c4962-758c-4fd7-b0ad-24cbd142cc06","ios":"levelo://app?vid=300c4962-758c-4fd7-b0ad-24cbd142cc06"},"vehicle_type_id":"4","last_reported":1749546723,"current_range_meters":20400,"station_id":"ce4bgrh2rcd13ifvqc8g","pricing_plan_id":"cebpf4jnsgd1na2vs0mg"},{"bike_id":"df14e8f0-0918-4da6-a805-a2155daa06d2","system_id":"levelo_inurba_marseille","lat":43.32288,"lon":5.38272,"is_reserved":false,"is_disabled":false,"rental_uris":{"android":"levelo://app?vid=df14e8f0-0918-4da6-a805-a2155daa06d2","ios":"levelo://app?vid=df14e8f0-0918-4da6-a805-a2155daa06d2"},"vehicle_type_id":"4","last_reported":1749546723,"current_range_meters":20800,"station_id":"ce4bhr12rcd13ifvqhqg","pricing_plan_id":"cebpf4jnsgd1na2vs0mg"},{"bike_id":"29cbae4d-9156-4672-afea-ff71fab584f4","system_id":"levelo_inurba_marseille","lat":43.28669,"lon":5.36366,"is_reserved":false,"is_disabled":false,"rental_uris":{"android":"levelo://app?vid=29cbae4d-9156-4672-afea-ff71fab584f4","ios":"levelo://app?vid=29cbae4d-9156-4672-afea-ff71fab584f4"},"vehicle_type_id":"4","last_reported":1749546723,"current_range_meters":20800,"station_id":"ce4bhah2rcd13ifvqej0","pricing_plan_id":"cebpf4jnsgd1na2vs0mg"},{"bike_id":"f10adc7e-6a3a-4a5d-9515-dc52fefe2058","system_id":"levelo_inurba_marseille","lat":43.32343,"lon":5.36737,"is_reserved":false,"is_disabled":false,"rental_uris":{"android":"levelo://app?vid=f10adc7e-6a3a-4a5d-9515-dc52fefe2058","ios":"levelo://app?vid=f10adc7e-6a3a-4a5d-9515-dc52fefe2058"},"vehicle_type_id":"4","last_reported":1749546723,"current_range_meters":20800,"station_id":"ce4bhsh2rcd13ifvqi2g","pricing_plan_id":"cebpf4jnsgd1na2vs0mg"},{"bike_id":"cdca19e1-65d1-45f0-ab27-65b98beaee85","system_id":"levelo_inurba_marseille","lat":43.2944,"lon":5.39751,"is_reserved":false,"is_disabled":false,"rental_uris":{"android":"levelo://app?vid=cdca19e1-65d1-45f0-ab27-65b98beaee85","ios":"levelo://app?vid=cdca19e1-65d1-45f0-ab27-65b98beaee85"},"vehicle_type_id":"4","last_reported":1749546723,"current_range_meters":20400,"station_id":"ce4bh3h2rcd13ifvqdo0","pricing_plan_id":"cebpf4jnsgd1na2vs0mg"},{"bike_id":"e4adc4c4-5aca-42c6-8cbd-1b62e2d8d755","system_id":"levelo_inurba_marseille","lat":43.27057,"lon":5.40261,"is_reserved":false,"is_disabled":false,"rental_uris":{"android":"levelo://app?vid=e4adc4c4-5aca-42c6-8cbd-1b62e2d8d755","ios":"levelo://app?vid=e4adc4c4-5aca-42c6-8cbd-1b62e2d8d755"},"vehicle_type_id":"4","last_reported":1749546723,"current_range_meters":20800,"station_id":"ce4bhk92rcd13ifvqgc0","pricing_plan_id":"cebpf4jnsgd1na2vs0mg"},{"bike_id":"ab59550f-e004-4119-aa52-459aa9c162d5","system_id":"levelo_inurba_marseille","lat":43.31377,"lon":5.36683,"is_reserved":false,"is_disabled":false,"rental_uris":{"android":"levelo://app?vid=ab59550f-e004-4119-aa52-459aa9c162d5","ios":"levelo://app?vid=ab59550f-e004-4119-aa52-459aa9c162d5"},"vehicle_type_id":"4","last_reported":1749546723,"current_range_meters":21600,"station_id":"ce4bgr92rcd13ifvqc6g","pricing_plan_id":"cebpf4jnsgd1na2vs0mg"},{"bike_id":"4eada35f-a65e-4d4e-b60d-b88e9a624416","system_id":"levelo_inurba_marseille","lat":43.24386,"lon":5.37054,"is_reserved":false,"is_disabled":false,"rental_uris":{"android":"levelo://app?vid=4eada35f-a65e-4d4e-b60d-b88e9a624416","ios":"levelo://app?vid=4eada35f-a65e-4d4e-b60d-b88e9a624416"},"vehicle_type_id":"4","last_reported":1749546723,"current_range_meters":21600,"station_id":"ce4bhhh2rcd13ifvqfk0","pricing_plan_id":"cebpf4jnsgd1na2vs0mg"},{"bike_id":"31d3efa8-1173-4131-a274-cc0ea2ccd1bf","system_id":"levelo_inurba_marseille","lat":43.3056,"lon":5.3657,"is_reserved":false,"is_disabled":false,"rental_uris":{"android":"levelo://app?vid=31d3efa8-1173-4131-a274-cc0ea2ccd1bf","ios":"levelo://app?vid=31d3efa8-1173-4131-a274-cc0ea2ccd1bf"},"vehicle_type_id":"4","last_reported":1749546723,"current_range_meters":21600,"station_id":"ce4bgs12rcd13ifvqcag","pricing_plan_id":"cebpf4jnsgd1na2vs0mg"},{"bike_id":"a530e156-1f3a-4efb-bc71-33a33efbad32","system_id":"levelo_inurba_marseille","lat":43.25933,"lon":5.40907,"is_reserved":false,"is_disabled":false,"rental_uris":{"android":"levelo://app?vid=a530e156-1f3a-4efb-bc71-33a33efbad32","ios":"levelo://app?vid=a530e156-1f3a-4efb-bc71-33a33efbad32"},"vehicle_type_id":"4","last_reported":1749546723,"current_range_meters":21600,"station_id":"ce4bhm92rcd13ifvqglg","pricing_plan_id":"cebpf4jnsgd1na2vs0mg"},{"bike_id":"4ce0e76f-bb46-489f-8b5e-48a1adee1a98","system_id":"levelo_inurba_marseille","lat":43.31482,"lon":5.37303,"is_reserved":false,"is_disabled":false,"rental_uris":{"android":"levelo://app?vid=4ce0e76f-bb46-489f-8b5e-48a1adee1a98","ios":"levelo://app?vid=4ce0e76f-bb46-489f-8b5e-48a1adee1a98"},"vehicle_type_id":"4","last_reported":1749546723,"current_range_meters":21600,"station_id":"ce4bgt12rcd13ifvqcd0","pricing_plan_id":"cebpf4jnsgd1na2vs0mg"},{"bike_id":"e578656e-5618-47dd-a9e6-4a2e64ec8962","system_id":"levelo_inurba_marseille","lat":43.27372,"lon":5.36258,"is_reserved":false,"is_disabled":false,"rental_uris":{"android":"levelo://app?vid=e578656e-5618-47dd-a9e6-4a2e64ec8962","ios":"levelo://app?vid=e578656e-5618-47dd-a9e6-4a2e64ec8962"},"vehicle_type_id":"4","last_reported":1749546723,"current_range_meters":21600,"station_id":"ce4bhbh2rcd13ifvqeo0","pricing_plan_id":"cebpf4jnsgd1na2vs0mg"},{"bike_id":"ba61ca2a-324e-4c5d-9dd2-36be1a45da9f","system_id":"levelo_inurba_marseille","lat":43.3055,"lon":5.3654,"is_reserved":false,"is_disabled":false,"rental_uris":{"android":"levelo://app?vid=ba61ca2a-324e-4c5d-9dd2-36be1a45da9f","ios":"levelo://app?vid=ba61ca2a-324e-4c5d-9dd2-36be1a45da9f"},"vehicle_type_id":"4","last_reported":1749546723,"current_range_meters":21600,"station_id":"ce4bgs12rcd13ifvqcag","pricing_plan_id":"cebpf4jnsgd1na2vs0mg"},{"bike_id":"62bb4961-b701-40c9-b1d4-6e943835a464","system_id":"levelo_inurba_marseille","lat":43.23151,"lon":5.43701,"is_reserved":false,"is_disabled":false,"rental_uris":{"android":"levelo://app?vid=62bb4961-b701-40c9-b1d4-6e943835a464","ios":"levelo://app?vid=62bb4961-b701-40c9-b1d4-6e943835a464"},"vehicle_type_id":"4","last_reported":1749546723,"current_range_meters":22000,"station_id":"ce4bhmp2rcd13ifvqgog","pricing_plan_id":"cebpf4jnsgd1na2vs0mg"},{"bike_id":"84c1b610-f2c0-4c96-acb0-a10a066e8dbd","system_id":"levelo_inurba_marseille","lat":43.28264,"lon":5.35062,"is_reserved":false,"is_disabled":false,"rental_uris":{"android":"levelo://app?vid=84c1b610-f2c0-4c96-acb0-a10a066e8dbd","ios":"levelo://app?vid=84c1b610-f2c0-4c96-acb0-a10a066e8dbd"},"vehicle_type_id":"4","last_reported":1749546723,"current_range_meters":22000,"station_id":"ce4bhbp2rcd13ifvqerg","pricing_plan_id":"cebpf4jnsgd1na2vs0mg"},{"bike_id":"e1dae162-ec62-4929-8978-1170a68c6d3c","system_id":"levelo_inurba_marseille","lat":43.29778,"lon":5.37102,"is_reserved":false,"is_disabled":false,"rental_uris":{"android":"levelo://app?vid=e1dae162-ec62-4929-8978-1170a68c6d3c","ios":"levelo://app?vid=e1dae162-ec62-4929-8978-1170a68c6d3c"},"vehicle_type_id":"4","last_reported":1749546723,"current_range_meters":22000,"station_id":"ce4bgop2rcd13ifvqc1g","pricing_plan_id":"cebpf4jnsgd1na2vs0mg"},{"bike_id":"1b443243-378a-4c1c-934f-5fd5c68680fa","system_id":"levelo_inurba_marseille","lat":43.28612,"lon":5.35097,"is_reserved":false,"is_disabled":false,"rental_uris":{"android":"levelo://app?vid=1b443243-378a-4c1c-934f-5fd5c68680fa","ios":"levelo://app?vid=1b443243-378a-4c1c-934f-5fd5c68680fa"},"vehicle_type_id":"4","last_reported":1749546723,"current_range_meters":22000,"station_id":"ce4bhch2rcd13ifvqeug","pricing_plan_id":"cebpf4jnsgd1na2vs0mg"},{"bike_id":"ef671fc0-95e6-46c1-ba04-da11ccd6d327","system_id":"levelo_inurba_marseille","lat":43.25903,"lon":5.40861,"is_reserved":false,"is_disabled":false,"rental_uris":{"android":"levelo://app?vid=ef671fc0-95e6-46c1-ba04-da11ccd6d327","ios":"levelo://app?vid=ef671fc0-95e6-46c1-ba04-da11ccd6d327"},"vehicle_type_id":"4","last_reported":1749546723,"current_range_meters":22000,"station_id":"ce4bhm92rcd13ifvqglg","pricing_plan_id":"cebpf4jnsgd1na2vs0mg"},{"bike_id":"effba42f-3bab-498d-9b15-c198eb885d5f","system_id":"levelo_inurba_marseille","lat":43.29282,"lon":5.3683,"is_reserved":false,"is_disabled":false,"rental_uris":{"android":"levelo://app?vid=effba42f-3bab-498d-9b15-c198eb885d5f","ios":"levelo://app?vid=effba42f-3bab-498d-9b15-c198eb885d5f"},"vehicle_type_id":"4","last_reported":1749546723,"current_range_meters":22400,"station_id":"ce4bhbp2rcd13ifvqesg","pricing_plan_id":"cebpf4jnsgd1na2vs0mg"},{"bike_id":"2ec42470-350a-46de-8574-76f46c56b208","system_id":"levelo_inurba_marseille","lat":43.278116,"lon":5.407185,"is_reserved":false,"is_disabled":false,"rental_uris":{"android":"levelo://app?vid=2ec42470-350a-46de-8574-76f46c56b208","ios":"levelo://app?vid=2ec42470-350a-46de-8574-76f46c56b208"},"vehicle_type_id":"4","last_reported":1749546723,"current_range_meters":22400,"station_id":"ce4bhnh2rcd13ifvqgtg","pricing_plan_id":"cebpf4jnsgd1na2vs0mg"},{"bike_id":"33039c33-10ba-40cc-ae5b-86d4ce43165a","system_id":"levelo_inurba_marseille","lat":43.26231,"lon":5.40449,"is_reserved":false,"is_disabled":false,"rental_uris":{"android":"levelo://app?vid=33039c33-10ba-40cc-ae5b-86d4ce43165a","ios":"levelo://app?vid=33039c33-10ba-40cc-ae5b-86d4ce43165a"},"vehicle_type_id":"4","last_reported":1749546723,"current_range_meters":22400,"station_id":"ce4bhmh2rcd13ifvqgmg","pricing_plan_id":"cebpf4jnsgd1na2vs0mg"},{"bike_id":"8bf46ca2-9a60-478e-8732-12f46d5f060a","system_id":"levelo_inurba_marseille","lat":43.2621,"lon":5.37431,"is_reserved":false,"is_disabled":false,"rental_uris":{"android":"levelo://app?vid=8bf46ca2-9a60-478e-8732-12f46d5f060a","ios":"levelo://app?vid=8bf46ca2-9a60-478e-8732-12f46d5f060a"},"vehicle_type_id":"4","last_reported":1749546723,"current_range_meters":22400,"station_id":"ce4bhgp2rcd13ifvqfc0","pricing_plan_id":"cebpf4jnsgd1na2vs0mg"},{"bike_id":"dc138925-1266-4897-9256-f1d921dc9f4d","system_id":"levelo_inurba_marseille","lat":43.31481,"lon":5.373055,"is_reserved":false,"is_disabled":false,"rental_uris":{"android":"levelo://app?vid=dc138925-1266-4897-9256-f1d921dc9f4d","ios":"levelo://app?vid=dc138925-1266-4897-9256-f1d921dc9f4d"},"vehicle_type_id":"4","last_reported":1749546723,"current_range_meters":22400,"station_id":"ce4bgt12rcd13ifvqcd0","pricing_plan_id":"cebpf4jnsgd1na2vs0mg"},{"bike_id":"5a0dfb5a-2bd7-41a2-a194-c122a2762ca6","system_id":"levelo_inurba_marseille","lat":43.28848,"lon":5.39303,"is_reserved":false,"is_disabled":false,"rental_uris":{"android":"levelo://app?vid=5a0dfb5a-2bd7-41a2-a194-c122a2762ca6","ios":"levelo://app?vid=5a0dfb5a-2bd7-41a2-a194-c122a2762ca6"},"vehicle_type_id":"4","last_reported":1749546723,"current_range_meters":22000,"station_id":"ce4bh2p2rcd13ifvqdi0","pricing_plan_id":"cebpf4jnsgd1na2vs0mg"},{"bike_id":"5b0978e8-f1a1-43d6-8dfe-a1cf9c86c88f","system_id":"levelo_inurba_marseille","lat":43.250129,"lon":5.389067,"is_reserved":false,"is_disabled":true,"rental_uris":{"android":"levelo://app?vid=5b0978e8-f1a1-43d6-8dfe-a1cf9c86c88f","ios":"levelo://app?vid=5b0978e8-f1a1-43d6-8dfe-a1cf9c86c88f"},"vehicle_type_id":"4","last_reported":1749546723,"current_range_meters":22400,"station_id":"","pricing_plan_id":"cebpf4jnsgd1na2vs0mg"},{"bike_id":"e41836ef-ffcd-4335-8a3f-2080427c4f7b","system_id":"levelo_inurba_marseille","lat":43.26202,"lon":5.37926,"is_reserved":false,"is_disabled":false,"rental_uris":{"android":"levelo://app?vid=e41836ef-ffcd-4335-8a3f-2080427c4f7b","ios":"levelo://app?vid=e41836ef-ffcd-4335-8a3f-2080427c4f7b"},"vehicle_type_id":"4","last_reported":1749546723,"current_range_meters":22800,"station_id":"ce4bhjp2rcd13ifvqg90","pricing_plan_id":"cebpf4jnsgd1na2vs0mg"},{"bike_id":"a9e22385-b0db-48fb-b1dd-448e1865f2c2","system_id":"levelo_inurba_marseille","lat":43.28261,"lon":5.35059,"is_reserved":false,"is_disabled":false,"rental_uris":{"android":"levelo://app?vid=a9e22385-b0db-48fb-b1dd-448e1865f2c2","ios":"levelo://app?vid=a9e22385-b0db-48fb-b1dd-448e1865f2c2"},"vehicle_type_id":"4","last_reported":1749546723,"current_range_meters":22800,"station_id":"ce4bhbp2rcd13ifvqerg","pricing_plan_id":"cebpf4jnsgd1na2vs0mg"},{"bike_id":"131a22c5-2c23-41a1-8993-48538638085c","system_id":"levelo_inurba_marseille","lat":43.32115,"lon":5.36762,"is_reserved":false,"is_disabled":false,"rental_uris":{"android":"levelo://app?vid=131a22c5-2c23-41a1-8993-48538638085c","ios":"levelo://app?vid=131a22c5-2c23-41a1-8993-48538638085c"},"vehicle_type_id":"4","last_reported":1749546723,"current_range_meters":22800,"station_id":"ce4bhrh2rcd13ifvqhug","pricing_plan_id":"cebpf4jnsgd1na2vs0mg"},{"bike_id":"8e5d8283-23aa-4ba4-b265-6c739cf31ab5","system_id":"levelo_inurba_marseille","lat":43.28698,"lon":5.39986,"is_reserved":false,"is_disabled":false,"rental_uris":{"android":"levelo://app?vid=8e5d8283-23aa-4ba4-b265-6c739cf31ab5","ios":"levelo://app?vid=8e5d8283-23aa-4ba4-b265-6c739cf31ab5"},"vehicle_type_id":"4","last_reported":1749546723,"current_range_meters":22800,"station_id":"ce4bho92rcd13ifvqh3g","pricing_plan_id":"cebpf4jnsgd1na2vs0mg"},{"bike_id":"22d46380-b24d-42a3-bc73-e4b43baa9af2","system_id":"levelo_inurba_marseille","lat":43.27366,"lon":5.36253,"is_reserved":false,"is_disabled":false,"rental_uris":{"android":"levelo://app?vid=22d46380-b24d-42a3-bc73-e4b43baa9af2","ios":"levelo://app?vid=22d46380-b24d-42a3-bc73-e4b43baa9af2"},"vehicle_type_id":"4","last_reported":1749546723,"current_range_meters":22800,"station_id":"ce4bhbh2rcd13ifvqeo0","pricing_plan_id":"cebpf4jnsgd1na2vs0mg"},{"bike_id":"f71ebf4d-280c-4fe3-bbd2-3b0012ce6577","system_id":"levelo_inurba_marseille","lat":43.337444,"lon":5.374475,"is_reserved":false,"is_disabled":true,"rental_uris":{"android":"levelo://app?vid=f71ebf4d-280c-4fe3-bbd2-3b0012ce6577","ios":"levelo://app?vid=f71ebf4d-280c-4fe3-bbd2-3b0012ce6577"},"vehicle_type_id":"4","last_reported":1749546723,"current_range_meters":22800,"station_id":"","pricing_plan_id":"cebpf4jnsgd1na2vs0mg"},{"bike_id":"9e21bc4a-a3eb-44d2-bc5a-480fa4d5e80a","system_id":"levelo_inurba_marseille","lat":43.291962,"lon":5.357974,"is_reserved":false,"is_disabled":false,"rental_uris":{"android":"levelo://app?vid=9e21bc4a-a3eb-44d2-bc5a-480fa4d5e80a","ios":"levelo://app?vid=9e21bc4a-a3eb-44d2-bc5a-480fa4d5e80a"},"vehicle_type_id":"4","last_reported":1749546723,"current_range_meters":22800,"station_id":"ce4bhb12rcd13ifvqel0","pricing_plan_id":"cebpf4jnsgd1na2vs0mg"},{"bike_id":"d2c79f0a-f437-4d26-a25d-c685697f9e8e","system_id":"levelo_inurba_marseille","lat":43.265494,"lon":5.372854,"is_reserved":false,"is_disabled":false,"rental_uris":{"android":"levelo://app?vid=d2c79f0a-f437-4d26-a25d-c685697f9e8e","ios":"levelo://app?vid=d2c79f0a-f437-4d26-a25d-c685697f9e8e"},"vehicle_type_id":"4","last_reported":1749546723,"current_range_meters":22800,"station_id":"ce4bhg12rcd13ifvqf70","pricing_plan_id":"cebpf4jnsgd1na2vs0mg"},{"bike_id":"8080386e-8777-41ca-adbd-af63733e4ba9","system_id":"levelo_inurba_marseille","lat":43.29263,"lon":5.36842,"is_reserved":false,"is_disabled":false,"rental_uris":{"android":"levelo://app?vid=8080386e-8777-41ca-adbd-af63733e4ba9","ios":"levelo://app?vid=8080386e-8777-41ca-adbd-af63733e4ba9"},"vehicle_type_id":"4","last_reported":1749546723,"current_range_meters":22800,"station_id":"ce4bhbp2rcd13ifvqesg","pricing_plan_id":"cebpf4jnsgd1na2vs0mg"},