{"last_updated":1742213934,"ttl":60,"version":"2.2","data":{"bikes":[{"bike_id":"c533174d-267a-42b8-b4c9-da2b35a656df","system_id":"levelo_inurba_marseille","lat":43.32544,"lon":5.41454,"is_reserved":false,"is_disabled":false,"rental_uris":{"android":"levelo://app?vid=c533174d-267a-42b8-b4c9-da2b35a656df","ios":"levelo://app?vid=c533174d-267a-42b8-b4c9-da2b35a656df"},"vehicle_type_id":"4","last_reported":1742213934,"current_range_meters":2800,"station_id":"ce4bhq12rcd13ifvqhhg","pricing_plan_id":"cebpf4jnsgd1na2vs0mg"},{"bike_id":"16e0992e-6126-4094-b011-8b3e7df62282","system_id":"levelo_inurba_marseille","lat":43.311636,"lon":5.381126,"is_reserved":false,"is_disabled":false,"rental_uris":{"android":"levelo://app?vid=16e0992e-6126-4094-b011-8b3e7df62282","ios":"levelo://app?vid=16e0992e-6126-4094-b011-8b3e7df62282"},"vehicle_type_id":"4","last_reported":1742213934,"current_range_meters":2800,"station_id":"","pricing_plan_id":"cebpf4jnsgd1na2vs0mg"},{"bike_id":"66437246-143c-42b5-8825-baac7fef370c","system_id":"levelo_inurba_marseille","lat":43.28423,"lon":5.34978,"is_reserved":false,"is_disabled":false,"rental_uris":{"android":"levelo://app?vid=66437246-143c-42b5-8825-baac7fef370c","ios":"levelo://app?vid=66437246-143c-42b5-8825-baac7fef370c"},"vehicle_type_id":"4","last_reported":1742213934,"current_range_meters":2800,"station_id":"ce4bhbh2rcd13ifvqepg","pricing_plan_id":"cebpf4jnsgd1na2vs0mg"},{"bike_id":"992594b2-1129-40ab-9b5d-fdd5eac5d05f","system_id":"levelo_inurba_marseille","lat":43.31703,"lon":5.3761,"is_reserved":false,"is_disabled":false,"rental_uris":{"android":"levelo://app?vid=992594b2-1129-40ab-9b5d-fdd5eac5d05f","ios":"levelo://app?vid=992594b2-1129-40ab-9b5d-fdd5eac5d05f"},"vehicle_type_id":"4","last_reported":1742213934,"current_range_meters":3200,"station_id":"","pricing_plan_id":"cebpf4jnsgd1na2vs0mg"},{"bike_id":"04e5e5b7-50fc-4eb1-90d6-364e3b03b2d6","system_id":"levelo_inurba_marseille","lat":43.24082,"lon":5.37754,"is_reserved":false,"is_disabled":false,"rental_uris":{"android":"levelo://app?vid=04e5e5b7-50fc-4eb1-90d6-364e3b03b2d6","ios":"levelo://app?vid=04e5e5b7-50fc-4eb1-90d6-364e3b03b2d6"},"vehicle_type_id":"4","last_reported":1742213934,"current_range_meters":3200,"station_id":"ce4bhnp2rcd13ifvqgvg","pricing_plan_id":"cebpf4jnsgd1na2vs0mg"},{"bike_id":"c7ec3bca-4e26-4958-9f7a-b2c240e655f4","system_id":"levelo_inurba_marseille","lat":43.28855,"lon":5.35848,"is_reserved":false,"is_disabled":false,"rental_uris":{"android":"levelo://app?vid=c7ec3bca-4e26-4958-9f7a-b2c240e655f4","ios":"levelo://app?vid=c7ec3bca-4e26-4958-9f7a-b2c240e655f4"},"vehicle_type_id":"4","last_reported":1742213934,"current_range_meters":3200,"station_id":"ce4bhb12rcd13ifvqem0","pricing_plan_id":"cebpf4jnsgd1na2vs0mg"},{"bike_id":"d8c4eeb1-7702-42d9-a2cf-4055ac17f159","system_id":"levelo_inurba_marseille","lat":43.27832,"lon":5.39205,"is_reserved":false,"is_disabled":true,"rental_uris":{"android":"levelo://app?vid=d8c4eeb1-7702-42d9-a2cf-4055ac17f159","ios":"levelo://app?vid=d8c4eeb1-7702-42d9-a2cf-4055ac17f159"},"vehicle_type_id":"4","last_reported":1742213934,"current_range_meters":3600,"station_id":"ce4bhjp2rcd13ifvqga0","pricing_plan_id":"cebpf4jnsgd1na2vs0mg"},{"bike_id":"403668cb-41ec-4901-9bd9-08ade5a26ded","system_id":"levelo_inurba_marseille","lat":43.3015,"lon":5.38078,"is_reserved":false,"is_disabled":false,"rental_uris":{"android":"levelo://app?vid=403668cb-41ec-4901-9bd9-08ade5a26ded","ios":"levelo://app?vid=403668cb-41ec-4901-9bd9-08ade5a26ded"},"vehicle_type_id":"4","last_reported":1742213934,"current_range_meters":3600,"station_id":"ce4bgjp2rcd13ifvqbh0","pricing_plan_id":"cebpf4jnsgd1na2vs0mg"},{"bike_id":"9ac31914-6ff5-4c95-9268-e8040c244383","system_id":"levelo_inurba_marseille","lat":43.33611,"lon":5.41031,"is_reserved":false,"is_disabled":false,"rental_uris":{"android":"levelo://app?vid=9ac31914-6ff5-4c95-9268-e8040c244383","ios":"levelo://app?vid=9ac31914-6ff5-4c95-9268-e8040c244383"},"vehicle_type_id":"4","last_reported":1742213934,"current_range_meters":4000,"station_id":"ce4bhqh2rcd13ifvqhmg","pricing_plan_id":"cebpf4jnsgd1na2vs0mg"},{"bike_id":"7ba2933c-aeed-467f-948b-cd8bfcf50446","system_id":"levelo_inurba_marseille","lat":43.28444,"lon":5.39202,"is_reserved":false,"is_disabled":false,"rental_uris":{"android":"levelo://app?vid=7ba2933c-aeed-467f-948b-cd8bfcf50446","ios":"levelo://app?vid=7ba2933c-aeed-467f-948b-cd8bfcf50446"},"vehicle_type_id":"4","last_reported":1742213934,"current_range_meters":4000,"station_id":"ce4bhoh2rcd13ifvqh5g","pricing_plan_id":"cebpf4jnsgd1na2vs0mg"},{"bike_id":"3afaeaa0-de01-4ef1-a795-6fcf60b2fa59","system_id":"levelo_inurba_marseille","lat":43.22933,"lon":5.35371,"is_reserved":false,"is_disabled":true,"rental_uris":{"android":"levelo://app?vid=3afaeaa0-de01-4ef1-a795-6fcf60b2fa59","ios":"levelo://app?vid=3afaeaa0-de01-4ef1-a795-6fcf60b2fa59"},"vehicle_type_id":"4","last_reported":1742213934,"current_range_meters":4000,"station_id":"cpo3532slgdg3j2ikp40","pricing_plan_id":"cebpf4jnsgd1na2vs0mg"},{"bike_id":"e861d49f-d931-4550-ba8a-c92d596f3560","system_id":"levelo_inurba_marseille","lat":43.29031,"lon":5.37803,"is_reserved":false,"is_disabled":true,"rental_uris":{"android":"levelo://app?vid=e861d49f-d931-4550-ba8a-c92d596f3560","ios":"levelo://app?vid=e861d49f-d931-4550-ba8a-c92d596f3560"},"vehicle_type_id":"4","last_reported":1742213934,"current_range_meters":4000,"station_id":"","pricing_plan_id":"cebpf4jnsgd1na2vs0mg"},{"bike_id":"a6fb3265-75d7-4bff-b1c8-e4d60692788a","system_id":"levelo_inurba_marseille","lat":43.24808,"lon":5.37469,"is_reserved":false,"is_disabled":false,"rental_uris":{"android":"levelo://app?vid=a6fb3265-75d7-4bff-b1c8-e4d60692788a","ios":"levelo://app?vid=a6fb3265-75d7-4bff-b1c8-e4d60692788a"},"vehicle_type_id":"4","last_reported":1742213934,"current_range_meters":4000,"station_id":"ce4bhgh2rcd13ifvqfb0","pricing_plan_id":"cebpf4jnsgd1na2vs0mg"},{"bike_id":"ecf85441-615a-4b00-9dba-31cf41397235","system_id":"levelo_inurba_marseille","lat":43.31159,"lon":5.38722,"is_reserved":false,"is_disabled":false,"rental_uris":{"android":"levelo://app?vid=ecf85441-615a-4b00-9dba-31cf41397235","ios":"levelo://app?vid=ecf85441-615a-4b00-9dba-31cf41397235"},"vehicle_type_id":"4","last_reported":1742213934,"current_range_meters":4400,"station_id":"ce4bgv12rcd13ifvqcp0","pricing_plan_id":"cebpf4jnsgd1na2vs0mg"},{"bike_id":"e33497be-14d3-4e13-b3cd-b8d621070490","system_id":"levelo_inurba_marseille","lat":43.27401,"lon":5.42076,"is_reserved":false,"is_disabled":false,"rental_uris":{"android":"levelo://app?vid=e33497be-14d3-4e13-b3cd-b8d621070490","ios":"levelo://app?vid=e33497be-14d3-4e13-b3cd-b8d621070490"},"vehicle_type_id":"4","last_reported":1742213934,"current_range_meters":4400,"station_id":"","pricing_plan_id":"cebpf4jnsgd1na2vs0mg"},{"bike_id":"75eca607-f4fe-4195-b2a5-9ee078b9149d","system_id":"levelo_inurba_marseille","lat":43.2955,"lon":5.42275,"is_reserved":false,"is_disabled":false,"rental_uris":{"android":"levelo://app?vid=75eca607-f4fe-4195-b2a5-9ee078b9149d","ios":"levelo://app?vid=75eca607-f4fe-4195-b2a5-9ee078b9149d"},"vehicle_type_id":"4","last_reported":1742213934,"current_range_meters":4800,"station_id":"ce4bhph2rcd13ifvqhdg","pricing_plan_id":"cebpf4jnsgd1na2vs0mg"},{"bike_id":"a77af267-b02c-45a5-999d-59b7ce4a4c81","system_id":"levelo_inurba_marseille","lat":43.29779,"lon":5.38108,"is_reserved":false,"is_disabled":false,"rental_uris":{"android":"levelo://app?vid=a77af267-b02c-45a5-999d-59b7ce4a4c81","ios":"levelo://app?vid=a77af267-b02c-45a5-999d-59b7ce4a4c81"},"vehicle_type_id":"4","last_reported":1742213934,"current_range_meters":4800,"station_id":"ce4bgip2rcd13ifvqbb0","pricing_plan_id":"cebpf4jnsgd1na2vs0mg"},{"bike_id":"c4e1890d-2218-42a7-9284-10581f031bda","system_id":"levelo_inurba_marseille","lat":43.24809,"lon":5.37458,"is_reserved":false,"is_disabled":false,"rental_uris":{"android":"levelo://app?vid=c4e1890d-2218-42a7-9284-10581f031bda","ios":"levelo://app?vid=c4e1890d-2218-42a7-9284-10581f031bda"},"vehicle_type_id":"4","last_reported":1742213934,"current_range_meters":4400,"station_id":"ce4bhgh2rcd13ifvqfb0","pricing_plan_id":"cebpf4jnsgd1na2vs0mg"},{"bike_id":"9b1a33b0-0d40-450c-93c2-51d769e59150","system_id":"levelo_inurba_marseille","lat":43.28992,"lon":5.3562,"is_reserved":false,"is_disabled":false,"rental_uris":{"android":"levelo://app?vid=9b1a33b0-0d40-450c-93c2-51d769e59150","ios":"levelo://app?vid=9b1a33b0-0d40-450c-93c2-51d769e59150"},"vehicle_type_id":"4","last_reported":1742213934,"current_range_meters":4800,"station_id":"ce4bhb92rcd13ifvqen0","pricing_plan_id":"cebpf4jnsgd1na2vs0mg"},{"bike_id":"5d49fc76-b74b-4062-b9ee-eac3fa048bd7","system_id":"levelo_inurba_marseille","lat":43.33404,"lon":5.4006,"is_reserved":false,"is_disabled":false,"rental_uris":{"android":"levelo://app?vid=5d49fc76-b74b-4062-b9ee-eac3fa048bd7","ios":"levelo://app?vid=5d49fc76-b74b-4062-b9ee-eac3fa048bd7"},"vehicle_type_id":"4","last_reported":1742213934,"current_range_meters":4800,"station_id":"","pricing_plan_id":"cebpf4jnsgd1na2vs0mg"},{"bike_id":"b13b56ba-9e51-4396-afea-97d7798527da","system_id":"levelo_inurba_marseille","lat":43.24061,"lon":5.37746,"is_reserved":false,"is_disabled":false,"rental_uris":{"android":"levelo://app?vid=b13b56ba-9e51-4396-afea-97d7798527da","ios":"levelo://app?vid=b13b56ba-9e51-4396-afea-97d7798527da"},"vehicle_type_id":"4","last_reported":1742213934,"current_range_meters":5600,"station_id":"ce4bhnp2rcd13ifvqgvg","pricing_plan_id":"cebpf4jnsgd1na2vs0mg"},{"bike_id":"dd118b9f-4854-4c7b-9819-bde200858bd1","system_id":"levelo_inurba_marseille","lat":43.23179,"lon":5.39995,"is_reserved":false,"is_disabled":false,"rental_uris":{"android":"levelo://app?vid=dd118b9f-4854-4c7b-9819-bde200858bd1","ios":"levelo://app?vid=dd118b9f-4854-4c7b-9819-bde200858bd1"},"vehicle_type_id":"4","last_reported":1742213934,"current_range_meters":5600,"station_id":"ce4bhn12rcd13ifvqgqg","pricing_plan_id":"cebpf4jnsgd1na2vs0mg"},{"bike_id":"57380524-04df-48f0-9bde-6487d5f2e16b","system_id":"levelo_inurba_marseille","lat":43.2656,"lon":5.37275,"is_reserved":false,"is_disabled":true,"rental_uris":{"android":"levelo://app?vid=57380524-04df-48f0-9bde-6487d5f2e16b","ios":"levelo://app?vid=57380524-04df-48f0-9bde-6487d5f2e16b"},"vehicle_type_id":"4","last_reported":1742213934,"current_range_meters":5600,"station_id":"ce4bhg12rcd13ifvqf70","pricing_plan_id":"cebpf4jnsgd1na2vs0mg"},{"bike_id":"fc755b47-fd54-4931-b79a-bd59962fdbb6","system_id":"levelo_inurba_marseille","lat":43.27074,"lon":5.42275,"is_reserved":false,"is_disabled":false,"rental_uris":{"android":"levelo://app?vid=fc755b47-fd54-4931-b79a-bd59962fdbb6","ios":"levelo://app?vid=fc755b47-fd54-4931-b79a-bd59962fdbb6"},"vehicle_type_id":"4","last_reported":1742213934,"current_range_meters":5600,"station_id":"ce4bhk92rcd13ifvqgb0","pricing_plan_id":"cebpf4jnsgd1na2vs0mg"},{"bike_id":"c872a9ae-53c5-47d3-878e-dc7d469c0919","system_id":"levelo_inurba_marseille","lat":43.31375,"lon":5.36705,"is_reserved":false,"is_disabled":false,"rental_uris":{"android":"levelo://app?vid=c872a9ae-53c5-47d3-878e-dc7d469c0919","ios":"levelo://app?vid=c872a9ae-53c5-47d3-878e-dc7d469c0919"},"vehicle_type_id":"4","last_reported":1742213934,"current_range_meters":5600,"station_id":"ce4bgr92rcd13ifvqc6g","pricing_plan_id":"cebpf4jnsgd1na2vs0mg"},{"bike_id":"47e6f451-db65-435b-9c03-f5ec5540ca2d","system_id":"levelo_inurba_marseille","lat":43.3212,"lon":5.3675,"is_reserved":false,"is_disabled":false,"rental_uris":{"android":"levelo://app?vid=47e6f451-db65-435b-9c03-f5ec5540ca2d","ios":"levelo://app?vid=47e6f451-db65-435b-9c03-f5ec5540ca2d"},"vehicle_type_id":"4","last_reported":1742213934,"current_range_meters":5600,"station_id":"ce4bhrh2rcd13ifvqhug","pricing_plan_id":"cebpf4jnsgd1na2vs0mg"},{"bike_id":"e0511ca9-2203-4d4d-87a3-85244be99416","system_id":"levelo_inurba_marseille","lat":43.312175,"lon":5.368717,"is_reserved":false,"is_disabled":false,"rental_uris":{"android":"levelo://app?vid=e0511ca9-2203-4d4d-87a3-85244be99416","ios":"levelo://app?vid=e0511ca9-2203-4d4d-87a3-85244be99416"},"vehicle_type_id":"4","last_reported":1742213934,"current_range_meters":5600,"station_id":"ce4bgl92rcd13ifvqbq0","pricing_plan_id":"cebpf4jnsgd1na2vs0mg"},{"bike_id":"4d27fc31-38c0-4e8f-8755-a0997e119c09","system_id":"levelo_inurba_marseille","lat":43.25002,"lon":5.38918,"is_reserved":false,"is_disabled":false,"rental_uris":{"android":"levelo://app?vid=4d27fc31-38c0-4e8f-8755-a0997e119c09","ios":"levelo://app?vid=4d27fc31-38c0-4e8f-8755-a0997e119c09"},"vehicle_type_id":"4","last_reported":1742213934,"current_range_meters":5600,"station_id":"ce4bhgp2rcd13ifvqfd0","pricing_plan_id":"cebpf4jnsgd1na2vs0mg"},{"bike_id":"8ba87235-a34b-48f5-9938-70fca1d983e1","system_id":"levelo_inurba_marseille","lat":43.23192,"lon":5.35558,"is_reserved":false,"is_disabled":false,"rental_uris":{"android":"levelo://app?vid=8ba87235-a34b-48f5-9938-70fca1d983e1","ios":"levelo://app?vid=8ba87235-a34b-48f5-9938-70fca1d983e1"},"vehicle_type_id":"4","last_reported":1742213934,"current_range_meters":5600,"station_id":"ce4bhu92rcd13ifvqi70","pricing_plan_id":"cebpf4jnsgd1na2vs0mg"},{"bike_id":"5a14338c-3bd8-41df-b649-06e806759699","system_id":"levelo_inurba_marseille","lat":43.23964,"lon":5.3663,"is_reserved":false,"is_disabled":false,"rental_uris":{"android":"levelo://app?vid=5a14338c-3bd8-41df-b649-06e806759699","ios":"levelo://app?vid=5a14338c-3bd8-41df-b649-06e806759699"},"vehicle_type_id":"4","last_reported":1742213934,"current_range_meters":6000,"station_id":"ce4bhi12rcd13ifvqfp0","pricing_plan_id":"cebpf4jnsgd1na2vs0mg"},{"bike_id":"da4af89f-b57e-4338-a2dc-1fb2e55820b1","system_id":"levelo_inurba_marseille","lat":43.23052,"lon":5.35493,"is_reserved":false,"is_disabled":false,"rental_uris":{"android":"levelo://app?vid=da4af89f-b57e-4338-a2dc-1fb2e55820b1","ios":"levelo://app?vid=da4af89f-b57e-4338-a2dc-1fb2e55820b1"},"vehicle_type_id":"4","last_reported":1742213934,"current_range_meters":6000,"station_id":"cpo3342slgdg3j2ifvpg","pricing_plan_id":"cebpf4jnsgd1na2vs0mg"},{"bike_id":"5d3dbd3a-1365-40c0-af69-8ba2c314a313","system_id":"levelo_inurba_marseille","lat":43.299018,"lon":5.436545,"is_reserved":false,"is_disabled":false,"rental_uris":{"android":"levelo://app?vid=5d3dbd3a-1365-40c0-af69-8ba2c314a313","ios":"levelo://app?vid=5d3dbd3a-1365-40c0-af69-8ba2c314a313"},"vehicle_type_id":"4","last_reported":1742213934,"current_range_meters":6000,"station_id":"ce4bhpp2rcd13ifvqhfg","pricing_plan_id":"cebpf4jnsgd1na2vs0mg"},{"bike_id":"ea4ad6ac-f945-480f-ad5b-bf3e249f3bed","system_id":"levelo_inurba_marseille","lat":43.290924,"lon":5.381262,"is_reserved":false,"is_disabled":false,"rental_uris":{"android":"levelo://app?vid=ea4ad6ac-f945-480f-ad5b-bf3e249f3bed","ios":"levelo://app?vid=ea4ad6ac-f945-480f-ad5b-bf3e249f3bed"},"vehicle_type_id":"4","last_reported":1742213934,"current_range_meters":6000,"station_id":"ce4bh5p2rcd13ifvqe4g","pricing_plan_id":"cebpf4jnsgd1na2vs0mg"},{"bike_id":"a6a2e939-ea89-487c-b677-f28a1a9e0fd7","system_id":"levelo_inurba_marseille","lat":43.299394,"lon":5.392737,"is_reserved":false,"is_disabled":false,"rental_uris":{"android":"levelo://app?vid=a6a2e939-ea89-487c-b677-f28a1a9e0fd7","ios":"levelo://app?vid=a6a2e939-ea89-487c-b677-f28a1a9e0fd7"},"vehicle_type_id":"4","last_reported":1742213934,"current_range_meters":6000,"station_id":"ce4bh392rcd13ifvqdl0","pricing_plan_id":"cebpf4jnsgd1na2vs0mg"},{"bike_id":"d87d01b0-53bb-405d-a34e-24df13294a43","system_id":"levelo_inurba_marseille","lat":43.29203,"lon":5.39318,"is_reserved":false,"is_disabled":true,"rental_uris":{"android":"levelo://app?vid=d87d01b0-53bb-405d-a34e-24df13294a43","ios":"levelo://app?vid=d87d01b0-53bb-405d-a34e-24df13294a43"},"vehicle_type_id":"4","last_reported":1742213934,"current_range_meters":6000,"station_id":"ce4bh192rcd13ifvqdd0","pricing_plan_id":"cebpf4jnsgd1na2vs0mg"},{"bike_id":"5be9a1f5-43e5-44fe-8fe5-fcea0272093f","system_id":"levelo_inurba_marseille","lat":43.24186,"lon":5.39721,"is_reserved":false,"is_disabled":false,"rental_uris":{"android":"levelo://app?vid=5be9a1f5-43e5-44fe-8fe5-fcea0272093f","ios":"levelo://app?vid=5be9a1f5-43e5-44fe-8fe5-fcea0272093f"},"vehicle_type_id":"4","last_reported":1742213934,"current_range_meters":6000,"station_id":"ce4bhn12rcd13ifvqgpg","pricing_plan_id":"cebpf4jnsgd1na2vs0mg"},{"bike_id":"20e0a5b3-595b-4a82-b23f-00884f840406","system_id":"levelo_inurba_marseille","lat":43.23151,"lon":5.4371,"is_reserved":false,"is_disabled":false,"rental_uris":{"android":"levelo://app?vid=20e0a5b3-595b-4a82-b23f-00884f840406","ios":"levelo://app?vid=20e0a5b3-595b-4a82-b23f-00884f840406"},"vehicle_type_id":"4","last_reported":1742213934,"current_range_meters":6000,"station_id":"ce4bhmp2rcd13ifvqgog","pricing_plan_id":"cebpf4jnsgd1na2vs0mg"},{"bike_id":"071cac3b-ca3a-4123-987d-26e07393e046","system_id":"levelo_inurba_marseille","lat":43.30829,"lon":5.37658,"is_reserved":false,"is_disabled":false,"rental_uris":{"android":"levelo://app?vid=071cac3b-ca3a-4123-987d-26e07393e046","ios":"levelo://app?vid=071cac3b-ca3a-4123-987d-26e07393e046"},"vehicle_type_id":"4","last_reported":1742213934,"current_range_meters":6400,"station_id":"ce4bgv92rcd13ifvqcq0","pricing_plan_id":"cebpf4jnsgd1na2vs0mg"},{"bike_id":"b2dde6db-9cdf-4a47-8df4-a09a115dd967","system_id":"levelo_inurba_marseille","lat":43.23151,"lon":5.43709,"is_reserved":false,"is_disabled":false,"rental_uris":{"android":"levelo://app?vid=b2dde6db-9cdf-4a47-8df4-a09a115dd967","ios":"levelo://app?vid=b2dde6db-9cdf-4a47-8df4-a09a115dd967"},"vehicle_type_id":"4","last_reported":1742213934,"current_range_meters":6400,"station_id":"ce4bhmp2rcd13ifvqgog","pricing_plan_id":"cebpf4jnsgd1na2vs0mg"},{"bike_id":"2e0249ac-9c10-4b51-92cf-1732e023fddf","system_id":"levelo_inurba_marseille","lat":43.32112,"lon":5.36773,"is_reserved":false,"is_disabled":false,"rental_uris":{"android":"levelo://app?vid=2e0249ac-9c10-4b51-92cf-1732e023fddf","ios":"levelo://app?vid=2e0249ac-9c10-4b51-92cf-1732e023fddf"},"vehicle_type_id":"4","last_reported":1742213934,"current_range_meters":6400,"station_id":"ce4bhrh2rcd13ifvqhug","pricing_plan_id":"cebpf4jnsgd1na2vs0mg"},{"bike_id":"6ae6f76c-6a01-4d75-9d3f-dfa610803a78","system_id":"levelo_inurba_marseille","lat":43.23077,"lon":5.35508,"is_reserved":false,"is_disabled":false,"rental_uris":{"android":"levelo://app?vid=6ae6f76c-6a01-4d75-9d3f-dfa610803a78","ios":"levelo://app?vid=6ae6f76c-6a01-4d75-9d3f-dfa610803a78"},"vehicle_type_id":"4","last_reported":1742213934,"current_range_meters":6400,"station_id":"cpo3342slgdg3j2ifvpg","pricing_plan_id":"cebpf4jnsgd1na2vs0mg"},{"bike_id":"31467faf-a7f2-4157-8e26-e518445c7466","system_id":"levelo_inurba_marseille","lat":43.29249,"lon":5.40899,"is_reserved":false,"is_disabled":false,"rental_uris":{"android":"levelo://app?vid=31467faf-a7f2-4157-8e26-e518445c7466","ios":"levelo://app?vid=31467faf-a7f2-4157-8e26-e518445c7466"},"vehicle_type_id":"4","last_reported":1742213934,"current_range_meters":6000,"station_id":"ce4bh192rcd13ifvqdc0","pricing_plan_id":"cebpf4jnsgd1na2vs0mg"},{"bike_id":"0e61515f-adf0-47af-875c-c2df33e52fae","system_id":"levelo_inurba_marseille","lat":43.24389,"lon":5.37055,"is_reserved":false,"is_disabled":false,"rental_uris":{"android":"levelo://app?vid=0e61515f-adf0-47af-875c-c2df33e52fae","ios":"levelo://app?vid=0e61515f-adf0-47af-875c-c2df33e52fae"},"vehicle_type_id":"4","last_reported":1742213934,"current_range_meters":6400,"station_id":"ce4bhhh2rcd13ifvqfk0","pricing_plan_id":"cebpf4jnsgd1na2vs0mg"},{"bike_id":"c4c57120-0c34-4017-b5c7-ae7ab8207760","system_id":"levelo_inurba_marseille","lat":43.28431,"lon":5.34991,"is_reserved":false,"is_disabled":false,"rental_uris":{"android":"levelo://app?vid=c4c57120-0c34-4017-b5c7-ae7ab8207760","ios":"levelo://app?vid=c4c57120-0c34-4017-b5c7-ae7ab8207760"},"vehicle_type_id":"4","last_reported":1742213934,"current_range_meters":6400,"station_id":"ce4bhbh2rcd13ifvqepg","pricing_plan_id":"cebpf4jnsgd1na2vs0mg"},{"bike_id":"c4ec09b2-6d7f-446a-8363-18b996e380b7","system_id":"levelo_inurba_marseille","lat":43.23158,"lon":5.43693,"is_reserved":false,"is_disabled":false,"rental_uris":{"android":"levelo://app?vid=c4ec09b2-6d7f-446a-8363-18b996e380b7","ios":"levelo://app?vid=c4ec09b2-6d7f-446a-8363-18b996e380b7"},"vehicle_type_id":"4","last_reported":1742213934,"current_range_meters":6400,"station_id":"ce4bhmp2rcd13ifvqgog","pricing_plan_id":"cebpf4jnsgd1na2vs0mg"},{"bike_id":"b1199960-2925-47ba-ab55-f73fcc52c49e","system_id":"levelo_inurba_marseille","lat":43.25817,"lon":5.39432,"is_reserved":false,"is_disabled":false,"rental_uris":{"android":"levelo://app?vid=b1199960-2925-47ba-ab55-f73fcc52c49e","ios":"levelo://app?vid=b1199960-2925-47ba-ab55-f73fcc52c49e"},"vehicle_type_id":"4","last_reported":1742213934,"current_range_meters":6400,"station_id":"ce4bhip2rcd13ifvqft0","pricing_plan_id":"cebpf4jnsgd1na2vs0mg"},{"bike_id":"26b754bc-fb03-4ad3-8414-dd500fe34cb1","system_id":"levelo_inurba_marseille","lat":43.30276,"lon":5.37696,"is_reserved":false,"is_disabled":false,"rental_uris":{"android":"levelo://app?vid=26b754bc-fb03-4ad3-8414-dd500fe34cb1","ios":"levelo://app?vid=26b754bc-fb03-4ad3-8414-dd500fe34cb1"},"vehicle_type_id":"4","last_reported":1742213934,"current_range_meters":6800,"station_id":"ce4bguh2rcd13ifvqcj0","pricing_plan_id":"cebpf4jnsgd1na2vs0mg"},{"bike_id":"f762fd6f-ca69-45f6-995f-65c0e25825a3","system_id":"levelo_inurba_marseille","lat":43.32535,"lon":5.4143,"is_reserved":false,"is_disabled":true,"rental_uris":{"android":"levelo://app?vid=f762fd6f-ca69-45f6-995f-65c0e25825a3","ios":"levelo://app?vid=f762fd6f-ca69-45f6-995f-65c0e25825a3"},"vehicle_type_id":"4","last_reported":1742213934,"current_range_meters":6800,"station_id":"ce4bhq12rcd13ifvqhhg","pricing_plan_id":"cebpf4jnsgd1na2vs0mg"},{"bike_id":"75e0c1ae-d612-42de-95b8-2ad56d713295","system_id":"levelo_inurba_marseille","lat":43.28855,"lon":5.39313,"is_reserved":false,"is_disabled":false,"rental_uris":{"android":"levelo://app?vid=75e0c1ae-d612-42de-95b8-2ad56d713295","ios":"levelo://app?vid=75e0c1ae-d612-42de-95b8-2ad56d713295"},"vehicle_type_id":"4","last_reported":1742213934,"current_range_meters":6800,"station_id":"ce4bh2p2rcd13ifvqdi0","pricing_plan_id":"cebpf4jnsgd1na2vs0mg"},{"bike_id":"b6d520f3-d2b4-4ce1-9377-d372a1b38591","system_id":"levelo_inurba_marseille","lat":43.27221,"lon":5.39182,"is_reserved":false,"is_disabled":false,"rental_uris":{"android":"levelo://app?vid=b6d520f3-d2b4-4ce1-9377-d372a1b38591","ios":"levelo://app?vid=b6d520f3-d2b4-4ce1-9377-d372a1b38591"},"vehicle_type_id":"4","last_reported":1742213934,"current_range_meters":6800,"station_id":"ce4bhhp2rcd13ifvqfm0","pricing_plan_id":"cebpf4jnsgd1na2vs0mg"},{"bike_id":"f2a47165-e694-41fd-99d0-4c714332c41b","system_id":"levelo_inurba_marseille","lat":43.30141,"lon":5.38782,"is_reserved":false,"is_disabled":false,"rental_uris":{"android":"levelo://app?vid=f2a47165-e694-41fd-99d0-4c714332c41b","ios":"levelo://app?vid=f2a47165-e694-41fd-99d0-4c714332c41b"},"vehicle_type_id":"4","last_reported":1742213934,"current_range_meters":7200,"station_id":"ce4bghh2rcd13ifvqb60","pricing_plan_id":"cebpf4jnsgd1na2vs0mg"},{"bike_id":"5d33ee2e-ab8c-4d48-b2e3-8df7c0b816e1","system_id":"levelo_inurba_marseille","lat":43.23065,"lon":5.35492,"is_reserved":false,"is_disabled":false,"rental_uris":{"android":"levelo://app?vid=5d33ee2e-ab8c-4d48-b2e3-8df7c0b816e1","ios":"levelo://app?vid=5d33ee2e-ab8c-4d48-b2e3-8df7c0b816e1"},"vehicle_type_id":"4","last_reported":1742213934,"current_range_meters":6800,"station_id":"cpo3342slgdg3j2ifvpg","pricing_plan_id":"cebpf4jnsgd1na2vs0mg"},{"bike_id":"2c897759-a57a-4e44-ad77-2a9cda24660c","system_id":"levelo_inurba_marseille","lat":43.24078,"lon":5.3774,"is_reserved":false,"is_disabled":false,"rental_uris":{"android":"levelo://app?vid=2c897759-a57a-4e44-ad77-2a9cda24660c","ios":"levelo://app?vid=2c897759-a57a-4e44-ad77-2a9cda24660c"},"vehicle_type_id":"4","last_reported":1742213934,"current_range_meters":6800,"station_id":"ce4bhnp2rcd13ifvqgvg","pricing_plan_id":"cebpf4jnsgd1na2vs0mg"},{"bike_id":"9641c2ba-2d48-4fa3-a44d-37cb7a609cec","system_id":"levelo_inurba_marseille","lat":43.33719,"lon":5.42085,"is_reserved":false,"is_disabled":false,"rental_uris":{"android":"levelo://app?vid=9641c2ba-2d48-4fa3-a44d-37cb7a609cec","ios":"levelo://app?vid=9641c2ba-2d48-4fa3-a44d-37cb7a609cec"},"vehicle_type_id":"4","last_reported":1742213934,"current_range_meters":6800,"station_id":"","pricing_plan_id":"cebpf4jnsgd1na2vs0mg"},{"bike_id":"f31da457-6e9b-4ad6-be1d-5ffba7cbc733","system_id":"levelo_inurba_marseille","lat":43.25005,"lon":5.38937,"is_reserved":false,"is_disabled":false,"rental_uris":{"android":"levelo://app?vid=f31da457-6e9b-4ad6-be1d-5ffba7cbc733","ios":"levelo://app?vid=f31da457-6e9b-4ad6-be1d-5ffba7cbc733"},"vehicle_type_id":"4","last_reported":1742213934,"current_range_meters":6800,"station_id":"ce4bhgp2rcd13ifvqfd0","pricing_plan_id":"cebpf4jnsgd1na2vs0mg"},{"bike_id":"faee9615-a5b2-4ce3-b98e-0b0425147922","system_id":"levelo_inurba_marseille","lat":43.23185,"lon":5.39982,"is_reserved":false,"is_disabled":false,"rental_uris":{"android":"levelo://app?vid=faee9615-a5b2-4ce3-b98e-0b0425147922","ios":"levelo://app?vid=faee9615-a5b2-4ce3-b98e-0b0425147922"},"vehicle_type_id":"4","last_reported":1742213934,"current_range_meters":6800,"station_id":"ce4bhn12rcd13ifvqgqg","pricing_plan_id":"cebpf4jnsgd1na2vs0mg"},{"bike_id":"cc15e210-f7bf-4599-93be-6ee01d8146d0","system_id":"levelo_inurba_marseille","lat":43.23143,"lon":5.43721,"is_reserved":false,"is_disabled":false,"rental_uris":{"android":"levelo://app?vid=cc15e210-f7bf-4599-93be-6ee01d8146d0","ios":"levelo://app?vid=cc15e210-f7bf-4599-93be-6ee01d8146d0"},"vehicle_type_id":"4","last_reported":1742213934,"current_range_meters":7200,"station_id":"ce4bhmp2rcd13ifvqgog","pricing_plan_id":"cebpf4jnsgd1na2vs0mg"},{"bike_id":"f3eb6a65-a610-4e3f-9466-127bf5275334","system_id":"levelo_inurba_marseille","lat":43.2315,"lon":5.4371,"is_reserved":false,"is_disabled":false,"rental_uris":{"android":"levelo://app?vid=f3eb6a65-a610-4e3f-9466-127bf5275334","ios":"levelo://app?vid=f3eb6a65-a610-4e3f-9466-127bf5275334"},"vehicle_type_id":"4","last_reported":1742213934,"current_range_meters":7200,"station_id":"ce4bhmp2rcd13ifvqgog","pricing_plan_id":"cebpf4jnsgd1na2vs0mg"},{"bike_id":"157606e8-6f3b-4e1b-86b5-6860ac4082e1","system_id":"levelo_inurba_marseille","lat":43.29275,"lon":5.40116,"is_reserved":false,"is_disabled":false,"rental_uris":{"android":"levelo://app?vid=157606e8-6f3b-4e1b-86b5-6860ac4082e1","ios":"levelo://app?vid=157606e8-6f3b-4e1b-86b5-6860ac4082e1"},"vehicle_type_id":"4","last_reported":1742213934,"current_range_meters":7200,"station_id":"ce4bh312rcd13ifvqdk0","pricing_plan_id":"cebpf4jnsgd1na2vs0mg"},{"bike_id":"87d6949a-7669-4ab4-af12-63e799db8d8c","system_id":"levelo_inurba_marseille","lat":43.25737,"lon":5.41117,"is_reserved":false,"is_disabled":false,"rental_uris":{"android":"levelo://app?vid=87d6949a-7669-4ab4-af12-63e799db8d8c","ios":"levelo://app?vid=87d6949a-7669-4ab4-af12-63e799db8d8c"},"vehicle_type_id":"4","last_reported":1742213934,"current_range_meters":7200,"station_id":"ce4bhkp2rcd13ifvqgd0","pricing_plan_id":"cebpf4jnsgd1na2vs0mg"},{"bike_id":"d62841a2-6dc2-4a3c-a2b1-52e5b3d95014","system_id":"levelo_inurba_marseille","lat":43.26565,"lon":5.39011,"is_reserved":false,"is_disabled":false,"rental_uris":{"android":"levelo://app?vid=d62841a2-6dc2-4a3c-a2b1-52e5b3d95014","ios":"levelo://app?vid=d62841a2-6dc2-4a3c-a2b1-52e5b3d95014"},"vehicle_type_id":"4","last_reported":1742213934,"current_range_meters":7200,"station_id":"ce4bhe12rcd13ifvqf30","pricing_plan_id":"cebpf4jnsgd1na2vs0mg"},{"bike_id":"14cd229a-e82f-4d5d-bc54-5bd7b491925a","system_id":"levelo_inurba_marseille","lat":43.23192,"lon":5.39969,"is_reserved":false,"is_disabled":false,"rental_uris":{"android":"levelo://app?vid=14cd229a-e82f-4d5d-bc54-5bd7b491925a","ios":"levelo://app?vid=14cd229a-e82f-4d5d-bc54-5bd7b491925a"},"vehicle_type_id":"4","last_reported":1742213934,"current_range_meters":7200,"station_id":"ce4bhn12rcd13ifvqgqg","pricing_plan_id":"cebpf4jnsgd1na2vs0mg"},{"bike_id":"e8abda8e-f91d-4997-a00a-19030cb9f77f","system_id":"levelo_inurba_marseille","lat":43.24177,"lon":5.39732,"is_reserved":false,"is_disabled":false,"rental_uris":{"android":"levelo://app?vid=e8abda8e-f91d-4997-a00a-19030cb9f77f","ios":"levelo://app?vid=e8abda8e-f91d-4997-a00a-19030cb9f77f"},"vehicle_type_id":"4","last_reported":1742213934,"current_range_meters":7200,"station_id":"ce4bhn12rcd13ifvqgpg","pricing_plan_id":"cebpf4jnsgd1na2vs0mg"},{"bike_id":"c6676698-7026-410e-8100-88640ee593b2","system_id":"levelo_inurba_marseille","lat":43.27191,"lon":5.40992,"is_reserved":false,"is_disabled":true,"rental_uris":{"android":"levelo://app?vid=c6676698-7026-410e-8100-88640ee593b2","ios":"levelo://app?vid=c6676698-7026-410e-8100-88640ee593b2"},"vehicle_type_id":"4","last_reported":1742213934,"current_range_meters":7200,"station_id":"ce4bhl12rcd13ifvqgf0","pricing_plan_id":"cebpf4jnsgd1na2vs0mg"},{"bike_id":"1e30ec68-8074-40f6-8949-74f66bcbb666","system_id":"levelo_inurba_marseille","lat":43.31233,"lon":5.36865,"is_reserved":false,"is_disabled":false,"rental_uris":{"android":"levelo://app?vid=1e30ec68-8074-40f6-8949-74f66bcbb666","ios":"levelo://app?vid=1e30ec68-8074-40f6-8949-74f66bcbb666"},"vehicle_type_id":"4","last_reported":1742213934,"current_range_meters":7200,"station_id":"ce4bgl92rcd13ifvqbq0","pricing_plan_id":"cebpf4jnsgd1na2vs0mg"},{"bike_id":"464ffb62-57a7-4f85-be7a-5a47a578d151","system_id":"levelo_inurba_marseille","lat":43.23963,"lon":5.36626,"is_reserved":false,"is_disabled":false,"rental_uris":{"android":"levelo://app?vid=464ffb62-57a7-4f85-be7a-5a47a578d151","ios":"levelo://app?vid=464ffb62-57a7-4f85-be7a-5a47a578d151"},"vehicle_type_id":"4","last_reported":1742213934,"current_range_meters":7200,"station_id":"ce4bhi12rcd13ifvqfp0","pricing_plan_id":"cebpf4jnsgd1na2vs0mg"},{"bike_id":"b216cadd-985e-4afe-9079-e59b8876573e","system_id":"levelo_inurba_marseille","lat":43.290916,"lon":5.381223,"is_reserved":false,"is_disabled":false,"rental_uris":{"android":"levelo://app?vid=b216cadd-985e-4afe-9079-e59b8876573e","ios":"levelo://app?vid=b216cadd-985e-4afe-9079-e59b8876573e"},"vehicle_type_id":"4","last_reported":1742213934,"current_range_meters":7200,"station_id":"ce4bh512rcd13ifvqe2g","pricing_plan_id":"cebpf4jnsgd1na2vs0mg"},{"bike_id":"574c6264-9ead-4067-9d53-ef9ca0765d8a","system_id":"levelo_inurba_marseille","lat":43.25956,"lon":5.40901,"is_reserved":false,"is_disabled":false,"rental_uris":{"android":"levelo://app?vid=574c6264-9ead-4067-9d53-ef9ca0765d8a","ios":"levelo://app?vid=574c6264-9ead-4067-9d53-ef9ca0765d8a"},"vehicle_type_id":"4","last_reported":1742213934,"current_range_meters":7200,"station_id":"ce4bhm92rcd13ifvqglg","pricing_plan_id":"cebpf4jnsgd1na2vs0mg"},{"bike_id":"1f2ca29d-df46-4c07-80be-ce982efa349b","system_id":"levelo_inurba_marseille","lat":43.23073,"lon":5.3549,"is_reserved":false,"is_disabled":false,"rental_uris":{"android":"levelo://app?vid=1f2ca29d-df46-4c07-80be-ce982efa349b","ios":"levelo://app?vid=1f2ca29d-df46-4c07-80be-ce982efa349b"},"vehicle_type_id":"4","last_reported":1742213934,"current_range_meters":7200,"station_id":"cpo3342slgdg3j2ifvpg","pricing_plan_id":"cebpf4jnsgd1na2vs0mg"},{"bike_id":"7a2a856a-591c-425f-b3d4-2f090643ef3e","system_id":"levelo_inurba_marseille","lat":43.3127,"lon":5.40158,"is_reserved":false,"is_disabled":true,"rental_uris":{"android":"levelo://app?vid=7a2a856a-591c-425f-b3d4-2f090643ef3e","ios":"levelo://app?vid=7a2a856a-591c-425f-b3d4-2f090643ef3e"},"vehicle_type_id":"4","last_reported":1742213934,"current_range_meters":7200,"station_id":"ce4bh092rcd13ifvqd30","pricing_plan_id":"cebpf4jnsgd1na2vs0mg"},{"bike_id":"67d3102b-c6e8-4de1-ad4d-8c59c3584187","system_id":"levelo_inurba_marseille","lat":43.32542,"lon":5.41439,"is_reserved":false,"is_disabled":false,"rental_uris":{"android":"levelo://app?vid=67d3102b-c6e8-4de1-ad4d-8c59c3584187","ios":"levelo://app?vid=67d3102b-c6e8-4de1-ad4d-8c59c3584187"},"vehicle_type_id":"4","last_reported":1742213934,"current_range_meters":7200,"station_id":"ce4bhq12rcd13ifvqhhg","pricing_plan_id":"cebpf4jnsgd1na2vs0mg"},{"bike_id":"2bef372b-6eae-458e-bf52-d73d7138ffdb","system_id":"levelo_inurba_marseille","lat":43.29288,"lon":5.36842,"is_reserved":false,"is_disabled":false,"rental_uris":{"android":"levelo://app?vid=2bef372b-6eae-458e-bf52-d73d7138ffdb","ios":"levelo://app?vid=2bef372b-6eae-458e-bf52-d73d7138ffdb"},"vehicle_type_id":"4","last_reported":1742213934,"current_range_meters":8000,"station_id":"ce4bhbp2rcd13ifvqesg","pricing_plan_id":"cebpf4jnsgd1na2vs0mg"},{"bike_id":"abd48a52-c8cc-4abb-a801-8dce64155a4a","system_id":"levelo_inurba_marseille","lat":43.25,"lon":5.38942,"is_reserved":false,"is_disabled":false,"rental_uris":{"android":"levelo://app?vid=abd48a52-c8cc-4abb-a801-8dce64155a4a","ios":"levelo://app?vid=abd48a52-c8cc-4abb-a801-8dce64155a4a"},"vehicle_type_id":"4","last_reported":1742213934,"current_range_meters":8000,"station_id":"ce4bhgp2rcd13ifvqfd0","pricing_plan_id":"cebpf4jnsgd1na2vs0mg"},{"bike_id":"521c9a14-5a8c-4b01-90fa-c2e9ad39c8d4","system_id":"levelo_inurba_marseille","lat":43.31267,"lon":5.40169,"is_reserved":false,"is_disabled":false,"rental_uris":{"android":"levelo://app?vid=521c9a14-5a8c-4b01-90fa-c2e9ad39c8d4","ios":"levelo://app?vid=521c9a14-5a8c-4b01-90fa-c2e9ad39c8d4"},"vehicle_type_id":"4","last_reported":1742213934,"current_range_meters":7200,"station_id":"ce4bh092rcd13ifvqd30","pricing_plan_id":"cebpf4jnsgd1na2vs0mg"},{"bike_id":"5848a398-52db-4125-b777-fbfc21e59f71","system_id":"levelo_inurba_marseille","lat":43.28405,"lon":5.37512,"is_reserved":false,"is_disabled":false,"rental_uris":{"android":"levelo://app?vid=5848a398-52db-4125-b777-fbfc21e59f71","ios":"levelo://app?vid=5848a398-52db-4125-b777-fbfc21e59f71"},"vehicle_type_id":"4","last_reported":1742213934,"current_range_meters":7200,"station_id":"ce4bh412rcd13ifvqds0","pricing_plan_id":"cebpf4jnsgd1na2vs0mg"},{"bike_id":"a561f3af-dc1c-4af4-b9a4-ead55b35e495","system_id":"levelo_inurba_marseille","lat":43.23193,"lon":5.35542,"is_reserved":false,"is_disabled":false,"rental_uris":{"android":"levelo://app?vid=a561f3af-dc1c-4af4-b9a4-ead55b35e495","ios":"levelo://app?vid=a561f3af-dc1c-4af4-b9a4-ead55b35e495"},"vehicle_type_id":"4","last_reported":1742213934,"current_range_meters":8000,"station_id":"ce4bhu92rcd13ifvqi70","pricing_plan_id":"cebpf4jnsgd1na2vs0mg"},{"bike_id":"8abf5c72-692f-4fd9-8537-22fe861d9366","system_id":"levelo_inurba_marseille","lat":43.32344,"lon":5.36761,"is_reserved":false,"is_disabled":false,"rental_uris":{"android":"levelo://app?vid=8abf5c72-692f-4fd9-8537-22fe861d9366","ios":"levelo://app?vid=8abf5c72-692f-4fd9-8537-22fe861d9366"},"vehicle_type_id":"4","last_reported":1742213934,"current_range_meters":8000,"station_id":"ce4bhsh2rcd13ifvqi2g","pricing_plan_id":"cebpf4jnsgd1na2vs0mg"},{"bike_id":"6a82938f-861e-4401-9c21-986fbaa0253d","system_id":"levelo_inurba_marseille","lat":43.29077,"lon":5.37178,"is_reserved":false,"is_disabled":false,"rental_uris":{"android":"levelo://app?vid=6a82938f-861e-4401-9c21-986fbaa0253d","ios":"levelo://app?vid=6a82938f-861e-4401-9c21-986fbaa0253d"},"vehicle_type_id":"4","last_reported":1742213934,"current_range_meters":8000,"station_id":"ce4bh5p2rcd13ifvqe4g","pricing_plan_id":"cebpf4jnsgd1na2vs0mg"},{"bike_id":"5caa044b-d691-453d-baa4-c350897c9f29","system_id":"levelo_inurba_marseille","lat":43.28616,"lon":5.35108,"is_reserved":false,"is_disabled":false,"rental_uris":{"android":"levelo://app?vid=5caa044b-d691-453d-baa4-c350897c9f29","ios":"levelo://app?vid=5caa044b-d691-453d-baa4-c350897c9f29"},"vehicle_type_id":"4","last_reported":1742213934,"current_range_meters":8000,"station_id":"ce4bhch2rcd13ifvqeug","pricing_plan_id":"cebpf4jnsgd1na2vs0mg"},{"bike_id":"183eaef0-3714-49c3-8246-b18668615243","system_id":"levelo_inurba_marseille","lat":43.32535,"lon":5.4143,"is_reserved":false,"is_disabled":false,"rental_uris":{"android":"levelo://app?vid=183eaef0-3714-49c3-8246-b18668615243","ios":"levelo://app?vid=183eaef0-3714-49c3-8246-b18668615243"},"vehicle_type_id":"4","last_reported":1742213934,"current_range_meters":7200,"station_id":"ce4bhq12rcd13ifvqhhg","pricing_plan_id":"cebpf4jnsgd1na2vs0mg"},{"bike_id":"746c66ee-9b9b-4421-986a-be72011a739b","system_id":"levelo_inurba_marseille","lat":43.28941,"lon":5.36399,"is_reserved":false,"is_disabled":false,"rental_uris":{"android":"levelo://app?vid=746c66ee-9b9b-4421-986a-be72011a739b","ios":"levelo://app?vid=746c66ee-9b9b-4421-986a-be72011a739b"},"vehicle_type_id":"4","last_reported":1742213934,"current_range_meters":7200,"station_id":"ce4bhc92rcd13ifvqetg","pricing_plan_id":"cebpf4jnsgd1na2vs0mg"},{"bike_id":"b29a0463-5e75-49d5-8955-7693d791a747","system_id":"levelo_inurba_marseille","lat":43.27615,"lon":5.36108,"is_reserved":false,"is_disabled":false,"rental_uris":{"android":"levelo://app?vid=b29a0463-5e75-49d5-8955-7693d791a747","ios":"levelo://app?vid=b29a0463-5e75-49d5-8955-7693d791a747"},"vehicle_type_id":"4","last_reported":1742213934,"current_range_meters":8000,"station_id":"ce4bgj92rcd13ifvqbe0","pricing_plan_id":"cebpf4jnsgd1na2vs0mg"},{"bike_id":"74620aff-b1f0-4b60-8841-bc8a0a2edc3e","system_id":"levelo_inurba_marseille","lat":43.23193,"lon":5.35552,"is_reserved":false,"is_disabled":false,"rental_uris":{"android":"levelo://app?vid=74620aff-b1f0-4b60-8841-bc8a0a2edc3e","ios":"levelo://app?vid=74620aff-b1f0-4b60-8841-bc8a0a2edc3e"},"vehicle_type_id":"4","last_reported":1742213934,"current_range_meters":8400,"station_id":"ce4bhu92rcd13ifvqi70","pricing_plan_id":"cebpf4jnsgd1na2vs0mg"},{"bike_id":"21794262-8da4-490a-953b-4fa755e02469","system_id":"levelo_inurba_marseille","lat":43.29026,"lon":5.39974,"is_reserved":false,"is_disabled":true,"rental_uris":{"android":"levelo://app?vid=21794262-8da4-490a-953b-4fa755e02469","ios":"levelo://app?vid=21794262-8da4-490a-953b-4fa755e02469"},"vehicle_type_id":"4","last_reported":1742213934,"current_range_meters":8400,"station_id":"ce4bh392rcd13ifvqdm0","pricing_plan_id":"cebpf4jnsgd1na2vs0mg"},{"bike_id":"ef9b20c2-24a5-462d-8f71-a0b89cbc915f","system_id":"levelo_inurba_marseille","lat":43.26019,"lon":5.41748,"is_reserved":false,"is_disabled":false,"rental_uris":{"android":"levelo://app?vid=ef9b20c2-24a5-462d-8f71-a0b89cbc915f","ios":"levelo://app?vid=ef9b20c2-24a5-462d-8f71-a0b89cbc915f"},"vehicle_type_id":"4","last_reported":1742213934,"current_range_meters":8400,"station_id":"","pricing_plan_id":"cebpf4jnsgd1na2vs0mg"},{"bike_id":"d331a051-0e16-4f8d-b5a3-95cd5967a90b","system_id":"levelo_inurba_marseille","lat":43.24673,"lon":5.38148,"is_reserved":false,"is_disabled":false,"rental_uris":{"android":"levelo://app?vid=d331a051-0e16-4f8d-b5a3-95cd5967a90b","ios":"levelo://app?vid=d331a051-0e16-4f8d-b5a3-95cd5967a90b"},"vehicle_type_id":"4","last_reported":1742213934,"current_range_meters":8400,"station_id":"ce4bhih2rcd13ifvqfr0","pricing_plan_id":"cebpf4jnsgd1na2vs0mg"},{"bike_id":"2fe6b5d4-c6f7-40d2-9a0b-4798d57f392b","system_id":"levelo_inurba_marseille","lat":43.2308,"lon":5.35477,"is_reserved":false,"is_disabled":false,"rental_uris":{"android":"levelo://app?vid=2fe6b5d4-c6f7-40d2-9a0b-4798d57f392b","ios":"levelo://app?vid=2fe6b5d4-c6f7-40d2-9a0b-4798d57f392b"},"vehicle_type_id":"4","last_reported":1742213934,"current_range_meters":8400,"station_id":"cpo3342slgdg3j2ifvpg","pricing_plan_id":"cebpf4jnsgd1na2vs0mg"},{"bike_id":"e39f083d-4542-4f7b-9173-1e8fe9e09597","system_id":"levelo_inurba_marseille","lat":43.27493,"lon":5.42461,"is_reserved":false,"is_disabled":true,"rental_uris":{"android":"levelo://app?vid=e39f083d-4542-4f7b-9173-1e8fe9e09597","ios":"levelo://app?vid=e39f083d-4542-4f7b-9173-1e8fe9e09597"},"vehicle_type_id":"4","last_reported":1742213934,"current_range_meters":8400,"station_id":"ce4bhn92rcd13ifvqgrg","pricing_plan_id":"cebpf4jnsgd1na2vs0mg"},{"bike_id":"8328075f-d508-4d51-8cda-eb51cdd3db9d","system_id":"levelo_inurba_marseille","lat":43.3212,"lon":5.36773,"is_reserved":false,"is_disabled":false,"rental_uris":{"android":"levelo://app?vid=8328075f-d508-4d51-8cda-eb51cdd3db9d","ios":"levelo://app?vid=8328075f-d508-4d51-8cda-eb51cdd3db9d"},"vehicle_type_id":"4","last_reported":1742213934,"current_range_meters":8400,"station_id":"ce4bhrh2rcd13ifvqhug","pricing_plan_id":"cebpf4jnsgd1na2vs0mg"},{"bike_id":"021238b5-2b9d-46d2-b80c-a5e816fdc135","system_id":"levelo_inurba_marseille","lat":43.29515,"lon":5.42482,"is_reserved":false,"is_disabled":false,"rental_uris":{"android":"levelo://app?vid=021238b5-2b9d-46d2-b80c-a5e816fdc135","ios":"levelo://app?vid=021238b5-2b9d-46d2-b80c-a5e816fdc135"},"vehicle_type_id":"4","last_reported":1742213934,"current_range_meters":8400,"station_id":"","pricing_plan_id":"cebpf4jnsgd1na2vs0mg"},{"bike_id":"8966b61c-ce88-4243-a198-ab736df7d68f","system_id":"levelo_inurba_marseille","lat":43.24678,"lon":5.38129,"is_reserved":false,"is_disabled":false,"rental_uris":{"android":"levelo://app?vid=8966b61c-ce88-4243-a198-ab736df7d68f","ios":"levelo://app?vid=8966b61c-ce88-4243-a198-ab736df7d68f"},"vehicle_type_id":"4","last_reported":1742213934,"current_range_meters":8400,"station_id":"ce4bhih2rcd13ifvqfr0","pricing_plan_id":"cebpf4jnsgd1na2vs0mg"},{"bike_id":"4a82e9fa-897e-4db9-9848-eca7bdecdfdc","system_id":"levelo_inurba_marseille","lat":43.27892,"lon":5.38219,"is_reserved":false,"is_disabled":false,"rental_uris":{"android":"levelo://app?vid=4a82e9fa-897e-4db9-9848-eca7bdecdfdc","ios":"levelo://app?vid=4a82e9fa-897e-4db9-9848-eca7bdecdfdc"},"vehicle_type_id":"4","last_reported":1742213934,"current_range_meters":8400,"station_id":"","pricing_plan_id":"cebpf4jnsgd1na2vs0mg"},{"bike_id":"28cd485d-7b67-4a3d-b0db-5885c982a401","system_id":"levelo_inurba_marseille","lat":43.27207,"lon":5.39186,"is_reserved":false,"is_disabled":false,"rental_uris":{"android":"levelo://app?vid=28cd485d-7b67-4a3d-b0db-5885c982a401","ios":"levelo://app?vid=28cd485d-7b67-4a3d-b0db-5885c982a401"},"vehicle_type_id":"4","last_reported":1742213934,"current_range_meters":8400,"station_id":"ce4bhhp2rcd13ifvqfm0","pricing_plan_id":"cebpf4jnsgd1na2vs0mg"},{"bike_id":"ae452b57-1af6-4866-8bc7-6007a89c2f67","system_id":"levelo_inurba_marseille","lat":43.24656,"lon":5.38881,"is_reserved":false,"is_disabled":false,"rental_uris":{"android":"levelo://app?vid=ae452b57-1af6-4866-8bc7-6007a89c2f67","ios":"levelo://app?vid=ae452b57-1af6-4866-8bc7-6007a89c2f67"},"vehicle_type_id":"4","last_reported":1742213934,"current_range_meters":8400,"station_id":"ce4bhg12rcd13ifvqf60","pricing_plan_id":"cebpf4jnsgd1na2vs0mg"},{"bike_id":"b1caf000-cb2b-4aa7-9447-b41fe156b415","system_id":"levelo_inurba_marseille","lat":43.25934,"lon":5.40891,"is_reserved":false,"is_disabled":false,"rental_uris":{"android":"levelo://app?vid=b1caf000-cb2b-4aa7-9447-b41fe156b415","ios":"levelo://app?vid=b1caf000-cb2b-4aa7-9447-b41fe156b415"},"vehicle_type_id":"4","last_reported":1742213934,"current_range_meters":8000,"station_id":"ce4bhm92rcd13ifvqglg","pricing_plan_id":"cebpf4jnsgd1na2vs0mg"},{"bike_id":"4ffdacba-034c-421f-8d42-ca57612cd8c0","system_id":"levelo_inurba_marseille","lat":43.32367,"lon":5.36764,"is_reserved":false,"is_disabled":false,"rental_uris":{"android":"levelo://app?vid=4ffdacba-034c-421f-8d42-ca57612cd8c0","ios":"levelo://app?vid=4ffdacba-034c-421f-8d42-ca57612cd8c0"},"vehicle_type_id":"4","last_reported":1742213934,"current_range_meters":8400,"station_id":"ce4bhsh2rcd13ifvqi2g","pricing_plan_id":"cebpf4jnsgd1na2vs0mg"},{"bike_id":"b06b1727-338c-453c-98e4-9eaeb6bb495e","system_id":"levelo_inurba_marseille","lat":43.27916,"lon":5.38008,"is_reserved":false,"is_disabled":false,"rental_uris":{"android":"levelo://app?vid=b06b1727-338c-453c-98e4-9eaeb6bb495e","ios":"levelo://app?vid=b06b1727-338c-453c-98e4-9eaeb6bb495e"},"vehicle_type_id":"4","last_reported":1742213934,"current_range_meters":8800,"station_id":"ce4bhf92rcd13ifvqf50","pricing_plan_id":"cebpf4jnsgd1na2vs0mg"},{"bike_id":"8d542ee4-838b-4699-8232-94c9bd1cf6b1","system_id":"levelo_inurba_marseille","lat":43.23182,"lon":5.43694,"is_reserved":false,"is_disabled":false,"rental_uris":{"android":"levelo://app?vid=8d542ee4-838b-4699-8232-94c9bd1cf6b1","ios":"levelo://app?vid=8d542ee4-838b-4699-8232-94c9bd1cf6b1"},"vehicle_type_id":"4","last_reported":1742213934,"current_range_meters":8800,"station_id":"ce4bhmp2rcd13ifvqgog","pricing_plan_id":"cebpf4jnsgd1na2vs0mg"},{"bike_id":"29ce2983-d698-405a-b298-11d70a0d11de","system_id":"levelo_inurba_marseille","lat":43.2885,"lon":5.39311,"is_reserved":false,"is_disabled":false,"rental_uris":{"android":"levelo://app?vid=29ce2983-d698-405a-b298-11d70a0d11de","ios":"levelo://app?vid=29ce2983-d698-405a-b298-11d70a0d11de"},"vehicle_type_id":"4","last_reported":1742213934,"current_range_meters":8800,"station_id":"ce4bh2p2rcd13ifvqdi0","pricing_plan_id":"cebpf4jnsgd1na2vs0mg"},{"bike_id":"b97c5b8c-a368-422d-a06c-7acd256413b5","system_id":"levelo_inurba_marseille","lat":43.30867,"lon":5.39646,"is_reserved":false,"is_disabled":false,"rental_uris":{"android":"levelo://app?vid=b97c5b8c-a368-422d-a06c-7acd256413b5","ios":"levelo://app?vid=b97c5b8c-a368-422d-a06c-7acd256413b5"},"vehicle_type_id":"4","last_reported":1742213934,"current_range_meters":8400,"station_id":"ce4bh012rcd13ifvqcv0","pricing_plan_id":"cebpf4jnsgd1na2vs0mg"},{"bike_id":"21ea14e4-e712-4c55-80e9-78ee64e17fba","system_id":"levelo_inurba_marseille","lat":43.23154,"lon":5.43703,"is_reserved":false,"is_disabled":false,"rental_uris":{"android":"levelo://app?vid=21ea14e4-e712-4c55-80e9-78ee64e17fba","ios":"levelo://app?vid=21ea14e4-e712-4c55-80e9-78ee64e17fba"},"vehicle_type_id":"4","last_reported":1742213934,"current_range_meters":8800,"station_id":"ce4bhmp2rcd13ifvqgog","pricing_plan_id":"cebpf4jnsgd1na2vs0mg"},{"bike_id":"5ae3389f-4861-401c-8ef6-b6dce59ed540","system_id":"levelo_inurba_marseille","lat":43.32116,"lon":5.36763,"is_reserved":false,"is_disabled":false,"rental_uris":{"android":"levelo://app?vid=5ae3389f-4861-401c-8ef6-b6dce59ed540","ios":"levelo://app?vid=5ae3389f-4861-401c-8ef6-b6dce59ed540"},"vehicle_type_id":"4","last_reported":1742213934,"current_range_meters":8800,"station_id":"ce4bhrh2rcd13ifvqhug","pricing_plan_id":"cebpf4jnsgd1na2vs0mg"},{"bike_id":"2b7011fc-7dee-42c2-86d6-7293fa23c29b","system_id":"levelo_inurba_marseille","lat":43.286136,"lon":5.35108,"is_reserved":false,"is_disabled":true,"rental_uris":{"android":"levelo://app?vid=2b7011fc-7dee-42c2-86d6-7293fa23c29b","ios":"levelo://app?vid=2b7011fc-7dee-42c2-86d6-7293fa23c29b"},"vehicle_type_id":"4","last_reported":1742213934,"current_range_meters":8800,"station_id":"","pricing_plan_id":"cebpf4jnsgd1na2vs0mg"},{"bike_id":"cbb015d9-ad94-42fe-af59-eb5241308027","system_id":"levelo_inurba_marseille","lat":43.24706,"lon":5.38113,"is_reserved":false,"is_disabled":false,"rental_uris":{"android":"levelo://app?vid=cbb015d9-ad94-42fe-af59-eb5241308027","ios":"levelo://app?vid=cbb015d9-ad94-42fe-af59-eb5241308027"},"vehicle_type_id":"4","last_reported":1742213934,"current_range_meters":8800,"station_id":"ce4bhih2rcd13ifvqfr0","pricing_plan_id":"cebpf4jnsgd1na2vs0mg"},{"bike_id":"dc5d3e1c-fee8-48b9-a700-9c8d1f739776","system_id":"levelo_inurba_marseille","lat":43.30591,"lon":5.39361,"is_reserved":false,"is_disabled":false,"rental_uris":{"android":"levelo://app?vid=dc5d3e1c-fee8-48b9-a700-9c8d1f739776","ios":"levelo://app?vid=dc5d3e1c-fee8-48b9-a700-9c8d1f739776"},"vehicle_type_id":"4","last_reported":1742213934,"current_range_meters":8800,"station_id":"ce4bh0p2rcd13ifvqd80","pricing_plan_id":"cebpf4jnsgd1na2vs0mg"},{"bike_id":"aea1cf0e-9cc2-4a5a-87f9-a40fa19131b3","system_id":"levelo_inurba_marseille","lat":43.27907,"lon":5.3801,"is_reserved":false,"is_disabled":false,"rental_uris":{"android":"levelo://app?vid=aea1cf0e-9cc2-4a5a-87f9-a40fa19131b3","ios":"levelo://app?vid=aea1cf0e-9cc2-4a5a-87f9-a40fa19131b3"},"vehicle_type_id":"4","last_reported":1742213934,"current_range_meters":8800,"station_id":"ce4bhf92rcd13ifvqf50","pricing_plan_id":"cebpf4jnsgd1na2vs0mg"},{"bike_id":"0a018086-283c-4259-a1ff-a9304b066761","system_id":"levelo_inurba_marseille","lat":43.25017,"lon":5.38918,"is_reserved":false,"is_disabled":false,"rental_uris":{"android":"levelo://app?vid=0a018086-283c-4259-a1ff-a9304b066761","ios":"levelo://app?vid=0a018086-283c-4259-a1ff-a9304b066761"},"vehicle_type_id":"4","last_reported":1742213934,"current_range_meters":8800,"station_id":"ce4bhgp2rcd13ifvqfd0","pricing_plan_id":"cebpf4jnsgd1na2vs0mg"},{"bike_id":"098d4f1e-bebf-418e-adb0-db4a486f3308","system_id":"levelo_inurba_marseille","lat":43.262186,"lon":5.379248,"is_reserved":false,"is_disabled":false,"rental_uris":{"android":"levelo://app?vid=098d4f1e-bebf-418e-adb0-db4a486f3308","ios":"levelo://app?vid=098d4f1e-bebf-418e-adb0-db4a486f3308"},"vehicle_type_id":"4","last_reported":1742213934,"current_range_meters":9200,"station_id":"ce4bhjp2rcd13ifvqg90","pricing_plan_id":"cebpf4jnsgd1na2vs0mg"},{"bike_id":"5290cf9b-4ec9-4278-897d-dc5057c89e22","system_id":"levelo_inurba_marseille","lat":43.24071,"lon":5.37728,"is_reserved":false,"is_disabled":false,"rental_uris":{"android":"levelo://app?vid=5290cf9b-4ec9-4278-897d-dc5057c89e22","ios":"levelo://app?vid=5290cf9b-4ec9-4278-897d-dc5057c89e22"},"vehicle_type_id":"4","last_reported":1742213934,"current_range_meters":9200,"station_id":"ce4bhnp2rcd13ifvqgvg","pricing_plan_id":"cebpf4jnsgd1na2vs0mg"},{"bike_id":"f25939fc-48b1-44d4-aa1d-97d9274c9eb5","system_id":"levelo_inurba_marseille","lat":43.24689,"lon":5.3814,"is_reserved":false,"is_disabled":false,"rental_uris":{"android":"levelo://app?vid=f25939fc-48b1-44d4-aa1d-97d9274c9eb5","ios":"levelo://app?vid=f25939fc-48b1-44d4-aa1d-97d9274c9eb5"},"vehicle_type_id":"4","last_reported":1742213934,"current_range_meters":9200,"station_id":"ce4bhih2rcd13ifvqfr0","pricing_plan_id":"cebpf4jnsgd1na2vs0mg"},{"bike_id":"e0e721b1-c009-4a6b-a340-c83a0d53ecc1","system_id":"levelo_inurba_marseille","lat":43.32346,"lon":5.36753,"is_reserved":false,"is_disabled":false,"rental_uris":{"android":"levelo://app?vid=e0e721b1-c009-4a6b-a340-c83a0d53ecc1","ios":"levelo://app?vid=e0e721b1-c009-4a6b-a340-c83a0d53ecc1"},"vehicle_type_id":"4","last_reported":1742213934,"current_range_meters":9200,"station_id":"ce4bhsh2rcd13ifvqi2g","pricing_plan_id":"cebpf4jnsgd1na2vs0mg"},{"bike_id":"bbbdcaa6-b405-4405-8e78-41d074342c51","system_id":"levelo_inurba_marseille","lat":43.27082,"lon":5.42273,"is_reserved":false,"is_disabled":false,"rental_uris":{"android":"levelo://app?vid=bbbdcaa6-b405-4405-8e78-41d074342c51","ios":"levelo://app?vid=bbbdcaa6-b405-4405-8e78-41d074342c51"},"vehicle_type_id":"4","last_reported":1742213934,"current_range_meters":9200,"station_id":"ce4bhk92rcd13ifvqgb0","pricing_plan_id":"cebpf4jnsgd1na2vs0mg"},{"bike_id":"e6a3a5f9-3e59-4b02-80b2-e28b90fba89e","system_id":"levelo_inurba_marseille","lat":43.24168,"lon":5.364,"is_reserved":false,"is_disabled":false,"rental_uris":{"android":"levelo://app?vid=e6a3a5f9-3e59-4b02-80b2-e28b90fba89e","ios":"levelo://app?vid=e6a3a5f9-3e59-4b02-80b2-e28b90fba89e"},"vehicle_type_id":"4","last_reported":1742213934,"current_range_meters":9200,"station_id":"cpo36qri1sfpv3e86is0","pricing_plan_id":"cebpf4jnsgd1na2vs0mg"},{"bike_id":"fd4bbcf1-e740-4b18-bbe6-38cacb3051d9","system_id":"levelo_inurba_marseille","lat":43.23185,"lon":5.3999,"is_reserved":false,"is_disabled":false,"rental_uris":{"android":"levelo://app?vid=fd4bbcf1-e740-4b18-bbe6-38cacb3051d9","ios":"levelo://app?vid=fd4bbcf1-e740-4b18-bbe6-38cacb3051d9"},"vehicle_type_id":"4","last_reported":1742213934,"current_range_meters":9200,"station_id":"ce4bhn12rcd13ifvqgqg","pricing_plan_id":"cebpf4jnsgd1na2vs0mg"},{"bike_id":"3f3917b2-0edf-47a4-83c9-ca8fcf5cba45","system_id":"levelo_inurba_marseille","lat":43.27623,"lon":5.42489,"is_reserved":false,"is_disabled":false,"rental_uris":{"android":"levelo://app?vid=3f3917b2-0edf-47a4-83c9-ca8fcf5cba45","ios":"levelo://app?vid=3f3917b2-0edf-47a4-83c9-ca8fcf5cba45"},"vehicle_type_id":"4","last_reported":1742213934,"current_range_meters":9200,"station_id":"","pricing_plan_id":"cebpf4jnsgd1na2vs0mg"},{"bike_id":"83f0ddab-7b61-4fef-a377-7aba18657680","system_id":"levelo_inurba_marseille","lat":43.3059,"lon":5.39356,"is_reserved":false,"is_disabled":false,"rental_uris":{"android":"levelo://app?vid=83f0ddab-7b61-4fef-a377-7aba18657680","ios":"levelo://app?vid=83f0ddab-7b61-4fef-a377-7aba18657680"},"vehicle_type_id":"4","last_reported":1742213934,"current_range_meters":9200,"station_id":"ce4bh0p2rcd13ifvqd80","pricing_plan_id":"cebpf4jnsgd1na2vs0mg"},{"bike_id":"e03ae3a5-481f-4b90-9932-7773250fbc27","system_id":"levelo_inurba_marseille","lat":43.27377,"lon":5.36255,"is_reserved":false,"is_disabled":false,"rental_uris":{"android":"levelo://app?vid=e03ae3a5-481f-4b90-9932-7773250fbc27","ios":"levelo://app?vid=e03ae3a5-481f-4b90-9932-7773250fbc27"},"vehicle_type_id":"4","last_reported":1742213934,"current_range_meters":9200,"station_id":"ce4bhbh2rcd13ifvqeo0","pricing_plan_id":"cebpf4jnsgd1na2vs0mg"},{"bike_id":"46e9cbe0-4bec-4368-889b-87912b57c2b1","system_id":"levelo_inurba_marseille","lat":43.26021,"lon":5.41735,"is_reserved":false,"is_disabled":false,"rental_uris":{"android":"levelo://app?vid=46e9cbe0-4bec-4368-889b-87912b57c2b1","ios":"levelo://app?vid=46e9cbe0-4bec-4368-889b-87912b57c2b1"},"vehicle_type_id":"4","last_reported":1742213934,"current_range_meters":9600,"station_id":"","pricing_plan_id":"cebpf4jnsgd1na2vs0mg"},{"bike_id":"c532d59e-39e8-43d7-9452-2db466e08640","system_id":"levelo_inurba_marseille","lat":43.23149,"lon":5.43702,"is_reserved":false,"is_disabled":false,"rental_uris":{"android":"levelo://app?vid=c532d59e-39e8-43d7-9452-2db466e08640","ios":"levelo://app?vid=c532d59e-39e8-43d7-9452-2db466e08640"},"vehicle_type_id":"4","last_reported":1742213934,"current_range_meters":9600,"station_id":"ce4bhmp2rcd13ifvqgog","pricing_plan_id":"cebpf4jnsgd1na2vs0mg"},{"bike_id":"73ba6054-b256-49f9-a881-8617a962027d","system_id":"levelo_inurba_marseille","lat":43.23058,"lon":5.35497,"is_reserved":false,"is_disabled":false,"rental_uris":{"android":"levelo://app?vid=73ba6054-b256-49f9-a881-8617a962027d","ios":"levelo://app?vid=73ba6054-b256-49f9-a881-8617a962027d"},"vehicle_type_id":"4","last_reported":1742213934,"current_range_meters":9600,"station_id":"cpo3342slgdg3j2ifvpg","pricing_plan_id":"cebpf4jnsgd1na2vs0mg"},{"bike_id":"b0c3f4d0-11c4-4af8-b6f5-1683eea80887","system_id":"levelo_inurba_marseille","lat":43.29621,"lon":5.37165,"is_reserved":false,"is_disabled":false,"rental_uris":{"android":"levelo://app?vid=b0c3f4d0-11c4-4af8-b6f5-1683eea80887","ios":"levelo://app?vid=b0c3f4d0-11c4-4af8-b6f5-1683eea80887"},"vehicle_type_id":"4","last_reported":1742213934,"current_range_meters":9200,"station_id":"ce4bgnh2rcd13ifvqc0g","pricing_plan_id":"cebpf4jnsgd1na2vs0mg"},{"bike_id":"b3059eae-ee74-4ebb-9f2c-481b806d38ad","system_id":"levelo_inurba_marseille","lat":43.26216,"lon":5.37436,"is_reserved":false,"is_disabled":false,"rental_uris":{"android":"levelo://app?vid=b3059eae-ee74-4ebb-9f2c-481b806d38ad","ios":"levelo://app?vid=b3059eae-ee74-4ebb-9f2c-481b806d38ad"},"vehicle_type_id":"4","last_reported":1742213934,"current_range_meters":9600,"station_id":"ce4bhgp2rcd13ifvqfc0","pricing_plan_id":"cebpf4jnsgd1na2vs0mg"},{"bike_id":"62399145-9ad9-4901-bac2-91a881fc5d30","system_id":"levelo_inurba_marseille","lat":43.23156,"lon":5.43706,"is_reserved":false,"is_disabled":false,"rental_uris":{"android":"levelo://app?vid=62399145-9ad9-4901-bac2-91a881fc5d30","ios":"levelo://app?vid=62399145-9ad9-4901-bac2-91a881fc5d30"},"vehicle_type_id":"4","last_reported":1742213934,"current_range_meters":9600,"station_id":"ce4bhmp2rcd13ifvqgog","pricing_plan_id":"cebpf4jnsgd1na2vs0mg"},{"bike_id":"b54a649d-2707-4569-87ee-d2c230e19409","system_id":"levelo_inurba_marseille","lat":43.27454,"lon":5.40904,"is_reserved":false,"is_disabled":false,"rental_uris":{"android":"levelo://app?vid=b54a649d-2707-4569-87ee-d2c230e19409","ios":"levelo://app?vid=b54a649d-2707-4569-87ee-d2c230e19409"},"vehicle_type_id":"4","last_reported":1742213934,"current_range_meters":9600,"station_id":"","pricing_plan_id":"cebpf4jnsgd1na2vs0mg"},{"bike_id":"dd117a7c-a536-40a1-91af-43693b0b8fe5","system_id":"levelo_inurba_marseille","lat":43.2594,"lon":5.40891,"is_reserved":false,"is_disabled":false,"rental_uris":{"android":"levelo://app?vid=dd117a7c-a536-40a1-91af-43693b0b8fe5","ios":"levelo://app?vid=dd117a7c-a536-40a1-91af-43693b0b8fe5"},"vehicle_type_id":"4","last_reported":1742213934,"current_range_meters":9600,"station_id":"ce4bhm92rcd13ifvqglg","pricing_plan_id":"cebpf4jnsgd1na2vs0mg"},{"bike_id":"649a1820-3813-4ab9-ab93-b0221a9c1c04","system_id":"levelo_inurba_marseille","lat":43.27218,"lon":5.39176,"is_reserved":false,"is_disabled":false,"rental_uris":{"android":"levelo://app?vid=649a1820-3813-4ab9-ab93-b0221a9c1c04","ios":"levelo://app?vid=649a1820-3813-4ab9-ab93-b0221a9c1c04"},"vehicle_type_id":"4","last_reported":1742213934,"current_range_meters":9600,"station_id":"ce4bhhp2rcd13ifvqfm0","pricing_plan_id":"cebpf4jnsgd1na2vs0mg"},{"bike_id":"85d87f2d-ca0f-405a-bce8-a1269c2dc06e","system_id":"levelo_inurba_marseille","lat":43.26955,"lon":5.38622,"is_reserved":false,"is_disabled":true,"rental_uris":{"android":"levelo://app?vid=85d87f2d-ca0f-405a-bce8-a1269c2dc06e","ios":"levelo://app?vid=85d87f2d-ca0f-405a-bce8-a1269c2dc06e"},"vehicle_type_id":"4","last_reported":1742213934,"current_range_meters":9600,"station_id":"ce4bhh92rcd13ifvqfh0","pricing_plan_id":"cebpf4jnsgd1na2vs0mg"},{"bike_id":"2caf4a9a-0fdc-4be8-99c3-92290684314e","system_id":"levelo_inurba_marseille","lat":43.25009,"lon":5.38954,"is_reserved":false,"is_disabled":false,"rental_uris":{"android":"levelo://app?vid=2caf4a9a-0fdc-4be8-99c3-92290684314e","ios":"levelo://app?vid=2caf4a9a-0fdc-4be8-99c3-92290684314e"},"vehicle_type_id":"4","last_reported":1742213934,"current_range_meters":10000,"station_id":"ce4bhgp2rcd13ifvqfd0","pricing_plan_id":"cebpf4jnsgd1na2vs0mg"},{"bike_id":"6d8e8090-a4c7-4966-a3f4-a833922b9e5a","system_id":"levelo_inurba_marseille","lat":43.23193,"lon":5.35548,"is_reserved":false,"is_disabled":false,"rental_uris":{"android":"levelo://app?vid=6d8e8090-a4c7-4966-a3f4-a833922b9e5a","ios":"levelo://app?vid=6d8e8090-a4c7-4966-a3f4-a833922b9e5a"},"vehicle_type_id":"4","last_reported":1742213934,"current_range_meters":10000,"station_id":"ce4bhu92rcd13ifvqi70","pricing_plan_id":"cebpf4jnsgd1na2vs0mg"},{"bike_id":"c5fea745-9c54-41ac-84f5-36f572c16b70","system_id":"levelo_inurba_marseille","lat":43.29262,"lon":5.36848,"is_reserved":false,"is_disabled":false,"rental_uris":{"android":"levelo://app?vid=c5fea745-9c54-41ac-84f5-36f572c16b70","ios":"levelo://app?vid=c5fea745-9c54-41ac-84f5-36f572c16b70"},"vehicle_type_id":"4","last_reported":1742213934,"current_range_meters":10000,"station_id":"ce4bhbp2rcd13ifvqesg","pricing_plan_id":"cebpf4jnsgd1na2vs0mg"},{"bike_id":"75bb0487-a016-41c3-9c68-0d3f18db8b76","system_id":"levelo_inurba_marseille","lat":43.30555,"lon":5.36525,"is_reserved":false,"is_disabled":false,"rental_uris":{"android":"levelo://app?vid=75bb0487-a016-41c3-9c68-0d3f18db8b76","ios":"levelo://app?vid=75bb0487-a016-41c3-9c68-0d3f18db8b76"},"vehicle_type_id":"4","last_reported":1742213934,"current_range_meters":10000,"station_id":"ce4bgs12rcd13ifvqcag","pricing_plan_id":"cebpf4jnsgd1na2vs0mg"},{"bike_id":"06f70e2f-dfe1-4cf3-a0e2-cb1279c41c93","system_id":"levelo_inurba_marseille","lat":43.29259,"lon":5.36867,"is_reserved":false,"is_disabled":false,"rental_uris":{"android":"levelo://app?vid=06f70e2f-dfe1-4cf3-a0e2-cb1279c41c93","ios":"levelo://app?vid=06f70e2f-dfe1-4cf3-a0e2-cb1279c41c93"},"vehicle_type_id":"4","last_reported":1742213934,"current_range_meters":10000,"station_id":"ce4bhbp2rcd13ifvqesg","pricing_plan_id":"cebpf4jnsgd1na2vs0mg"},{"bike_id":"71ab1ae7-62b1-4d42-aa0f-dcde40ca280e","system_id":"levelo_inurba_marseille","lat":43.259,"lon":5.40903,"is_reserved":false,"is_disabled":false,"rental_uris":{"android":"levelo://app?vid=71ab1ae7-62b1-4d42-aa0f-dcde40ca280e","ios":"levelo://app?vid=71ab1ae7-62b1-4d42-aa0f-dcde40ca280e"},"vehicle_type_id":"4","last_reported":1742213934,"current_range_meters":10000,"station_id":"ce4bhm92rcd13ifvqglg","pricing_plan_id":"cebpf4jnsgd1na2vs0mg"},{"bike_id":"fa5f15ab-8994-45e1-84de-31aa4c8b3ced","system_id":"levelo_inurba_marseille","lat":43.23199,"lon":5.35555,"is_reserved":false,"is_disabled":false,"rental_uris":{"android":"levelo://app?vid=fa5f15ab-8994-45e1-84de-31aa4c8b3ced","ios":"levelo://app?vid=fa5f15ab-8994-45e1-84de-31aa4c8b3ced"},"vehicle_type_id":"4","last_reported":1742213934,"current_range_meters":10000,"station_id":"ce4bhu92rcd13ifvqi70","pricing_plan_id":"cebpf4jnsgd1na2vs0mg"},{"bike_id":"bbd834b5-2051-4cdb-b641-19e33baba1ef","system_id":"levelo_inurba_marseille","lat":43.309051,"lon":5.368496,"is_reserved":false,"is_disabled":false,"rental_uris":{"android":"levelo://app?vid=bbd834b5-2051-4cdb-b641-19e33baba1ef","ios":"levelo://app?vid=bbd834b5-2051-4cdb-b641-19e33baba1ef"},"vehicle_type_id":"4","last_reported":1742213934,"current_range_meters":10000,"station_id":"ce4bgn92rcd13ifvqbvg","pricing_plan_id":"cebpf4jnsgd1na2vs0mg"},{"bike_id":"01704ef1-d72e-4237-b336-b600e39559e9","system_id":"levelo_inurba_marseille","lat":43.29708,"lon":5.36609,"is_reserved":false,"is_disabled":false,"rental_uris":{"android":"levelo://app?vid=01704ef1-d72e-4237-b336-b600e39559e9","ios":"levelo://app?vid=01704ef1-d72e-4237-b336-b600e39559e9"},"vehicle_type_id":"4","last_reported":1742213934,"current_range_meters":10000,"station_id":"ce4bgn12rcd13ifvqbt0","pricing_plan_id":"cebpf4jnsgd1na2vs0mg"},{"bike_id":"f677e134-fa46-4ee4-ae42-15dd6fcd0c08","system_id":"levelo_inurba_marseille","lat":43.29302,"lon":5.37463,"is_reserved":false,"is_disabled":false,"rental_uris":{"android":"levelo://app?vid=f677e134-fa46-4ee4-ae42-15dd6fcd0c08","ios":"levelo://app?vid=f677e134-fa46-4ee4-ae42-15dd6fcd0c08"},"vehicle_type_id":"4","last_reported":1742213934,"current_range_meters":10000,"station_id":"ce4bgi12rcd13ifvqb70","pricing_plan_id":"cebpf4jnsgd1na2vs0mg"},{"bike_id":"9bdf99ad-2a20-4920-bf3f-0a6b8f86d8d1","system_id":"levelo_inurba_marseille","lat":43.29722,"lon":5.37688,"is_reserved":false,"is_disabled":false,"rental_uris":{"android":"levelo://app?vid=9bdf99ad-2a20-4920-bf3f-0a6b8f86d8d1","ios":"levelo://app?vid=9bdf99ad-2a20-4920-bf3f-0a6b8f86d8d1"},"vehicle_type_id":"4","last_reported":1742213934,"current_range_meters":10000,"station_id":"ce4bgkh2rcd13ifvqbl0","pricing_plan_id":"cebpf4jnsgd1na2vs0mg"},{"bike_id":"1ecb9fc8-c55f-4906-a6b3-3b2b095fb135","system_id":"levelo_inurba_marseille","lat":43.29545,"lon":5.42282,"is_reserved":false,"is_disabled":false,"rental_uris":{"android":"levelo://app?vid=1ecb9fc8-c55f-4906-a6b3-3b2b095fb135","ios":"levelo://app?vid=1ecb9fc8-c55f-4906-a6b3-3b2b095fb135"},"vehicle_type_id":"4","last_reported":1742213934,"current_range_meters":10000,"station_id":"ce4bhph2rcd13ifvqhdg","pricing_plan_id":"cebpf4jnsgd1na2vs0mg"},{"bike_id":"4d37376e-5944-402f-8fbb-7d0f48a208aa","system_id":"levelo_inurba_marseille","lat":43.32365,"lon":5.36769,"is_reserved":false,"is_disabled":false,"rental_uris":{"android":"levelo://app?vid=4d37376e-5944-402f-8fbb-7d0f48a208aa","ios":"levelo://app?vid=4d37376e-5944-402f-8fbb-7d0f48a208aa"},"vehicle_type_id":"4","last_reported":1742213934,"current_range_meters":10000,"station_id":"ce4bhsh2rcd13ifvqi2g","pricing_plan_id":"cebpf4jnsgd1na2vs0mg"},{"bike_id":"43000086-e882-4b3c-b9e0-ec5daa3f84a9","system_id":"levelo_inurba_marseille","lat":43.29264,"lon":5.36852,"is_reserved":false,"is_disabled":false,"rental_uris":{"android":"levelo://app?vid=43000086-e882-4b3c-b9e0-ec5daa3f84a9","ios":"levelo://app?vid=43000086-e882-4b3c-b9e0-ec5daa3f84a9"},"vehicle_type_id":"4","last_reported":1742213934,"current_range_meters":10800,"station_id":"ce4bhbp2rcd13ifvqesg","pricing_plan_id":"cebpf4jnsgd1na2vs0mg"},{"bike_id":"5f552a75-4e0d-4b72-b53b-9dd02203a999","system_id":"levelo_inurba_marseille","lat":43.319,"lon":5.40729,"is_reserved":false,"is_disabled":true,"rental_uris":{"android":"levelo://app?vid=5f552a75-4e0d-4b72-b53b-9dd02203a999","ios":"levelo://app?vid=5f552a75-4e0d-4b72-b53b-9dd02203a999"},"vehicle_type_id":"4","last_reported":1742213934,"current_range_meters":10800,"station_id":"ce4bhq12rcd13ifvqhig","pricing_plan_id":"cebpf4jnsgd1na2vs0mg"},{"bike_id":"d155b6d7-4f04-4869-a663-a1baa5b8f97e","system_id":"levelo_inurba_marseille","lat":43.23191,"lon":5.35564,"is_reserved":false,"is_disabled":false,"rental_uris":{"android":"levelo://app?vid=d155b6d7-4f04-4869-a663-a1baa5b8f97e","ios":"levelo://app?vid=d155b6d7-4f04-4869-a663-a1baa5b8f97e"},"vehicle_type_id":"4","last_reported":1742213934,"current_range_meters":10800,"station_id":"ce4bhu92rcd13ifvqi70","pricing_plan_id":"cebpf4jnsgd1na2vs0mg"},{"bike_id":"e4729e80-6ebe-4a50-a0c4-6223ad1758ad","system_id":"levelo_inurba_marseille","lat":43.29015,"lon":5.35597,"is_reserved":false,"is_disabled":false,"rental_uris":{"android":"levelo://app?vid=e4729e80-6ebe-4a50-a0c4-6223ad1758ad","ios":"levelo://app?vid=e4729e80-6ebe-4a50-a0c4-6223ad1758ad"},"vehicle_type_id":"4","last_reported":1742213934,"current_range_meters":10800,"station_id":"ce4bhb92rcd13ifvqen0","pricing_plan_id":"cebpf4jnsgd1na2vs0mg"},{"bike_id":"04078a74-4e93-4d09-b339-ea9c143113bc","system_id":"levelo_inurba_marseille","lat":43.28701,"lon":5.37402,"is_reserved":false,"is_disabled":true,"rental_uris":{"android":"levelo://app?vid=04078a74-4e93-4d09-b339-ea9c143113bc","ios":"levelo://app?vid=04078a74-4e93-4d09-b339-ea9c143113bc"},"vehicle_type_id":"4","last_reported":1742213934,"current_range_meters":10800,"station_id":"ce4bh3p2rcd13ifvqdq0","pricing_plan_id":"cebpf4jnsgd1na2vs0mg"},{"bike_id":"88c86206-38a9-424e-bbb9-2ec282c18756","system_id":"levelo_inurba_marseille","lat":43.24181,"lon":5.39722,"is_reserved":false,"is_disabled":false,"rental_uris":{"android":"levelo://app?vid=88c86206-38a9-424e-bbb9-2ec282c18756","ios":"levelo://app?vid=88c86206-38a9-424e-bbb9-2ec282c18756"},"vehicle_type_id":"4","last_reported":1742213934,"current_range_meters":10800,"station_id":"ce4bhn12rcd13ifvqgpg","pricing_plan_id":"cebpf4jnsgd1na2vs0mg"},{"bike_id":"b975dc73-dd4d-4275-a792-500b6b25d148","system_id":"levelo_inurba_marseille","lat":43.30146,"lon":5.38091,"is_reserved":false,"is_disabled":false,"rental_uris":{"android":"levelo://app?vid=b975dc73-dd4d-4275-a792-500b6b25d148","ios":"levelo://app?vid=b975dc73-dd4d-4275-a792-500b6b25d148"},"vehicle_type_id":"4","last_reported":1742213934,"current_range_meters":10800,"station_id":"ce4bgjp2rcd13ifvqbh0","pricing_plan_id":"cebpf4jnsgd1na2vs0mg"},{"bike_id":"00620a36-546f-4468-8a2c-399aef8da33b","system_id":"levelo_inurba_marseille","lat":43.28157,"lon":5.42647,"is_reserved":false,"is_disabled":false,"rental_uris":{"android":"levelo://app?vid=00620a36-546f-4468-8a2c-399aef8da33b","ios":"levelo://app?vid=00620a36-546f-4468-8a2c-399aef8da33b"},"vehicle_type_id":"4","last_reported":1742213934,"current_range_meters":10800,"station_id":"ce4bhnh2rcd13ifvqgug","pricing_plan_id":"cebpf4jnsgd1na2vs0mg"},{"bike_id":"aec1e65c-daab-454b-8910-46f19c20e587","system_id":"levelo_inurba_marseille","lat":43.25936,"lon":5.40907,"is_reserved":false,"is_disabled":false,"rental_uris":{"android":"levelo://app?vid=aec1e65c-daab-454b-8910-46f19c20e587","ios":"levelo://app?vid=aec1e65c-daab-454b-8910-46f19c20e587"},"vehicle_type_id":"4","last_reported":1742213934,"current_range_meters":10800,"station_id":"ce4bhm92rcd13ifvqglg","pricing_plan_id":"cebpf4jnsgd1na2vs0mg"},{"bike_id":"e5e6ddae-5905-45f6-9341-9cbbd57a7c03","system_id":"levelo_inurba_marseille","lat":43.2993,"lon":5.36524,"is_reserved":false,"is_disabled":false,"rental_uris":{"android":"levelo://app?vid=e5e6ddae-5905-45f6-9341-9cbbd57a7c03","ios":"levelo://app?vid=e5e6ddae-5905-45f6-9341-9cbbd57a7c03"},"vehicle_type_id":"4","last_reported":1742213934,"current_range_meters":11200,"station_id":"ce4bgm92rcd13ifvqbr0","pricing_plan_id":"cebpf4jnsgd1na2vs0mg"},{"bike_id":"703447d3-0a6e-4767-a0f7-81222e2c6326","system_id":"levelo_inurba_marseille","lat":43.28135,"lon":5.42654,"is_reserved":false,"is_disabled":false,"rental_uris":{"android":"levelo://app?vid=703447d3-0a6e-4767-a0f7-81222e2c6326","ios":"levelo://app?vid=703447d3-0a6e-4767-a0f7-81222e2c6326"},"vehicle_type_id":"4","last_reported":1742213934,"current_range_meters":11200,"station_id":"ce4bhnh2rcd13ifvqgug","pricing_plan_id":"cebpf4jnsgd1na2vs0mg"},{"bike_id":"d7eda30e-0b17-4e75-a771-115d48ffa128","system_id":"levelo_inurba_marseille","lat":43.32567,"lon":5.41441,"is_reserved":false,"is_disabled":false,"rental_uris":{"android":"levelo://app?vid=d7eda30e-0b17-4e75-a771-115d48ffa128","ios":"levelo://app?vid=d7eda30e-0b17-4e75-a771-115d48ffa128"},"vehicle_type_id":"4","last_reported":1742213934,"current_range_meters":11200,"station_id":"ce4bhq12rcd13ifvqhhg","pricing_plan_id":"cebpf4jnsgd1na2vs0mg"},{"bike_id":"fddb55d4-2f6d-458b-a063-69a98e83f2fb","system_id":"levelo_inurba_marseille","lat":43.24161,"lon":5.39726,"is_reserved":false,"is_disabled":false,"rental_uris":{"android":"levelo://app?vid=fddb55d4-2f6d-458b-a063-69a98e83f2fb","ios":"levelo://app?vid=fddb55d4-2f6d-458b-a063-69a98e83f2fb"},"vehicle_type_id":"4","last_reported":1742213934,"current_range_meters":11200,"station_id":"ce4bhn12rcd13ifvqgpg","pricing_plan_id":"cebpf4jnsgd1na2vs0mg"},{"bike_id":"3d5016d1-6687-4220-aa49-28bbd107ce48","system_id":"levelo_inurba_marseille","lat":43.25908,"lon":5.40902,"is_reserved":false,"is_disabled":false,"rental_uris":{"android":"levelo://app?vid=3d5016d1-6687-4220-aa49-28bbd107ce48","ios":"levelo://app?vid=3d5016d1-6687-4220-aa49-28bbd107ce48"},"vehicle_type_id":"4","last_reported":1742213934,"current_range_meters":11200,"station_id":"ce4bhm92rcd13ifvqglg","pricing_plan_id":"cebpf4jnsgd1na2vs0mg"},{"bike_id":"007b719e-862a-4584-b091-20a46b614416","system_id":"levelo_inurba_marseille","lat":43.30129,"lon":5.39858,"is_reserved":false,"is_disabled":false,"rental_uris":{"android":"levelo://app?vid=007b719e-862a-4584-b091-20a46b614416","ios":"levelo://app?vid=007b719e-862a-4584-b091-20a46b614416"},"vehicle_type_id":"4","last_reported":1742213934,"current_range_meters":11200,"station_id":"ce4bh0h2rcd13ifvqd40","pricing_plan_id":"cebpf4jnsgd1na2vs0mg"},{"bike_id":"0d3accb9-853e-4df0-b9d8-4607b8048f46","system_id":"levelo_inurba_marseille","lat":43.24165,"lon":5.36397,"is_reserved":false,"is_disabled":false,"rental_uris":{"android":"levelo://app?vid=0d3accb9-853e-4df0-b9d8-4607b8048f46","ios":"levelo://app?vid=0d3accb9-853e-4df0-b9d8-4607b8048f46"},"vehicle_type_id":"4","last_reported":1742213934,"current_range_meters":11200,"station_id":"cpo36qri1sfpv3e86is0","pricing_plan_id":"cebpf4jnsgd1na2vs0mg"},{"bike_id":"90dd9516-5cd4-42e8-a5ce-2caef0ca5845","system_id":"levelo_inurba_marseille","lat":43.28569,"lon":5.39494,"is_reserved":false,"is_disabled":true,"rental_uris":{"android":"levelo://app?vid=90dd9516-5cd4-42e8-a5ce-2caef0ca5845","ios":"levelo://app?vid=90dd9516-5cd4-42e8-a5ce-2caef0ca5845"},"vehicle_type_id":"4","last_reported":1742213934,"current_range_meters":11200,"station_id":"ce4bh292rcd13ifvqdg0","pricing_plan_id":"cebpf4jnsgd1na2vs0mg"},{"bike_id":"05c13319-15ae-4c04-9c39-362b18f5dd74","system_id":"levelo_inurba_marseille","lat":43.2997,"lon":5.37177,"is_reserved":false,"is_disabled":false,"rental_uris":{"android":"levelo://app?vid=05c13319-15ae-4c04-9c39-362b18f5dd74","ios":"levelo://app?vid=05c13319-15ae-4c04-9c39-362b18f5dd74"},"vehicle_type_id":"4","last_reported":1742213934,"current_range_meters":11200,"station_id":"ce4bgr92rcd13ifvqc7g","pricing_plan_id":"cebpf4jnsgd1na2vs0mg"},{"bike_id":"cccdb7a4-a2fb-4ef7-8051-32d698bedbb7","system_id":"levelo_inurba_marseille","lat":43.26054,"lon":5.39404,"is_reserved":false,"is_disabled":false,"rental_uris":{"android":"levelo://app?vid=cccdb7a4-a2fb-4ef7-8051-32d698bedbb7","ios":"levelo://app?vid=cccdb7a4-a2fb-4ef7-8051-32d698bedbb7"},"vehicle_type_id":"4","last_reported":1742213934,"current_range_meters":11200,"station_id":"ce4bhh92rcd13ifvqfj0","pricing_plan_id":"cebpf4jnsgd1na2vs0mg"},{"bike_id":"286da521-aa1d-485a-8adb-321b712ff550","system_id":"levelo_inurba_marseille","lat":43.23147,"lon":5.43717,"is_reserved":false,"is_disabled":false,"rental_uris":{"android":"levelo://app?vid=286da521-aa1d-485a-8adb-321b712ff550","ios":"levelo://app?vid=286da521-aa1d-485a-8adb-321b712ff550"},"vehicle_type_id":"4","last_reported":1742213934,"current_range_meters":11200,"station_id":"ce4bhmp2rcd13ifvqgog","pricing_plan_id":"cebpf4jnsgd1na2vs0mg"},{"bike_id":"8f670b81-074f-4be7-baa0-0a9fbcfe143c","system_id":"levelo_inurba_marseille","lat":43.30777,"lon":5.37656,"is_reserved":false,"is_disabled":false,"rental_uris":{"android":"levelo://app?vid=8f670b81-074f-4be7-baa0-0a9fbcfe143c","ios":"levelo://app?vid=8f670b81-074f-4be7-baa0-0a9fbcfe143c"},"vehicle_type_id":"4","last_reported":1742213934,"current_range_meters":11200,"station_id":"ce4bgv92rcd13ifvqcq0","pricing_plan_id":"cebpf4jnsgd1na2vs0mg"},{"bike_id":"b1b41327-66f3-4983-ac80-93a6af2a034d","system_id":"levelo_inurba_marseille","lat":43.23083,"lon":5.35488,"is_reserved":false,"is_disabled":false,"rental_uris":{"android":"levelo://app?vid=b1b41327-66f3-4983-ac80-93a6af2a034d","ios":"levelo://app?vid=b1b41327-66f3-4983-ac80-93a6af2a034d"},"vehicle_type_id":"4","last_reported":1742213934,"current_range_meters":11600,"station_id":"cpo3342slgdg3j2ifvpg","pricing_plan_id":"cebpf4jnsgd1na2vs0mg"},{"bike_id":"173a1c56-a920-436c-870b-f2f8ddd6600b","system_id":"levelo_inurba_marseille","lat":43.29257,"lon":5.40919,"is_reserved":false,"is_disabled":false,"rental_uris":{"android":"levelo://app?vid=173a1c56-a920-436c-870b-f2f8ddd6600b","ios":"levelo://app?vid=173a1c56-a920-436c-870b-f2f8ddd6600b"},"vehicle_type_id":"4","last_reported":1742213934,"current_range_meters":11200,"station_id":"ce4bh192rcd13ifvqdc0","pricing_plan_id":"cebpf4jnsgd1na2vs0mg"},{"bike_id":"50d5a895-aeab-4551-8d24-4548fb8a1c51","system_id":"levelo_inurba_marseille","lat":43.27911,"lon":5.37998,"is_reserved":false,"is_disabled":false,"rental_uris":{"android":"levelo://app?vid=50d5a895-aeab-4551-8d24-4548fb8a1c51","ios":"levelo://app?vid=50d5a895-aeab-4551-8d24-4548fb8a1c51"},"vehicle_type_id":"4","last_reported":1742213934,"current_range_meters":11600,"station_id":"ce4bhf92rcd13ifvqf50","pricing_plan_id":"cebpf4jnsgd1na2vs0mg"},{"bike_id":"0f9f6175-2f47-47ac-a4b9-eb599ec620d2","system_id":"levelo_inurba_marseille","lat":43.3229,"lon":5.38269,"is_reserved":false,"is_disabled":false,"rental_uris":{"android":"levelo://app?vid=0f9f6175-2f47-47ac-a4b9-eb599ec620d2","ios":"levelo://app?vid=0f9f6175-2f47-47ac-a4b9-eb599ec620d2"},"vehicle_type_id":"4","last_reported":1742213934,"current_range_meters":11200,"station_id":"ce4bhr12rcd13ifvqhqg","pricing_plan_id":"cebpf4jnsgd1na2vs0mg"},{"bike_id":"e57f8671-489e-4627-bf34-6718dee9a624","system_id":"levelo_inurba_marseille","lat":43.30558,"lon":5.36524,"is_reserved":false,"is_disabled":false,"rental_uris":{"android":"levelo://app?vid=e57f8671-489e-4627-bf34-6718dee9a624","ios":"levelo://app?vid=e57f8671-489e-4627-bf34-6718dee9a624"},"vehicle_type_id":"4","last_reported":1742213934,"current_range_meters":11600,"station_id":"ce4bgs12rcd13ifvqcag","pricing_plan_id":"cebpf4jnsgd1na2vs0mg"},{"bike_id":"2665cc4b-07ed-4ae6-a66f-2b09983c709d","system_id":"levelo_inurba_marseille","lat":43.33761,"lon":5.37489,"is_reserved":false,"is_disabled":false,"rental_uris":{"android":"levelo://app?vid=2665cc4b-07ed-4ae6-a66f-2b09983c709d","ios":"levelo://app?vid=2665cc4b-07ed-4ae6-a66f-2b09983c709d"},"vehicle_type_id":"4","last_reported":1742213934,"current_range_meters":11600,"station_id":"","pricing_plan_id":"cebpf4jnsgd1na2vs0mg"},{"bike_id":"1e6bba5d-5a6b-47c1-964a-fc01f3515e69","system_id":"levelo_inurba_marseille","lat":43.23173,"lon":5.4369,"is_reserved":false,"is_disabled":false,"rental_uris":{"android":"levelo://app?vid=1e6bba5d-5a6b-47c1-964a-fc01f3515e69","ios":"levelo://app?vid=1e6bba5d-5a6b-47c1-964a-fc01f3515e69"},"vehicle_type_id":"4","last_reported":1742213934,"current_range_meters":11600,"station_id":"ce4bhmp2rcd13ifvqgog","pricing_plan_id":"cebpf4jnsgd1na2vs0mg"},{"bike_id":"005088c9-d89a-4f30-b605-fd0ab96c1769","system_id":"levelo_inurba_marseille","lat":43.26061,"lon":5.39392,"is_reserved":false,"is_disabled":false,"rental_uris":{"android":"levelo://app?vid=005088c9-d89a-4f30-b605-fd0ab96c1769","ios":"levelo://app?vid=005088c9-d89a-4f30-b605-fd0ab96c1769"},"vehicle_type_id":"4","last_reported":1742213934,"current_range_meters":11600,"station_id":"","pricing_plan_id":"cebpf4jnsgd1na2vs0mg"},{"bike_id":"6f269e2d-5984-437a-a538-7f120c4fc7dd","system_id":"levelo_inurba_marseille","lat":43.23066,"lon":5.35485,"is_reserved":false,"is_disabled":false,"rental_uris":{"android":"levelo://app?vid=6f269e2d-5984-437a-a538-7f120c4fc7dd","ios":"levelo://app?vid=6f269e2d-5984-437a-a538-7f120c4fc7dd"},"vehicle_type_id":"4","last_reported":1742213934,"current_range_meters":11600,"station_id":"cpo3342slgdg3j2ifvpg","pricing_plan_id":"cebpf4jnsgd1na2vs0mg"},{"bike_id":"8fe7e33b-57fc-439c-ba02-015988635c80","system_id":"levelo_inurba_marseille","lat":43.27082,"lon":5.42272,"is_reserved":false,"is_disabled":true,"rental_uris":{"android":"levelo://app?vid=8fe7e33b-57fc-439c-ba02-015988635c80","ios":"levelo://app?vid=8fe7e33b-57fc-439c-ba02-015988635c80"},"vehicle_type_id":"4","last_reported":1742213934,"current_range_meters":11600,"station_id":"ce4bhk92rcd13ifvqgb0","pricing_plan_id":"cebpf4jnsgd1na2vs0mg"},{"bike_id":"d05c39a3-8d01-4ccd-8a37-1236686718b4","system_id":"levelo_inurba_marseille","lat":43.337444,"lon":5.374475,"is_reserved":false,"is_disabled":false,"rental_uris":{"android":"levelo://app?vid=d05c39a3-8d01-4ccd-8a37-1236686718b4","ios":"levelo://app?vid=d05c39a3-8d01-4ccd-8a37-1236686718b4"},"vehicle_type_id":"4","last_reported":1742213934,"current_range_meters":11200,"station_id":"ce4bh2p2rcd13ifvqdi0","pricing_plan_id":"cebpf4jnsgd1na2vs0mg"},{"bike_id":"7a8a8ccb-b5ee-4bab-9535-af226cc12302","system_id":"levelo_inurba_marseille","lat":43.29083,"lon":5.42343,"is_reserved":false,"is_disabled":false,"rental_uris":{"android":"levelo://app?vid=7a8a8ccb-b5ee-4bab-9535-af226cc12302","ios":"levelo://app?vid=7a8a8ccb-b5ee-4bab-9535-af226cc12302"},"vehicle_type_id":"4","last_reported":1742213934,"current_range_meters":11600,"station_id":"","pricing_plan_id":"cebpf4jnsgd1na2vs0mg"},{"bike_id":"5506b406-3ff3-4719-be12-35f92911cc84","system_id":"levelo_inurba_marseille","lat":43.2408,"lon":5.37755,"is_reserved":false,"is_disabled":false,"rental_uris":{"android":"levelo://app?vid=5506b406-3ff3-4719-be12-35f92911cc84","ios":"levelo://app?vid=5506b406-3ff3-4719-be12-35f92911cc84"},"vehicle_type_id":"4","last_reported":1742213934,"current_range_meters":11600,"station_id":"ce4bhnp2rcd13ifvqgvg","pricing_plan_id":"cebpf4jnsgd1na2vs0mg"},{"bike_id":"d990743a-3b81-40cd-acf4-2d2a5513326c","system_id":"levelo_inurba_marseille","lat":43.32481,"lon":5.36552,"is_reserved":false,"is_disabled":false,"rental_uris":{"android":"levelo://app?vid=d990743a-3b81-40cd-acf4-2d2a5513326c","ios":"levelo://app?vid=d990743a-3b81-40cd-acf4-2d2a5513326c"},"vehicle_type_id":"4","last_reported":1742213934,"current_range_meters":12000,"station_id":"ce4bhs12rcd13ifvqhvg","pricing_plan_id":"cebpf4jnsgd1na2vs0mg"},{"bike_id":"d26a309c-0c38-479d-a3b1-6466685e919d","system_id":"levelo_inurba_marseille","lat":43.30068,"lon":5.36475,"is_reserved":false,"is_disabled":false,"rental_uris":{"android":"levelo://app?vid=d26a309c-0c38-479d-a3b1-6466685e919d","ios":"levelo://app?vid=d26a309c-0c38-479d-a3b1-6466685e919d"},"vehicle_type_id":"4","last_reported":1742213934,"current_range_meters":12000,"station_id":"","pricing_plan_id":"cebpf4jnsgd1na2vs0mg"},{"bike_id":"970ab56c-7ca9-4feb-a775-350497a5f6ff","system_id":"levelo_inurba_marseille","lat":43.24159,"lon":5.36397,"is_reserved":false,"is_disabled":false,"rental_uris":{"android":"levelo://app?vid=970ab56c-7ca9-4feb-a775-350497a5f6ff","ios":"levelo://app?vid=970ab56c-7ca9-4feb-a775-350497a5f6ff"},"vehicle_type_id":"4","last_reported":1742213934,"current_range_meters":12000,"station_id":"cpo36qri1sfpv3e86is0","pricing_plan_id":"cebpf4jnsgd1na2vs0mg"},{"bike_id":"593f0f80-f0f8-4be5-90a3-684a7f8897bf","system_id":"levelo_inurba_marseille","lat":43.25938,"lon":5.4092,"is_reserved":false,"is_disabled":false,"rental_uris":{"android":"levelo://app?vid=593f0f80-f0f8-4be5-90a3-684a7f8897bf","ios":"levelo://app?vid=593f0f80-f0f8-4be5-90a3-684a7f8897bf"},"vehicle_type_id":"4","last_reported":1742213934,"current_range_meters":12000,"station_id":"ce4bhm92rcd13ifvqglg","pricing_plan_id":"cebpf4jnsgd1na2vs0mg"},{"bike_id":"ba17eb78-f062-4f77-b8b0-1a4a31d62a9e","system_id":"levelo_inurba_marseille","lat":43.2572,"lon":5.411,"is_reserved":false,"is_disabled":true,"rental_uris":{"android":"levelo://app?vid=ba17eb78-f062-4f77-b8b0-1a4a31d62a9e","ios":"levelo://app?vid=ba17eb78-f062-4f77-b8b0-1a4a31d62a9e"},"vehicle_type_id":"4","last_reported":1742213934,"current_range_meters":12000,"station_id":"ce4bhkp2rcd13ifvqgd0","pricing_plan_id":"cebpf4jnsgd1na2vs0mg"},{"bike_id":"020fe820-aeb3-48e1-a65f-882a448f5e03","system_id":"levelo_inurba_marseille","lat":43.30599,"lon":5.39364,"is_reserved":false,"is_disabled":false,"rental_uris":{"android":"levelo://app?vid=020fe820-aeb3-48e1-a65f-882a448f5e03","ios":"levelo://app?vid=020fe820-aeb3-48e1-a65f-882a448f5e03"},"vehicle_type_id":"4","last_reported":1742213934,"current_range_meters":12400,"station_id":"ce4bh0p2rcd13ifvqd80","pricing_plan_id":"cebpf4jnsgd1na2vs0mg"},{"bike_id":"7ba1e3fe-e301-487b-a701-faf19b9271bc","system_id":"levelo_inurba_marseille","lat":43.25894,"lon":5.40872,"is_reserved":false,"is_disabled":false,"rental_uris":{"android":"levelo://app?vid=7ba1e3fe-e301-487b-a701-faf19b9271bc","ios":"levelo://app?vid=7ba1e3fe-e301-487b-a701-faf19b9271bc"},"vehicle_type_id":"4","last_reported":1742213934,"current_range_meters":12400,"station_id":"ce4bhm92rcd13ifvqglg","pricing_plan_id":"cebpf4jnsgd1na2vs0mg"},{"bike_id":"de836014-b98c-485c-a2d2-e285e161186e","system_id":"levelo_inurba_marseille","lat":43.30144,"lon":5.37416,"is_reserved":false,"is_disabled":false,"rental_uris":{"android":"levelo://app?vid=de836014-b98c-485c-a2d2-e285e161186e","ios":"levelo://app?vid=de836014-b98c-485c-a2d2-e285e161186e"},"vehicle_type_id":"4","last_reported":1742213934,"current_range_meters":12400,"station_id":"ce4bgs92rcd13ifvqcc0","pricing_plan_id":"cebpf4jnsgd1na2vs0mg"},{"bike_id":"42e35520-f310-4cc9-afe0-cc69621e6853","system_id":"levelo_inurba_marseille","lat":43.32372,"lon":5.38887,"is_reserved":false,"is_disabled":false,"rental_uris":{"android":"levelo://app?vid=42e35520-f310-4cc9-afe0-cc69621e6853","ios":"levelo://app?vid=42e35520-f310-4cc9-afe0-cc69621e6853"},"vehicle_type_id":"4","last_reported":1742213934,"current_range_meters":12400,"station_id":"ce4bhqp2rcd13ifvqhog","pricing_plan_id":"cebpf4jnsgd1na2vs0mg"},{"bike_id":"c251d167-5c53-460b-a6c9-dec3c8741eaf","system_id":"levelo_inurba_marseille","lat":43.27502,"lon":5.4245,"is_reserved":false,"is_disabled":false,"rental_uris":{"android":"levelo://app?vid=c251d167-5c53-460b-a6c9-dec3c8741eaf","ios":"levelo://app?vid=c251d167-5c53-460b-a6c9-dec3c8741eaf"},"vehicle_type_id":"4","last_reported":1742213934,"current_range_meters":12400,"station_id":"ce4bhn92rcd13ifvqgrg","pricing_plan_id":"cebpf4jnsgd1na2vs0mg"},{"bike_id":"acb56ef8-5666-4e7e-89de-c1c09910662b","system_id":"levelo_inurba_marseille","lat":43.25076,"lon":5.39503,"is_reserved":false,"is_disabled":false,"rental_uris":{"android":"levelo://app?vid=acb56ef8-5666-4e7e-89de-c1c09910662b","ios":"levelo://app?vid=acb56ef8-5666-4e7e-89de-c1c09910662b"},"vehicle_type_id":"4","last_reported":1742213934,"current_range_meters":12800,"station_id":"ce4bhm12rcd13ifvqgkg","pricing_plan_id":"cebpf4jnsgd1na2vs0mg"},{"bike_id":"434d036b-f569-4a07-960b-f7a1d0862195","system_id":"levelo_inurba_marseille","lat":43.24097,"lon":5.37749,"is_reserved":false,"is_disabled":false,"rental_uris":{"android":"levelo://app?vid=434d036b-f569-4a07-960b-f7a1d0862195","ios":"levelo://app?vid=434d036b-f569-4a07-960b-f7a1d0862195"},"vehicle_type_id":"4","last_reported":1742213934,"current_range_meters":12800,"station_id":"ce4bhnp2rcd13ifvqgvg","pricing_plan_id":"cebpf4jnsgd1na2vs0mg"},{"bike_id":"3aa34b08-26df-48fe-bc1d-bdc418f8b7e3","system_id":"levelo_inurba_marseille","lat":43.29844,"lon":5.36256,"is_reserved":false,"is_disabled":false,"rental_uris":{"android":"levelo://app?vid=3aa34b08-26df-48fe-bc1d-bdc418f8b7e3","ios":"levelo://app?vid=3aa34b08-26df-48fe-bc1d-bdc418f8b7e3"},"vehicle_type_id":"4","last_reported":1742213934,"current_range_meters":12800,"station_id":"ce4bgpp2rcd13ifvqc3g","pricing_plan_id":"cebpf4jnsgd1na2vs0mg"},{"bike_id":"b9be9cfa-91ce-41bf-9fe9-fa70d594e3f6","system_id":"levelo_inurba_marseille","lat":43.27213,"lon":5.3918,"is_reserved":false,"is_disabled":false,"rental_uris":{"android":"levelo://app?vid=b9be9cfa-91ce-41bf-9fe9-fa70d594e3f6","ios":"levelo://app?vid=b9be9cfa-91ce-41bf-9fe9-fa70d594e3f6"},"vehicle_type_id":"4","last_reported":1742213934,"current_range_meters":12400,"station_id":"ce4bhhp2rcd13ifvqfm0","pricing_plan_id":"cebpf4jnsgd1na2vs0mg"},{"bike_id":"f1a36702-4f7f-4354-95d1-8ac2ee3c1fb9","system_id":"levelo_inurba_marseille","lat":43.305474,"lon":5.365293,"is_reserved":false,"is_disabled":false,"rental_uris":{"android":"levelo://app?vid=f1a36702-4f7f-4354-95d1-8ac2ee3c1fb9","ios":"levelo://app?vid=f1a36702-4f7f-4354-95d1-8ac2ee3c1fb9"},"vehicle_type_id":"4","last_reported":1742213934,"current_range_meters":12800,"station_id":"ce4bgs12rcd13ifvqcag","pricing_plan_id":"cebpf4jnsgd1na2vs0mg"},{"bike_id":"914e9200-f35e-497c-bd78-9de45b7e04db","system_id":"levelo_inurba_marseille","lat":43.22934,"lon":5.3536,"is_reserved":false,"is_disabled":false,"rental_uris":{"android":"levelo://app?vid=914e9200-f35e-497c-bd78-9de45b7e04db","ios":"levelo://app?vid=914e9200-f35e-497c-bd78-9de45b7e04db"},"vehicle_type_id":"4","last_reported":1742213934,"current_range_meters":12800,"station_id":"cpo3532slgdg3j2ikp40","pricing_plan_id":"cebpf4jnsgd1na2vs0mg"},{"bike_id":"da5a113c-bb4c-4188-83c1-496abb0309ad","system_id":"levelo_inurba_marseille","lat":43.25856,"lon":5.39902,"is_reserved":false,"is_disabled":false,"rental_uris":{"android":"levelo://app?vid=da5a113c-bb4c-4188-83c1-496abb0309ad","ios":"levelo://app?vid=da5a113c-bb4c-4188-83c1-496abb0309ad"},"vehicle_type_id":"4","last_reported":1742213934,"current_range_meters":12800,"station_id":"ce4bhl92rcd13ifvqghg","pricing_plan_id":"cebpf4jnsgd1na2vs0mg"},{"bike_id":"ee54ac11-db4c-4dd1-9f8e-34ff11e58d2c","system_id":"levelo_inurba_marseille","lat":43.26669,"lon":5.3828,"is_reserved":false,"is_disabled":false,"rental_uris":{"android":"levelo://app?vid=ee54ac11-db4c-4dd1-9f8e-34ff11e58d2c","ios":"levelo://app?vid=ee54ac11-db4c-4dd1-9f8e-34ff11e58d2c"},"vehicle_type_id":"4","last_reported":1742213934,"current_range_meters":12800,"station_id":"ce4bhg92rcd13ifvqf90","pricing_plan_id":"cebpf4jnsgd1na2vs0mg"},{"bike_id":"bb751c44-4140-45b8-b023-3f0e4fb18b86","system_id":"levelo_inurba_marseille","lat":43.3031,"lon":5.37767,"is_reserved":false,"is_disabled":false,"rental_uris":{"android":"levelo://app?vid=bb751c44-4140-45b8-b023-3f0e4fb18b86","ios":"levelo://app?vid=bb751c44-4140-45b8-b023-3f0e4fb18b86"},"vehicle_type_id":"4","last_reported":1742213934,"current_range_meters":13600,"station_id":"","pricing_plan_id":"cebpf4jnsgd1na2vs0mg"},{"bike_id":"24a6b1bd-6db6-44ff-bd43-d46334b28e72","system_id":"levelo_inurba_marseille","lat":43.29621,"lon":5.37155,"is_reserved":false,"is_disabled":false,"rental_uris":{"android":"levelo://app?vid=24a6b1bd-6db6-44ff-bd43-d46334b28e72","ios":"levelo://app?vid=24a6b1bd-6db6-44ff-bd43-d46334b28e72"},"vehicle_type_id":"4","last_reported":1742213934,"current_range_meters":12800,"station_id":"ce4bgnh2rcd13ifvqc0g","pricing_plan_id":"cebpf4jnsgd1na2vs0mg"},{"bike_id":"5c07f3ca-a9f9-47ce-89e2-28a4e4e57955","system_id":"levelo_inurba_marseille","lat":43.2656,"lon":5.39005,"is_reserved":false,"is_disabled":false,"rental_uris":{"android":"levelo://app?vid=5c07f3ca-a9f9-47ce-89e2-28a4e4e57955","ios":"levelo://app?vid=5c07f3ca-a9f9-47ce-89e2-28a4e4e57955"},"vehicle_type_id":"4","last_reported":1742213934,"current_range_meters":13600,"station_id":"ce4bhe12rcd13ifvqf30","pricing_plan_id":"cebpf4jnsgd1na2vs0mg"},{"bike_id":"4fd77266-80a5-4b32-bc5c-fdf79423518a","system_id":"levelo_inurba_marseille","lat":43.337444,"lon":5.374475,"is_reserved":false,"is_disabled":false,"rental_uris":{"android":"levelo://app?vid=4fd77266-80a5-4b32-bc5c-fdf79423518a","ios":"levelo://app?vid=4fd77266-80a5-4b32-bc5c-fdf79423518a"},"vehicle_type_id":"4","last_reported":1742213934,"current_range_meters":13600,"station_id":"ce4bh3h2rcd13ifvqdn0","pricing_plan_id":"cebpf4jnsgd1na2vs0mg"},{"bike_id":"62e34d82-0d35-4295-8c8e-015f2dfef3c8","system_id":"levelo_inurba_marseille","lat":43.28424,"lon":5.35003,"is_reserved":false,"is_disabled":false,"rental_uris":{"android":"levelo://app?vid=62e34d82-0d35-4295-8c8e-015f2dfef3c8","ios":"levelo://app?vid=62e34d82-0d35-4295-8c8e-015f2dfef3c8"},"vehicle_type_id":"4","last_reported":1742213934,"current_range_meters":13600,"station_id":"ce4bhbh2rcd13ifvqepg","pricing_plan_id":"cebpf4jnsgd1na2vs0mg"},{"bike_id":"bcabb871-fb5d-4a07-8c53-476a35a9f876","system_id":"levelo_inurba_marseille","lat":43.30425,"lon":5.39741,"is_reserved":false,"is_disabled":false,"rental_uris":{"android":"levelo://app?vid=bcabb871-fb5d-4a07-8c53-476a35a9f876","ios":"levelo://app?vid=bcabb871-fb5d-4a07-8c53-476a35a9f876"},"vehicle_type_id":"4","last_reported":1742213934,"current_range_meters":12800,"station_id":"ce4bh092rcd13ifvqd20","pricing_plan_id":"cebpf4jnsgd1na2vs0mg"},{"bike_id":"0b833629-5a92-4b09-a82f-972205f6490b","system_id":"levelo_inurba_marseille","lat":43.24091,"lon":5.37736,"is_reserved":false,"is_disabled":false,"rental_uris":{"android":"levelo://app?vid=0b833629-5a92-4b09-a82f-972205f6490b","ios":"levelo://app?vid=0b833629-5a92-4b09-a82f-972205f6490b"},"vehicle_type_id":"4","last_reported":1742213934,"current_range_meters":14000,"station_id":"ce4bhnp2rcd13ifvqgvg","pricing_plan_id":"cebpf4jnsgd1na2vs0mg"},{"bike_id":"6543eabc-712f-4a53-9352-ef8c645c9fbd","system_id":"levelo_inurba_marseille","lat":43.28985,"lon":5.37837,"is_reserved":false,"is_disabled":false,"rental_uris":{"android":"levelo://app?vid=6543eabc-712f-4a53-9352-ef8c645c9fbd","ios":"levelo://app?vid=6543eabc-712f-4a53-9352-ef8c645c9fbd"},"vehicle_type_id":"4","last_reported":1742213934,"current_range_meters":13600,"station_id":"ce4bh9p2rcd13ifvqed0","pricing_plan_id":"cebpf4jnsgd1na2vs0mg"},{"bike_id":"09be20b3-ccfa-43d5-8616-036d82fe33a0","system_id":"levelo_inurba_marseille","lat":43.24948,"lon":5.38923,"is_reserved":false,"is_disabled":false,"rental_uris":{"android":"levelo://app?vid=09be20b3-ccfa-43d5-8616-036d82fe33a0","ios":"levelo://app?vid=09be20b3-ccfa-43d5-8616-036d82fe33a0"},"vehicle_type_id":"4","last_reported":1742213934,"current_range_meters":14000,"station_id":"","pricing_plan_id":"cebpf4jnsgd1na2vs0mg"},{"bike_id":"7a3e3f16-03eb-4954-9d17-26a4a8aa7300","system_id":"levelo_inurba_marseille","lat":43.28103,"lon":5.37837,"is_reserved":false,"is_disabled":false,"rental_uris":{"android":"levelo://app?vid=7a3e3f16-03eb-4954-9d17-26a4a8aa7300","ios":"levelo://app?vid=7a3e3f16-03eb-4954-9d17-26a4a8aa7300"},"vehicle_type_id":"4","last_reported":1742213934,"current_range_meters":14000,"station_id":"ce4bha12rcd13ifvqee0","pricing_plan_id":"cebpf4jnsgd1na2vs0mg"},{"bike_id":"6f071564-9f0d-447d-8acb-257610cbca27","system_id":"levelo_inurba_marseille","lat":43.23154,"lon":5.43697,"is_reserved":false,"is_disabled":false,"rental_uris":{"android":"levelo://app?vid=6f071564-9f0d-447d-8acb-257610cbca27","ios":"levelo://app?vid=6f071564-9f0d-447d-8acb-257610cbca27"},"vehicle_type_id":"4","last_reported":1742213934,"current_range_meters":14000,"station_id":"ce4bhmp2rcd13ifvqgog","pricing_plan_id":"cebpf4jnsgd1na2vs0mg"},{"bike_id":"ca306b7a-80b9-47d2-892e-70b17fa42cbf","system_id":"levelo_inurba_marseille","lat":43.306012,"lon":5.365727,"is_reserved":false,"is_disabled":false,"rental_uris":{"android":"levelo://app?vid=ca306b7a-80b9-47d2-892e-70b17fa42cbf","ios":"levelo://app?vid=ca306b7a-80b9-47d2-892e-70b17fa42cbf"},"vehicle_type_id":"4","last_reported":1742213934,"current_range_meters":14000,"station_id":"ce4bgr92rcd13ifvqc6g","pricing_plan_id":"cebpf4jnsgd1na2vs0mg"},{"bike_id":"6028385d-b4d5-4514-99b0-7822d710c7d8","system_id":"levelo_inurba_marseille","lat":43.30462,"lon":5.3791,"is_reserved":false,"is_disabled":false,"rental_uris":{"android":"levelo://app?vid=6028385d-b4d5-4514-99b0-7822d710c7d8","ios":"levelo://app?vid=6028385d-b4d5-4514-99b0-7822d710c7d8"},"vehicle_type_id":"4","last_reported":1742213934,"current_range_meters":14400,"station_id":"ce4bgup2rcd13ifvqcn0","pricing_plan_id":"cebpf4jnsgd1na2vs0mg"},{"bike_id":"0437c39e-5051-4fec-8327-42b30f329f35","system_id":"levelo_inurba_marseille","lat":43.25005,"lon":5.38934,"is_reserved":false,"is_disabled":false,"rental_uris":{"android":"levelo://app?vid=0437c39e-5051-4fec-8327-42b30f329f35","ios":"levelo://app?vid=0437c39e-5051-4fec-8327-42b30f329f35"},"vehicle_type_id":"4","last_reported":1742213934,"current_range_meters":14000,"station_id":"ce4bhgp2rcd13ifvqfd0","pricing_plan_id":"cebpf4jnsgd1na2vs0mg"},{"bike_id":"18eb100b-fa34-4cf2-8fee-6ce48b269be7","system_id":"levelo_inurba_marseille","lat":43.28942,"lon":5.39592,"is_reserved":false,"is_disabled":false,"rental_uris":{"android":"levelo://app?vid=18eb100b-fa34-4cf2-8fee-6ce48b269be7","ios":"levelo://app?vid=18eb100b-fa34-4cf2-8fee-6ce48b269be7"},"vehicle_type_id":"4","last_reported":1742213934,"current_range_meters":14400,"station_id":"ce4bh3h2rcd13ifvqdn0","pricing_plan_id":"cebpf4jnsgd1na2vs0mg"},{"bike_id":"0c392af2-3b85-4cda-8bc5-5b4df1b4ffa7","system_id":"levelo_inurba_marseille","lat":43.259313,"lon":5.408853,"is_reserved":false,"is_disabled":false,"rental_uris":{"android":"levelo://app?vid=0c392af2-3b85-4cda-8bc5-5b4df1b4ffa7","ios":"levelo://app?vid=0c392af2-3b85-4cda-8bc5-5b4df1b4ffa7"},"vehicle_type_id":"4","last_reported":1742213934,"current_range_meters":14400,"station_id":"ce4bhm92rcd13ifvqglg","pricing_plan_id":"cebpf4jnsgd1na2vs0mg"},{"bike_id":"e439d28d-7cf3-4056-87fe-c7d185bb17d4","system_id":"levelo_inurba_marseille","lat":43.30135,"lon":5.39868,"is_reserved":false,"is_disabled":false,"rental_uris":{"android":"levelo://app?vid=e439d28d-7cf3-4056-87fe-c7d185bb17d4","ios":"levelo://app?vid=e439d28d-7cf3-4056-87fe-c7d185bb17d4"},"vehicle_type_id":"4","last_reported":1742213934,"current_range_meters":14000,"station_id":"ce4bh0h2rcd13ifvqd40","pricing_plan_id":"cebpf4jnsgd1na2vs0mg"},{"bike_id":"c3769dae-483d-41f6-a0bd-37a0adbc8bff","system_id":"levelo_inurba_marseille","lat":43.27617,"lon":5.36103,"is_reserved":false,"is_disabled":false,"rental_uris":{"android":"levelo://app?vid=c3769dae-483d-41f6-a0bd-37a0adbc8bff","ios":"levelo://app?vid=c3769dae-483d-41f6-a0bd-37a0adbc8bff"},"vehicle_type_id":"4","last_reported":1742213934,"current_range_meters":14000,"station_id":"ce4bgj92rcd13ifvqbe0","pricing_plan_id":"cebpf4jnsgd1na2vs0mg"},{"bike_id":"b53f170c-3af0-4269-83b6-8b209cc22157","system_id":"levelo_inurba_marseille","lat":43.25943,"lon":5.40908,"is_reserved":false,"is_disabled":false,"rental_uris":{"android":"levelo://app?vid=b53f170c-3af0-4269-83b6-8b209cc22157","ios":"levelo://app?vid=b53f170c-3af0-4269-83b6-8b209cc22157"},"vehicle_type_id":"4","last_reported":1742213934,"current_range_meters":14800,"station_id":"ce4bhm92rcd13ifvqglg","pricing_plan_id":"cebpf4jnsgd1na2vs0mg"},{"bike_id":"04fe70e5-c5d0-44f9-aeab-278f0b690b14","system_id":"levelo_inurba_marseille","lat":43.3089,"lon":5.36889,"is_reserved":false,"is_disabled":false,"rental_uris":{"android":"levelo://app?vid=04fe70e5-c5d0-44f9-aeab-278f0b690b14","ios":"levelo://app?vid=04fe70e5-c5d0-44f9-aeab-278f0b690b14"},"vehicle_type_id":"4","last_reported":1742213934,"current_range_meters":14800,"station_id":"ce4bgn92rcd13ifvqbvg","pricing_plan_id":"cebpf4jnsgd1na2vs0mg"},{"bike_id":"cf94597e-0765-44e6-8283-58ab3ac4627b","system_id":"levelo_inurba_marseille","lat":43.26502,"lon":5.39557,"is_reserved":false,"is_disabled":false,"rental_uris":{"android":"levelo://app?vid=cf94597e-0765-44e6-8283-58ab3ac4627b","ios":"levelo://app?vid=cf94597e-0765-44e6-8283-58ab3ac4627b"},"vehicle_type_id":"4","last_reported":1742213934,"current_range_meters":14800,"station_id":"ce4bhi12rcd13ifvqfq0","pricing_plan_id":"cebpf4jnsgd1na2vs0mg"},{"bike_id":"39d2df96-c36f-4593-8a68-432fe8c8d072","system_id":"levelo_inurba_marseille","lat":43.29895,"lon":5.4367,"is_reserved":false,"is_disabled":false,"rental_uris":{"android":"levelo://app?vid=39d2df96-c36f-4593-8a68-432fe8c8d072","ios":"levelo://app?vid=39d2df96-c36f-4593-8a68-432fe8c8d072"},"vehicle_type_id":"4","last_reported":1742213934,"current_range_meters":15200,"station_id":"ce4bhpp2rcd13ifvqhfg","pricing_plan_id":"cebpf4jnsgd1na2vs0mg"},{"bike_id":"597546df-6f53-43da-ac91-665e79d571ed","system_id":"levelo_inurba_marseille","lat":43.25864,"lon":5.39913,"is_reserved":false,"is_disabled":false,"rental_uris":{"android":"levelo://app?vid=597546df-6f53-43da-ac91-665e79d571ed","ios":"levelo://app?vid=597546df-6f53-43da-ac91-665e79d571ed"},"vehicle_type_id":"4","last_reported":1742213934,"current_range_meters":15200,"station_id":"ce4bhl92rcd13ifvqghg","pricing_plan_id":"cebpf4jnsgd1na2vs0mg"},{"bike_id":"f44d9f2f-8990-48d0-8c6b-ac3801399f6a","system_id":"levelo_inurba_marseille","lat":43.28943,"lon":5.36395,"is_reserved":false,"is_disabled":false,"rental_uris":{"android":"levelo://app?vid=f44d9f2f-8990-48d0-8c6b-ac3801399f6a","ios":"levelo://app?vid=f44d9f2f-8990-48d0-8c6b-ac3801399f6a"},"vehicle_type_id":"4","last_reported":1742213934,"current_range_meters":15200,"station_id":"ce4bhc92rcd13ifvqetg","pricing_plan_id":"cebpf4jnsgd1na2vs0mg"},{"bike_id":"069d11a1-563e-4d43-a134-c9f77c392ace","system_id":"levelo_inurba_marseille","lat":43.28847,"lon":5.39328,"is_reserved":false,"is_disabled":false,"rental_uris":{"android":"levelo://app?vid=069d11a1-563e-4d43-a134-c9f77c392ace","ios":"levelo://app?vid=069d11a1-563e-4d43-a134-c9f77c392ace"},"vehicle_type_id":"4","last_reported":1742213934,"current_range_meters":16000,"station_id":"ce4bh2p2rcd13ifvqdi0","pricing_plan_id":"cebpf4jnsgd1na2vs0mg"},{"bike_id":"62237dfe-a0a6-4392-85b7-2a42b2e7727c","system_id":"levelo_inurba_marseille","lat":43.30545,"lon":5.36537,"is_reserved":false,"is_disabled":false,"rental_uris":{"android":"levelo://app?vid=62237dfe-a0a6-4392-85b7-2a42b2e7727c","ios":"levelo://app?vid=62237dfe-a0a6-4392-85b7-2a42b2e7727c"},"vehicle_type_id":"4","last_reported":1742213934,"current_range_meters":15200,"station_id":"ce4bgs12rcd13ifvqcag","pricing_plan_id":"cebpf4jnsgd1na2vs0mg"},{"bike_id":"6d72b2ae-e69d-45cf-8485-77eb40fead5b","system_id":"levelo_inurba_marseille","lat":43.28156,"lon":5.42643,"is_reserved":false,"is_disabled":false,"rental_uris":{"android":"levelo://app?vid=6d72b2ae-e69d-45cf-8485-77eb40fead5b","ios":"levelo://app?vid=6d72b2ae-e69d-45cf-8485-77eb40fead5b"},"vehicle_type_id":"4","last_reported":1742213934,"current_range_meters":15200,"station_id":"ce4bhnh2rcd13ifvqgug","pricing_plan_id":"cebpf4jnsgd1na2vs0mg"},{"bike_id":"755f80b2-c3ad-4810-99b5-ff32077ef3bb","system_id":"levelo_inurba_marseille","lat":43.26228,"lon":5.40443,"is_reserved":false,"is_disabled":false,"rental_uris":{"android":"levelo://app?vid=755f80b2-c3ad-4810-99b5-ff32077ef3bb","ios":"levelo://app?vid=755f80b2-c3ad-4810-99b5-ff32077ef3bb"},