{"last_updated":1783250549,"ttl":60,"version":"2.2","data":{"bikes":[{"bike_id":"ba0c28b1-8732-48e2-8079-f25b2b3fbc3c","system_id":"levelo_inurba_marseille","lat":43.337444,"lon":5.374475,"is_reserved":false,"is_disabled":false,"rental_uris":{"android":"levelo://app?vid=ba0c28b1-8732-48e2-8079-f25b2b3fbc3c","ios":"levelo://app?vid=ba0c28b1-8732-48e2-8079-f25b2b3fbc3c"},"vehicle_type_id":"4","last_reported":1783250550,"current_range_meters":0,"station_id":"","pricing_plan_id":"cebpf4jnsgd1na2vs0mg"},{"bike_id":"5c81c856-5fb8-4bea-9872-86004f0d9dfd","system_id":"levelo_inurba_marseille","lat":43.31004,"lon":5.38584,"is_reserved":false,"is_disabled":false,"rental_uris":{"android":"levelo://app?vid=5c81c856-5fb8-4bea-9872-86004f0d9dfd","ios":"levelo://app?vid=5c81c856-5fb8-4bea-9872-86004f0d9dfd"},"vehicle_type_id":"4","last_reported":1783250550,"current_range_meters":2800,"station_id":"","pricing_plan_id":"cebpf4jnsgd1na2vs0mg"},{"bike_id":"0097db39-22ab-462c-ab27-eaa866ac43b5","system_id":"levelo_inurba_marseille","lat":43.23461,"lon":5.40925,"is_reserved":false,"is_disabled":false,"rental_uris":{"android":"levelo://app?vid=0097db39-22ab-462c-ab27-eaa866ac43b5","ios":"levelo://app?vid=0097db39-22ab-462c-ab27-eaa866ac43b5"},"vehicle_type_id":"4","last_reported":1783250550,"current_range_meters":2800,"station_id":"","pricing_plan_id":"cebpf4jnsgd1na2vs0mg"},{"bike_id":"e1aeaea0-6aa3-47b7-9443-0d104aca327e","system_id":"levelo_inurba_marseille","lat":43.28394,"lon":5.37517,"is_reserved":false,"is_disabled":false,"rental_uris":{"android":"levelo://app?vid=e1aeaea0-6aa3-47b7-9443-0d104aca327e","ios":"levelo://app?vid=e1aeaea0-6aa3-47b7-9443-0d104aca327e"},"vehicle_type_id":"4","last_reported":1783250550,"current_range_meters":2800,"station_id":"ce4bh412rcd13ifvqds0","pricing_plan_id":"cebpf4jnsgd1na2vs0mg"},{"bike_id":"aa50fd8d-af5d-4ede-99be-6e7dcd9cfc20","system_id":"levelo_inurba_marseille","lat":43.31451,"lon":5.37378,"is_reserved":false,"is_disabled":false,"rental_uris":{"android":"levelo://app?vid=aa50fd8d-af5d-4ede-99be-6e7dcd9cfc20","ios":"levelo://app?vid=aa50fd8d-af5d-4ede-99be-6e7dcd9cfc20"},"vehicle_type_id":"4","last_reported":1783250550,"current_range_meters":2800,"station_id":"","pricing_plan_id":"cebpf4jnsgd1na2vs0mg"},{"bike_id":"2259ff17-d88b-4c0b-bd45-29703333fa4e","system_id":"levelo_inurba_marseille","lat":43.28904,"lon":5.36395,"is_reserved":false,"is_disabled":true,"rental_uris":{"android":"levelo://app?vid=2259ff17-d88b-4c0b-bd45-29703333fa4e","ios":"levelo://app?vid=2259ff17-d88b-4c0b-bd45-29703333fa4e"},"vehicle_type_id":"4","last_reported":1783250550,"current_range_meters":2800,"station_id":"","pricing_plan_id":"cebpf4jnsgd1na2vs0mg"},{"bike_id":"370012cd-d205-46eb-8a80-a3b9f0a7309d","system_id":"levelo_inurba_marseille","lat":43.24796,"lon":5.37453,"is_reserved":false,"is_disabled":true,"rental_uris":{"android":"levelo://app?vid=370012cd-d205-46eb-8a80-a3b9f0a7309d","ios":"levelo://app?vid=370012cd-d205-46eb-8a80-a3b9f0a7309d"},"vehicle_type_id":"4","last_reported":1783250550,"current_range_meters":2800,"station_id":"ce4bhgh2rcd13ifvqfb0","pricing_plan_id":"cebpf4jnsgd1na2vs0mg"},{"bike_id":"0258c125-282f-4adb-84e3-d806703dc533","system_id":"levelo_inurba_marseille","lat":43.31274,"lon":5.39397,"is_reserved":false,"is_disabled":false,"rental_uris":{"android":"levelo://app?vid=0258c125-282f-4adb-84e3-d806703dc533","ios":"levelo://app?vid=0258c125-282f-4adb-84e3-d806703dc533"},"vehicle_type_id":"4","last_reported":1783250550,"current_range_meters":2800,"station_id":"","pricing_plan_id":"cebpf4jnsgd1na2vs0mg"},{"bike_id":"6ad313ce-82c4-4b19-ac4c-b6453bb8a38b","system_id":"levelo_inurba_marseille","lat":43.2174,"lon":5.34603,"is_reserved":false,"is_disabled":false,"rental_uris":{"android":"levelo://app?vid=6ad313ce-82c4-4b19-ac4c-b6453bb8a38b","ios":"levelo://app?vid=6ad313ce-82c4-4b19-ac4c-b6453bb8a38b"},"vehicle_type_id":"4","last_reported":1783250550,"current_range_meters":2800,"station_id":"st_cvj6r9ubvosntc0bgbag","pricing_plan_id":"cebpf4jnsgd1na2vs0mg"},{"bike_id":"13dd3260-5d56-4587-b6f9-965fab8f284a","system_id":"levelo_inurba_marseille","lat":43.28202,"lon":5.3907,"is_reserved":false,"is_disabled":false,"rental_uris":{"android":"levelo://app?vid=13dd3260-5d56-4587-b6f9-965fab8f284a","ios":"levelo://app?vid=13dd3260-5d56-4587-b6f9-965fab8f284a"},"vehicle_type_id":"4","last_reported":1783250550,"current_range_meters":2800,"station_id":"ce4bhn92rcd13ifvqgsg","pricing_plan_id":"cebpf4jnsgd1na2vs0mg"},{"bike_id":"1360f029-4248-4cb3-8144-8f5da1b41cf2","system_id":"levelo_inurba_marseille","lat":43.27076,"lon":5.42266,"is_reserved":false,"is_disabled":false,"rental_uris":{"android":"levelo://app?vid=1360f029-4248-4cb3-8144-8f5da1b41cf2","ios":"levelo://app?vid=1360f029-4248-4cb3-8144-8f5da1b41cf2"},"vehicle_type_id":"4","last_reported":1783250550,"current_range_meters":2800,"station_id":"ce4bhk92rcd13ifvqgb0","pricing_plan_id":"cebpf4jnsgd1na2vs0mg"},{"bike_id":"e7203a6d-16a8-4844-824f-dcb8163b615d","system_id":"levelo_inurba_marseille","lat":43.28858,"lon":5.39315,"is_reserved":false,"is_disabled":true,"rental_uris":{"android":"levelo://app?vid=e7203a6d-16a8-4844-824f-dcb8163b615d","ios":"levelo://app?vid=e7203a6d-16a8-4844-824f-dcb8163b615d"},"vehicle_type_id":"4","last_reported":1783250550,"current_range_meters":2800,"station_id":"ce4bh2p2rcd13ifvqdi0","pricing_plan_id":"cebpf4jnsgd1na2vs0mg"},{"bike_id":"2142e8ea-12ce-40aa-a810-9100b20be27f","system_id":"levelo_inurba_marseille","lat":43.2389,"lon":5.37461,"is_reserved":false,"is_disabled":false,"rental_uris":{"android":"levelo://app?vid=2142e8ea-12ce-40aa-a810-9100b20be27f","ios":"levelo://app?vid=2142e8ea-12ce-40aa-a810-9100b20be27f"},"vehicle_type_id":"4","last_reported":1783250550,"current_range_meters":2800,"station_id":"st_d6sm7csbq4hs73f8fpjg","pricing_plan_id":"cebpf4jnsgd1na2vs0mg"},{"bike_id":"1ea8bdc2-9ab9-45a5-9a07-418a954aeab7","system_id":"levelo_inurba_marseille","lat":43.2254,"lon":5.34824,"is_reserved":false,"is_disabled":false,"rental_uris":{"android":"levelo://app?vid=1ea8bdc2-9ab9-45a5-9a07-418a954aeab7","ios":"levelo://app?vid=1ea8bdc2-9ab9-45a5-9a07-418a954aeab7"},"vehicle_type_id":"4","last_reported":1783250550,"current_range_meters":2800,"station_id":"st_cvj5dfep6f1abm77gieg","pricing_plan_id":"cebpf4jnsgd1na2vs0mg"},{"bike_id":"bb82b558-6057-48ae-8a0d-5d0410926389","system_id":"levelo_inurba_marseille","lat":43.26368,"lon":5.41998,"is_reserved":false,"is_disabled":false,"rental_uris":{"android":"levelo://app?vid=bb82b558-6057-48ae-8a0d-5d0410926389","ios":"levelo://app?vid=bb82b558-6057-48ae-8a0d-5d0410926389"},"vehicle_type_id":"4","last_reported":1783250550,"current_range_meters":2800,"station_id":"","pricing_plan_id":"cebpf4jnsgd1na2vs0mg"},{"bike_id":"bbc4114e-8917-4ae3-9524-c61197d9a885","system_id":"levelo_inurba_marseille","lat":43.29027,"lon":5.4399,"is_reserved":false,"is_disabled":false,"rental_uris":{"android":"levelo://app?vid=bbc4114e-8917-4ae3-9524-c61197d9a885","ios":"levelo://app?vid=bbc4114e-8917-4ae3-9524-c61197d9a885"},"vehicle_type_id":"4","last_reported":1783250550,"current_range_meters":2800,"station_id":"","pricing_plan_id":"cebpf4jnsgd1na2vs0mg"},{"bike_id":"d093438b-5abc-469e-baeb-0e71e88c0762","system_id":"levelo_inurba_marseille","lat":43.28135,"lon":5.36373,"is_reserved":false,"is_disabled":false,"rental_uris":{"android":"levelo://app?vid=d093438b-5abc-469e-baeb-0e71e88c0762","ios":"levelo://app?vid=d093438b-5abc-469e-baeb-0e71e88c0762"},"vehicle_type_id":"4","last_reported":1783250550,"current_range_meters":2800,"station_id":"","pricing_plan_id":"cebpf4jnsgd1na2vs0mg"},{"bike_id":"92e63590-d42c-41ed-9197-022317634a3d","system_id":"levelo_inurba_marseille","lat":43.30542,"lon":5.39926,"is_reserved":false,"is_disabled":false,"rental_uris":{"android":"levelo://app?vid=92e63590-d42c-41ed-9197-022317634a3d","ios":"levelo://app?vid=92e63590-d42c-41ed-9197-022317634a3d"},"vehicle_type_id":"4","last_reported":1783250550,"current_range_meters":2800,"station_id":"","pricing_plan_id":"cebpf4jnsgd1na2vs0mg"},{"bike_id":"d786907d-707a-4d54-99f6-8c841f75b65b","system_id":"levelo_inurba_marseille","lat":43.28087,"lon":5.37823,"is_reserved":false,"is_disabled":false,"rental_uris":{"android":"levelo://app?vid=d786907d-707a-4d54-99f6-8c841f75b65b","ios":"levelo://app?vid=d786907d-707a-4d54-99f6-8c841f75b65b"},"vehicle_type_id":"4","last_reported":1783250550,"current_range_meters":2800,"station_id":"ce4bha12rcd13ifvqee0","pricing_plan_id":"cebpf4jnsgd1na2vs0mg"},{"bike_id":"a53bde85-5c99-45a9-829e-ba6410d488a7","system_id":"levelo_inurba_marseille","lat":43.24576,"lon":5.39713,"is_reserved":false,"is_disabled":false,"rental_uris":{"android":"levelo://app?vid=a53bde85-5c99-45a9-829e-ba6410d488a7","ios":"levelo://app?vid=a53bde85-5c99-45a9-829e-ba6410d488a7"},"vehicle_type_id":"4","last_reported":1783250550,"current_range_meters":2800,"station_id":"","pricing_plan_id":"cebpf4jnsgd1na2vs0mg"},{"bike_id":"7a3927a4-e61e-4af9-9f27-19c24fb13001","system_id":"levelo_inurba_marseille","lat":43.29192,"lon":5.39326,"is_reserved":false,"is_disabled":false,"rental_uris":{"android":"levelo://app?vid=7a3927a4-e61e-4af9-9f27-19c24fb13001","ios":"levelo://app?vid=7a3927a4-e61e-4af9-9f27-19c24fb13001"},"vehicle_type_id":"4","last_reported":1783250550,"current_range_meters":3200,"station_id":"ce4bh192rcd13ifvqdd0","pricing_plan_id":"cebpf4jnsgd1na2vs0mg"},{"bike_id":"f6a588f6-73ad-4dc2-9dac-0fa0dfa77cde","system_id":"levelo_inurba_marseille","lat":43.30947,"lon":5.39063,"is_reserved":false,"is_disabled":true,"rental_uris":{"android":"levelo://app?vid=f6a588f6-73ad-4dc2-9dac-0fa0dfa77cde","ios":"levelo://app?vid=f6a588f6-73ad-4dc2-9dac-0fa0dfa77cde"},"vehicle_type_id":"4","last_reported":1783250550,"current_range_meters":3200,"station_id":"ce4bgup2rcd13ifvqco0","pricing_plan_id":"cebpf4jnsgd1na2vs0mg"},{"bike_id":"a6e047d4-9829-4b23-b5e1-20c5a9277b5d","system_id":"levelo_inurba_marseille","lat":43.29157,"lon":5.38321,"is_reserved":false,"is_disabled":true,"rental_uris":{"android":"levelo://app?vid=a6e047d4-9829-4b23-b5e1-20c5a9277b5d","ios":"levelo://app?vid=a6e047d4-9829-4b23-b5e1-20c5a9277b5d"},"vehicle_type_id":"4","last_reported":1783250550,"current_range_meters":3200,"station_id":"","pricing_plan_id":"cebpf4jnsgd1na2vs0mg"},{"bike_id":"e6848630-9072-460b-b017-5daf7a537da6","system_id":"levelo_inurba_marseille","lat":43.27915,"lon":5.37995,"is_reserved":false,"is_disabled":false,"rental_uris":{"android":"levelo://app?vid=e6848630-9072-460b-b017-5daf7a537da6","ios":"levelo://app?vid=e6848630-9072-460b-b017-5daf7a537da6"},"vehicle_type_id":"4","last_reported":1783250550,"current_range_meters":3200,"station_id":"ce4bhf92rcd13ifvqf50","pricing_plan_id":"cebpf4jnsgd1na2vs0mg"},{"bike_id":"0afbfa5b-a988-460e-ab1f-a6790b3b99dc","system_id":"levelo_inurba_marseille","lat":43.29066,"lon":5.4225,"is_reserved":false,"is_disabled":false,"rental_uris":{"android":"levelo://app?vid=0afbfa5b-a988-460e-ab1f-a6790b3b99dc","ios":"levelo://app?vid=0afbfa5b-a988-460e-ab1f-a6790b3b99dc"},"vehicle_type_id":"4","last_reported":1783250550,"current_range_meters":3200,"station_id":"","pricing_plan_id":"cebpf4jnsgd1na2vs0mg"},{"bike_id":"fac4a2a9-f183-4819-8342-54d4e46837b9","system_id":"levelo_inurba_marseille","lat":43.24388,"lon":5.37069,"is_reserved":false,"is_disabled":false,"rental_uris":{"android":"levelo://app?vid=fac4a2a9-f183-4819-8342-54d4e46837b9","ios":"levelo://app?vid=fac4a2a9-f183-4819-8342-54d4e46837b9"},"vehicle_type_id":"4","last_reported":1783250550,"current_range_meters":3200,"station_id":"ce4bhhh2rcd13ifvqfk0","pricing_plan_id":"cebpf4jnsgd1na2vs0mg"},{"bike_id":"f37aa11b-792f-4a06-bdbd-c449f5d0628a","system_id":"levelo_inurba_marseille","lat":43.26192,"lon":5.37954,"is_reserved":false,"is_disabled":false,"rental_uris":{"android":"levelo://app?vid=f37aa11b-792f-4a06-bdbd-c449f5d0628a","ios":"levelo://app?vid=f37aa11b-792f-4a06-bdbd-c449f5d0628a"},"vehicle_type_id":"4","last_reported":1783250550,"current_range_meters":3200,"station_id":"ce4bhjp2rcd13ifvqg90","pricing_plan_id":"cebpf4jnsgd1na2vs0mg"},{"bike_id":"79327f0c-9e55-45e2-9e05-c1e2db3a2a0b","system_id":"levelo_inurba_marseille","lat":43.30136,"lon":5.39867,"is_reserved":false,"is_disabled":false,"rental_uris":{"android":"levelo://app?vid=79327f0c-9e55-45e2-9e05-c1e2db3a2a0b","ios":"levelo://app?vid=79327f0c-9e55-45e2-9e05-c1e2db3a2a0b"},"vehicle_type_id":"4","last_reported":1783250550,"current_range_meters":3200,"station_id":"ce4bh0h2rcd13ifvqd40","pricing_plan_id":"cebpf4jnsgd1na2vs0mg"},{"bike_id":"6f37e172-e521-4e45-91cc-413b9ad92298","system_id":"levelo_inurba_marseille","lat":43.29359,"lon":5.37603,"is_reserved":false,"is_disabled":true,"rental_uris":{"android":"levelo://app?vid=6f37e172-e521-4e45-91cc-413b9ad92298","ios":"levelo://app?vid=6f37e172-e521-4e45-91cc-413b9ad92298"},"vehicle_type_id":"4","last_reported":1783250550,"current_range_meters":3200,"station_id":"","pricing_plan_id":"cebpf4jnsgd1na2vs0mg"},{"bike_id":"ac4eea5a-d755-4e92-9bd0-872e119a6f50","system_id":"levelo_inurba_marseille","lat":43.284175,"lon":5.349795,"is_reserved":false,"is_disabled":false,"rental_uris":{"android":"levelo://app?vid=ac4eea5a-d755-4e92-9bd0-872e119a6f50","ios":"levelo://app?vid=ac4eea5a-d755-4e92-9bd0-872e119a6f50"},"vehicle_type_id":"4","last_reported":1783250550,"current_range_meters":3200,"station_id":"ce4bhbh2rcd13ifvqepg","pricing_plan_id":"cebpf4jnsgd1na2vs0mg"},{"bike_id":"abf1c1fa-1405-476f-bd73-54723798211b","system_id":"levelo_inurba_marseille","lat":43.23693,"lon":5.40187,"is_reserved":false,"is_disabled":false,"rental_uris":{"android":"levelo://app?vid=abf1c1fa-1405-476f-bd73-54723798211b","ios":"levelo://app?vid=abf1c1fa-1405-476f-bd73-54723798211b"},"vehicle_type_id":"4","last_reported":1783250550,"current_range_meters":3200,"station_id":"","pricing_plan_id":"cebpf4jnsgd1na2vs0mg"},{"bike_id":"4c986123-5e2d-4e54-a19e-58aafac449d4","system_id":"levelo_inurba_marseille","lat":43.28361,"lon":5.38656,"is_reserved":false,"is_disabled":true,"rental_uris":{"android":"levelo://app?vid=4c986123-5e2d-4e54-a19e-58aafac449d4","ios":"levelo://app?vid=4c986123-5e2d-4e54-a19e-58aafac449d4"},"vehicle_type_id":"4","last_reported":1783250550,"current_range_meters":3200,"station_id":"ce4bh492rcd13ifvqdvg","pricing_plan_id":"cebpf4jnsgd1na2vs0mg"},{"bike_id":"344ea393-67f3-43c1-9916-790b15af8160","system_id":"levelo_inurba_marseille","lat":43.2987,"lon":5.3892,"is_reserved":false,"is_disabled":false,"rental_uris":{"android":"levelo://app?vid=344ea393-67f3-43c1-9916-790b15af8160","ios":"levelo://app?vid=344ea393-67f3-43c1-9916-790b15af8160"},"vehicle_type_id":"4","last_reported":1783250550,"current_range_meters":3200,"station_id":"ce4bh392rcd13ifvqdl0","pricing_plan_id":"cebpf4jnsgd1na2vs0mg"},{"bike_id":"a4ba18bb-be66-4622-87eb-b75f650bfa40","system_id":"levelo_inurba_marseille","lat":43.24383,"lon":5.37063,"is_reserved":false,"is_disabled":false,"rental_uris":{"android":"levelo://app?vid=a4ba18bb-be66-4622-87eb-b75f650bfa40","ios":"levelo://app?vid=a4ba18bb-be66-4622-87eb-b75f650bfa40"},"vehicle_type_id":"4","last_reported":1783250550,"current_range_meters":3200,"station_id":"ce4bhhh2rcd13ifvqfk0","pricing_plan_id":"cebpf4jnsgd1na2vs0mg"},{"bike_id":"06a8253e-2715-46f0-b3a7-68e363678aa0","system_id":"levelo_inurba_marseille","lat":43.26235,"lon":5.40455,"is_reserved":false,"is_disabled":false,"rental_uris":{"android":"levelo://app?vid=06a8253e-2715-46f0-b3a7-68e363678aa0","ios":"levelo://app?vid=06a8253e-2715-46f0-b3a7-68e363678aa0"},"vehicle_type_id":"4","last_reported":1783250550,"current_range_meters":3600,"station_id":"ce4bhmh2rcd13ifvqgmg","pricing_plan_id":"cebpf4jnsgd1na2vs0mg"},{"bike_id":"50aa6815-cb65-48bd-999a-1d2dfbbe24c7","system_id":"levelo_inurba_marseille","lat":43.28472,"lon":5.48399,"is_reserved":false,"is_disabled":false,"rental_uris":{"android":"levelo://app?vid=50aa6815-cb65-48bd-999a-1d2dfbbe24c7","ios":"levelo://app?vid=50aa6815-cb65-48bd-999a-1d2dfbbe24c7"},"vehicle_type_id":"4","last_reported":1783250550,"current_range_meters":3600,"station_id":"st_d3svhcjqgbts73a3dn0g","pricing_plan_id":"cebpf4jnsgd1na2vs0mg"},{"bike_id":"3d692cc6-3a09-406c-ad06-972b7f2b54c6","system_id":"levelo_inurba_marseille","lat":43.26678,"lon":5.38269,"is_reserved":false,"is_disabled":false,"rental_uris":{"android":"levelo://app?vid=3d692cc6-3a09-406c-ad06-972b7f2b54c6","ios":"levelo://app?vid=3d692cc6-3a09-406c-ad06-972b7f2b54c6"},"vehicle_type_id":"4","last_reported":1783250550,"current_range_meters":3600,"station_id":"ce4bhg92rcd13ifvqf90","pricing_plan_id":"cebpf4jnsgd1na2vs0mg"},{"bike_id":"7dcdb77e-5520-404c-a8e4-5410b21ff636","system_id":"levelo_inurba_marseille","lat":43.29598,"lon":5.42399,"is_reserved":false,"is_disabled":false,"rental_uris":{"android":"levelo://app?vid=7dcdb77e-5520-404c-a8e4-5410b21ff636","ios":"levelo://app?vid=7dcdb77e-5520-404c-a8e4-5410b21ff636"},"vehicle_type_id":"4","last_reported":1783250550,"current_range_meters":3600,"station_id":"","pricing_plan_id":"cebpf4jnsgd1na2vs0mg"},{"bike_id":"65396844-0447-48b9-aa45-af445ded3e70","system_id":"levelo_inurba_marseille","lat":43.29374,"lon":5.37868,"is_reserved":false,"is_disabled":false,"rental_uris":{"android":"levelo://app?vid=65396844-0447-48b9-aa45-af445ded3e70","ios":"levelo://app?vid=65396844-0447-48b9-aa45-af445ded3e70"},"vehicle_type_id":"4","last_reported":1783250550,"current_range_meters":3600,"station_id":"ce4bgjh2rcd13ifvqbf0","pricing_plan_id":"cebpf4jnsgd1na2vs0mg"},{"bike_id":"fa60f93d-ad38-4af6-be84-609fd8fcf28e","system_id":"levelo_inurba_marseille","lat":43.27465,"lon":5.42552,"is_reserved":false,"is_disabled":false,"rental_uris":{"android":"levelo://app?vid=fa60f93d-ad38-4af6-be84-609fd8fcf28e","ios":"levelo://app?vid=fa60f93d-ad38-4af6-be84-609fd8fcf28e"},"vehicle_type_id":"4","last_reported":1783250550,"current_range_meters":3600,"station_id":"st_d8t4bh7nbrqs73arha60","pricing_plan_id":"cebpf4jnsgd1na2vs0mg"},{"bike_id":"b4c635e5-3db6-47d9-8b2a-f2d681a9c0ee","system_id":"levelo_inurba_marseille","lat":43.27615,"lon":5.36106,"is_reserved":false,"is_disabled":false,"rental_uris":{"android":"levelo://app?vid=b4c635e5-3db6-47d9-8b2a-f2d681a9c0ee","ios":"levelo://app?vid=b4c635e5-3db6-47d9-8b2a-f2d681a9c0ee"},"vehicle_type_id":"4","last_reported":1783250550,"current_range_meters":3600,"station_id":"ce4bgj92rcd13ifvqbe0","pricing_plan_id":"cebpf4jnsgd1na2vs0mg"},{"bike_id":"c4e8210f-6b7a-4305-9e0f-987d46077c47","system_id":"levelo_inurba_marseille","lat":43.26201,"lon":5.37445,"is_reserved":false,"is_disabled":false,"rental_uris":{"android":"levelo://app?vid=c4e8210f-6b7a-4305-9e0f-987d46077c47","ios":"levelo://app?vid=c4e8210f-6b7a-4305-9e0f-987d46077c47"},"vehicle_type_id":"4","last_reported":1783250550,"current_range_meters":3600,"station_id":"ce4bhgp2rcd13ifvqfc0","pricing_plan_id":"cebpf4jnsgd1na2vs0mg"},{"bike_id":"388a4f82-ca5f-474a-bbb1-2cbcfe9a4b57","system_id":"levelo_inurba_marseille","lat":43.21186,"lon":5.35072,"is_reserved":false,"is_disabled":false,"rental_uris":{"android":"levelo://app?vid=388a4f82-ca5f-474a-bbb1-2cbcfe9a4b57","ios":"levelo://app?vid=388a4f82-ca5f-474a-bbb1-2cbcfe9a4b57"},"vehicle_type_id":"4","last_reported":1783250550,"current_range_meters":3600,"station_id":"st_cvj6sg6p6f1abm77japg","pricing_plan_id":"cebpf4jnsgd1na2vs0mg"},{"bike_id":"d728b632-da17-49b6-bee6-586bce6b51e3","system_id":"levelo_inurba_marseille","lat":43.25223,"lon":5.41032,"is_reserved":false,"is_disabled":false,"rental_uris":{"android":"levelo://app?vid=d728b632-da17-49b6-bee6-586bce6b51e3","ios":"levelo://app?vid=d728b632-da17-49b6-bee6-586bce6b51e3"},"vehicle_type_id":"4","last_reported":1783250550,"current_range_meters":3600,"station_id":"","pricing_plan_id":"cebpf4jnsgd1na2vs0mg"},{"bike_id":"91536602-64c3-4f05-937f-5ff1f849ba25","system_id":"levelo_inurba_marseille","lat":43.30053,"lon":5.3647,"is_reserved":false,"is_disabled":false,"rental_uris":{"android":"levelo://app?vid=91536602-64c3-4f05-937f-5ff1f849ba25","ios":"levelo://app?vid=91536602-64c3-4f05-937f-5ff1f849ba25"},"vehicle_type_id":"4","last_reported":1783250550,"current_range_meters":3600,"station_id":"","pricing_plan_id":"cebpf4jnsgd1na2vs0mg"},{"bike_id":"b2a6b25f-5eb7-47c1-9cf0-1712b7ed8e76","system_id":"levelo_inurba_marseille","lat":43.2784,"lon":5.39213,"is_reserved":false,"is_disabled":false,"rental_uris":{"android":"levelo://app?vid=b2a6b25f-5eb7-47c1-9cf0-1712b7ed8e76","ios":"levelo://app?vid=b2a6b25f-5eb7-47c1-9cf0-1712b7ed8e76"},"vehicle_type_id":"4","last_reported":1783250550,"current_range_meters":3600,"station_id":"ce4bhjp2rcd13ifvqga0","pricing_plan_id":"cebpf4jnsgd1na2vs0mg"},{"bike_id":"2c52e4bc-365b-40fb-ace9-a63bc2aa685a","system_id":"levelo_inurba_marseille","lat":43.33079,"lon":5.38568,"is_reserved":false,"is_disabled":false,"rental_uris":{"android":"levelo://app?vid=2c52e4bc-365b-40fb-ace9-a63bc2aa685a","ios":"levelo://app?vid=2c52e4bc-365b-40fb-ace9-a63bc2aa685a"},"vehicle_type_id":"4","last_reported":1783250550,"current_range_meters":3600,"station_id":"","pricing_plan_id":"cebpf4jnsgd1na2vs0mg"},{"bike_id":"be14d72b-ec18-44f3-b0c0-3b262635bc8f","system_id":"levelo_inurba_marseille","lat":43.29681,"lon":5.36589,"is_reserved":false,"is_disabled":true,"rental_uris":{"android":"levelo://app?vid=be14d72b-ec18-44f3-b0c0-3b262635bc8f","ios":"levelo://app?vid=be14d72b-ec18-44f3-b0c0-3b262635bc8f"},"vehicle_type_id":"4","last_reported":1783250550,"current_range_meters":3600,"station_id":"ce4bgn12rcd13ifvqbt0","pricing_plan_id":"cebpf4jnsgd1na2vs0mg"},{"bike_id":"21c46627-93c0-4ab5-b259-0186a02d6cac","system_id":"levelo_inurba_marseille","lat":43.247994,"lon":5.3746,"is_reserved":false,"is_disabled":false,"rental_uris":{"android":"levelo://app?vid=21c46627-93c0-4ab5-b259-0186a02d6cac","ios":"levelo://app?vid=21c46627-93c0-4ab5-b259-0186a02d6cac"},"vehicle_type_id":"4","last_reported":1783250550,"current_range_meters":3600,"station_id":"ce4bhgh2rcd13ifvqfb0","pricing_plan_id":"cebpf4jnsgd1na2vs0mg"},{"bike_id":"61cd84df-f76f-41ad-9da2-1b4df883e51c","system_id":"levelo_inurba_marseille","lat":43.26229,"lon":5.38973,"is_reserved":false,"is_disabled":false,"rental_uris":{"android":"levelo://app?vid=61cd84df-f76f-41ad-9da2-1b4df883e51c","ios":"levelo://app?vid=61cd84df-f76f-41ad-9da2-1b4df883e51c"},"vehicle_type_id":"4","last_reported":1783250550,"current_range_meters":3600,"station_id":"","pricing_plan_id":"cebpf4jnsgd1na2vs0mg"},{"bike_id":"5573691f-9a6c-49b8-8a97-af4c07eca603","system_id":"levelo_inurba_marseille","lat":43.2416,"lon":5.36394,"is_reserved":false,"is_disabled":false,"rental_uris":{"android":"levelo://app?vid=5573691f-9a6c-49b8-8a97-af4c07eca603","ios":"levelo://app?vid=5573691f-9a6c-49b8-8a97-af4c07eca603"},"vehicle_type_id":"4","last_reported":1783250550,"current_range_meters":4000,"station_id":"cpo36qri1sfpv3e86is0","pricing_plan_id":"cebpf4jnsgd1na2vs0mg"},{"bike_id":"b7c7c1e8-84e9-49fb-a54d-fbe5086cd61a","system_id":"levelo_inurba_marseille","lat":43.27801,"lon":5.40777,"is_reserved":false,"is_disabled":true,"rental_uris":{"android":"levelo://app?vid=b7c7c1e8-84e9-49fb-a54d-fbe5086cd61a","ios":"levelo://app?vid=b7c7c1e8-84e9-49fb-a54d-fbe5086cd61a"},"vehicle_type_id":"4","last_reported":1783250550,"current_range_meters":4000,"station_id":"ce4bhnh2rcd13ifvqgtg","pricing_plan_id":"cebpf4jnsgd1na2vs0mg"},{"bike_id":"aac6d6f5-5414-4268-950d-e95baa8a24a9","system_id":"levelo_inurba_marseille","lat":43.32456,"lon":5.36589,"is_reserved":false,"is_disabled":false,"rental_uris":{"android":"levelo://app?vid=aac6d6f5-5414-4268-950d-e95baa8a24a9","ios":"levelo://app?vid=aac6d6f5-5414-4268-950d-e95baa8a24a9"},"vehicle_type_id":"4","last_reported":1783250550,"current_range_meters":4000,"station_id":"ce4bhs12rcd13ifvqhvg","pricing_plan_id":"cebpf4jnsgd1na2vs0mg"},{"bike_id":"3edad406-7310-4441-b103-43aa843ff572","system_id":"levelo_inurba_marseille","lat":43.27924,"lon":5.37215,"is_reserved":false,"is_disabled":false,"rental_uris":{"android":"levelo://app?vid=3edad406-7310-4441-b103-43aa843ff572","ios":"levelo://app?vid=3edad406-7310-4441-b103-43aa843ff572"},"vehicle_type_id":"4","last_reported":1783250550,"current_range_meters":4000,"station_id":"","pricing_plan_id":"cebpf4jnsgd1na2vs0mg"},{"bike_id":"693afbfa-e70f-40d9-9271-5aba390db9b6","system_id":"levelo_inurba_marseille","lat":43.241,"lon":5.36302,"is_reserved":false,"is_disabled":false,"rental_uris":{"android":"levelo://app?vid=693afbfa-e70f-40d9-9271-5aba390db9b6","ios":"levelo://app?vid=693afbfa-e70f-40d9-9271-5aba390db9b6"},"vehicle_type_id":"4","last_reported":1783250550,"current_range_meters":4000,"station_id":"","pricing_plan_id":"cebpf4jnsgd1na2vs0mg"},{"bike_id":"72c67655-ad78-4a2f-a6f6-e2cf1dacbdd4","system_id":"levelo_inurba_marseille","lat":43.3054,"lon":5.36524,"is_reserved":false,"is_disabled":false,"rental_uris":{"android":"levelo://app?vid=72c67655-ad78-4a2f-a6f6-e2cf1dacbdd4","ios":"levelo://app?vid=72c67655-ad78-4a2f-a6f6-e2cf1dacbdd4"},"vehicle_type_id":"4","last_reported":1783250550,"current_range_meters":4000,"station_id":"ce4bgs12rcd13ifvqcag","pricing_plan_id":"cebpf4jnsgd1na2vs0mg"},{"bike_id":"09d85256-ccbd-4a18-9651-0de221aa81cc","system_id":"levelo_inurba_marseille","lat":43.28527,"lon":5.44102,"is_reserved":false,"is_disabled":false,"rental_uris":{"android":"levelo://app?vid=09d85256-ccbd-4a18-9651-0de221aa81cc","ios":"levelo://app?vid=09d85256-ccbd-4a18-9651-0de221aa81cc"},"vehicle_type_id":"4","last_reported":1783250550,"current_range_meters":4000,"station_id":"st_d3j3df2ikq2c7380ej80","pricing_plan_id":"cebpf4jnsgd1na2vs0mg"},{"bike_id":"bef3199b-401d-49b0-a3b6-9fb865f2b622","system_id":"levelo_inurba_marseille","lat":43.24163,"lon":5.36394,"is_reserved":false,"is_disabled":false,"rental_uris":{"android":"levelo://app?vid=bef3199b-401d-49b0-a3b6-9fb865f2b622","ios":"levelo://app?vid=bef3199b-401d-49b0-a3b6-9fb865f2b622"},"vehicle_type_id":"4","last_reported":1783250550,"current_range_meters":4000,"station_id":"cpo36qri1sfpv3e86is0","pricing_plan_id":"cebpf4jnsgd1na2vs0mg"},{"bike_id":"40fdd1cf-c3bf-484e-8ffd-9f5f22190a77","system_id":"levelo_inurba_marseille","lat":43.3209,"lon":5.36762,"is_reserved":false,"is_disabled":false,"rental_uris":{"android":"levelo://app?vid=40fdd1cf-c3bf-484e-8ffd-9f5f22190a77","ios":"levelo://app?vid=40fdd1cf-c3bf-484e-8ffd-9f5f22190a77"},"vehicle_type_id":"4","last_reported":1783250550,"current_range_meters":4000,"station_id":"ce4bhrh2rcd13ifvqhug","pricing_plan_id":"cebpf4jnsgd1na2vs0mg"},{"bike_id":"47c959d0-db89-49fb-a730-37e0297ef951","system_id":"levelo_inurba_marseille","lat":43.24321,"lon":5.37084,"is_reserved":false,"is_disabled":false,"rental_uris":{"android":"levelo://app?vid=47c959d0-db89-49fb-a730-37e0297ef951","ios":"levelo://app?vid=47c959d0-db89-49fb-a730-37e0297ef951"},"vehicle_type_id":"4","last_reported":1783250550,"current_range_meters":4000,"station_id":"ce4bhhh2rcd13ifvqfk0","pricing_plan_id":"cebpf4jnsgd1na2vs0mg"},{"bike_id":"6ef850e0-0b9e-4ba3-8fc1-079933a8baa1","system_id":"levelo_inurba_marseille","lat":43.26945,"lon":5.38629,"is_reserved":false,"is_disabled":false,"rental_uris":{"android":"levelo://app?vid=6ef850e0-0b9e-4ba3-8fc1-079933a8baa1","ios":"levelo://app?vid=6ef850e0-0b9e-4ba3-8fc1-079933a8baa1"},"vehicle_type_id":"4","last_reported":1783250550,"current_range_meters":4000,"station_id":"ce4bhh92rcd13ifvqfh0","pricing_plan_id":"cebpf4jnsgd1na2vs0mg"},{"bike_id":"f2a28d20-6ff4-48dc-a064-b4ff2efde838","system_id":"levelo_inurba_marseille","lat":43.28605,"lon":5.39876,"is_reserved":false,"is_disabled":false,"rental_uris":{"android":"levelo://app?vid=f2a28d20-6ff4-48dc-a064-b4ff2efde838","ios":"levelo://app?vid=f2a28d20-6ff4-48dc-a064-b4ff2efde838"},"vehicle_type_id":"4","last_reported":1783250550,"current_range_meters":4000,"station_id":"st_d4a7ka997mjs738ck50g","pricing_plan_id":"cebpf4jnsgd1na2vs0mg"},{"bike_id":"51e7e5db-21d7-4eef-9556-8d53c85c4ede","system_id":"levelo_inurba_marseille","lat":43.25125,"lon":5.40327,"is_reserved":false,"is_disabled":false,"rental_uris":{"android":"levelo://app?vid=51e7e5db-21d7-4eef-9556-8d53c85c4ede","ios":"levelo://app?vid=51e7e5db-21d7-4eef-9556-8d53c85c4ede"},"vehicle_type_id":"4","last_reported":1783250550,"current_range_meters":4000,"station_id":"ce4bhlh2rcd13ifvqgig","pricing_plan_id":"cebpf4jnsgd1na2vs0mg"},{"bike_id":"0a9ebcff-1b56-45db-9b33-1cda38943cf9","system_id":"levelo_inurba_marseille","lat":43.2447,"lon":5.40743,"is_reserved":false,"is_disabled":false,"rental_uris":{"android":"levelo://app?vid=0a9ebcff-1b56-45db-9b33-1cda38943cf9","ios":"levelo://app?vid=0a9ebcff-1b56-45db-9b33-1cda38943cf9"},"vehicle_type_id":"4","last_reported":1783250550,"current_range_meters":4000,"station_id":"","pricing_plan_id":"cebpf4jnsgd1na2vs0mg"},{"bike_id":"bc4d0762-345e-4958-8a00-7a36f85ab3bc","system_id":"levelo_inurba_marseille","lat":43.28615,"lon":5.39886,"is_reserved":false,"is_disabled":false,"rental_uris":{"android":"levelo://app?vid=bc4d0762-345e-4958-8a00-7a36f85ab3bc","ios":"levelo://app?vid=bc4d0762-345e-4958-8a00-7a36f85ab3bc"},"vehicle_type_id":"4","last_reported":1783250550,"current_range_meters":4000,"station_id":"st_d4a7ka997mjs738ck50g","pricing_plan_id":"cebpf4jnsgd1na2vs0mg"},{"bike_id":"190f53f5-1748-48a1-9fe2-500cc8cefa8e","system_id":"levelo_inurba_marseille","lat":43.32538,"lon":5.36552,"is_reserved":false,"is_disabled":false,"rental_uris":{"android":"levelo://app?vid=190f53f5-1748-48a1-9fe2-500cc8cefa8e","ios":"levelo://app?vid=190f53f5-1748-48a1-9fe2-500cc8cefa8e"},"vehicle_type_id":"4","last_reported":1783250550,"current_range_meters":4000,"station_id":"","pricing_plan_id":"cebpf4jnsgd1na2vs0mg"},{"bike_id":"3bc6d12d-59c0-4162-9cda-07f3d37dc2e0","system_id":"levelo_inurba_marseille","lat":43.24425,"lon":5.40319,"is_reserved":false,"is_disabled":false,"rental_uris":{"android":"levelo://app?vid=3bc6d12d-59c0-4162-9cda-07f3d37dc2e0","ios":"levelo://app?vid=3bc6d12d-59c0-4162-9cda-07f3d37dc2e0"},"vehicle_type_id":"4","last_reported":1783250550,"current_range_meters":4400,"station_id":"","pricing_plan_id":"cebpf4jnsgd1na2vs0mg"},{"bike_id":"b938ac25-1343-43a8-ab44-9d6c81c75d76","system_id":"levelo_inurba_marseille","lat":43.29382,"lon":5.37853,"is_reserved":false,"is_disabled":false,"rental_uris":{"android":"levelo://app?vid=b938ac25-1343-43a8-ab44-9d6c81c75d76","ios":"levelo://app?vid=b938ac25-1343-43a8-ab44-9d6c81c75d76"},"vehicle_type_id":"4","last_reported":1783250550,"current_range_meters":4400,"station_id":"ce4bgjh2rcd13ifvqbf0","pricing_plan_id":"cebpf4jnsgd1na2vs0mg"},{"bike_id":"367e2c77-1840-403a-b532-0336e7732bd2","system_id":"levelo_inurba_marseille","lat":43.25578,"lon":5.38229,"is_reserved":false,"is_disabled":true,"rental_uris":{"android":"levelo://app?vid=367e2c77-1840-403a-b532-0336e7732bd2","ios":"levelo://app?vid=367e2c77-1840-403a-b532-0336e7732bd2"},"vehicle_type_id":"4","last_reported":1783250550,"current_range_meters":4400,"station_id":"ce4bhih2rcd13ifvqfs0","pricing_plan_id":"cebpf4jnsgd1na2vs0mg"},{"bike_id":"0df3073c-4d91-4aad-99ca-3266164a2dbe","system_id":"levelo_inurba_marseille","lat":43.2841,"lon":5.37513,"is_reserved":false,"is_disabled":true,"rental_uris":{"android":"levelo://app?vid=0df3073c-4d91-4aad-99ca-3266164a2dbe","ios":"levelo://app?vid=0df3073c-4d91-4aad-99ca-3266164a2dbe"},"vehicle_type_id":"4","last_reported":1783250550,"current_range_meters":4400,"station_id":"ce4bh412rcd13ifvqds0","pricing_plan_id":"cebpf4jnsgd1na2vs0mg"},{"bike_id":"a5ec9e1c-2bb9-4fc8-9fad-6f1a5d35bb6b","system_id":"levelo_inurba_marseille","lat":43.29863,"lon":5.37956,"is_reserved":false,"is_disabled":false,"rental_uris":{"android":"levelo://app?vid=a5ec9e1c-2bb9-4fc8-9fad-6f1a5d35bb6b","ios":"levelo://app?vid=a5ec9e1c-2bb9-4fc8-9fad-6f1a5d35bb6b"},"vehicle_type_id":"4","last_reported":1783250550,"current_range_meters":4400,"station_id":"","pricing_plan_id":"cebpf4jnsgd1na2vs0mg"},{"bike_id":"ad7df966-8773-4e44-b118-1dbc68af219b","system_id":"levelo_inurba_marseille","lat":43.23919,"lon":5.36664,"is_reserved":false,"is_disabled":false,"rental_uris":{"android":"levelo://app?vid=ad7df966-8773-4e44-b118-1dbc68af219b","ios":"levelo://app?vid=ad7df966-8773-4e44-b118-1dbc68af219b"},"vehicle_type_id":"4","last_reported":1783250550,"current_range_meters":4400,"station_id":"","pricing_plan_id":"cebpf4jnsgd1na2vs0mg"},{"bike_id":"a77df645-5a3d-4473-87f8-fcae29a5431e","system_id":"levelo_inurba_marseille","lat":43.28442,"lon":5.39204,"is_reserved":false,"is_disabled":false,"rental_uris":{"android":"levelo://app?vid=a77df645-5a3d-4473-87f8-fcae29a5431e","ios":"levelo://app?vid=a77df645-5a3d-4473-87f8-fcae29a5431e"},"vehicle_type_id":"4","last_reported":1783250550,"current_range_meters":4400,"station_id":"ce4bhoh2rcd13ifvqh5g","pricing_plan_id":"cebpf4jnsgd1na2vs0mg"},{"bike_id":"f4c490b5-dc48-483a-b891-cbc3d779a738","system_id":"levelo_inurba_marseille","lat":43.31658,"lon":5.38765,"is_reserved":false,"is_disabled":false,"rental_uris":{"android":"levelo://app?vid=f4c490b5-dc48-483a-b891-cbc3d779a738","ios":"levelo://app?vid=f4c490b5-dc48-483a-b891-cbc3d779a738"},"vehicle_type_id":"4","last_reported":1783250550,"current_range_meters":4400,"station_id":"","pricing_plan_id":"cebpf4jnsgd1na2vs0mg"},{"bike_id":"1a36fc58-c9b6-4162-999a-b719e437bc20","system_id":"levelo_inurba_marseille","lat":43.29931,"lon":5.36537,"is_reserved":false,"is_disabled":false,"rental_uris":{"android":"levelo://app?vid=1a36fc58-c9b6-4162-999a-b719e437bc20","ios":"levelo://app?vid=1a36fc58-c9b6-4162-999a-b719e437bc20"},"vehicle_type_id":"4","last_reported":1783250550,"current_range_meters":4400,"station_id":"ce4bgm92rcd13ifvqbr0","pricing_plan_id":"cebpf4jnsgd1na2vs0mg"},{"bike_id":"d73cc6e2-f180-4c13-b77d-17bf2bb25688","system_id":"levelo_inurba_marseille","lat":43.27371,"lon":5.36256,"is_reserved":false,"is_disabled":false,"rental_uris":{"android":"levelo://app?vid=d73cc6e2-f180-4c13-b77d-17bf2bb25688","ios":"levelo://app?vid=d73cc6e2-f180-4c13-b77d-17bf2bb25688"},"vehicle_type_id":"4","last_reported":1783250550,"current_range_meters":4400,"station_id":"ce4bhbh2rcd13ifvqeo0","pricing_plan_id":"cebpf4jnsgd1na2vs0mg"},{"bike_id":"54db33aa-17e0-4887-bd60-f808cc5cd70d","system_id":"levelo_inurba_marseille","lat":43.21153,"lon":5.35085,"is_reserved":false,"is_disabled":false,"rental_uris":{"android":"levelo://app?vid=54db33aa-17e0-4887-bd60-f808cc5cd70d","ios":"levelo://app?vid=54db33aa-17e0-4887-bd60-f808cc5cd70d"},"vehicle_type_id":"4","last_reported":1783250550,"current_range_meters":4400,"station_id":"st_cvj6sg6p6f1abm77japg","pricing_plan_id":"cebpf4jnsgd1na2vs0mg"},{"bike_id":"3403c1be-a548-49ed-b8fa-161da6d67db3","system_id":"levelo_inurba_marseille","lat":43.21744,"lon":5.346,"is_reserved":false,"is_disabled":false,"rental_uris":{"android":"levelo://app?vid=3403c1be-a548-49ed-b8fa-161da6d67db3","ios":"levelo://app?vid=3403c1be-a548-49ed-b8fa-161da6d67db3"},"vehicle_type_id":"4","last_reported":1783250550,"current_range_meters":4400,"station_id":"st_cvj6r9ubvosntc0bgbag","pricing_plan_id":"cebpf4jnsgd1na2vs0mg"},{"bike_id":"b9898b05-2d10-4979-8827-3550325112a0","system_id":"levelo_inurba_marseille","lat":43.21742,"lon":5.34596,"is_reserved":false,"is_disabled":false,"rental_uris":{"android":"levelo://app?vid=b9898b05-2d10-4979-8827-3550325112a0","ios":"levelo://app?vid=b9898b05-2d10-4979-8827-3550325112a0"},"vehicle_type_id":"4","last_reported":1783250550,"current_range_meters":4400,"station_id":"st_cvj6r9ubvosntc0bgbag","pricing_plan_id":"cebpf4jnsgd1na2vs0mg"},{"bike_id":"4ef9d4cb-cbb4-473d-9b95-4aa874734694","system_id":"levelo_inurba_marseille","lat":43.24815,"lon":5.37465,"is_reserved":false,"is_disabled":false,"rental_uris":{"android":"levelo://app?vid=4ef9d4cb-cbb4-473d-9b95-4aa874734694","ios":"levelo://app?vid=4ef9d4cb-cbb4-473d-9b95-4aa874734694"},"vehicle_type_id":"4","last_reported":1783250550,"current_range_meters":4400,"station_id":"ce4bhgh2rcd13ifvqfb0","pricing_plan_id":"cebpf4jnsgd1na2vs0mg"},{"bike_id":"d8d40ed0-a3f1-47e2-b1bf-7e8d3b829169","system_id":"levelo_inurba_marseille","lat":43.21198,"lon":5.35059,"is_reserved":false,"is_disabled":false,"rental_uris":{"android":"levelo://app?vid=d8d40ed0-a3f1-47e2-b1bf-7e8d3b829169","ios":"levelo://app?vid=d8d40ed0-a3f1-47e2-b1bf-7e8d3b829169"},"vehicle_type_id":"4","last_reported":1783250550,"current_range_meters":4400,"station_id":"st_cvj6sg6p6f1abm77japg","pricing_plan_id":"cebpf4jnsgd1na2vs0mg"},{"bike_id":"c653415c-23dd-4577-b97d-83f9525f2225","system_id":"levelo_inurba_marseille","lat":43.30189,"lon":5.3663,"is_reserved":false,"is_disabled":false,"rental_uris":{"android":"levelo://app?vid=c653415c-23dd-4577-b97d-83f9525f2225","ios":"levelo://app?vid=c653415c-23dd-4577-b97d-83f9525f2225"},"vehicle_type_id":"4","last_reported":1783250550,"current_range_meters":4400,"station_id":"ce4bgrh2rcd13ifvqc8g","pricing_plan_id":"cebpf4jnsgd1na2vs0mg"},{"bike_id":"5658cfe3-ed59-45e9-8a44-0561163fcd3f","system_id":"levelo_inurba_marseille","lat":43.3083,"lon":5.40466,"is_reserved":false,"is_disabled":false,"rental_uris":{"android":"levelo://app?vid=5658cfe3-ed59-45e9-8a44-0561163fcd3f","ios":"levelo://app?vid=5658cfe3-ed59-45e9-8a44-0561163fcd3f"},"vehicle_type_id":"4","last_reported":1783250550,"current_range_meters":4400,"station_id":"","pricing_plan_id":"cebpf4jnsgd1na2vs0mg"},{"bike_id":"cdb96f67-4069-4baa-a896-228f7764dacd","system_id":"levelo_inurba_marseille","lat":43.29556,"lon":5.37944,"is_reserved":false,"is_disabled":false,"rental_uris":{"android":"levelo://app?vid=cdb96f67-4069-4baa-a896-228f7764dacd","ios":"levelo://app?vid=cdb96f67-4069-4baa-a896-228f7764dacd"},"vehicle_type_id":"4","last_reported":1783250550,"current_range_meters":4800,"station_id":"","pricing_plan_id":"cebpf4jnsgd1na2vs0mg"},{"bike_id":"813a36fd-702a-47a7-8894-c37dd8a71426","system_id":"levelo_inurba_marseille","lat":43.26215,"lon":5.40465,"is_reserved":false,"is_disabled":false,"rental_uris":{"android":"levelo://app?vid=813a36fd-702a-47a7-8894-c37dd8a71426","ios":"levelo://app?vid=813a36fd-702a-47a7-8894-c37dd8a71426"},"vehicle_type_id":"4","last_reported":1783250550,"current_range_meters":4800,"station_id":"ce4bhmh2rcd13ifvqgmg","pricing_plan_id":"cebpf4jnsgd1na2vs0mg"},{"bike_id":"b2206209-3ca9-41e2-80e2-68b97279a6f4","system_id":"levelo_inurba_marseille","lat":43.24673,"lon":5.3817,"is_reserved":false,"is_disabled":false,"rental_uris":{"android":"levelo://app?vid=b2206209-3ca9-41e2-80e2-68b97279a6f4","ios":"levelo://app?vid=b2206209-3ca9-41e2-80e2-68b97279a6f4"},"vehicle_type_id":"4","last_reported":1783250550,"current_range_meters":4800,"station_id":"ce4bhih2rcd13ifvqfr0","pricing_plan_id":"cebpf4jnsgd1na2vs0mg"},{"bike_id":"f32649e7-7632-4652-b17b-3ae6b603dcc2","system_id":"levelo_inurba_marseille","lat":43.32096,"lon":5.36776,"is_reserved":false,"is_disabled":false,"rental_uris":{"android":"levelo://app?vid=f32649e7-7632-4652-b17b-3ae6b603dcc2","ios":"levelo://app?vid=f32649e7-7632-4652-b17b-3ae6b603dcc2"},"vehicle_type_id":"4","last_reported":1783250550,"current_range_meters":4800,"station_id":"ce4bhrh2rcd13ifvqhug","pricing_plan_id":"cebpf4jnsgd1na2vs0mg"},{"bike_id":"cde7fbda-a5a2-4b8f-85d2-5e2771d37ef8","system_id":"levelo_inurba_marseille","lat":43.29427,"lon":5.39753,"is_reserved":false,"is_disabled":false,"rental_uris":{"android":"levelo://app?vid=cde7fbda-a5a2-4b8f-85d2-5e2771d37ef8","ios":"levelo://app?vid=cde7fbda-a5a2-4b8f-85d2-5e2771d37ef8"},"vehicle_type_id":"4","last_reported":1783250550,"current_range_meters":4800,"station_id":"ce4bh3h2rcd13ifvqdo0","pricing_plan_id":"cebpf4jnsgd1na2vs0mg"},{"bike_id":"100ad6d7-a57d-4dc6-8669-de9175e60dfe","system_id":"levelo_inurba_marseille","lat":43.2694,"lon":5.38655,"is_reserved":false,"is_disabled":false,"rental_uris":{"android":"levelo://app?vid=100ad6d7-a57d-4dc6-8669-de9175e60dfe","ios":"levelo://app?vid=100ad6d7-a57d-4dc6-8669-de9175e60dfe"},"vehicle_type_id":"4","last_reported":1783250550,"current_range_meters":4800,"station_id":"ce4bhh92rcd13ifvqfh0","pricing_plan_id":"cebpf4jnsgd1na2vs0mg"},{"bike_id":"c5716036-0194-46a1-8323-9e6336598a67","system_id":"levelo_inurba_marseille","lat":43.22525,"lon":5.34838,"is_reserved":false,"is_disabled":false,"rental_uris":{"android":"levelo://app?vid=c5716036-0194-46a1-8323-9e6336598a67","ios":"levelo://app?vid=c5716036-0194-46a1-8323-9e6336598a67"},"vehicle_type_id":"4","last_reported":1783250550,"current_range_meters":4800,"station_id":"st_cvj5dfep6f1abm77gieg","pricing_plan_id":"cebpf4jnsgd1na2vs0mg"},{"bike_id":"c4a0a838-5ae5-466d-8e65-e6365f58f1d2","system_id":"levelo_inurba_marseille","lat":43.30887,"lon":5.39658,"is_reserved":false,"is_disabled":false,"rental_uris":{"android":"levelo://app?vid=c4a0a838-5ae5-466d-8e65-e6365f58f1d2","ios":"levelo://app?vid=c4a0a838-5ae5-466d-8e65-e6365f58f1d2"},"vehicle_type_id":"4","last_reported":1783250550,"current_range_meters":4800,"station_id":"ce4bh012rcd13ifvqcv0","pricing_plan_id":"cebpf4jnsgd1na2vs0mg"},{"bike_id":"99e93820-d80d-42e1-9f2c-86076952350c","system_id":"levelo_inurba_marseille","lat":43.29249,"lon":5.40907,"is_reserved":false,"is_disabled":false,"rental_uris":{"android":"levelo://app?vid=99e93820-d80d-42e1-9f2c-86076952350c","ios":"levelo://app?vid=99e93820-d80d-42e1-9f2c-86076952350c"},"vehicle_type_id":"4","last_reported":1783250550,"current_range_meters":4800,"station_id":"ce4bh192rcd13ifvqdc0","pricing_plan_id":"cebpf4jnsgd1na2vs0mg"},{"bike_id":"9721af8c-8419-4a7c-ac70-241e4be05937","system_id":"levelo_inurba_marseille","lat":43.24615,"lon":5.4315,"is_reserved":false,"is_disabled":false,"rental_uris":{"android":"levelo://app?vid=9721af8c-8419-4a7c-ac70-241e4be05937","ios":"levelo://app?vid=9721af8c-8419-4a7c-ac70-241e4be05937"},"vehicle_type_id":"4","last_reported":1783250550,"current_range_meters":4800,"station_id":"st_d2m6c4gdas8pm72e190g","pricing_plan_id":"cebpf4jnsgd1na2vs0mg"},{"bike_id":"a9160bf3-3887-416f-957f-9cda44392963","system_id":"levelo_inurba_marseille","lat":43.28434,"lon":5.35005,"is_reserved":false,"is_disabled":false,"rental_uris":{"android":"levelo://app?vid=a9160bf3-3887-416f-957f-9cda44392963","ios":"levelo://app?vid=a9160bf3-3887-416f-957f-9cda44392963"},"vehicle_type_id":"4","last_reported":1783250550,"current_range_meters":4800,"station_id":"ce4bhbh2rcd13ifvqepg","pricing_plan_id":"cebpf4jnsgd1na2vs0mg"},{"bike_id":"d6788e7d-6ca0-41b0-9b54-a846cce64917","system_id":"levelo_inurba_marseille","lat":43.26556,"lon":5.39013,"is_reserved":false,"is_disabled":false,"rental_uris":{"android":"levelo://app?vid=d6788e7d-6ca0-41b0-9b54-a846cce64917","ios":"levelo://app?vid=d6788e7d-6ca0-41b0-9b54-a846cce64917"},"vehicle_type_id":"4","last_reported":1783250550,"current_range_meters":4800,"station_id":"ce4bhe12rcd13ifvqf30","pricing_plan_id":"cebpf4jnsgd1na2vs0mg"},{"bike_id":"093f2aee-57dd-4ef8-94a9-d1c03b3fa122","system_id":"levelo_inurba_marseille","lat":43.27489,"lon":5.42453,"is_reserved":false,"is_disabled":false,"rental_uris":{"android":"levelo://app?vid=093f2aee-57dd-4ef8-94a9-d1c03b3fa122","ios":"levelo://app?vid=093f2aee-57dd-4ef8-94a9-d1c03b3fa122"},"vehicle_type_id":"4","last_reported":1783250550,"current_range_meters":4800,"station_id":"ce4bhn92rcd13ifvqgrg","pricing_plan_id":"cebpf4jnsgd1na2vs0mg"},{"bike_id":"9b30c4a7-3eca-4f63-af30-532ab11da693","system_id":"levelo_inurba_marseille","lat":43.29002,"lon":5.35623,"is_reserved":false,"is_disabled":false,"rental_uris":{"android":"levelo://app?vid=9b30c4a7-3eca-4f63-af30-532ab11da693","ios":"levelo://app?vid=9b30c4a7-3eca-4f63-af30-532ab11da693"},"vehicle_type_id":"4","last_reported":1783250550,"current_range_meters":4800,"station_id":"ce4bhb92rcd13ifvqen0","pricing_plan_id":"cebpf4jnsgd1na2vs0mg"},{"bike_id":"c0080d7a-1f56-488a-9914-bd2925216be0","system_id":"levelo_inurba_marseille","lat":43.22544,"lon":5.41627,"is_reserved":false,"is_disabled":false,"rental_uris":{"android":"levelo://app?vid=c0080d7a-1f56-488a-9914-bd2925216be0","ios":"levelo://app?vid=c0080d7a-1f56-488a-9914-bd2925216be0"},"vehicle_type_id":"4","last_reported":1783250550,"current_range_meters":4800,"station_id":"st_d2o4gvlbi1j2169b742g","pricing_plan_id":"cebpf4jnsgd1na2vs0mg"},{"bike_id":"0cf37a65-abf9-44c8-9440-e188b2a8a41a","system_id":"levelo_inurba_marseille","lat":43.21737,"lon":5.34598,"is_reserved":false,"is_disabled":false,"rental_uris":{"android":"levelo://app?vid=0cf37a65-abf9-44c8-9440-e188b2a8a41a","ios":"levelo://app?vid=0cf37a65-abf9-44c8-9440-e188b2a8a41a"},"vehicle_type_id":"4","last_reported":1783250550,"current_range_meters":4800,"station_id":"st_cvj6r9ubvosntc0bgbag","pricing_plan_id":"cebpf4jnsgd1na2vs0mg"},{"bike_id":"053ac7f0-2661-4959-8f04-39a48999ab79","system_id":"levelo_inurba_marseille","lat":43.24657,"lon":5.38154,"is_reserved":false,"is_disabled":false,"rental_uris":{"android":"levelo://app?vid=053ac7f0-2661-4959-8f04-39a48999ab79","ios":"levelo://app?vid=053ac7f0-2661-4959-8f04-39a48999ab79"},"vehicle_type_id":"4","last_reported":1783250550,"current_range_meters":4800,"station_id":"ce4bhih2rcd13ifvqfr0","pricing_plan_id":"cebpf4jnsgd1na2vs0mg"},{"bike_id":"a80115e1-855c-4205-a8b1-fc53627e1021","system_id":"levelo_inurba_marseille","lat":43.28616,"lon":5.351,"is_reserved":false,"is_disabled":false,"rental_uris":{"android":"levelo://app?vid=a80115e1-855c-4205-a8b1-fc53627e1021","ios":"levelo://app?vid=a80115e1-855c-4205-a8b1-fc53627e1021"},"vehicle_type_id":"4","last_reported":1783250550,"current_range_meters":4800,"station_id":"ce4bhch2rcd13ifvqeug","pricing_plan_id":"cebpf4jnsgd1na2vs0mg"},{"bike_id":"7966b59f-e2b4-4dd0-b50f-37c2621c8ed7","system_id":"levelo_inurba_marseille","lat":43.25115,"lon":5.40316,"is_reserved":false,"is_disabled":false,"rental_uris":{"android":"levelo://app?vid=7966b59f-e2b4-4dd0-b50f-37c2621c8ed7","ios":"levelo://app?vid=7966b59f-e2b4-4dd0-b50f-37c2621c8ed7"},"vehicle_type_id":"4","last_reported":1783250550,"current_range_meters":4800,"station_id":"ce4bhlh2rcd13ifvqgig","pricing_plan_id":"cebpf4jnsgd1na2vs0mg"},{"bike_id":"3af208fb-ed62-4f29-bcd1-b301d13a9628","system_id":"levelo_inurba_marseille","lat":43.28397,"lon":5.36494,"is_reserved":false,"is_disabled":false,"rental_uris":{"android":"levelo://app?vid=3af208fb-ed62-4f29-bcd1-b301d13a9628","ios":"levelo://app?vid=3af208fb-ed62-4f29-bcd1-b301d13a9628"},"vehicle_type_id":"4","last_reported":1783250550,"current_range_meters":4800,"station_id":"","pricing_plan_id":"cebpf4jnsgd1na2vs0mg"},{"bike_id":"7b9b4653-dc1f-4144-8788-bd5e4a15a5be","system_id":"levelo_inurba_marseille","lat":43.29245,"lon":5.40914,"is_reserved":false,"is_disabled":false,"rental_uris":{"android":"levelo://app?vid=7b9b4653-dc1f-4144-8788-bd5e4a15a5be","ios":"levelo://app?vid=7b9b4653-dc1f-4144-8788-bd5e4a15a5be"},"vehicle_type_id":"4","last_reported":1783250550,"current_range_meters":4800,"station_id":"ce4bh192rcd13ifvqdc0","pricing_plan_id":"cebpf4jnsgd1na2vs0mg"},{"bike_id":"68bb8da2-8db8-44f6-9935-ac67224c4048","system_id":"levelo_inurba_marseille","lat":43.2173,"lon":5.34609,"is_reserved":false,"is_disabled":false,"rental_uris":{"android":"levelo://app?vid=68bb8da2-8db8-44f6-9935-ac67224c4048","ios":"levelo://app?vid=68bb8da2-8db8-44f6-9935-ac67224c4048"},"vehicle_type_id":"4","last_reported":1783250550,"current_range_meters":5600,"station_id":"st_cvj6r9ubvosntc0bgbag","pricing_plan_id":"cebpf4jnsgd1na2vs0mg"},{"bike_id":"8fee7d24-2407-40c0-82b1-3dfb558327f1","system_id":"levelo_inurba_marseille","lat":43.27809,"lon":5.40727,"is_reserved":false,"is_disabled":false,"rental_uris":{"android":"levelo://app?vid=8fee7d24-2407-40c0-82b1-3dfb558327f1","ios":"levelo://app?vid=8fee7d24-2407-40c0-82b1-3dfb558327f1"},"vehicle_type_id":"4","last_reported":1783250550,"current_range_meters":5600,"station_id":"ce4bhnh2rcd13ifvqgtg","pricing_plan_id":"cebpf4jnsgd1na2vs0mg"},{"bike_id":"a82796c5-40ef-4807-b26d-66152c959991","system_id":"levelo_inurba_marseille","lat":43.27979,"lon":5.39874,"is_reserved":false,"is_disabled":false,"rental_uris":{"android":"levelo://app?vid=a82796c5-40ef-4807-b26d-66152c959991","ios":"levelo://app?vid=a82796c5-40ef-4807-b26d-66152c959991"},"vehicle_type_id":"4","last_reported":1783250550,"current_range_meters":5600,"station_id":"","pricing_plan_id":"cebpf4jnsgd1na2vs0mg"},{"bike_id":"20739826-bc46-48ea-bf94-9aefa5dde0ed","system_id":"levelo_inurba_marseille","lat":43.26218,"lon":5.40443,"is_reserved":false,"is_disabled":false,"rental_uris":{"android":"levelo://app?vid=20739826-bc46-48ea-bf94-9aefa5dde0ed","ios":"levelo://app?vid=20739826-bc46-48ea-bf94-9aefa5dde0ed"},"vehicle_type_id":"4","last_reported":1783250550,"current_range_meters":5600,"station_id":"ce4bhmh2rcd13ifvqgmg","pricing_plan_id":"cebpf4jnsgd1na2vs0mg"},{"bike_id":"b74986d2-a017-40be-8756-6f69c7af4c8a","system_id":"levelo_inurba_marseille","lat":43.29214,"lon":5.36057,"is_reserved":false,"is_disabled":true,"rental_uris":{"android":"levelo://app?vid=b74986d2-a017-40be-8756-6f69c7af4c8a","ios":"levelo://app?vid=b74986d2-a017-40be-8756-6f69c7af4c8a"},"vehicle_type_id":"4","last_reported":1783250550,"current_range_meters":5600,"station_id":"ce4bhbh2rcd13ifvqeqg","pricing_plan_id":"cebpf4jnsgd1na2vs0mg"},{"bike_id":"de6914c1-a127-4bad-9192-c1a2795bb81d","system_id":"levelo_inurba_marseille","lat":43.21188,"lon":5.35085,"is_reserved":false,"is_disabled":false,"rental_uris":{"android":"levelo://app?vid=de6914c1-a127-4bad-9192-c1a2795bb81d","ios":"levelo://app?vid=de6914c1-a127-4bad-9192-c1a2795bb81d"},"vehicle_type_id":"4","last_reported":1783250550,"current_range_meters":5600,"station_id":"st_cvj6sg6p6f1abm77japg","pricing_plan_id":"cebpf4jnsgd1na2vs0mg"},{"bike_id":"40c60d26-7793-4225-aaf2-3a67b9faf4fc","system_id":"levelo_inurba_marseille","lat":43.23483,"lon":5.3808,"is_reserved":false,"is_disabled":false,"rental_uris":{"android":"levelo://app?vid=40c60d26-7793-4225-aaf2-3a67b9faf4fc","ios":"levelo://app?vid=40c60d26-7793-4225-aaf2-3a67b9faf4fc"},"vehicle_type_id":"4","last_reported":1783250550,"current_range_meters":5600,"station_id":"","pricing_plan_id":"cebpf4jnsgd1na2vs0mg"},{"bike_id":"e2770b29-2b53-4a1b-b237-7b8799569b06","system_id":"levelo_inurba_marseille","lat":43.29506,"lon":5.39394,"is_reserved":false,"is_disabled":true,"rental_uris":{"android":"levelo://app?vid=e2770b29-2b53-4a1b-b237-7b8799569b06","ios":"levelo://app?vid=e2770b29-2b53-4a1b-b237-7b8799569b06"},"vehicle_type_id":"4","last_reported":1783250550,"current_range_meters":5600,"station_id":"ce4bh292rcd13ifvqdf0","pricing_plan_id":"cebpf4jnsgd1na2vs0mg"},{"bike_id":"9ef3980b-26dd-4c5f-96ae-f2c7ab866277","system_id":"levelo_inurba_marseille","lat":43.314798,"lon":5.371953,"is_reserved":false,"is_disabled":false,"rental_uris":{"android":"levelo://app?vid=9ef3980b-26dd-4c5f-96ae-f2c7ab866277","ios":"levelo://app?vid=9ef3980b-26dd-4c5f-96ae-f2c7ab866277"},"vehicle_type_id":"4","last_reported":1783250550,"current_range_meters":5600,"station_id":"ce4bgt12rcd13ifvqcd0","pricing_plan_id":"cebpf4jnsgd1na2vs0mg"},{"bike_id":"8c51c550-068e-4ee8-9e6b-2b6156bd353f","system_id":"levelo_inurba_marseille","lat":43.30185,"lon":5.36625,"is_reserved":false,"is_disabled":true,"rental_uris":{"android":"levelo://app?vid=8c51c550-068e-4ee8-9e6b-2b6156bd353f","ios":"levelo://app?vid=8c51c550-068e-4ee8-9e6b-2b6156bd353f"},"vehicle_type_id":"4","last_reported":1783250550,"current_range_meters":5600,"station_id":"ce4bgrh2rcd13ifvqc8g","pricing_plan_id":"cebpf4jnsgd1na2vs0mg"},{"bike_id":"910a0e56-3842-458a-b929-4deeebc2ab76","system_id":"levelo_inurba_marseille","lat":43.21184,"lon":5.35072,"is_reserved":false,"is_disabled":false,"rental_uris":{"android":"levelo://app?vid=910a0e56-3842-458a-b929-4deeebc2ab76","ios":"levelo://app?vid=910a0e56-3842-458a-b929-4deeebc2ab76"},"vehicle_type_id":"4","last_reported":1783250550,"current_range_meters":5600,"station_id":"st_cvj6sg6p6f1abm77japg","pricing_plan_id":"cebpf4jnsgd1na2vs0mg"},{"bike_id":"d1cdcfbb-a242-478a-9f0c-9ee2c708daa5","system_id":"levelo_inurba_marseille","lat":43.33003,"lon":5.39057,"is_reserved":false,"is_disabled":false,"rental_uris":{"android":"levelo://app?vid=d1cdcfbb-a242-478a-9f0c-9ee2c708daa5","ios":"levelo://app?vid=d1cdcfbb-a242-478a-9f0c-9ee2c708daa5"},"vehicle_type_id":"4","last_reported":1783250550,"current_range_meters":5600,"station_id":"ce4bhr92rcd13ifvqhrg","pricing_plan_id":"cebpf4jnsgd1na2vs0mg"},{"bike_id":"65392fcd-1ac7-4e71-a7e6-d798a3ac0b61","system_id":"levelo_inurba_marseille","lat":43.28268,"lon":5.35082,"is_reserved":false,"is_disabled":false,"rental_uris":{"android":"levelo://app?vid=65392fcd-1ac7-4e71-a7e6-d798a3ac0b61","ios":"levelo://app?vid=65392fcd-1ac7-4e71-a7e6-d798a3ac0b61"},"vehicle_type_id":"4","last_reported":1783250550,"current_range_meters":5600,"station_id":"ce4bhbp2rcd13ifvqerg","pricing_plan_id":"cebpf4jnsgd1na2vs0mg"},{"bike_id":"3ccbf15d-251b-4ab8-91b9-371c1e19fbde","system_id":"levelo_inurba_marseille","lat":43.21736,"lon":5.34601,"is_reserved":false,"is_disabled":false,"rental_uris":{"android":"levelo://app?vid=3ccbf15d-251b-4ab8-91b9-371c1e19fbde","ios":"levelo://app?vid=3ccbf15d-251b-4ab8-91b9-371c1e19fbde"},"vehicle_type_id":"4","last_reported":1783250550,"current_range_meters":5600,"station_id":"st_cvj6r9ubvosntc0bgbag","pricing_plan_id":"cebpf4jnsgd1na2vs0mg"},{"bike_id":"637ca6f2-621c-4ae1-adb4-7b5112bde475","system_id":"levelo_inurba_marseille","lat":43.28648,"lon":5.36354,"is_reserved":false,"is_disabled":true,"rental_uris":{"android":"levelo://app?vid=637ca6f2-621c-4ae1-adb4-7b5112bde475","ios":"levelo://app?vid=637ca6f2-621c-4ae1-adb4-7b5112bde475"},"vehicle_type_id":"4","last_reported":1783250550,"current_range_meters":5600,"station_id":"ce4bhah2rcd13ifvqej0","pricing_plan_id":"cebpf4jnsgd1na2vs0mg"},{"bike_id":"ffea6b56-400a-490d-82be-58d6b97c6449","system_id":"levelo_inurba_marseille","lat":43.28858,"lon":5.42526,"is_reserved":false,"is_disabled":false,"rental_uris":{"android":"levelo://app?vid=ffea6b56-400a-490d-82be-58d6b97c6449","ios":"levelo://app?vid=ffea6b56-400a-490d-82be-58d6b97c6449"},"vehicle_type_id":"4","last_reported":1783250550,"current_range_meters":5600,"station_id":"st_d3b462108ojc7389ooeg","pricing_plan_id":"cebpf4jnsgd1na2vs0mg"},{"bike_id":"6fd1c2cc-5825-4e1f-b9af-8d4f0a08f821","system_id":"levelo_inurba_marseille","lat":43.30532,"lon":5.36525,"is_reserved":false,"is_disabled":false,"rental_uris":{"android":"levelo://app?vid=6fd1c2cc-5825-4e1f-b9af-8d4f0a08f821","ios":"levelo://app?vid=6fd1c2cc-5825-4e1f-b9af-8d4f0a08f821"},"vehicle_type_id":"4","last_reported":1783250550,"current_range_meters":5600,"station_id":"ce4bgs12rcd13ifvqcag","pricing_plan_id":"cebpf4jnsgd1na2vs0mg"},{"bike_id":"1e762403-faf8-48c5-9599-ec240eee0672","system_id":"levelo_inurba_marseille","lat":43.33339,"lon":5.42958,"is_reserved":false,"is_disabled":false,"rental_uris":{"android":"levelo://app?vid=1e762403-faf8-48c5-9599-ec240eee0672","ios":"levelo://app?vid=1e762403-faf8-48c5-9599-ec240eee0672"},"vehicle_type_id":"4","last_reported":1783250550,"current_range_meters":5600,"station_id":"","pricing_plan_id":"cebpf4jnsgd1na2vs0mg"},{"bike_id":"a24295fc-7724-4b90-8d96-3ee52499471e","system_id":"levelo_inurba_marseille","lat":43.29843,"lon":5.36284,"is_reserved":false,"is_disabled":false,"rental_uris":{"android":"levelo://app?vid=a24295fc-7724-4b90-8d96-3ee52499471e","ios":"levelo://app?vid=a24295fc-7724-4b90-8d96-3ee52499471e"},"vehicle_type_id":"4","last_reported":1783250550,"current_range_meters":5600,"station_id":"ce4bgpp2rcd13ifvqc3g","pricing_plan_id":"cebpf4jnsgd1na2vs0mg"},{"bike_id":"4664349a-092c-40aa-b88d-50f3cab6843e","system_id":"levelo_inurba_marseille","lat":43.28533,"lon":5.441,"is_reserved":false,"is_disabled":false,"rental_uris":{"android":"levelo://app?vid=4664349a-092c-40aa-b88d-50f3cab6843e","ios":"levelo://app?vid=4664349a-092c-40aa-b88d-50f3cab6843e"},"vehicle_type_id":"4","last_reported":1783250550,"current_range_meters":5600,"station_id":"st_d3j3df2ikq2c7380ej80","pricing_plan_id":"cebpf4jnsgd1na2vs0mg"},{"bike_id":"e4ee63c7-9eff-4911-8f46-91d4a1859e49","system_id":"levelo_inurba_marseille","lat":43.21183,"lon":5.3508,"is_reserved":false,"is_disabled":false,"rental_uris":{"android":"levelo://app?vid=e4ee63c7-9eff-4911-8f46-91d4a1859e49","ios":"levelo://app?vid=e4ee63c7-9eff-4911-8f46-91d4a1859e49"},"vehicle_type_id":"4","last_reported":1783250550,"current_range_meters":5600,"station_id":"st_cvj6sg6p6f1abm77japg","pricing_plan_id":"cebpf4jnsgd1na2vs0mg"},{"bike_id":"2f1e7c27-cdbb-4552-bcb6-438088afd41d","system_id":"levelo_inurba_marseille","lat":43.297995,"lon":5.381091,"is_reserved":false,"is_disabled":false,"rental_uris":{"android":"levelo://app?vid=2f1e7c27-cdbb-4552-bcb6-438088afd41d","ios":"levelo://app?vid=2f1e7c27-cdbb-4552-bcb6-438088afd41d"},"vehicle_type_id":"4","last_reported":1783250550,"current_range_meters":6000,"station_id":"ce4bgl12rcd13ifvqbo0","pricing_plan_id":"cebpf4jnsgd1na2vs0mg"},{"bike_id":"90956858-67b4-4bbd-82de-736588e9511e","system_id":"levelo_inurba_marseille","lat":43.22546,"lon":5.41627,"is_reserved":false,"is_disabled":false,"rental_uris":{"android":"levelo://app?vid=90956858-67b4-4bbd-82de-736588e9511e","ios":"levelo://app?vid=90956858-67b4-4bbd-82de-736588e9511e"},"vehicle_type_id":"4","last_reported":1783250550,"current_range_meters":6000,"station_id":"st_d2o4gvlbi1j2169b742g","pricing_plan_id":"cebpf4jnsgd1na2vs0mg"},{"bike_id":"25801e0a-e313-4f6c-8662-d1791b0082b9","system_id":"levelo_inurba_marseille","lat":43.25098,"lon":5.40338,"is_reserved":false,"is_disabled":false,"rental_uris":{"android":"levelo://app?vid=25801e0a-e313-4f6c-8662-d1791b0082b9","ios":"levelo://app?vid=25801e0a-e313-4f6c-8662-d1791b0082b9"},"vehicle_type_id":"4","last_reported":1783250550,"current_range_meters":6000,"station_id":"ce4bhlh2rcd13ifvqgig","pricing_plan_id":"cebpf4jnsgd1na2vs0mg"},{"bike_id":"6bfed8b6-c2f0-4dd2-afe2-1ed7b81e9669","system_id":"levelo_inurba_marseille","lat":43.23958,"lon":5.36639,"is_reserved":false,"is_disabled":false,"rental_uris":{"android":"levelo://app?vid=6bfed8b6-c2f0-4dd2-afe2-1ed7b81e9669","ios":"levelo://app?vid=6bfed8b6-c2f0-4dd2-afe2-1ed7b81e9669"},"vehicle_type_id":"4","last_reported":1783250550,"current_range_meters":6000,"station_id":"ce4bhi12rcd13ifvqfp0","pricing_plan_id":"cebpf4jnsgd1na2vs0mg"},{"bike_id":"98d9ab63-952f-49d0-8775-50ac81ca5fd7","system_id":"levelo_inurba_marseille","lat":43.30924,"lon":5.37497,"is_reserved":false,"is_disabled":false,"rental_uris":{"android":"levelo://app?vid=98d9ab63-952f-49d0-8775-50ac81ca5fd7","ios":"levelo://app?vid=98d9ab63-952f-49d0-8775-50ac81ca5fd7"},"vehicle_type_id":"4","last_reported":1783250550,"current_range_meters":6000,"station_id":"","pricing_plan_id":"cebpf4jnsgd1na2vs0mg"},{"bike_id":"558cffce-bef5-4f7b-b636-7f88d54a4bba","system_id":"levelo_inurba_marseille","lat":43.21248,"lon":5.35136,"is_reserved":false,"is_disabled":false,"rental_uris":{"android":"levelo://app?vid=558cffce-bef5-4f7b-b636-7f88d54a4bba","ios":"levelo://app?vid=558cffce-bef5-4f7b-b636-7f88d54a4bba"},"vehicle_type_id":"4","last_reported":1783250550,"current_range_meters":6000,"station_id":"","pricing_plan_id":"cebpf4jnsgd1na2vs0mg"},{"bike_id":"bde4fe8f-be40-4b5e-85e0-e4fdf22fb694","system_id":"levelo_inurba_marseille","lat":43.29265,"lon":5.36845,"is_reserved":false,"is_disabled":true,"rental_uris":{"android":"levelo://app?vid=bde4fe8f-be40-4b5e-85e0-e4fdf22fb694","ios":"levelo://app?vid=bde4fe8f-be40-4b5e-85e0-e4fdf22fb694"},"vehicle_type_id":"4","last_reported":1783250550,"current_range_meters":6000,"station_id":"ce4bhbp2rcd13ifvqesg","pricing_plan_id":"cebpf4jnsgd1na2vs0mg"},{"bike_id":"87598ed7-b27b-4140-aaea-c015765247bb","system_id":"levelo_inurba_marseille","lat":43.2118,"lon":5.35073,"is_reserved":false,"is_disabled":false,"rental_uris":{"android":"levelo://app?vid=87598ed7-b27b-4140-aaea-c015765247bb","ios":"levelo://app?vid=87598ed7-b27b-4140-aaea-c015765247bb"},"vehicle_type_id":"4","last_reported":1783250550,"current_range_meters":6000,"station_id":"st_cvj6sg6p6f1abm77japg","pricing_plan_id":"cebpf4jnsgd1na2vs0mg"},{"bike_id":"7a71c416-c3b5-4289-ad0e-531bcb18f06d","system_id":"levelo_inurba_marseille","lat":43.33153,"lon":5.37691,"is_reserved":false,"is_disabled":false,"rental_uris":{"android":"levelo://app?vid=7a71c416-c3b5-4289-ad0e-531bcb18f06d","ios":"levelo://app?vid=7a71c416-c3b5-4289-ad0e-531bcb18f06d"},"vehicle_type_id":"4","last_reported":1783250550,"current_range_meters":6000,"station_id":"st_d46cu089ee8s73dldbu0","pricing_plan_id":"cebpf4jnsgd1na2vs0mg"},{"bike_id":"96c8693b-b989-4afb-b270-4ead78d811ff","system_id":"levelo_inurba_marseille","lat":43.28256,"lon":5.35063,"is_reserved":false,"is_disabled":false,"rental_uris":{"android":"levelo://app?vid=96c8693b-b989-4afb-b270-4ead78d811ff","ios":"levelo://app?vid=96c8693b-b989-4afb-b270-4ead78d811ff"},"vehicle_type_id":"4","last_reported":1783250550,"current_range_meters":6000,"station_id":"ce4bhbp2rcd13ifvqerg","pricing_plan_id":"cebpf4jnsgd1na2vs0mg"},{"bike_id":"44a33624-1d51-4eeb-ab42-c66893fca10d","system_id":"levelo_inurba_marseille","lat":43.32474,"lon":5.36561,"is_reserved":false,"is_disabled":false,"rental_uris":{"android":"levelo://app?vid=44a33624-1d51-4eeb-ab42-c66893fca10d","ios":"levelo://app?vid=44a33624-1d51-4eeb-ab42-c66893fca10d"},"vehicle_type_id":"4","last_reported":1783250550,"current_range_meters":6000,"station_id":"ce4bhs12rcd13ifvqhvg","pricing_plan_id":"cebpf4jnsgd1na2vs0mg"},{"bike_id":"9972642f-35aa-4c20-918a-dcbc07e9e004","system_id":"levelo_inurba_marseille","lat":43.29583,"lon":5.36738,"is_reserved":false,"is_disabled":true,"rental_uris":{"android":"levelo://app?vid=9972642f-35aa-4c20-918a-dcbc07e9e004","ios":"levelo://app?vid=9972642f-35aa-4c20-918a-dcbc07e9e004"},"vehicle_type_id":"4","last_reported":1783250550,"current_range_meters":6000,"station_id":"ce4bgph2rcd13ifvqc2g","pricing_plan_id":"cebpf4jnsgd1na2vs0mg"},{"bike_id":"7fcca41e-2146-47b2-bf38-372ba8763a88","system_id":"levelo_inurba_marseille","lat":43.27985,"lon":5.41656,"is_reserved":false,"is_disabled":false,"rental_uris":{"android":"levelo://app?vid=7fcca41e-2146-47b2-bf38-372ba8763a88","ios":"levelo://app?vid=7fcca41e-2146-47b2-bf38-372ba8763a88"},"vehicle_type_id":"4","last_reported":1783250550,"current_range_meters":6000,"station_id":"ce4bho12rcd13ifvqh1g","pricing_plan_id":"cebpf4jnsgd1na2vs0mg"},{"bike_id":"0b815d8f-2c60-4d16-83e5-7bfac26fceb0","system_id":"levelo_inurba_marseille","lat":43.30368,"lon":5.42485,"is_reserved":false,"is_disabled":false,"rental_uris":{"android":"levelo://app?vid=0b815d8f-2c60-4d16-83e5-7bfac26fceb0","ios":"levelo://app?vid=0b815d8f-2c60-4d16-83e5-7bfac26fceb0"},"vehicle_type_id":"4","last_reported":1783250550,"current_range_meters":6000,"station_id":"ce4bhoh2rcd13ifvqh6g","pricing_plan_id":"cebpf4jnsgd1na2vs0mg"},{"bike_id":"9efeb665-6ac9-4e70-ba70-20bf3b204b4c","system_id":"levelo_inurba_marseille","lat":43.299059,"lon":5.381578,"is_reserved":false,"is_disabled":false,"rental_uris":{"android":"levelo://app?vid=9efeb665-6ac9-4e70-ba70-20bf3b204b4c","ios":"levelo://app?vid=9efeb665-6ac9-4e70-ba70-20bf3b204b4c"},"vehicle_type_id":"4","last_reported":1783250550,"current_range_meters":6000,"station_id":"ce4bgip2rcd13ifvqbb0","pricing_plan_id":"cebpf4jnsgd1na2vs0mg"},{"bike_id":"69e417ad-b027-4e19-ab2c-a27b60962176","system_id":"levelo_inurba_marseille","lat":43.33524,"lon":5.37466,"is_reserved":false,"is_disabled":false,"rental_uris":{"android":"levelo://app?vid=69e417ad-b027-4e19-ab2c-a27b60962176","ios":"levelo://app?vid=69e417ad-b027-4e19-ab2c-a27b60962176"},"vehicle_type_id":"4","last_reported":1783250550,"current_range_meters":6000,"station_id":"st_d46tts09ee8s73dlu43g","pricing_plan_id":"cebpf4jnsgd1na2vs0mg"},{"bike_id":"d455396b-25c8-4bf4-aa48-4df15ad83f7e","system_id":"levelo_inurba_marseille","lat":43.33855,"lon":5.34787,"is_reserved":false,"is_disabled":false,"rental_uris":{"android":"levelo://app?vid=d455396b-25c8-4bf4-aa48-4df15ad83f7e","ios":"levelo://app?vid=d455396b-25c8-4bf4-aa48-4df15ad83f7e"},"vehicle_type_id":"4","last_reported":1783250550,"current_range_meters":6000,"station_id":"","pricing_plan_id":"cebpf4jnsgd1na2vs0mg"},{"bike_id":"d051061f-d3f4-48a6-9cb6-831fa44cd9aa","system_id":"levelo_inurba_marseille","lat":43.27352,"lon":5.39107,"is_reserved":false,"is_disabled":false,"rental_uris":{"android":"levelo://app?vid=d051061f-d3f4-48a6-9cb6-831fa44cd9aa","ios":"levelo://app?vid=d051061f-d3f4-48a6-9cb6-831fa44cd9aa"},"vehicle_type_id":"4","last_reported":1783250550,"current_range_meters":6000,"station_id":"","pricing_plan_id":"cebpf4jnsgd1na2vs0mg"},{"bike_id":"0e329229-8565-4a9d-b593-532bd3ccbaef","system_id":"levelo_inurba_marseille","lat":43.31229,"lon":5.38783,"is_reserved":false,"is_disabled":false,"rental_uris":{"android":"levelo://app?vid=0e329229-8565-4a9d-b593-532bd3ccbaef","ios":"levelo://app?vid=0e329229-8565-4a9d-b593-532bd3ccbaef"},"vehicle_type_id":"4","last_reported":1783250550,"current_range_meters":6400,"station_id":"","pricing_plan_id":"cebpf4jnsgd1na2vs0mg"},{"bike_id":"183aea5c-d661-450f-b481-dd58e2ca7c18","system_id":"levelo_inurba_marseille","lat":43.3055,"lon":5.36539,"is_reserved":false,"is_disabled":false,"rental_uris":{"android":"levelo://app?vid=183aea5c-d661-450f-b481-dd58e2ca7c18","ios":"levelo://app?vid=183aea5c-d661-450f-b481-dd58e2ca7c18"},"vehicle_type_id":"4","last_reported":1783250550,"current_range_meters":6400,"station_id":"ce4bgs12rcd13ifvqcag","pricing_plan_id":"cebpf4jnsgd1na2vs0mg"},{"bike_id":"4c4f87e3-f39e-4907-a603-871d43ed3075","system_id":"levelo_inurba_marseille","lat":43.29837,"lon":5.36304,"is_reserved":false,"is_disabled":false,"rental_uris":{"android":"levelo://app?vid=4c4f87e3-f39e-4907-a603-871d43ed3075","ios":"levelo://app?vid=4c4f87e3-f39e-4907-a603-871d43ed3075"},"vehicle_type_id":"4","last_reported":1783250550,"current_range_meters":6400,"station_id":"ce4bgpp2rcd13ifvqc3g","pricing_plan_id":"cebpf4jnsgd1na2vs0mg"},{"bike_id":"88634da4-5d5a-4c95-95d4-0e111a943869","system_id":"levelo_inurba_marseille","lat":43.32266,"lon":5.383,"is_reserved":false,"is_disabled":false,"rental_uris":{"android":"levelo://app?vid=88634da4-5d5a-4c95-95d4-0e111a943869","ios":"levelo://app?vid=88634da4-5d5a-4c95-95d4-0e111a943869"},"vehicle_type_id":"4","last_reported":1783250550,"current_range_meters":6400,"station_id":"ce4bhr12rcd13ifvqhqg","pricing_plan_id":"cebpf4jnsgd1na2vs0mg"},{"bike_id":"c6497541-6b77-4150-b47f-f245b6d602f5","system_id":"levelo_inurba_marseille","lat":43.27965,"lon":5.38741,"is_reserved":false,"is_disabled":false,"rental_uris":{"android":"levelo://app?vid=c6497541-6b77-4150-b47f-f245b6d602f5","ios":"levelo://app?vid=c6497541-6b77-4150-b47f-f245b6d602f5"},"vehicle_type_id":"4","last_reported":1783250550,"current_range_meters":6400,"station_id":"ce4bhg12rcd13ifvqf80","pricing_plan_id":"cebpf4jnsgd1na2vs0mg"},{"bike_id":"3d409feb-9026-44cf-996e-e730c7c5afdb","system_id":"levelo_inurba_marseille","lat":43.262,"lon":5.37927,"is_reserved":false,"is_disabled":false,"rental_uris":{"android":"levelo://app?vid=3d409feb-9026-44cf-996e-e730c7c5afdb","ios":"levelo://app?vid=3d409feb-9026-44cf-996e-e730c7c5afdb"},"vehicle_type_id":"4","last_reported":1783250550,"current_range_meters":6400,"station_id":"ce4bhjp2rcd13ifvqg90","pricing_plan_id":"cebpf4jnsgd1na2vs0mg"},{"bike_id":"857da0d7-31fe-4314-accb-86352f4ba641","system_id":"levelo_inurba_marseille","lat":43.29269,"lon":5.3764,"is_reserved":false,"is_disabled":false,"rental_uris":{"android":"levelo://app?vid=857da0d7-31fe-4314-accb-86352f4ba641","ios":"levelo://app?vid=857da0d7-31fe-4314-accb-86352f4ba641"},"vehicle_type_id":"4","last_reported":1783250550,"current_range_meters":6400,"station_id":"ce4bgi12rcd13ifvqb80","pricing_plan_id":"cebpf4jnsgd1na2vs0mg"},{"bike_id":"f803775f-8fe2-4d7e-82f4-f1c4f606bb2a","system_id":"levelo_inurba_marseille","lat":43.28133,"lon":5.42665,"is_reserved":false,"is_disabled":false,"rental_uris":{"android":"levelo://app?vid=f803775f-8fe2-4d7e-82f4-f1c4f606bb2a","ios":"levelo://app?vid=f803775f-8fe2-4d7e-82f4-f1c4f606bb2a"},"vehicle_type_id":"4","last_reported":1783250550,"current_range_meters":6400,"station_id":"ce4bhnh2rcd13ifvqgug","pricing_plan_id":"cebpf4jnsgd1na2vs0mg"},{"bike_id":"93d3fb66-f34f-4759-ab74-73ca751cb508","system_id":"levelo_inurba_marseille","lat":43.28599,"lon":5.37069,"is_reserved":false,"is_disabled":false,"rental_uris":{"android":"levelo://app?vid=93d3fb66-f34f-4759-ab74-73ca751cb508","ios":"levelo://app?vid=93d3fb66-f34f-4759-ab74-73ca751cb508"},"vehicle_type_id":"4","last_reported":1783250550,"current_range_meters":6400,"station_id":"ce4bht12rcd13ifvqi60","pricing_plan_id":"cebpf4jnsgd1na2vs0mg"},{"bike_id":"62f9c1b0-01ba-49cb-b2d3-2c1a1ace0e77","system_id":"levelo_inurba_marseille","lat":43.28669,"lon":5.39922,"is_reserved":false,"is_disabled":false,"rental_uris":{"android":"levelo://app?vid=62f9c1b0-01ba-49cb-b2d3-2c1a1ace0e77","ios":"levelo://app?vid=62f9c1b0-01ba-49cb-b2d3-2c1a1ace0e77"},"vehicle_type_id":"4","last_reported":1783250550,"current_range_meters":6400,"station_id":"","pricing_plan_id":"cebpf4jnsgd1na2vs0mg"},{"bike_id":"defe664f-116a-400b-aa68-5aba6647b941","system_id":"levelo_inurba_marseille","lat":43.29258,"lon":5.44538,"is_reserved":false,"is_disabled":false,"rental_uris":{"android":"levelo://app?vid=defe664f-116a-400b-aa68-5aba6647b941","ios":"levelo://app?vid=defe664f-116a-400b-aa68-5aba6647b941"},"vehicle_type_id":"4","last_reported":1783250550,"current_range_meters":6400,"station_id":"","pricing_plan_id":"cebpf4jnsgd1na2vs0mg"},{"bike_id":"ed5c7db6-f8ab-4b3b-8e18-9436ad688be6","system_id":"levelo_inurba_marseille","lat":43.28598,"lon":5.37078,"is_reserved":false,"is_disabled":false,"rental_uris":{"android":"levelo://app?vid=ed5c7db6-f8ab-4b3b-8e18-9436ad688be6","ios":"levelo://app?vid=ed5c7db6-f8ab-4b3b-8e18-9436ad688be6"},"vehicle_type_id":"4","last_reported":1783250550,"current_range_meters":6400,"station_id":"ce4bht12rcd13ifvqi60","pricing_plan_id":"cebpf4jnsgd1na2vs0mg"},{"bike_id":"7537c5f5-f495-4f0b-8a1f-301e14879d03","system_id":"levelo_inurba_marseille","lat":43.28865,"lon":5.35861,"is_reserved":false,"is_disabled":false,"rental_uris":{"android":"levelo://app?vid=7537c5f5-f495-4f0b-8a1f-301e14879d03","ios":"levelo://app?vid=7537c5f5-f495-4f0b-8a1f-301e14879d03"},"vehicle_type_id":"4","last_reported":1783250550,"current_range_meters":6400,"station_id":"ce4bhb12rcd13ifvqem0","pricing_plan_id":"cebpf4jnsgd1na2vs0mg"},{"bike_id":"4e1c0cf9-2e81-480e-9596-0a87abe43cf0","system_id":"levelo_inurba_marseille","lat":43.24663,"lon":5.38171,"is_reserved":false,"is_disabled":false,"rental_uris":{"android":"levelo://app?vid=4e1c0cf9-2e81-480e-9596-0a87abe43cf0","ios":"levelo://app?vid=4e1c0cf9-2e81-480e-9596-0a87abe43cf0"},"vehicle_type_id":"4","last_reported":1783250550,"current_range_meters":6400,"station_id":"ce4bhih2rcd13ifvqfr0","pricing_plan_id":"cebpf4jnsgd1na2vs0mg"},{"bike_id":"75ebe46d-92d1-4961-ac06-6553a761dcd0","system_id":"levelo_inurba_marseille","lat":43.305431,"lon":5.365512,"is_reserved":false,"is_disabled":false,"rental_uris":{"android":"levelo://app?vid=75ebe46d-92d1-4961-ac06-6553a761dcd0","ios":"levelo://app?vid=75ebe46d-92d1-4961-ac06-6553a761dcd0"},"vehicle_type_id":"4","last_reported":1783250550,"current_range_meters":6400,"station_id":"ce4bgs12rcd13ifvqcag","pricing_plan_id":"cebpf4jnsgd1na2vs0mg"},{"bike_id":"d89c2371-d4d6-4bc1-89a9-25e1387317d1","system_id":"levelo_inurba_marseille","lat":43.28404,"lon":5.37525,"is_reserved":false,"is_disabled":false,"rental_uris":{"android":"levelo://app?vid=d89c2371-d4d6-4bc1-89a9-25e1387317d1","ios":"levelo://app?vid=d89c2371-d4d6-4bc1-89a9-25e1387317d1"},"vehicle_type_id":"4","last_reported":1783250550,"current_range_meters":6400,"station_id":"ce4bh412rcd13ifvqds0","pricing_plan_id":"cebpf4jnsgd1na2vs0mg"},{"bike_id":"f5d895ef-c089-403e-ab80-fa5c68c05b11","system_id":"levelo_inurba_marseille","lat":43.29978,"lon":5.37178,"is_reserved":false,"is_disabled":false,"rental_uris":{"android":"levelo://app?vid=f5d895ef-c089-403e-ab80-fa5c68c05b11","ios":"levelo://app?vid=f5d895ef-c089-403e-ab80-fa5c68c05b11"},"vehicle_type_id":"4","last_reported":1783250550,"current_range_meters":6800,"station_id":"ce4bgr92rcd13ifvqc7g","pricing_plan_id":"cebpf4jnsgd1na2vs0mg"},{"bike_id":"58eae428-dcdf-4e16-a09d-eb26cd89e34d","system_id":"levelo_inurba_marseille","lat":43.29264,"lon":5.36852,"is_reserved":false,"is_disabled":false,"rental_uris":{"android":"levelo://app?vid=58eae428-dcdf-4e16-a09d-eb26cd89e34d","ios":"levelo://app?vid=58eae428-dcdf-4e16-a09d-eb26cd89e34d"},"vehicle_type_id":"4","last_reported":1783250550,"current_range_meters":6800,"station_id":"ce4bhbp2rcd13ifvqesg","pricing_plan_id":"cebpf4jnsgd1na2vs0mg"},{"bike_id":"097703ec-cc97-424c-9bee-1ad2d40222d4","system_id":"levelo_inurba_marseille","lat":43.24813,"lon":5.37464,"is_reserved":false,"is_disabled":false,"rental_uris":{"android":"levelo://app?vid=097703ec-cc97-424c-9bee-1ad2d40222d4","ios":"levelo://app?vid=097703ec-cc97-424c-9bee-1ad2d40222d4"},"vehicle_type_id":"4","last_reported":1783250550,"current_range_meters":6800,"station_id":"ce4bhgh2rcd13ifvqfb0","pricing_plan_id":"cebpf4jnsgd1na2vs0mg"},{"bike_id":"f09628bd-af70-48e6-aa9a-6efef7d99b2d","system_id":"levelo_inurba_marseille","lat":43.28389,"lon":5.37491,"is_reserved":false,"is_disabled":false,"rental_uris":{"android":"levelo://app?vid=f09628bd-af70-48e6-aa9a-6efef7d99b2d","ios":"levelo://app?vid=f09628bd-af70-48e6-aa9a-6efef7d99b2d"},"vehicle_type_id":"4","last_reported":1783250550,"current_range_meters":6800,"station_id":"ce4bh412rcd13ifvqds0","pricing_plan_id":"cebpf4jnsgd1na2vs0mg"},{"bike_id":"250735b4-5b8b-4dc7-b190-cde8d2987c64","system_id":"levelo_inurba_marseille","lat":43.3069,"lon":5.40101,"is_reserved":false,"is_disabled":false,"rental_uris":{"android":"levelo://app?vid=250735b4-5b8b-4dc7-b190-cde8d2987c64","ios":"levelo://app?vid=250735b4-5b8b-4dc7-b190-cde8d2987c64"},"vehicle_type_id":"4","last_reported":1783250550,"current_range_meters":6800,"station_id":"ce4bh112rcd13ifvqda0","pricing_plan_id":"cebpf4jnsgd1na2vs0mg"},{"bike_id":"38360f99-2bce-4f28-bc36-3bc8367dcc77","system_id":"levelo_inurba_marseille","lat":43.302907,"lon":5.377195,"is_reserved":false,"is_disabled":false,"rental_uris":{"android":"levelo://app?vid=38360f99-2bce-4f28-bc36-3bc8367dcc77","ios":"levelo://app?vid=38360f99-2bce-4f28-bc36-3bc8367dcc77"},"vehicle_type_id":"4","last_reported":1783250550,"current_range_meters":6800,"station_id":"ce4bgqh2rcd13ifvqc5g","pricing_plan_id":"cebpf4jnsgd1na2vs0mg"},{"bike_id":"4d52a61b-5c30-41df-a6ac-71b42f016aed","system_id":"levelo_inurba_marseille","lat":43.25894,"lon":5.39874,"is_reserved":false,"is_disabled":true,"rental_uris":{"android":"levelo://app?vid=4d52a61b-5c30-41df-a6ac-71b42f016aed","ios":"levelo://app?vid=4d52a61b-5c30-41df-a6ac-71b42f016aed"},"vehicle_type_id":"4","last_reported":1783250550,"current_range_meters":6800,"station_id":"ce4bhl92rcd13ifvqghg","pricing_plan_id":"cebpf4jnsgd1na2vs0mg"},{"bike_id":"d832a3d0-79c6-4ba7-ac9f-b53b8986b84b","system_id":"levelo_inurba_marseille","lat":43.293733,"lon":5.378506,"is_reserved":false,"is_disabled":false,"rental_uris":{"android":"levelo://app?vid=d832a3d0-79c6-4ba7-ac9f-b53b8986b84b","ios":"levelo://app?vid=d832a3d0-79c6-4ba7-ac9f-b53b8986b84b"},"vehicle_type_id":"4","last_reported":1783250550,"current_range_meters":6800,"station_id":"ce4bhch2rcd13ifvqeug","pricing_plan_id":"cebpf4jnsgd1na2vs0mg"},{"bike_id":"a351dbfd-b396-4fee-bbf9-64048b7d5b49","system_id":"levelo_inurba_marseille","lat":43.26756,"lon":5.39433,"is_reserved":false,"is_disabled":false,"rental_uris":{"android":"levelo://app?vid=a351dbfd-b396-4fee-bbf9-64048b7d5b49","ios":"levelo://app?vid=a351dbfd-b396-4fee-bbf9-64048b7d5b49"},"vehicle_type_id":"4","last_reported":1783250550,"current_range_meters":6800,"station_id":"","pricing_plan_id":"cebpf4jnsgd1na2vs0mg"},{"bike_id":"6f74e72f-4daa-466c-8061-7f39615bd85c","system_id":"levelo_inurba_marseille","lat":43.29208,"lon":5.36054,"is_reserved":false,"is_disabled":false,"rental_uris":{"android":"levelo://app?vid=6f74e72f-4daa-466c-8061-7f39615bd85c","ios":"levelo://app?vid=6f74e72f-4daa-466c-8061-7f39615bd85c"},"vehicle_type_id":"4","last_reported":1783250550,"current_range_meters":6800,"station_id":"ce4bhbh2rcd13ifvqeqg","pricing_plan_id":"cebpf4jnsgd1na2vs0mg"},{"bike_id":"c64fd8b2-f458-4a6e-88eb-895f5a6985c2","system_id":"levelo_inurba_marseille","lat":43.31425,"lon":5.39377,"is_reserved":false,"is_disabled":true,"rental_uris":{"android":"levelo://app?vid=c64fd8b2-f458-4a6e-88eb-895f5a6985c2","ios":"levelo://app?vid=c64fd8b2-f458-4a6e-88eb-895f5a6985c2"},"vehicle_type_id":"4","last_reported":1783250550,"current_range_meters":6800,"station_id":"","pricing_plan_id":"cebpf4jnsgd1na2vs0mg"},{"bike_id":"8220ecc2-6bf9-4e7d-8a35-6858c0daf5f4","system_id":"levelo_inurba_marseille","lat":43.21188,"lon":5.35074,"is_reserved":false,"is_disabled":false,"rental_uris":{"android":"levelo://app?vid=8220ecc2-6bf9-4e7d-8a35-6858c0daf5f4","ios":"levelo://app?vid=8220ecc2-6bf9-4e7d-8a35-6858c0daf5f4"},"vehicle_type_id":"4","last_reported":1783250550,"current_range_meters":6800,"station_id":"st_cvj6sg6p6f1abm77japg","pricing_plan_id":"cebpf4jnsgd1na2vs0mg"},{"bike_id":"f56c5a55-490f-470f-bccd-8a878283165b","system_id":"levelo_inurba_marseille","lat":43.31786,"lon":5.36827,"is_reserved":false,"is_disabled":false,"rental_uris":{"android":"levelo://app?vid=f56c5a55-490f-470f-bccd-8a878283165b","ios":"levelo://app?vid=f56c5a55-490f-470f-bccd-8a878283165b"},"vehicle_type_id":"4","last_reported":1783250550,"current_range_meters":6800,"station_id":"","pricing_plan_id":"cebpf4jnsgd1na2vs0mg"},{"bike_id":"2a8f592d-3ebd-4853-bf23-1a2cca68a093","system_id":"levelo_inurba_marseille","lat":43.27061,"lon":5.38538,"is_reserved":false,"is_disabled":false,"rental_uris":{"android":"levelo://app?vid=2a8f592d-3ebd-4853-bf23-1a2cca68a093","ios":"levelo://app?vid=2a8f592d-3ebd-4853-bf23-1a2cca68a093"},"vehicle_type_id":"4","last_reported":1783250550,"current_range_meters":6800,"station_id":"","pricing_plan_id":"cebpf4jnsgd1na2vs0mg"},{"bike_id":"74c027a4-4b67-40ff-a2fc-35f79d498796","system_id":"levelo_inurba_marseille","lat":43.29208,"lon":5.36064,"is_reserved":false,"is_disabled":true,"rental_uris":{"android":"levelo://app?vid=74c027a4-4b67-40ff-a2fc-35f79d498796","ios":"levelo://app?vid=74c027a4-4b67-40ff-a2fc-35f79d498796"},"vehicle_type_id":"4","last_reported":1783250550,"current_range_meters":6800,"station_id":"ce4bhbh2rcd13ifvqeqg","pricing_plan_id":"cebpf4jnsgd1na2vs0mg"},{"bike_id":"a0b4dd2c-256f-4eb7-82e7-460d8c6a2a20","system_id":"levelo_inurba_marseille","lat":43.30436,"lon":5.41276,"is_reserved":false,"is_disabled":false,"rental_uris":{"android":"levelo://app?vid=a0b4dd2c-256f-4eb7-82e7-460d8c6a2a20","ios":"levelo://app?vid=a0b4dd2c-256f-4eb7-82e7-460d8c6a2a20"},"vehicle_type_id":"4","last_reported":1783250550,"current_range_meters":6800,"station_id":"ce4bhop2rcd13ifvqh8g","pricing_plan_id":"cebpf4jnsgd1na2vs0mg"},{"bike_id":"a12a4f83-c050-4064-a9cd-bf7775a31f2f","system_id":"levelo_inurba_marseille","lat":43.24709,"lon":5.38175,"is_reserved":false,"is_disabled":true,"rental_uris":{"android":"levelo://app?vid=a12a4f83-c050-4064-a9cd-bf7775a31f2f","ios":"levelo://app?vid=a12a4f83-c050-4064-a9cd-bf7775a31f2f"},"vehicle_type_id":"4","last_reported":1783250550,"current_range_meters":6800,"station_id":"","pricing_plan_id":"cebpf4jnsgd1na2vs0mg"},{"bike_id":"95e2c5d3-ee09-417b-93c0-7f04fa895ada","system_id":"levelo_inurba_marseille","lat":43.31921,"lon":5.37464,"is_reserved":false,"is_disabled":false,"rental_uris":{"android":"levelo://app?vid=95e2c5d3-ee09-417b-93c0-7f04fa895ada","ios":"levelo://app?vid=95e2c5d3-ee09-417b-93c0-7f04fa895ada"},"vehicle_type_id":"4","last_reported":1783250550,"current_range_meters":6800,"station_id":"","pricing_plan_id":"cebpf4jnsgd1na2vs0mg"},{"bike_id":"274fe990-747f-4531-bf49-61cbd94a12ec","system_id":"levelo_inurba_marseille","lat":43.28254,"lon":5.35061,"is_reserved":false,"is_disabled":false,"rental_uris":{"android":"levelo://app?vid=274fe990-747f-4531-bf49-61cbd94a12ec","ios":"levelo://app?vid=274fe990-747f-4531-bf49-61cbd94a12ec"},"vehicle_type_id":"4","last_reported":1783250550,"current_range_meters":6800,"station_id":"ce4bhbp2rcd13ifvqerg","pricing_plan_id":"cebpf4jnsgd1na2vs0mg"},{"bike_id":"a1f32e76-4126-4796-9783-810ced54e16b","system_id":"levelo_inurba_marseille","lat":43.29801,"lon":5.40409,"is_reserved":false,"is_disabled":false,"rental_uris":{"android":"levelo://app?vid=a1f32e76-4126-4796-9783-810ced54e16b","ios":"levelo://app?vid=a1f32e76-4126-4796-9783-810ced54e16b"},"vehicle_type_id":"4","last_reported":1783250550,"current_range_meters":6800,"station_id":"ce4bh112rcd13ifvqd90","pricing_plan_id":"cebpf4jnsgd1na2vs0mg"},{"bike_id":"1ef77d10-3808-4032-a625-bdc5532d78f3","system_id":"levelo_inurba_marseille","lat":43.28977,"lon":5.37841,"is_reserved":false,"is_disabled":true,"rental_uris":{"android":"levelo://app?vid=1ef77d10-3808-4032-a625-bdc5532d78f3","ios":"levelo://app?vid=1ef77d10-3808-4032-a625-bdc5532d78f3"},"vehicle_type_id":"4","last_reported":1783250550,"current_range_meters":6800,"station_id":"ce4bh9p2rcd13ifvqed0","pricing_plan_id":"cebpf4jnsgd1na2vs0mg"},{"bike_id":"7c427d21-5ba3-47e9-b621-2ca7d29df3d2","system_id":"levelo_inurba_marseille","lat":43.28453,"lon":5.43711,"is_reserved":false,"is_disabled":false,"rental_uris":{"android":"levelo://app?vid=7c427d21-5ba3-47e9-b621-2ca7d29df3d2","ios":"levelo://app?vid=7c427d21-5ba3-47e9-b621-2ca7d29df3d2"},"vehicle_type_id":"4","last_reported":1783250550,"current_range_meters":6800,"station_id":"","pricing_plan_id":"cebpf4jnsgd1na2vs0mg"},{"bike_id":"67ff903d-b2b0-4196-be8d-ce9048cbff4d","system_id":"levelo_inurba_marseille","lat":43.2299,"lon":5.44487,"is_reserved":false,"is_disabled":false,"rental_uris":{"android":"levelo://app?vid=67ff903d-b2b0-4196-be8d-ce9048cbff4d","ios":"levelo://app?vid=67ff903d-b2b0-4196-be8d-ce9048cbff4d"},"vehicle_type_id":"4","last_reported":1783250550,"current_range_meters":6800,"station_id":"","pricing_plan_id":"cebpf4jnsgd1na2vs0mg"},{"bike_id":"7353a5db-0b63-416d-abba-7495d0ab1bab","system_id":"levelo_inurba_marseille","lat":43.30581,"lon":5.37221,"is_reserved":false,"is_disabled":false,"rental_uris":{"android":"levelo://app?vid=7353a5db-0b63-416d-abba-7495d0ab1bab","ios":"levelo://app?vid=7353a5db-0b63-416d-abba-7495d0ab1bab"},"vehicle_type_id":"4","last_reported":1783250550,"current_range_meters":7200,"station_id":"ce4bgqh2rcd13ifvqc4g","pricing_plan_id":"cebpf4jnsgd1na2vs0mg"},{"bike_id":"08aa9e82-acd5-4c73-9542-29caeaf3b759","system_id":"levelo_inurba_marseille","lat":43.29965,"lon":5.37182,"is_reserved":false,"is_disabled":false,"rental_uris":{"android":"levelo://app?vid=08aa9e82-acd5-4c73-9542-29caeaf3b759","ios":"levelo://app?vid=08aa9e82-acd5-4c73-9542-29caeaf3b759"},"vehicle_type_id":"4","last_reported":1783250550,"current_range_meters":7200,"station_id":"ce4bgr92rcd13ifvqc7g","pricing_plan_id":"cebpf4jnsgd1na2vs0mg"},{"bike_id":"5cf8ff3f-002e-4490-b36d-5909b772d854","system_id":"levelo_inurba_marseille","lat":43.22544,"lon":5.34842,"is_reserved":false,"is_disabled":true,"rental_uris":{"android":"levelo://app?vid=5cf8ff3f-002e-4490-b36d-5909b772d854","ios":"levelo://app?vid=5cf8ff3f-002e-4490-b36d-5909b772d854"},"vehicle_type_id":"4","last_reported":1783250550,"current_range_meters":7200,"station_id":"st_cvj5dfep6f1abm77gieg","pricing_plan_id":"cebpf4jnsgd1na2vs0mg"},{"bike_id":"84190724-6310-46fa-9887-294bd5296f4a","system_id":"levelo_inurba_marseille","lat":43.29274,"lon":5.3684,"is_reserved":false,"is_disabled":false,"rental_uris":{"android":"levelo://app?vid=84190724-6310-46fa-9887-294bd5296f4a","ios":"levelo://app?vid=84190724-6310-46fa-9887-294bd5296f4a"},"vehicle_type_id":"4","last_reported":1783250550,"current_range_meters":7200,"station_id":"ce4bhbp2rcd13ifvqesg","pricing_plan_id":"cebpf4jnsgd1na2vs0mg"},{"bike_id":"8add3d14-7583-4bbe-a39a-8070d5f4d47a","system_id":"levelo_inurba_marseille","lat":43.32495,"lon":5.38288,"is_reserved":false,"is_disabled":false,"rental_uris":{"android":"levelo://app?vid=8add3d14-7583-4bbe-a39a-8070d5f4d47a","ios":"levelo://app?vid=8add3d14-7583-4bbe-a39a-8070d5f4d47a"},"vehicle_type_id":"4","last_reported":1783250550,"current_range_meters":7200,"station_id":"st_d4asgbiv49dc73anf9m0","pricing_plan_id":"cebpf4jnsgd1na2vs0mg"},{"bike_id":"6b4bd43f-9d60-40f8-96cc-0292b478f552","system_id":"levelo_inurba_marseille","lat":43.28779,"lon":5.4662,"is_reserved":false,"is_disabled":false,"rental_uris":{"android":"levelo://app?vid=6b4bd43f-9d60-40f8-96cc-0292b478f552","ios":"levelo://app?vid=6b4bd43f-9d60-40f8-96cc-0292b478f552"},"vehicle_type_id":"4","last_reported":1783250550,"current_range_meters":7200,"station_id":"","pricing_plan_id":"cebpf4jnsgd1na2vs0mg"},{"bike_id":"02908340-8574-4af3-82d9-020ed7ef183b","system_id":"levelo_inurba_marseille","lat":43.31905,"lon":5.40749,"is_reserved":false,"is_disabled":false,"rental_uris":{"android":"levelo://app?vid=02908340-8574-4af3-82d9-020ed7ef183b","ios":"levelo://app?vid=02908340-8574-4af3-82d9-020ed7ef183b"},"vehicle_type_id":"4","last_reported":1783250550,"current_range_meters":7200,"station_id":"ce4bhq12rcd13ifvqhig","pricing_plan_id":"cebpf4jnsgd1na2vs0mg"},{"bike_id":"260ae91d-28b5-41ff-900b-0c90062fb2a2","system_id":"levelo_inurba_marseille","lat":43.29241,"lon":5.3764,"is_reserved":false,"is_disabled":false,"rental_uris":{"android":"levelo://app?vid=260ae91d-28b5-41ff-900b-0c90062fb2a2","ios":"levelo://app?vid=260ae91d-28b5-41ff-900b-0c90062fb2a2"},"vehicle_type_id":"4","last_reported":1783250550,"current_range_meters":7200,"station_id":"ce4bgi12rcd13ifvqb80","pricing_plan_id":"cebpf4jnsgd1na2vs0mg"},{"bike_id":"cc738f32-f811-4e3f-b968-0bc0d7c9be0d","system_id":"levelo_inurba_marseille","lat":43.29246,"lon":5.4092,"is_reserved":false,"is_disabled":true,"rental_uris":{"android":"levelo://app?vid=cc738f32-f811-4e3f-b968-0bc0d7c9be0d","ios":"levelo://app?vid=cc738f32-f811-4e3f-b968-0bc0d7c9be0d"},"vehicle_type_id":"4","last_reported":1783250550,"current_range_meters":7200,"station_id":"ce4bh192rcd13ifvqdc0","pricing_plan_id":"cebpf4jnsgd1na2vs0mg"},{"bike_id":"4f7effd4-d4f9-46ca-9e58-fa62c431d741","system_id":"levelo_inurba_marseille","lat":43.32526,"lon":5.41443,"is_reserved":false,"is_disabled":false,"rental_uris":{"android":"levelo://app?vid=4f7effd4-d4f9-46ca-9e58-fa62c431d741","ios":"levelo://app?vid=4f7effd4-d4f9-46ca-9e58-fa62c431d741"},"vehicle_type_id":"4","last_reported":1783250550,"current_range_meters":7200,"station_id":"ce4bhq12rcd13ifvqhhg","pricing_plan_id":"cebpf4jnsgd1na2vs0mg"},{"bike_id":"b99fa2fa-6caa-4e97-a941-8427d6ff2309","system_id":"levelo_inurba_marseille","lat":43.26219,"lon":5.38764,"is_reserved":false,"is_disabled":true,"rental_uris":{"android":"levelo://app?vid=b99fa2fa-6caa-4e97-a941-8427d6ff2309","ios":"levelo://app?vid=b99fa2fa-6caa-4e97-a941-8427d6ff2309"},"vehicle_type_id":"4","last_reported":1783250550,"current_range_meters":7200,"station_id":"st_d8gjfg747rts73coq3b0","pricing_plan_id":"cebpf4jnsgd1na2vs0mg"},{"bike_id":"12e196a1-122e-4b4f-84bb-3c91817402e0","system_id":"levelo_inurba_marseille","lat":43.30532,"lon":5.36541,"is_reserved":false,"is_disabled":false,"rental_uris":{"android":"levelo://app?vid=12e196a1-122e-4b4f-84bb-3c91817402e0","ios":"levelo://app?vid=12e196a1-122e-4b4f-84bb-3c91817402e0"},"vehicle_type_id":"4","last_reported":1783250550,"current_range_meters":7200,"station_id":"ce4bgs12rcd13ifvqcag","pricing_plan_id":"cebpf4jnsgd1na2vs0mg"},{"bike_id":"3892050e-cb6a-457e-90e6-5def440715fd","system_id":"levelo_inurba_marseille","lat":43.28719,"lon":5.46683,"is_reserved":false,"is_disabled":false,"rental_uris":{"android":"levelo://app?vid=3892050e-cb6a-457e-90e6-5def440715fd","ios":"levelo://app?vid=3892050e-cb6a-457e-90e6-5def440715fd"},"vehicle_type_id":"4","last_reported":1783250550,"current_range_meters":7200,"station_id":"st_d6tc3vkotcvc738tfjhg","pricing_plan_id":"cebpf4jnsgd1na2vs0mg"},{"bike_id":"66f64495-157d-434d-a3ef-5a17f45e04e3","system_id":"levelo_inurba_marseille","lat":43.24115,"lon":5.40988,"is_reserved":false,"is_disabled":false,"rental_uris":{"android":"levelo://app?vid=66f64495-157d-434d-a3ef-5a17f45e04e3","ios":"levelo://app?vid=66f64495-157d-434d-a3ef-5a17f45e04e3"},"vehicle_type_id":"4","last_reported":1783250550,"current_range_meters":7200,"station_id":"","pricing_plan_id":"cebpf4jnsgd1na2vs0mg"},{"bike_id":"1c2caa2d-b419-4b27-a655-9fc2d74e9b2f","system_id":"levelo_inurba_marseille","lat":43.2899,"lon":5.35593,"is_reserved":false,"is_disabled":false,"rental_uris":{"android":"levelo://app?vid=1c2caa2d-b419-4b27-a655-9fc2d74e9b2f","ios":"levelo://app?vid=1c2caa2d-b419-4b27-a655-9fc2d74e9b2f"},"vehicle_type_id":"4","last_reported":1783250550,"current_range_meters":7200,"station_id":"ce4bhb92rcd13ifvqen0","pricing_plan_id":"cebpf4jnsgd1na2vs0mg"},{"bike_id":"97b9345f-3d95-4fe0-8cce-f66f21ea4f2a","system_id":"levelo_inurba_marseille","lat":43.26217,"lon":5.38772,"is_reserved":false,"is_disabled":false,"rental_uris":{"android":"levelo://app?vid=97b9345f-3d95-4fe0-8cce-f66f21ea4f2a","ios":"levelo://app?vid=97b9345f-3d95-4fe0-8cce-f66f21ea4f2a"},"vehicle_type_id":"4","last_reported":1783250550,"current_range_meters":7200,"station_id":"st_d8gjfg747rts73coq3b0","pricing_plan_id":"cebpf4jnsgd1na2vs0mg"},{"bike_id":"fc5d7b22-bed1-4640-a4b2-9379b1406486","system_id":"levelo_inurba_marseille","lat":43.29395,"lon":5.38388,"is_reserved":false,"is_disabled":true,"rental_uris":{"android":"levelo://app?vid=fc5d7b22-bed1-4640-a4b2-9379b1406486","ios":"levelo://app?vid=fc5d7b22-bed1-4640-a4b2-9379b1406486"},"vehicle_type_id":"4","last_reported":1783250550,"current_range_meters":7200,"station_id":"","pricing_plan_id":"cebpf4jnsgd1na2vs0mg"},{"bike_id":"1ee117dc-6d9b-4a29-ad43-0e31c488dfd4","system_id":"levelo_inurba_marseille","lat":43.24655,"lon":5.38638,"is_reserved":false,"is_disabled":false,"rental_uris":{"android":"levelo://app?vid=1ee117dc-6d9b-4a29-ad43-0e31c488dfd4","ios":"levelo://app?vid=1ee117dc-6d9b-4a29-ad43-0e31c488dfd4"},"vehicle_type_id":"4","last_reported":1783250550,"current_range_meters":7200,"station_id":"","pricing_plan_id":"cebpf4jnsgd1na2vs0mg"},{"bike_id":"d0043573-ece0-4d74-b689-b56adb25ddbe","system_id":"levelo_inurba_marseille","lat":43.2826,"lon":5.35069,"is_reserved":false,"is_disabled":false,"rental_uris":{"android":"levelo://app?vid=d0043573-ece0-4d74-b689-b56adb25ddbe","ios":"levelo://app?vid=d0043573-ece0-4d74-b689-b56adb25ddbe"},"vehicle_type_id":"4","last_reported":1783250550,"current_range_meters":7200,"station_id":"ce4bhbp2rcd13ifvqerg","pricing_plan_id":"cebpf4jnsgd1na2vs0mg"},{"bike_id":"51687ee8-dba7-4061-9600-574b19684104","system_id":"levelo_inurba_marseille","lat":43.30717,"lon":5.38433,"is_reserved":false,"is_disabled":false,"rental_uris":{"android":"levelo://app?vid=51687ee8-dba7-4061-9600-574b19684104","ios":"levelo://app?vid=51687ee8-dba7-4061-9600-574b19684104"},"vehicle_type_id":"4","last_reported":1783250550,"current_range_meters":7200,"station_id":"","pricing_plan_id":"cebpf4jnsgd1na2vs0mg"},{"bike_id":"7f12e5a2-955f-42a0-87a4-54480f18e191","system_id":"levelo_inurba_marseille","lat":43.289465,"lon":5.363946,"is_reserved":false,"is_disabled":false,"rental_uris":{"android":"levelo://app?vid=7f12e5a2-955f-42a0-87a4-54480f18e191","ios":"levelo://app?vid=7f12e5a2-955f-42a0-87a4-54480f18e191"},"vehicle_type_id":"4","last_reported":1783250550,"current_range_meters":7200,"station_id":"","pricing_plan_id":"cebpf4jnsgd1na2vs0mg"},{"bike_id":"042aa53d-4ec3-477c-b412-9e56cf0ac38d","system_id":"levelo_inurba_marseille","lat":43.31893,"lon":5.36798,"is_reserved":false,"is_disabled":false,"rental_uris":{"android":"levelo://app?vid=042aa53d-4ec3-477c-b412-9e56cf0ac38d","ios":"levelo://app?vid=042aa53d-4ec3-477c-b412-9e56cf0ac38d"},"vehicle_type_id":"4","last_reported":1783250550,"current_range_meters":8000,"station_id":"st_d6o2h0d0559c73evc1b0","pricing_plan_id":"cebpf4jnsgd1na2vs0mg"},{"bike_id":"a5ad3c1b-326d-4b0a-b4f8-8382f11e36db","system_id":"levelo_inurba_marseille","lat":43.29833,"lon":5.363,"is_reserved":false,"is_disabled":false,"rental_uris":{"android":"levelo://app?vid=a5ad3c1b-326d-4b0a-b4f8-8382f11e36db","ios":"levelo://app?vid=a5ad3c1b-326d-4b0a-b4f8-8382f11e36db"},"vehicle_type_id":"4","last_reported":1783250550,"current_range_meters":8000,"station_id":"ce4bgpp2rcd13ifvqc3g","pricing_plan_id":"cebpf4jnsgd1na2vs0mg"},{"bike_id":"ffc1a511-9f6c-4972-9ed7-31229f3c6516","system_id":"levelo_inurba_marseille","lat":43.30273,"lon":5.37709,"is_reserved":false,"is_disabled":false,"rental_uris":{"android":"levelo://app?vid=ffc1a511-9f6c-4972-9ed7-31229f3c6516","ios":"levelo://app?vid=ffc1a511-9f6c-4972-9ed7-31229f3c6516"},"vehicle_type_id":"4","last_reported":1783250550,"current_range_meters":8000,"station_id":"ce4bguh2rcd13ifvqcj0","pricing_plan_id":"cebpf4jnsgd1na2vs0mg"},{"bike_id":"c12a7046-652e-44da-8de3-edb1f696177b","system_id":"levelo_inurba_marseille","lat":43.32535,"lon":5.41432,"is_reserved":false,"is_disabled":false,"rental_uris":{"android":"levelo://app?vid=c12a7046-652e-44da-8de3-edb1f696177b","ios":"levelo://app?vid=c12a7046-652e-44da-8de3-edb1f696177b"},"vehicle_type_id":"4","last_reported":1783250550,"current_range_meters":8000,"station_id":"ce4bhq12rcd13ifvqhhg","pricing_plan_id":"cebpf4jnsgd1na2vs0mg"},{"bike_id":"2d3dd4f4-c2be-4315-be3d-f35763bc2c71","system_id":"levelo_inurba_marseille","lat":43.26696,"lon":5.40189,"is_reserved":false,"is_disabled":false,"rental_uris":{"android":"levelo://app?vid=2d3dd4f4-c2be-4315-be3d-f35763bc2c71","ios":"levelo://app?vid=2d3dd4f4-c2be-4315-be3d-f35763bc2c71"},"vehicle_type_id":"4","last_reported":1783250550,"current_range_meters":8000,"station_id":"","pricing_plan_id":"cebpf4jnsgd1na2vs0mg"},{"bike_id":"5dc48db0-1136-47a8-b177-77beb9d80bc9","system_id":"levelo_inurba_marseille","lat":43.22547,"lon":5.41625,"is_reserved":false,"is_disabled":false,"rental_uris":{"android":"levelo://app?vid=5dc48db0-1136-47a8-b177-77beb9d80bc9","ios":"levelo://app?vid=5dc48db0-1136-47a8-b177-77beb9d80bc9"},"vehicle_type_id":"4","last_reported":1783250550,"current_range_meters":8000,"station_id":"st_d2o4gvlbi1j2169b742g","pricing_plan_id":"cebpf4jnsgd1na2vs0mg"},{"bike_id":"6988656b-b9bf-42fd-86c6-85441f215ca5","system_id":"levelo_inurba_marseille","lat":43.21177,"lon":5.35078,"is_reserved":false,"is_disabled":false,"rental_uris":{"android":"levelo://app?vid=6988656b-b9bf-42fd-86c6-85441f215ca5","ios":"levelo://app?vid=6988656b-b9bf-42fd-86c6-85441f215ca5"},"vehicle_type_id":"4","last_reported":1783250550,"current_range_meters":8000,"station_id":"st_cvj6sg6p6f1abm77japg","pricing_plan_id":"cebpf4jnsgd1na2vs0mg"},{"bike_id":"cb32a207-05fd-472d-98f7-20534f3c4895","system_id":"levelo_inurba_marseille","lat":43.29704,"lon":5.36596,"is_reserved":false,"is_disabled":false,"rental_uris":{"android":"levelo://app?vid=cb32a207-05fd-472d-98f7-20534f3c4895","ios":"levelo://app?vid=cb32a207-05fd-472d-98f7-20534f3c4895"},"vehicle_type_id":"4","last_reported":1783250550,"current_range_meters":8000,"station_id":"ce4bgn12rcd13ifvqbt0","pricing_plan_id":"cebpf4jnsgd1na2vs0mg"},{"bike_id":"8573ae4c-c9fc-4ff8-a5e9-0df2486e1c40","system_id":"levelo_inurba_marseille","lat":43.2604,"lon":5.37559,"is_reserved":false,"is_disabled":true,"rental_uris":{"android":"levelo://app?vid=8573ae4c-c9fc-4ff8-a5e9-0df2486e1c40","ios":"levelo://app?vid=8573ae4c-c9fc-4ff8-a5e9-0df2486e1c40"},"vehicle_type_id":"4","last_reported":1783250550,"current_range_meters":8000,"station_id":"ce4bhgh2rcd13ifvqfa0","pricing_plan_id":"cebpf4jnsgd1na2vs0mg"},{"bike_id":"71ddf079-8693-46db-a7af-dd5b97b998a9","system_id":"levelo_inurba_marseille","lat":43.27949,"lon":5.41044,"is_reserved":false,"is_disabled":false,"rental_uris":{"android":"levelo://app?vid=71ddf079-8693-46db-a7af-dd5b97b998a9","ios":"levelo://app?vid=71ddf079-8693-46db-a7af-dd5b97b998a9"},"vehicle_type_id":"4","last_reported":1783250550,"current_range_meters":8000,"station_id":"ce4bhnp2rcd13ifvqh0g","pricing_plan_id":"cebpf4jnsgd1na2vs0mg"},{"bike_id":"ebb69cdb-f57c-486a-9d37-3814132e26e5","system_id":"levelo_inurba_marseille","lat":43.2804,"lon":5.36952,"is_reserved":false,"is_disabled":true,"rental_uris":{"android":"levelo://app?vid=ebb69cdb-f57c-486a-9d37-3814132e26e5","ios":"levelo://app?vid=ebb69cdb-f57c-486a-9d37-3814132e26e5"},"vehicle_type_id":"4","last_reported":1783250550,"current_range_meters":8000,"station_id":"ce4bha12rcd13ifvqef0","pricing_plan_id":"cebpf4jnsgd1na2vs0mg"},{"bike_id":"84e58cca-640c-4814-a6dc-5730ba4b678b","system_id":"levelo_inurba_marseille","lat":43.26033,"lon":5.37558,"is_reserved":false,"is_disabled":false,"rental_uris":{"android":"levelo://app?vid=84e58cca-640c-4814-a6dc-5730ba4b678b","ios":"levelo://app?vid=84e58cca-640c-4814-a6dc-5730ba4b678b"},"vehicle_type_id":"4","last_reported":1783250550,"current_range_meters":8000,"station_id":"ce4bhgh2rcd13ifvqfa0","pricing_plan_id":"cebpf4jnsgd1na2vs0mg"},{"bike_id":"d542e80b-c621-4744-a175-6c723a1aa866","system_id":"levelo_inurba_marseille","lat":43.29309,"lon":5.44559,"is_reserved":false,"is_disabled":false,"rental_uris":{"android":"levelo://app?vid=d542e80b-c621-4744-a175-6c723a1aa866","ios":"levelo://app?vid=d542e80b-c621-4744-a175-6c723a1aa866"},"vehicle_type_id":"4","last_reported":1783250550,"current_range_meters":8000,"station_id":"","pricing_plan_id":"cebpf4jnsgd1na2vs0mg"},{"bike_id":"4ea05420-4688-4f88-ab4d-87e93bd11b74","system_id":"levelo_inurba_marseille","lat":43.29254,"lon":5.4089,"is_reserved":false,"is_disabled":false,"rental_uris":{"android":"levelo://app?vid=4ea05420-4688-4f88-ab4d-87e93bd11b74","ios":"levelo://app?vid=4ea05420-4688-4f88-ab4d-87e93bd11b74"},"vehicle_type_id":"4","last_reported":1783250550,"current_range_meters":8000,"station_id":"ce4bh192rcd13ifvqdc0","pricing_plan_id":"cebpf4jnsgd1na2vs0mg"},{"bike_id":"191b2609-ec82-464d-b7e0-771b7c611b63","system_id":"levelo_inurba_marseille","lat":43.31489,"lon":5.37306,"is_reserved":false,"is_disabled":false,"rental_uris":{"android":"levelo://app?vid=191b2609-ec82-464d-b7e0-771b7c611b63","ios":"levelo://app?vid=191b2609-ec82-464d-b7e0-771b7c611b63"},"vehicle_type_id":"4","last_reported":1783250550,"current_range_meters":8000,"station_id":"ce4bgt12rcd13ifvqcd0","pricing_plan_id":"cebpf4jnsgd1na2vs0mg"},{"bike_id":"c9445652-b236-402b-8ec1-fb5567a22b0f","system_id":"levelo_inurba_marseille","lat":43.24454,"lon":5.40962,"is_reserved":false,"is_disabled":false,"rental_uris":{"android":"levelo://app?vid=c9445652-b236-402b-8ec1-fb5567a22b0f","ios":"levelo://app?vid=c9445652-b236-402b-8ec1-fb5567a22b0f"},"vehicle_type_id":"4","last_reported":1783250550,"current_range_meters":8000,"station_id":"","pricing_plan_id":"cebpf4jnsgd1na2vs0mg"},{"bike_id":"acb6b183-d4d6-4d8e-974e-924b61f91a80","system_id":"levelo_inurba_marseille","lat":43.34409,"lon":5.42034,"is_reserved":false,"is_disabled":false,"rental_uris":{"android":"levelo://app?vid=acb6b183-d4d6-4d8e-974e-924b61f91a80","ios":"levelo://app?vid=acb6b183-d4d6-4d8e-974e-924b61f91a80"},"vehicle_type_id":"4","last_reported":1783250550,"current_range_meters":8000,"station_id":"","pricing_plan_id":"cebpf4jnsgd1na2vs0mg"},{"bike_id":"edcc3590-70e8-4e95-b642-168c305063fc","system_id":"levelo_inurba_marseille","lat":43.30903,"lon":5.39612,"is_reserved":false,"is_disabled":false,"rental_uris":{"android":"levelo://app?vid=edcc3590-70e8-4e95-b642-168c305063fc","ios":"levelo://app?vid=edcc3590-70e8-4e95-b642-168c305063fc"},"vehicle_type_id":"4","last_reported":1783250550,"current_range_meters":8000,"station_id":"ce4bh012rcd13ifvqcv0","pricing_plan_id":"cebpf4jnsgd1na2vs0mg"},