{"last_updated":1702048036,"ttl":30,"version":"2.2","data":{"bikes":[{"bike_id":"6d62733b-eff1-45bd-8b7c-9d084159edf4","system_id":"levelo_inurba_marseille","lat":43.312239,"lon":5.368562,"is_reserved":false,"is_disabled":false,"rental_uris":{"android":"levelo://app?vid=6d62733b-eff1-45bd-8b7c-9d084159edf4","ios":"levelo://app?vid=6d62733b-eff1-45bd-8b7c-9d084159edf4"},"vehicle_type_id":"4","last_reported":1702048036,"current_range_meters":28800,"station_id":"ce4bgl92rcd13ifvqbq0","pricing_plan_id":"free"},{"bike_id":"ee36160f-5f41-4382-9d8e-49058c3eaf81","system_id":"levelo_inurba_marseille","lat":43.309076,"lon":5.368465,"is_reserved":false,"is_disabled":false,"rental_uris":{"android":"levelo://app?vid=ee36160f-5f41-4382-9d8e-49058c3eaf81","ios":"levelo://app?vid=ee36160f-5f41-4382-9d8e-49058c3eaf81"},"vehicle_type_id":"4","last_reported":1702048036,"current_range_meters":10800,"station_id":"ce4bgn92rcd13ifvqbvg","pricing_plan_id":"free"},{"bike_id":"45a96cb0-24df-4a56-a61d-806c5b5fe960","system_id":"levelo_inurba_marseille","lat":43.309039,"lon":5.371797,"is_reserved":false,"is_disabled":false,"rental_uris":{"android":"levelo://app?vid=45a96cb0-24df-4a56-a61d-806c5b5fe960","ios":"levelo://app?vid=45a96cb0-24df-4a56-a61d-806c5b5fe960"},"vehicle_type_id":"4","last_reported":1702048036,"current_range_meters":30400,"station_id":"ce4bguh2rcd13ifvqckg","pricing_plan_id":"free"},{"bike_id":"4e1bbe27-f08d-4eac-9e84-100ef30833d5","system_id":"levelo_inurba_marseille","lat":43.311131,"lon":5.377651,"is_reserved":false,"is_disabled":false,"rental_uris":{"android":"levelo://app?vid=4e1bbe27-f08d-4eac-9e84-100ef30833d5","ios":"levelo://app?vid=4e1bbe27-f08d-4eac-9e84-100ef30833d5"},"vehicle_type_id":"4","last_reported":1702048036,"current_range_meters":10400,"station_id":"ce4bgt92rcd13ifvqcg0","pricing_plan_id":"free"},{"bike_id":"946ed3c5-b2ef-4dbc-bf07-366d1c3461d7","system_id":"levelo_inurba_marseille","lat":43.307945,"lon":5.376487,"is_reserved":false,"is_disabled":false,"rental_uris":{"android":"levelo://app?vid=946ed3c5-b2ef-4dbc-bf07-366d1c3461d7","ios":"levelo://app?vid=946ed3c5-b2ef-4dbc-bf07-366d1c3461d7"},"vehicle_type_id":"4","last_reported":1702048036,"current_range_meters":24800,"station_id":"ce4bgv92rcd13ifvqcq0","pricing_plan_id":"free"},{"bike_id":"2f72653c-77b3-41ca-a34a-d30950e5bc7a","system_id":"levelo_inurba_marseille","lat":43.317075,"lon":5.377367,"is_reserved":false,"is_disabled":false,"rental_uris":{"android":"levelo://app?vid=2f72653c-77b3-41ca-a34a-d30950e5bc7a","ios":"levelo://app?vid=2f72653c-77b3-41ca-a34a-d30950e5bc7a"},"vehicle_type_id":"4","last_reported":1702048036,"current_range_meters":28000,"station_id":"ce4bgth2rcd13ifvqch0","pricing_plan_id":"free"},{"bike_id":"adf146c5-e4e1-4668-9a33-042940925130","system_id":"levelo_inurba_marseille","lat":43.31351,"lon":5.37909,"is_reserved":false,"is_disabled":false,"rental_uris":{"android":"levelo://app?vid=adf146c5-e4e1-4668-9a33-042940925130","ios":"levelo://app?vid=adf146c5-e4e1-4668-9a33-042940925130"},"vehicle_type_id":"4","last_reported":1702048036,"current_range_meters":0,"station_id":"","pricing_plan_id":"free"},{"bike_id":"056a371f-bf01-4631-bed0-778c9f6f08e4","system_id":"levelo_inurba_marseille","lat":43.303046,"lon":5.368981,"is_reserved":false,"is_disabled":false,"rental_uris":{"android":"levelo://app?vid=056a371f-bf01-4631-bed0-778c9f6f08e4","ios":"levelo://app?vid=056a371f-bf01-4631-bed0-778c9f6f08e4"},"vehicle_type_id":"4","last_reported":1702048036,"current_range_meters":14400,"station_id":"ce4bgqh2rcd13ifvqc5g","pricing_plan_id":"free"},{"bike_id":"1ea60f58-75f7-4484-b705-1156df4b02ad","system_id":"levelo_inurba_marseille","lat":43.302846,"lon":5.373321,"is_reserved":false,"is_disabled":false,"rental_uris":{"android":"levelo://app?vid=1ea60f58-75f7-4484-b705-1156df4b02ad","ios":"levelo://app?vid=1ea60f58-75f7-4484-b705-1156df4b02ad"},"vehicle_type_id":"4","last_reported":1702048036,"current_range_meters":400,"station_id":"","pricing_plan_id":"free"},{"bike_id":"552705b3-e524-41df-83ac-1df50f85deba","system_id":"levelo_inurba_marseille","lat":43.308012,"lon":5.381511,"is_reserved":false,"is_disabled":false,"rental_uris":{"android":"levelo://app?vid=552705b3-e524-41df-83ac-1df50f85deba","ios":"levelo://app?vid=552705b3-e524-41df-83ac-1df50f85deba"},"vehicle_type_id":"4","last_reported":1702048036,"current_range_meters":15200,"station_id":"ce4bgt12rcd13ifvqce0","pricing_plan_id":"free"},{"bike_id":"ee417831-7b39-4f05-b421-fc09e9ac6f2c","system_id":"levelo_inurba_marseille","lat":43.30143,"lon":5.37413,"is_reserved":false,"is_disabled":false,"rental_uris":{"android":"levelo://app?vid=ee417831-7b39-4f05-b421-fc09e9ac6f2c","ios":"levelo://app?vid=ee417831-7b39-4f05-b421-fc09e9ac6f2c"},"vehicle_type_id":"4","last_reported":1702048036,"current_range_meters":25200,"station_id":"ce4bgs92rcd13ifvqcc0","pricing_plan_id":"free"},{"bike_id":"c7a74f04-209c-41e5-afbf-5616d15ba77a","system_id":"levelo_inurba_marseille","lat":43.313571,"lon":5.384829,"is_reserved":false,"is_disabled":false,"rental_uris":{"android":"levelo://app?vid=c7a74f04-209c-41e5-afbf-5616d15ba77a","ios":"levelo://app?vid=c7a74f04-209c-41e5-afbf-5616d15ba77a"},"vehicle_type_id":"4","last_reported":1702048036,"current_range_meters":16400,"station_id":"ce4bgt92rcd13ifvqcf0","pricing_plan_id":"free"},{"bike_id":"fe94bcd7-80a2-41e7-a47c-a4b38ce2b67a","system_id":"levelo_inurba_marseille","lat":43.30143,"lon":5.37413,"is_reserved":false,"is_disabled":false,"rental_uris":{"android":"levelo://app?vid=fe94bcd7-80a2-41e7-a47c-a4b38ce2b67a","ios":"levelo://app?vid=fe94bcd7-80a2-41e7-a47c-a4b38ce2b67a"},"vehicle_type_id":"4","last_reported":1702048036,"current_range_meters":1600,"station_id":"ce4bgs92rcd13ifvqcc0","pricing_plan_id":"free"},{"bike_id":"e8fe6087-f919-447b-b382-993d2e20c4b3","system_id":"levelo_inurba_marseille","lat":43.31996,"lon":5.38166,"is_reserved":false,"is_disabled":false,"rental_uris":{"android":"levelo://app?vid=e8fe6087-f919-447b-b382-993d2e20c4b3","ios":"levelo://app?vid=e8fe6087-f919-447b-b382-993d2e20c4b3"},"vehicle_type_id":"4","last_reported":1702048036,"current_range_meters":11200,"station_id":"ce4bhr12rcd13ifvqhpg","pricing_plan_id":"free"},{"bike_id":"24f0e624-a9ec-41c9-a89d-db6bb473ad15","system_id":"levelo_inurba_marseille","lat":43.313571,"lon":5.384829,"is_reserved":false,"is_disabled":false,"rental_uris":{"android":"levelo://app?vid=24f0e624-a9ec-41c9-a89d-db6bb473ad15","ios":"levelo://app?vid=24f0e624-a9ec-41c9-a89d-db6bb473ad15"},"vehicle_type_id":"4","last_reported":1702048036,"current_range_meters":7600,"station_id":"ce4bgt92rcd13ifvqcf0","pricing_plan_id":"free"},{"bike_id":"743a3ff5-11e7-4691-a204-4ecb7afb8748","system_id":"levelo_inurba_marseille","lat":43.313571,"lon":5.384829,"is_reserved":false,"is_disabled":false,"rental_uris":{"android":"levelo://app?vid=743a3ff5-11e7-4691-a204-4ecb7afb8748","ios":"levelo://app?vid=743a3ff5-11e7-4691-a204-4ecb7afb8748"},"vehicle_type_id":"4","last_reported":1702048036,"current_range_meters":15600,"station_id":"ce4bgt92rcd13ifvqcf0","pricing_plan_id":"free"},{"bike_id":"a49b99ee-38eb-49b5-978d-00cf198fff08","system_id":"levelo_inurba_marseille","lat":43.299614,"lon":5.366326,"is_reserved":false,"is_disabled":false,"rental_uris":{"android":"levelo://app?vid=a49b99ee-38eb-49b5-978d-00cf198fff08","ios":"levelo://app?vid=a49b99ee-38eb-49b5-978d-00cf198fff08"},"vehicle_type_id":"4","last_reported":1702048036,"current_range_meters":20000,"station_id":"","pricing_plan_id":"free"},{"bike_id":"7b5198b0-e1f9-4f03-b48d-8407e6505009","system_id":"levelo_inurba_marseille","lat":43.299724,"lon":5.371829,"is_reserved":false,"is_disabled":false,"rental_uris":{"android":"levelo://app?vid=7b5198b0-e1f9-4f03-b48d-8407e6505009","ios":"levelo://app?vid=7b5198b0-e1f9-4f03-b48d-8407e6505009"},"vehicle_type_id":"4","last_reported":1702048036,"current_range_meters":14400,"station_id":"ce4bgr92rcd13ifvqc7g","pricing_plan_id":"free"},{"bike_id":"f9dd19f0-01ef-4684-9f17-8db02fd1c583","system_id":"levelo_inurba_marseille","lat":43.311722,"lon":5.387247,"is_reserved":false,"is_disabled":false,"rental_uris":{"android":"levelo://app?vid=f9dd19f0-01ef-4684-9f17-8db02fd1c583","ios":"levelo://app?vid=f9dd19f0-01ef-4684-9f17-8db02fd1c583"},"vehicle_type_id":"4","last_reported":1702048036,"current_range_meters":25600,"station_id":"ce4bgv12rcd13ifvqcp0","pricing_plan_id":"free"},{"bike_id":"cb186f9e-da12-4700-a304-03756162079b","system_id":"levelo_inurba_marseille","lat":43.311724,"lon":5.387242,"is_reserved":false,"is_disabled":false,"rental_uris":{"android":"levelo://app?vid=cb186f9e-da12-4700-a304-03756162079b","ios":"levelo://app?vid=cb186f9e-da12-4700-a304-03756162079b"},"vehicle_type_id":"4","last_reported":1702048036,"current_range_meters":21600,"station_id":"","pricing_plan_id":"free"},{"bike_id":"65f43d33-9641-4913-8c97-caf8da030ac7","system_id":"levelo_inurba_marseille","lat":43.301429,"lon":5.37413,"is_reserved":false,"is_disabled":false,"rental_uris":{"android":"levelo://app?vid=65f43d33-9641-4913-8c97-caf8da030ac7","ios":"levelo://app?vid=65f43d33-9641-4913-8c97-caf8da030ac7"},"vehicle_type_id":"4","last_reported":1702048036,"current_range_meters":15200,"station_id":"ce4bgs92rcd13ifvqcc0","pricing_plan_id":"free"},{"bike_id":"65e7d198-275b-407e-bf00-ed944ad95766","system_id":"levelo_inurba_marseille","lat":43.296129,"lon":5.370777,"is_reserved":false,"is_disabled":false,"rental_uris":{"android":"levelo://app?vid=65e7d198-275b-407e-bf00-ed944ad95766","ios":"levelo://app?vid=65e7d198-275b-407e-bf00-ed944ad95766"},"vehicle_type_id":"4","last_reported":1702048036,"current_range_meters":30400,"station_id":"ce4bgnh2rcd13ifvqc0g","pricing_plan_id":"free"},{"bike_id":"92dc65d6-6823-4de3-93d4-056f738f090c","system_id":"levelo_inurba_marseille","lat":43.316538,"lon":5.38954,"is_reserved":false,"is_disabled":false,"rental_uris":{"android":"levelo://app?vid=92dc65d6-6823-4de3-93d4-056f738f090c","ios":"levelo://app?vid=92dc65d6-6823-4de3-93d4-056f738f090c"},"vehicle_type_id":"4","last_reported":1702048036,"current_range_meters":1200,"station_id":"","pricing_plan_id":"free"},{"bike_id":"1ac0b244-68f8-45b7-8d82-864156d78203","system_id":"levelo_inurba_marseille","lat":43.317557,"lon":5.390173,"is_reserved":false,"is_disabled":false,"rental_uris":{"android":"levelo://app?vid=1ac0b244-68f8-45b7-8d82-864156d78203","ios":"levelo://app?vid=1ac0b244-68f8-45b7-8d82-864156d78203"},"vehicle_type_id":"4","last_reported":1702048036,"current_range_meters":26800,"station_id":"ce4bhqp2rcd13ifvqhng","pricing_plan_id":"free"},{"bike_id":"0eff80ae-56b3-415f-a55c-ffb7060807e9","system_id":"levelo_inurba_marseille","lat":43.317557,"lon":5.390173,"is_reserved":false,"is_disabled":false,"rental_uris":{"android":"levelo://app?vid=0eff80ae-56b3-415f-a55c-ffb7060807e9","ios":"levelo://app?vid=0eff80ae-56b3-415f-a55c-ffb7060807e9"},"vehicle_type_id":"4","last_reported":1702048036,"current_range_meters":14800,"station_id":"ce4bhqp2rcd13ifvqhng","pricing_plan_id":"free"},{"bike_id":"ecd67479-4167-41f0-becb-cbb83d2c00a2","system_id":"levelo_inurba_marseille","lat":43.29588,"lon":5.37513,"is_reserved":false,"is_disabled":false,"rental_uris":{"android":"levelo://app?vid=ecd67479-4167-41f0-becb-cbb83d2c00a2","ios":"levelo://app?vid=ecd67479-4167-41f0-becb-cbb83d2c00a2"},"vehicle_type_id":"4","last_reported":1702048036,"current_range_meters":23200,"station_id":"ce4bgh92rcd13ifvqb50","pricing_plan_id":"free"},{"bike_id":"4dbe6eba-8492-4d7b-8230-3f201e631afc","system_id":"levelo_inurba_marseille","lat":43.304274,"lon":5.388873,"is_reserved":false,"is_disabled":false,"rental_uris":{"android":"levelo://app?vid=4dbe6eba-8492-4d7b-8230-3f201e631afc","ios":"levelo://app?vid=4dbe6eba-8492-4d7b-8230-3f201e631afc"},"vehicle_type_id":"4","last_reported":1702048036,"current_range_meters":15200,"station_id":"ce4bgk12rcd13ifvqbi0","pricing_plan_id":"free"},{"bike_id":"085f4c37-3766-4169-95da-51c80c5c985c","system_id":"levelo_inurba_marseille","lat":43.296263,"lon":5.377094,"is_reserved":false,"is_disabled":false,"rental_uris":{"android":"levelo://app?vid=085f4c37-3766-4169-95da-51c80c5c985c","ios":"levelo://app?vid=085f4c37-3766-4169-95da-51c80c5c985c"},"vehicle_type_id":"4","last_reported":1702048036,"current_range_meters":20400,"station_id":"ce4bgi92rcd13ifvqb90","pricing_plan_id":"free"},{"bike_id":"e37ac621-b119-47db-a4a0-b01f262c7bd9","system_id":"levelo_inurba_marseille","lat":43.32363,"lon":5.38882,"is_reserved":false,"is_disabled":false,"rental_uris":{"android":"levelo://app?vid=e37ac621-b119-47db-a4a0-b01f262c7bd9","ios":"levelo://app?vid=e37ac621-b119-47db-a4a0-b01f262c7bd9"},"vehicle_type_id":"4","last_reported":1702048036,"current_range_meters":21200,"station_id":"ce4bhqp2rcd13ifvqhog","pricing_plan_id":"free"},{"bike_id":"39978e4a-16f3-4e0d-8f89-82d018ac2f29","system_id":"levelo_inurba_marseille","lat":43.296129,"lon":5.370777,"is_reserved":false,"is_disabled":false,"rental_uris":{"android":"levelo://app?vid=39978e4a-16f3-4e0d-8f89-82d018ac2f29","ios":"levelo://app?vid=39978e4a-16f3-4e0d-8f89-82d018ac2f29"},"vehicle_type_id":"4","last_reported":1702048036,"current_range_meters":6400,"station_id":"ce4bgnh2rcd13ifvqc0g","pricing_plan_id":"free"},{"bike_id":"af6a4c48-786b-45bf-b336-c0a24f42e5cb","system_id":"levelo_inurba_marseille","lat":43.29602,"lon":5.381084,"is_reserved":false,"is_disabled":false,"rental_uris":{"android":"levelo://app?vid=af6a4c48-786b-45bf-b336-c0a24f42e5cb","ios":"levelo://app?vid=af6a4c48-786b-45bf-b336-c0a24f42e5cb"},"vehicle_type_id":"4","last_reported":1702048036,"current_range_meters":10800,"station_id":"ce4bgl12rcd13ifvqbo0","pricing_plan_id":"free"},{"bike_id":"f67a5406-c39b-4519-b821-ea14821da42f","system_id":"levelo_inurba_marseille","lat":43.29277,"lon":5.36851,"is_reserved":false,"is_disabled":false,"rental_uris":{"android":"levelo://app?vid=f67a5406-c39b-4519-b821-ea14821da42f","ios":"levelo://app?vid=f67a5406-c39b-4519-b821-ea14821da42f"},"vehicle_type_id":"4","last_reported":1702048036,"current_range_meters":22000,"station_id":"ce4bhbp2rcd13ifvqesg","pricing_plan_id":"free"},{"bike_id":"e2b8e733-4881-41fb-adb2-5ccdcad57e94","system_id":"levelo_inurba_marseille","lat":43.2936,"lon":5.37835,"is_reserved":false,"is_disabled":false,"rental_uris":{"android":"levelo://app?vid=e2b8e733-4881-41fb-adb2-5ccdcad57e94","ios":"levelo://app?vid=e2b8e733-4881-41fb-adb2-5ccdcad57e94"},"vehicle_type_id":"4","last_reported":1702048036,"current_range_meters":10000,"station_id":"ce4bgjh2rcd13ifvqbf0","pricing_plan_id":"free"},{"bike_id":"21143307-e314-4d4a-8ef8-1af4cc96c04f","system_id":"levelo_inurba_marseille","lat":43.31333,"lon":5.39692,"is_reserved":false,"is_disabled":false,"rental_uris":{"android":"levelo://app?vid=21143307-e314-4d4a-8ef8-1af4cc96c04f","ios":"levelo://app?vid=21143307-e314-4d4a-8ef8-1af4cc96c04f"},"vehicle_type_id":"4","last_reported":1702048036,"current_range_meters":10800,"station_id":"ce4bgvp2rcd13ifvqcu0","pricing_plan_id":"free"},{"bike_id":"9ca95a7e-3b61-4d6a-a3fe-7855bcc88085","system_id":"levelo_inurba_marseille","lat":43.29187,"lon":5.35797,"is_reserved":false,"is_disabled":false,"rental_uris":{"android":"levelo://app?vid=9ca95a7e-3b61-4d6a-a3fe-7855bcc88085","ios":"levelo://app?vid=9ca95a7e-3b61-4d6a-a3fe-7855bcc88085"},"vehicle_type_id":"4","last_reported":1702048036,"current_range_meters":20400,"station_id":"ce4bhb12rcd13ifvqel0","pricing_plan_id":"free"},{"bike_id":"22ae932c-7ca3-4dc6-806d-aa18c7800a3f","system_id":"levelo_inurba_marseille","lat":43.313291,"lon":5.396838,"is_reserved":false,"is_disabled":false,"rental_uris":{"android":"levelo://app?vid=22ae932c-7ca3-4dc6-806d-aa18c7800a3f","ios":"levelo://app?vid=22ae932c-7ca3-4dc6-806d-aa18c7800a3f"},"vehicle_type_id":"4","last_reported":1702048036,"current_range_meters":12800,"station_id":"ce4bgvp2rcd13ifvqcu0","pricing_plan_id":"free"},{"bike_id":"b187a553-2d8d-478d-880b-5a08f8fbd5c8","system_id":"levelo_inurba_marseille","lat":43.313291,"lon":5.396838,"is_reserved":false,"is_disabled":false,"rental_uris":{"android":"levelo://app?vid=b187a553-2d8d-478d-880b-5a08f8fbd5c8","ios":"levelo://app?vid=b187a553-2d8d-478d-880b-5a08f8fbd5c8"},"vehicle_type_id":"4","last_reported":1702048036,"current_range_meters":11600,"station_id":"ce4bgvp2rcd13ifvqcu0","pricing_plan_id":"free"},{"bike_id":"de5aa0c3-ad1c-4592-80a6-440c2a974304","system_id":"levelo_inurba_marseille","lat":43.311782,"lon":5.397077,"is_reserved":false,"is_disabled":false,"rental_uris":{"android":"levelo://app?vid=de5aa0c3-ad1c-4592-80a6-440c2a974304","ios":"levelo://app?vid=de5aa0c3-ad1c-4592-80a6-440c2a974304"},"vehicle_type_id":"4","last_reported":1702048036,"current_range_meters":12400,"station_id":"ce4bgvp2rcd13ifvqcu0","pricing_plan_id":"free"},{"bike_id":"95d79868-4a5b-4805-b1c6-0b2cb5a11a46","system_id":"levelo_inurba_marseille","lat":43.29529,"lon":5.385581,"is_reserved":false,"is_disabled":false,"rental_uris":{"android":"levelo://app?vid=95d79868-4a5b-4805-b1c6-0b2cb5a11a46","ios":"levelo://app?vid=95d79868-4a5b-4805-b1c6-0b2cb5a11a46"},"vehicle_type_id":"4","last_reported":1702048036,"current_range_meters":6400,"station_id":"ce4bgih2rcd13ifvqba0","pricing_plan_id":"free"},{"bike_id":"7e2fd06c-1139-4ef8-9dd9-595b85b83f93","system_id":"levelo_inurba_marseille","lat":43.290631,"lon":5.359244,"is_reserved":false,"is_disabled":false,"rental_uris":{"android":"levelo://app?vid=7e2fd06c-1139-4ef8-9dd9-595b85b83f93","ios":"levelo://app?vid=7e2fd06c-1139-4ef8-9dd9-595b85b83f93"},"vehicle_type_id":"4","last_reported":1702048036,"current_range_meters":27600,"station_id":"ce4bha92rcd13ifvqeg0","pricing_plan_id":"free"},{"bike_id":"73a0ca08-b75b-4d6f-b172-6f2ee832a220","system_id":"levelo_inurba_marseille","lat":43.294153,"lon":5.386305,"is_reserved":false,"is_disabled":false,"rental_uris":{"android":"levelo://app?vid=73a0ca08-b75b-4d6f-b172-6f2ee832a220","ios":"levelo://app?vid=73a0ca08-b75b-4d6f-b172-6f2ee832a220"},"vehicle_type_id":"4","last_reported":1702048036,"current_range_meters":26400,"station_id":"ce4bh2h2rcd13ifvqdh0","pricing_plan_id":"free"},{"bike_id":"ef6a92e4-51ac-4c89-b0cf-46f6dfc9465f","system_id":"levelo_inurba_marseille","lat":43.294162,"lon":5.386292,"is_reserved":false,"is_disabled":false,"rental_uris":{"android":"levelo://app?vid=ef6a92e4-51ac-4c89-b0cf-46f6dfc9465f","ios":"levelo://app?vid=ef6a92e4-51ac-4c89-b0cf-46f6dfc9465f"},"vehicle_type_id":"4","last_reported":1702048036,"current_range_meters":25200,"station_id":"ce4bh2h2rcd13ifvqdh0","pricing_plan_id":"free"},{"bike_id":"9be57ffc-c968-4282-a773-1242d901bf2c","system_id":"levelo_inurba_marseille","lat":43.294153,"lon":5.386305,"is_reserved":false,"is_disabled":false,"rental_uris":{"android":"levelo://app?vid=9be57ffc-c968-4282-a773-1242d901bf2c","ios":"levelo://app?vid=9be57ffc-c968-4282-a773-1242d901bf2c"},"vehicle_type_id":"4","last_reported":1702048036,"current_range_meters":22400,"station_id":"ce4bh2h2rcd13ifvqdh0","pricing_plan_id":"free"},{"bike_id":"ae9e6752-0577-487d-b667-7dddb3487f95","system_id":"levelo_inurba_marseille","lat":43.294162,"lon":5.386292,"is_reserved":false,"is_disabled":false,"rental_uris":{"android":"levelo://app?vid=ae9e6752-0577-487d-b667-7dddb3487f95","ios":"levelo://app?vid=ae9e6752-0577-487d-b667-7dddb3487f95"},"vehicle_type_id":"4","last_reported":1702048036,"current_range_meters":17200,"station_id":"ce4bh2h2rcd13ifvqdh0","pricing_plan_id":"free"},{"bike_id":"0d3cc916-c0ac-42f6-be2b-c894c127972e","system_id":"levelo_inurba_marseille","lat":43.290161,"lon":5.375651,"is_reserved":false,"is_disabled":false,"rental_uris":{"android":"levelo://app?vid=0d3cc916-c0ac-42f6-be2b-c894c127972e","ios":"levelo://app?vid=0d3cc916-c0ac-42f6-be2b-c894c127972e"},"vehicle_type_id":"4","last_reported":1702048036,"current_range_meters":16800,"station_id":"","pricing_plan_id":"free"},{"bike_id":"a02a1b20-1fb1-4951-988a-77389649024d","system_id":"levelo_inurba_marseille","lat":43.289259,"lon":5.366364,"is_reserved":false,"is_disabled":false,"rental_uris":{"android":"levelo://app?vid=a02a1b20-1fb1-4951-988a-77389649024d","ios":"levelo://app?vid=a02a1b20-1fb1-4951-988a-77389649024d"},"vehicle_type_id":"4","last_reported":1702048036,"current_range_meters":15600,"station_id":"","pricing_plan_id":"free"},{"bike_id":"854d87da-1f85-451c-b1d0-0d0e8cfcde39","system_id":"levelo_inurba_marseille","lat":43.33042,"lon":5.3892,"is_reserved":false,"is_disabled":false,"rental_uris":{"android":"levelo://app?vid=854d87da-1f85-451c-b1d0-0d0e8cfcde39","ios":"levelo://app?vid=854d87da-1f85-451c-b1d0-0d0e8cfcde39"},"vehicle_type_id":"4","last_reported":1702048036,"current_range_meters":21200,"station_id":"ce4bhr92rcd13ifvqhrg","pricing_plan_id":"free"},{"bike_id":"200a7768-c0bb-4fd5-ad2d-fd132a96e5b6","system_id":"levelo_inurba_marseille","lat":43.290103,"lon":5.356114,"is_reserved":false,"is_disabled":false,"rental_uris":{"android":"levelo://app?vid=200a7768-c0bb-4fd5-ad2d-fd132a96e5b6","ios":"levelo://app?vid=200a7768-c0bb-4fd5-ad2d-fd132a96e5b6"},"vehicle_type_id":"4","last_reported":1702048036,"current_range_meters":28000,"station_id":"ce4bhb92rcd13ifvqen0","pricing_plan_id":"free"},{"bike_id":"1321b593-c75b-4263-b3ed-32d33e11431b","system_id":"levelo_inurba_marseille","lat":43.289743,"lon":5.378304,"is_reserved":false,"is_disabled":false,"rental_uris":{"android":"levelo://app?vid=1321b593-c75b-4263-b3ed-32d33e11431b","ios":"levelo://app?vid=1321b593-c75b-4263-b3ed-32d33e11431b"},"vehicle_type_id":"4","last_reported":1702048036,"current_range_meters":24400,"station_id":"ce4bh9p2rcd13ifvqed0","pricing_plan_id":"free"},{"bike_id":"3a4d051e-bebf-4ca4-8b3e-fa14aa0cd23d","system_id":"levelo_inurba_marseille","lat":43.295169,"lon":5.390426,"is_reserved":false,"is_disabled":false,"rental_uris":{"android":"levelo://app?vid=3a4d051e-bebf-4ca4-8b3e-fa14aa0cd23d","ios":"levelo://app?vid=3a4d051e-bebf-4ca4-8b3e-fa14aa0cd23d"},"vehicle_type_id":"4","last_reported":1702048036,"current_range_meters":20800,"station_id":"ce4bh3p2rcd13ifvqdp0","pricing_plan_id":"free"},{"bike_id":"7b178ab9-3fe0-41eb-b7fe-61a8bb6fd9d7","system_id":"levelo_inurba_marseille","lat":43.309371,"lon":5.401449,"is_reserved":false,"is_disabled":false,"rental_uris":{"android":"levelo://app?vid=7b178ab9-3fe0-41eb-b7fe-61a8bb6fd9d7","ios":"levelo://app?vid=7b178ab9-3fe0-41eb-b7fe-61a8bb6fd9d7"},"vehicle_type_id":"4","last_reported":1702048036,"current_range_meters":22000,"station_id":"ce4bgvp2rcd13ifvqct0","pricing_plan_id":"free"},{"bike_id":"98f7597c-1bb7-488f-a789-cdc9a43999e2","system_id":"levelo_inurba_marseille","lat":43.312609,"lon":5.401662,"is_reserved":false,"is_disabled":false,"rental_uris":{"android":"levelo://app?vid=98f7597c-1bb7-488f-a789-cdc9a43999e2","ios":"levelo://app?vid=98f7597c-1bb7-488f-a789-cdc9a43999e2"},"vehicle_type_id":"4","last_reported":1702048036,"current_range_meters":16800,"station_id":"ce4bh092rcd13ifvqd30","pricing_plan_id":"free"},{"bike_id":"e5d48a4e-3473-4941-a064-e7019fc4501a","system_id":"levelo_inurba_marseille","lat":43.309201,"lon":5.401477,"is_reserved":false,"is_disabled":false,"rental_uris":{"android":"levelo://app?vid=e5d48a4e-3473-4941-a064-e7019fc4501a","ios":"levelo://app?vid=e5d48a4e-3473-4941-a064-e7019fc4501a"},"vehicle_type_id":"4","last_reported":1702048036,"current_range_meters":31200,"station_id":"ce4bgvp2rcd13ifvqct0","pricing_plan_id":"free"},{"bike_id":"a5405824-2edc-42e7-88ca-617f65aff297","system_id":"levelo_inurba_marseille","lat":43.301117,"lon":5.398795,"is_reserved":false,"is_disabled":false,"rental_uris":{"android":"levelo://app?vid=a5405824-2edc-42e7-88ca-617f65aff297","ios":"levelo://app?vid=a5405824-2edc-42e7-88ca-617f65aff297"},"vehicle_type_id":"4","last_reported":1702048036,"current_range_meters":30000,"station_id":"ce4bh0h2rcd13ifvqd40","pricing_plan_id":"free"},{"bike_id":"45d3ce92-7f0d-4725-940d-86ec448fa445","system_id":"levelo_inurba_marseille","lat":43.301117,"lon":5.398795,"is_reserved":false,"is_disabled":false,"rental_uris":{"android":"levelo://app?vid=45d3ce92-7f0d-4725-940d-86ec448fa445","ios":"levelo://app?vid=45d3ce92-7f0d-4725-940d-86ec448fa445"},"vehicle_type_id":"4","last_reported":1702048036,"current_range_meters":3200,"station_id":"ce4bh0h2rcd13ifvqd40","pricing_plan_id":"free"},{"bike_id":"e4ae7a3d-161c-4f5a-af7c-871d5e1678a5","system_id":"levelo_inurba_marseille","lat":43.28697,"lon":5.37393,"is_reserved":false,"is_disabled":false,"rental_uris":{"android":"levelo://app?vid=e4ae7a3d-161c-4f5a-af7c-871d5e1678a5","ios":"levelo://app?vid=e4ae7a3d-161c-4f5a-af7c-871d5e1678a5"},"vehicle_type_id":"4","last_reported":1702048036,"current_range_meters":29600,"station_id":"ce4bh3p2rcd13ifvqdq0","pricing_plan_id":"free"},{"bike_id":"e7b3cb21-cc7b-46c7-871f-e96f0fdb20fb","system_id":"levelo_inurba_marseille","lat":43.290345,"lon":5.38646,"is_reserved":false,"is_disabled":false,"rental_uris":{"android":"levelo://app?vid=e7b3cb21-cc7b-46c7-871f-e96f0fdb20fb","ios":"levelo://app?vid=e7b3cb21-cc7b-46c7-871f-e96f0fdb20fb"},"vehicle_type_id":"4","last_reported":1702048036,"current_range_meters":1200,"station_id":"ce4bh4p2rcd13ifvqe0g","pricing_plan_id":"free"},{"bike_id":"ab961f5f-0557-43de-9de2-46d269229bb2","system_id":"levelo_inurba_marseille","lat":43.29041,"lon":5.38639,"is_reserved":false,"is_disabled":false,"rental_uris":{"android":"levelo://app?vid=ab961f5f-0557-43de-9de2-46d269229bb2","ios":"levelo://app?vid=ab961f5f-0557-43de-9de2-46d269229bb2"},"vehicle_type_id":"4","last_reported":1702048036,"current_range_meters":24400,"station_id":"ce4bh4p2rcd13ifvqe0g","pricing_plan_id":"free"},{"bike_id":"b5dd6a9a-8690-4095-91e7-903842ede119","system_id":"levelo_inurba_marseille","lat":43.290345,"lon":5.38646,"is_reserved":false,"is_disabled":false,"rental_uris":{"android":"levelo://app?vid=b5dd6a9a-8690-4095-91e7-903842ede119","ios":"levelo://app?vid=b5dd6a9a-8690-4095-91e7-903842ede119"},"vehicle_type_id":"4","last_reported":1702048036,"current_range_meters":18800,"station_id":"ce4bh4p2rcd13ifvqe0g","pricing_plan_id":"free"},{"bike_id":"10fc081b-0f8a-4c77-bae3-90d09bccc687","system_id":"levelo_inurba_marseille","lat":43.28633,"lon":5.37256,"is_reserved":false,"is_disabled":false,"rental_uris":{"android":"levelo://app?vid=10fc081b-0f8a-4c77-bae3-90d09bccc687","ios":"levelo://app?vid=10fc081b-0f8a-4c77-bae3-90d09bccc687"},"vehicle_type_id":"4","last_reported":1702048036,"current_range_meters":24000,"station_id":"","pricing_plan_id":"free"},{"bike_id":"85081bf8-870d-4539-92ff-e94f394f41b9","system_id":"levelo_inurba_marseille","lat":43.316523,"lon":5.404367,"is_reserved":false,"is_disabled":false,"rental_uris":{"android":"levelo://app?vid=85081bf8-870d-4539-92ff-e94f394f41b9","ios":"levelo://app?vid=85081bf8-870d-4539-92ff-e94f394f41b9"},"vehicle_type_id":"4","last_reported":1702048036,"current_range_meters":26800,"station_id":"ce4bh012rcd13ifvqd00","pricing_plan_id":"free"},{"bike_id":"296b408a-abbc-4fe9-9de7-e2bd56a31f47","system_id":"levelo_inurba_marseille","lat":43.291994,"lon":5.392907,"is_reserved":false,"is_disabled":false,"rental_uris":{"android":"levelo://app?vid=296b408a-abbc-4fe9-9de7-e2bd56a31f47","ios":"levelo://app?vid=296b408a-abbc-4fe9-9de7-e2bd56a31f47"},"vehicle_type_id":"4","last_reported":1702048036,"current_range_meters":24800,"station_id":"ce4bh192rcd13ifvqdd0","pricing_plan_id":"free"},{"bike_id":"5e9000ee-a993-4559-b213-430e55cd4266","system_id":"levelo_inurba_marseille","lat":43.294314,"lon":5.397498,"is_reserved":false,"is_disabled":false,"rental_uris":{"android":"levelo://app?vid=5e9000ee-a993-4559-b213-430e55cd4266","ios":"levelo://app?vid=5e9000ee-a993-4559-b213-430e55cd4266"},"vehicle_type_id":"4","last_reported":1702048036,"current_range_meters":5600,"station_id":"ce4bh3h2rcd13ifvqdo0","pricing_plan_id":"free"},{"bike_id":"ed44b56c-c8ba-418d-8227-eaba98dff4a6","system_id":"levelo_inurba_marseille","lat":43.294314,"lon":5.397498,"is_reserved":false,"is_disabled":false,"rental_uris":{"android":"levelo://app?vid=ed44b56c-c8ba-418d-8227-eaba98dff4a6","ios":"levelo://app?vid=ed44b56c-c8ba-418d-8227-eaba98dff4a6"},"vehicle_type_id":"4","last_reported":1702048036,"current_range_meters":21600,"station_id":"ce4bh3h2rcd13ifvqdo0","pricing_plan_id":"free"},{"bike_id":"ecc44a28-2ecc-4b1f-98a9-a014dde0c0e0","system_id":"levelo_inurba_marseille","lat":43.285848,"lon":5.350787,"is_reserved":false,"is_disabled":false,"rental_uris":{"android":"levelo://app?vid=ecc44a28-2ecc-4b1f-98a9-a014dde0c0e0","ios":"levelo://app?vid=ecc44a28-2ecc-4b1f-98a9-a014dde0c0e0"},"vehicle_type_id":"4","last_reported":1702048036,"current_range_meters":15200,"station_id":"ce4bhch2rcd13ifvqeug","pricing_plan_id":"free"},{"bike_id":"b84290f1-ae63-43e0-ab40-869255385d26","system_id":"levelo_inurba_marseille","lat":43.283998,"lon":5.375062,"is_reserved":false,"is_disabled":false,"rental_uris":{"android":"levelo://app?vid=b84290f1-ae63-43e0-ab40-869255385d26","ios":"levelo://app?vid=b84290f1-ae63-43e0-ab40-869255385d26"},"vehicle_type_id":"4","last_reported":1702048036,"current_range_meters":22800,"station_id":"ce4bh412rcd13ifvqds0","pricing_plan_id":"free"},{"bike_id":"6c8e72e5-12df-4876-b7e2-406340e9515e","system_id":"levelo_inurba_marseille","lat":43.295713,"lon":5.399639,"is_reserved":false,"is_disabled":false,"rental_uris":{"android":"levelo://app?vid=6c8e72e5-12df-4876-b7e2-406340e9515e","ios":"levelo://app?vid=6c8e72e5-12df-4876-b7e2-406340e9515e"},"vehicle_type_id":"4","last_reported":1702048036,"current_range_meters":13200,"station_id":"ce4bh312rcd13ifvqdj0","pricing_plan_id":"free"},{"bike_id":"391c6299-bb20-4ac9-a22f-2143c8795b24","system_id":"levelo_inurba_marseille","lat":43.337168,"lon":5.391825,"is_reserved":false,"is_disabled":false,"rental_uris":{"android":"levelo://app?vid=391c6299-bb20-4ac9-a22f-2143c8795b24","ios":"levelo://app?vid=391c6299-bb20-4ac9-a22f-2143c8795b24"},"vehicle_type_id":"4","last_reported":1702048036,"current_range_meters":27200,"station_id":"ce4bhr92rcd13ifvqhsg","pricing_plan_id":"free"},{"bike_id":"77b27c92-0b4e-486c-94a6-af93a645a653","system_id":"levelo_inurba_marseille","lat":43.288501,"lon":5.393087,"is_reserved":false,"is_disabled":false,"rental_uris":{"android":"levelo://app?vid=77b27c92-0b4e-486c-94a6-af93a645a653","ios":"levelo://app?vid=77b27c92-0b4e-486c-94a6-af93a645a653"},"vehicle_type_id":"4","last_reported":1702048036,"current_range_meters":14000,"station_id":"ce4bh2p2rcd13ifvqdi0","pricing_plan_id":"free"},{"bike_id":"bb896390-9046-4583-81bd-884c46e60752","system_id":"levelo_inurba_marseille","lat":43.283494,"lon":5.380945,"is_reserved":false,"is_disabled":false,"rental_uris":{"android":"levelo://app?vid=bb896390-9046-4583-81bd-884c46e60752","ios":"levelo://app?vid=bb896390-9046-4583-81bd-884c46e60752"},"vehicle_type_id":"4","last_reported":1702048036,"current_range_meters":5200,"station_id":"ce4bh412rcd13ifvqdr0","pricing_plan_id":"free"},{"bike_id":"2fb3a347-e3dc-4045-b36a-613d98ae4e69","system_id":"levelo_inurba_marseille","lat":43.284219,"lon":5.3497,"is_reserved":false,"is_disabled":false,"rental_uris":{"android":"levelo://app?vid=2fb3a347-e3dc-4045-b36a-613d98ae4e69","ios":"levelo://app?vid=2fb3a347-e3dc-4045-b36a-613d98ae4e69"},"vehicle_type_id":"4","last_reported":1702048036,"current_range_meters":26000,"station_id":"ce4bhbh2rcd13ifvqepg","pricing_plan_id":"free"},{"bike_id":"b9587647-1ce4-4b86-a392-867d01986546","system_id":"levelo_inurba_marseille","lat":43.284219,"lon":5.3497,"is_reserved":false,"is_disabled":false,"rental_uris":{"android":"levelo://app?vid=b9587647-1ce4-4b86-a392-867d01986546","ios":"levelo://app?vid=b9587647-1ce4-4b86-a392-867d01986546"},"vehicle_type_id":"4","last_reported":1702048036,"current_range_meters":28000,"station_id":"ce4bhbh2rcd13ifvqepg","pricing_plan_id":"free"},{"bike_id":"0656c08e-0c70-4961-81bc-c0cee6b3f762","system_id":"levelo_inurba_marseille","lat":43.292724,"lon":5.401131,"is_reserved":false,"is_disabled":false,"rental_uris":{"android":"levelo://app?vid=0656c08e-0c70-4961-81bc-c0cee6b3f762","ios":"levelo://app?vid=0656c08e-0c70-4961-81bc-c0cee6b3f762"},"vehicle_type_id":"4","last_reported":1702048036,"current_range_meters":9600,"station_id":"ce4bh312rcd13ifvqdk0","pricing_plan_id":"free"},{"bike_id":"c820c479-b46f-4eab-84cf-9a0d407fa3f9","system_id":"levelo_inurba_marseille","lat":43.282754,"lon":5.350519,"is_reserved":false,"is_disabled":false,"rental_uris":{"android":"levelo://app?vid=c820c479-b46f-4eab-84cf-9a0d407fa3f9","ios":"levelo://app?vid=c820c479-b46f-4eab-84cf-9a0d407fa3f9"},"vehicle_type_id":"4","last_reported":1702048036,"current_range_meters":12400,"station_id":"ce4bhbp2rcd13ifvqerg","pricing_plan_id":"free"},{"bike_id":"8d11f6f4-9cbb-4d85-b750-c67357146d91","system_id":"levelo_inurba_marseille","lat":43.296263,"lon":5.40601,"is_reserved":false,"is_disabled":false,"rental_uris":{"android":"levelo://app?vid=8d11f6f4-9cbb-4d85-b750-c67357146d91","ios":"levelo://app?vid=8d11f6f4-9cbb-4d85-b750-c67357146d91"},"vehicle_type_id":"4","last_reported":1702048036,"current_range_meters":23200,"station_id":"ce4bh0h2rcd13ifvqd60","pricing_plan_id":"free"},{"bike_id":"18042a15-56ee-40e1-80a8-bf6eafedf451","system_id":"levelo_inurba_marseille","lat":43.281044,"lon":5.378308,"is_reserved":false,"is_disabled":false,"rental_uris":{"android":"levelo://app?vid=18042a15-56ee-40e1-80a8-bf6eafedf451","ios":"levelo://app?vid=18042a15-56ee-40e1-80a8-bf6eafedf451"},"vehicle_type_id":"4","last_reported":1702048036,"current_range_meters":1200,"station_id":"ce4bha12rcd13ifvqee0","pricing_plan_id":"free"},{"bike_id":"46faea07-14b6-4776-a454-ec051dbfb7d8","system_id":"levelo_inurba_marseille","lat":43.32661,"lon":5.40992,"is_reserved":false,"is_disabled":false,"rental_uris":{"android":"levelo://app?vid=46faea07-14b6-4776-a454-ec051dbfb7d8","ios":"levelo://app?vid=46faea07-14b6-4776-a454-ec051dbfb7d8"},"vehicle_type_id":"4","last_reported":1702048036,"current_range_meters":25200,"station_id":"ce4bhpp2rcd13ifvqhgg","pricing_plan_id":"free"},{"bike_id":"e55f2cc2-0183-44d7-8de2-e0d87c32e1ca","system_id":"levelo_inurba_marseille","lat":43.32654,"lon":5.40999,"is_reserved":false,"is_disabled":false,"rental_uris":{"android":"levelo://app?vid=e55f2cc2-0183-44d7-8de2-e0d87c32e1ca","ios":"levelo://app?vid=e55f2cc2-0183-44d7-8de2-e0d87c32e1ca"},"vehicle_type_id":"4","last_reported":1702048036,"current_range_meters":20400,"station_id":"ce4bhpp2rcd13ifvqhgg","pricing_plan_id":"free"},{"bike_id":"19a7f62a-fb3e-4db7-8dac-523b9aa8cf1f","system_id":"levelo_inurba_marseille","lat":43.30423,"lon":5.41283,"is_reserved":false,"is_disabled":false,"rental_uris":{"android":"levelo://app?vid=19a7f62a-fb3e-4db7-8dac-523b9aa8cf1f","ios":"levelo://app?vid=19a7f62a-fb3e-4db7-8dac-523b9aa8cf1f"},"vehicle_type_id":"4","last_reported":1702048036,"current_range_meters":4400,"station_id":"ce4bhop2rcd13ifvqh8g","pricing_plan_id":"free"},{"bike_id":"58dad212-8185-4ba1-90fe-01498d17aac5","system_id":"levelo_inurba_marseille","lat":43.276372,"lon":5.361248,"is_reserved":false,"is_disabled":false,"rental_uris":{"android":"levelo://app?vid=58dad212-8185-4ba1-90fe-01498d17aac5","ios":"levelo://app?vid=58dad212-8185-4ba1-90fe-01498d17aac5"},"vehicle_type_id":"4","last_reported":1702048036,"current_range_meters":19600,"station_id":"","pricing_plan_id":"free"},{"bike_id":"1607e5e1-1307-4ff5-bfca-6d7a0b22a869","system_id":"levelo_inurba_marseille","lat":43.292569,"lon":5.409107,"is_reserved":false,"is_disabled":false,"rental_uris":{"android":"levelo://app?vid=1607e5e1-1307-4ff5-bfca-6d7a0b22a869","ios":"levelo://app?vid=1607e5e1-1307-4ff5-bfca-6d7a0b22a869"},"vehicle_type_id":"4","last_reported":1702048036,"current_range_meters":26800,"station_id":"ce4bh192rcd13ifvqdc0","pricing_plan_id":"free"},{"bike_id":"7377c5b4-ca1b-4421-9e18-b1a8db665336","system_id":"levelo_inurba_marseille","lat":43.292571,"lon":5.409107,"is_reserved":false,"is_disabled":false,"rental_uris":{"android":"levelo://app?vid=7377c5b4-ca1b-4421-9e18-b1a8db665336","ios":"levelo://app?vid=7377c5b4-ca1b-4421-9e18-b1a8db665336"},"vehicle_type_id":"4","last_reported":1702048036,"current_range_meters":25200,"station_id":"ce4bh192rcd13ifvqdc0","pricing_plan_id":"free"},{"bike_id":"44f9b173-7f46-494f-8bbd-14c5ad9a7a00","system_id":"levelo_inurba_marseille","lat":43.276206,"lon":5.36106,"is_reserved":false,"is_disabled":false,"rental_uris":{"android":"levelo://app?vid=44f9b173-7f46-494f-8bbd-14c5ad9a7a00","ios":"levelo://app?vid=44f9b173-7f46-494f-8bbd-14c5ad9a7a00"},"vehicle_type_id":"4","last_reported":1702048036,"current_range_meters":29600,"station_id":"ce4bgj92rcd13ifvqbe0","pricing_plan_id":"free"},{"bike_id":"d8025bec-ab15-4bf5-b2a6-529ab53a330a","system_id":"levelo_inurba_marseille","lat":43.289741,"lon":5.378306,"is_reserved":false,"is_disabled":false,"rental_uris":{"android":"levelo://app?vid=d8025bec-ab15-4bf5-b2a6-529ab53a330a","ios":"levelo://app?vid=d8025bec-ab15-4bf5-b2a6-529ab53a330a"},"vehicle_type_id":"4","last_reported":1702048036,"current_range_meters":7600,"station_id":"ce4bh9p2rcd13ifvqed0","pricing_plan_id":"free"},{"bike_id":"d7da3b85-deb7-4553-a90c-ae09ae60a81c","system_id":"levelo_inurba_marseille","lat":43.280784,"lon":5.396622,"is_reserved":false,"is_disabled":false,"rental_uris":{"android":"levelo://app?vid=d7da3b85-deb7-4553-a90c-ae09ae60a81c","ios":"levelo://app?vid=d7da3b85-deb7-4553-a90c-ae09ae60a81c"},"vehicle_type_id":"4","last_reported":1702048036,"current_range_meters":22400,"station_id":"ce4bho12rcd13ifvqh2g","pricing_plan_id":"free"},{"bike_id":"21353717-0ebc-4941-8111-34c7a0b5fb53","system_id":"levelo_inurba_marseille","lat":43.28074,"lon":5.39661,"is_reserved":false,"is_disabled":false,"rental_uris":{"android":"levelo://app?vid=21353717-0ebc-4941-8111-34c7a0b5fb53","ios":"levelo://app?vid=21353717-0ebc-4941-8111-34c7a0b5fb53"},"vehicle_type_id":"4","last_reported":1702048036,"current_range_meters":19600,"station_id":"ce4bho12rcd13ifvqh2g","pricing_plan_id":"free"},{"bike_id":"6ad22403-bbc6-4efa-aa5f-6853aff80cab","system_id":"levelo_inurba_marseille","lat":43.278401,"lon":5.392152,"is_reserved":false,"is_disabled":false,"rental_uris":{"android":"levelo://app?vid=6ad22403-bbc6-4efa-aa5f-6853aff80cab","ios":"levelo://app?vid=6ad22403-bbc6-4efa-aa5f-6853aff80cab"},"vehicle_type_id":"4","last_reported":1702048036,"current_range_meters":12000,"station_id":"ce4bhjp2rcd13ifvqga0","pricing_plan_id":"free"},{"bike_id":"90652f9b-267f-4c4b-8a2a-f45f82a7841d","system_id":"levelo_inurba_marseille","lat":43.336134,"lon":5.410341,"is_reserved":false,"is_disabled":false,"rental_uris":{"android":"levelo://app?vid=90652f9b-267f-4c4b-8a2a-f45f82a7841d","ios":"levelo://app?vid=90652f9b-267f-4c4b-8a2a-f45f82a7841d"},"vehicle_type_id":"4","last_reported":1702048036,"current_range_meters":22000,"station_id":"ce4bhqh2rcd13ifvqhmg","pricing_plan_id":"free"},{"bike_id":"1bc4373a-2fb0-46ca-a406-e510c82f336d","system_id":"levelo_inurba_marseille","lat":43.276705,"lon":5.388865,"is_reserved":false,"is_disabled":false,"rental_uris":{"android":"levelo://app?vid=1bc4373a-2fb0-46ca-a406-e510c82f336d","ios":"levelo://app?vid=1bc4373a-2fb0-46ca-a406-e510c82f336d"},"vehicle_type_id":"4","last_reported":1702048036,"current_range_meters":15600,"station_id":"ce4bhi12rcd13ifvqfo0","pricing_plan_id":"free"},{"bike_id":"986e2640-07f1-4aaf-ae9d-a0bb0a20f26c","system_id":"levelo_inurba_marseille","lat":43.279975,"lon":5.40009,"is_reserved":false,"is_disabled":false,"rental_uris":{"android":"levelo://app?vid=986e2640-07f1-4aaf-ae9d-a0bb0a20f26c","ios":"levelo://app?vid=986e2640-07f1-4aaf-ae9d-a0bb0a20f26c"},"vehicle_type_id":"4","last_reported":1702048036,"current_range_meters":23600,"station_id":"ce4bho92rcd13ifvqh4g","pricing_plan_id":"free"},{"bike_id":"58058b38-d174-405c-9d8d-39905f252bb7","system_id":"levelo_inurba_marseille","lat":43.279742,"lon":5.38744,"is_reserved":false,"is_disabled":false,"rental_uris":{"android":"levelo://app?vid=58058b38-d174-405c-9d8d-39905f252bb7","ios":"levelo://app?vid=58058b38-d174-405c-9d8d-39905f252bb7"},"vehicle_type_id":"4","last_reported":1702048036,"current_range_meters":22000,"station_id":"ce4bhg12rcd13ifvqf80","pricing_plan_id":"free"},{"bike_id":"63133364-316e-458e-b234-bbd4926c63fc","system_id":"levelo_inurba_marseille","lat":43.27583,"lon":5.39474,"is_reserved":false,"is_disabled":false,"rental_uris":{"android":"levelo://app?vid=63133364-316e-458e-b234-bbd4926c63fc","ios":"levelo://app?vid=63133364-316e-458e-b234-bbd4926c63fc"},"vehicle_type_id":"4","last_reported":1702048036,"current_range_meters":12400,"station_id":"","pricing_plan_id":"free"},{"bike_id":"4ee84928-30de-467c-8215-de7b5558b7ed","system_id":"levelo_inurba_marseille","lat":43.295511,"lon":5.422926,"is_reserved":false,"is_disabled":false,"rental_uris":{"android":"levelo://app?vid=4ee84928-30de-467c-8215-de7b5558b7ed","ios":"levelo://app?vid=4ee84928-30de-467c-8215-de7b5558b7ed"},"vehicle_type_id":"4","last_reported":1702048036,"current_range_meters":31200,"station_id":"ce4bhph2rcd13ifvqhdg","pricing_plan_id":"free"},{"bike_id":"c9a354e1-cd47-4a73-9444-d6227e3bfab5","system_id":"levelo_inurba_marseille","lat":43.295511,"lon":5.422926,"is_reserved":false,"is_disabled":false,"rental_uris":{"android":"levelo://app?vid=c9a354e1-cd47-4a73-9444-d6227e3bfab5","ios":"levelo://app?vid=c9a354e1-cd47-4a73-9444-d6227e3bfab5"},"vehicle_type_id":"4","last_reported":1702048036,"current_range_meters":28400,"station_id":"ce4bhph2rcd13ifvqhdg","pricing_plan_id":"free"},{"bike_id":"d997f8fb-7331-4195-ac23-1c0cfe6c5303","system_id":"levelo_inurba_marseille","lat":43.272118,"lon":5.391758,"is_reserved":false,"is_disabled":false,"rental_uris":{"android":"levelo://app?vid=d997f8fb-7331-4195-ac23-1c0cfe6c5303","ios":"levelo://app?vid=d997f8fb-7331-4195-ac23-1c0cfe6c5303"},"vehicle_type_id":"4","last_reported":1702048036,"current_range_meters":28400,"station_id":"ce4bhhp2rcd13ifvqfm0","pricing_plan_id":"free"},{"bike_id":"8f021145-48f8-459b-aef0-f8921e18b0a0","system_id":"levelo_inurba_marseille","lat":43.27214,"lon":5.3925,"is_reserved":false,"is_disabled":false,"rental_uris":{"android":"levelo://app?vid=8f021145-48f8-459b-aef0-f8921e18b0a0","ios":"levelo://app?vid=8f021145-48f8-459b-aef0-f8921e18b0a0"},"vehicle_type_id":"4","last_reported":1702048036,"current_range_meters":5200,"station_id":"","pricing_plan_id":"free"},{"bike_id":"2114d405-54e1-46a8-851f-18845b67ebc5","system_id":"levelo_inurba_marseille","lat":43.265714,"lon":5.372891,"is_reserved":false,"is_disabled":false,"rental_uris":{"android":"levelo://app?vid=2114d405-54e1-46a8-851f-18845b67ebc5","ios":"levelo://app?vid=2114d405-54e1-46a8-851f-18845b67ebc5"},"vehicle_type_id":"4","last_reported":1702048036,"current_range_meters":22000,"station_id":"ce4bhg12rcd13ifvqf70","pricing_plan_id":"free"},{"bike_id":"3c34461b-fcd1-47e7-b296-15bc85f13232","system_id":"levelo_inurba_marseille","lat":43.267966,"lon":5.393976,"is_reserved":false,"is_disabled":false,"rental_uris":{"android":"levelo://app?vid=3c34461b-fcd1-47e7-b296-15bc85f13232","ios":"levelo://app?vid=3c34461b-fcd1-47e7-b296-15bc85f13232"},"vehicle_type_id":"4","last_reported":1702048036,"current_range_meters":18400,"station_id":"ce4bhh12rcd13ifvqfg0","pricing_plan_id":"free"},{"bike_id":"5c62f0fe-2a68-4f0e-8c5e-1c3be35b64ff","system_id":"levelo_inurba_marseille","lat":43.29167,"lon":5.42798,"is_reserved":false,"is_disabled":false,"rental_uris":{"android":"levelo://app?vid=5c62f0fe-2a68-4f0e-8c5e-1c3be35b64ff","ios":"levelo://app?vid=5c62f0fe-2a68-4f0e-8c5e-1c3be35b64ff"},"vehicle_type_id":"4","last_reported":1702048036,"current_range_meters":10400,"station_id":"","pricing_plan_id":"free"},{"bike_id":"45c3480f-21c4-453a-bee9-c03c7df6b387","system_id":"levelo_inurba_marseille","lat":43.308051,"lon":5.43527,"is_reserved":false,"is_disabled":false,"rental_uris":{"android":"levelo://app?vid=45c3480f-21c4-453a-bee9-c03c7df6b387","ios":"levelo://app?vid=45c3480f-21c4-453a-bee9-c03c7df6b387"},"vehicle_type_id":"4","last_reported":1702048036,"current_range_meters":26000,"station_id":"ce4bhph2rcd13ifvqheg","pricing_plan_id":"free"},{"bike_id":"433cbd13-9bc3-4fad-82b0-c5f054d34748","system_id":"levelo_inurba_marseille","lat":43.26565,"lon":5.39009,"is_reserved":false,"is_disabled":false,"rental_uris":{"android":"levelo://app?vid=433cbd13-9bc3-4fad-82b0-c5f054d34748","ios":"levelo://app?vid=433cbd13-9bc3-4fad-82b0-c5f054d34748"},"vehicle_type_id":"4","last_reported":1702048036,"current_range_meters":17600,"station_id":"ce4bhe12rcd13ifvqf30","pricing_plan_id":"free"},{"bike_id":"b5a9fb9a-579e-4b6d-b099-d8a4cebce37a","system_id":"levelo_inurba_marseille","lat":43.265569,"lon":5.390047,"is_reserved":false,"is_disabled":false,"rental_uris":{"android":"levelo://app?vid=b5a9fb9a-579e-4b6d-b099-d8a4cebce37a","ios":"levelo://app?vid=b5a9fb9a-579e-4b6d-b099-d8a4cebce37a"},"vehicle_type_id":"4","last_reported":1702048036,"current_range_meters":26800,"station_id":"ce4bhe12rcd13ifvqf30","pricing_plan_id":"free"},{"bike_id":"d4116e3d-2a16-413d-87b3-be252de0dc5a","system_id":"levelo_inurba_marseille","lat":43.26949,"lon":5.40262,"is_reserved":false,"is_disabled":false,"rental_uris":{"android":"levelo://app?vid=d4116e3d-2a16-413d-87b3-be252de0dc5a","ios":"levelo://app?vid=d4116e3d-2a16-413d-87b3-be252de0dc5a"},"vehicle_type_id":"4","last_reported":1702048036,"current_range_meters":31200,"station_id":"cjm6bp8fraef2m0cb0m0","pricing_plan_id":"free"},{"bike_id":"8ceac9b4-cd0c-4b6e-87ae-aafb3d84b2aa","system_id":"levelo_inurba_marseille","lat":43.26941,"lon":5.40251,"is_reserved":false,"is_disabled":false,"rental_uris":{"android":"levelo://app?vid=8ceac9b4-cd0c-4b6e-87ae-aafb3d84b2aa","ios":"levelo://app?vid=8ceac9b4-cd0c-4b6e-87ae-aafb3d84b2aa"},"vehicle_type_id":"4","last_reported":1702048036,"current_range_meters":30000,"station_id":"cjm6bp8fraef2m0cb0m0","pricing_plan_id":"free"},{"bike_id":"47cc84aa-3066-4e83-9257-7885c097f6bd","system_id":"levelo_inurba_marseille","lat":43.26933,"lon":5.40268,"is_reserved":false,"is_disabled":false,"rental_uris":{"android":"levelo://app?vid=47cc84aa-3066-4e83-9257-7885c097f6bd","ios":"levelo://app?vid=47cc84aa-3066-4e83-9257-7885c097f6bd"},"vehicle_type_id":"4","last_reported":1702048036,"current_range_meters":30400,"station_id":"cjm6bp8fraef2m0cb0m0","pricing_plan_id":"free"},{"bike_id":"e5644a5f-5504-4a46-b10e-232a5302c1cf","system_id":"levelo_inurba_marseille","lat":43.261782,"lon":5.374515,"is_reserved":false,"is_disabled":false,"rental_uris":{"android":"levelo://app?vid=e5644a5f-5504-4a46-b10e-232a5302c1cf","ios":"levelo://app?vid=e5644a5f-5504-4a46-b10e-232a5302c1cf"},"vehicle_type_id":"4","last_reported":1702048036,"current_range_meters":29200,"station_id":"ce4bhgp2rcd13ifvqfc0","pricing_plan_id":"free"},{"bike_id":"954923a7-c786-4ab6-9de2-b37cfc9510e6","system_id":"levelo_inurba_marseille","lat":43.271368,"lon":5.40928,"is_reserved":false,"is_disabled":false,"rental_uris":{"android":"levelo://app?vid=954923a7-c786-4ab6-9de2-b37cfc9510e6","ios":"levelo://app?vid=954923a7-c786-4ab6-9de2-b37cfc9510e6"},"vehicle_type_id":"4","last_reported":1702048036,"current_range_meters":30000,"station_id":"ce4bhl12rcd13ifvqgf0","pricing_plan_id":"free"},{"bike_id":"efa24303-85ca-4cb7-8ca4-9a01f478b899","system_id":"levelo_inurba_marseille","lat":43.267959,"lon":5.402687,"is_reserved":false,"is_disabled":false,"rental_uris":{"android":"levelo://app?vid=efa24303-85ca-4cb7-8ca4-9a01f478b899","ios":"levelo://app?vid=efa24303-85ca-4cb7-8ca4-9a01f478b899"},"vehicle_type_id":"4","last_reported":1702048036,"current_range_meters":28800,"station_id":"ce501612rcd8frsf0b60","pricing_plan_id":"free"},{"bike_id":"99528b08-79c4-40c1-955c-c12db93786c8","system_id":"levelo_inurba_marseille","lat":43.26803,"lon":5.40275,"is_reserved":false,"is_disabled":false,"rental_uris":{"android":"levelo://app?vid=99528b08-79c4-40c1-955c-c12db93786c8","ios":"levelo://app?vid=99528b08-79c4-40c1-955c-c12db93786c8"},"vehicle_type_id":"4","last_reported":1702048036,"current_range_meters":30800,"station_id":"ce501612rcd8frsf0b60","pricing_plan_id":"free"},{"bike_id":"bc05542b-ed13-4c0b-8bc6-c4ab2bc084e5","system_id":"levelo_inurba_marseille","lat":43.267966,"lon":5.393976,"is_reserved":false,"is_disabled":false,"rental_uris":{"android":"levelo://app?vid=bc05542b-ed13-4c0b-8bc6-c4ab2bc084e5","ios":"levelo://app?vid=bc05542b-ed13-4c0b-8bc6-c4ab2bc084e5"},"vehicle_type_id":"4","last_reported":1702048036,"current_range_meters":18400,"station_id":"ce4bhh12rcd13ifvqfg0","pricing_plan_id":"free"},{"bike_id":"6b17b896-99f2-456b-929e-df3811eeb274","system_id":"levelo_inurba_marseille","lat":43.298768,"lon":5.43643,"is_reserved":false,"is_disabled":false,"rental_uris":{"android":"levelo://app?vid=6b17b896-99f2-456b-929e-df3811eeb274","ios":"levelo://app?vid=6b17b896-99f2-456b-929e-df3811eeb274"},"vehicle_type_id":"4","last_reported":1702048036,"current_range_meters":26800,"station_id":"ce4bhpp2rcd13ifvqhfg","pricing_plan_id":"free"},{"bike_id":"4f68f183-a711-4386-a731-e8ea8e2f115e","system_id":"levelo_inurba_marseille","lat":43.298768,"lon":5.43643,"is_reserved":false,"is_disabled":false,"rental_uris":{"android":"levelo://app?vid=4f68f183-a711-4386-a731-e8ea8e2f115e","ios":"levelo://app?vid=4f68f183-a711-4386-a731-e8ea8e2f115e"},"vehicle_type_id":"4","last_reported":1702048036,"current_range_meters":25200,"station_id":"ce4bhpp2rcd13ifvqhfg","pricing_plan_id":"free"},{"bike_id":"ca4db8a8-5b98-4b78-bc3d-514f38028a3d","system_id":"levelo_inurba_marseille","lat":43.298768,"lon":5.43643,"is_reserved":false,"is_disabled":false,"rental_uris":{"android":"levelo://app?vid=ca4db8a8-5b98-4b78-bc3d-514f38028a3d","ios":"levelo://app?vid=ca4db8a8-5b98-4b78-bc3d-514f38028a3d"},"vehicle_type_id":"4","last_reported":1702048036,"current_range_meters":30000,"station_id":"ce4bhpp2rcd13ifvqhfg","pricing_plan_id":"free"},{"bike_id":"83e2018e-7127-4415-8bbf-2e347a9c6750","system_id":"levelo_inurba_marseille","lat":43.298905,"lon":5.436714,"is_reserved":false,"is_disabled":false,"rental_uris":{"android":"levelo://app?vid=83e2018e-7127-4415-8bbf-2e347a9c6750","ios":"levelo://app?vid=83e2018e-7127-4415-8bbf-2e347a9c6750"},"vehicle_type_id":"4","last_reported":1702048036,"current_range_meters":3200,"station_id":"ce4bhpp2rcd13ifvqhfg","pricing_plan_id":"free"},{"bike_id":"09f77da2-c281-4d65-a868-7c27f026cfa9","system_id":"levelo_inurba_marseille","lat":43.260219,"lon":5.37546,"is_reserved":false,"is_disabled":false,"rental_uris":{"android":"levelo://app?vid=09f77da2-c281-4d65-a868-7c27f026cfa9","ios":"levelo://app?vid=09f77da2-c281-4d65-a868-7c27f026cfa9"},"vehicle_type_id":"4","last_reported":1702048036,"current_range_meters":5200,"station_id":"ce4bhgh2rcd13ifvqfa0","pricing_plan_id":"free"},{"bike_id":"6a8c64df-4f21-4e13-851c-650cde239b49","system_id":"levelo_inurba_marseille","lat":43.26065,"lon":5.39394,"is_reserved":false,"is_disabled":false,"rental_uris":{"android":"levelo://app?vid=6a8c64df-4f21-4e13-851c-650cde239b49","ios":"levelo://app?vid=6a8c64df-4f21-4e13-851c-650cde239b49"},"vehicle_type_id":"4","last_reported":1702048036,"current_range_meters":23200,"station_id":"ce4bhh92rcd13ifvqfj0","pricing_plan_id":"free"},{"bike_id":"49a5da33-d528-4f9c-bb64-16929531a0c2","system_id":"levelo_inurba_marseille","lat":43.2607,"lon":5.393983,"is_reserved":false,"is_disabled":false,"rental_uris":{"android":"levelo://app?vid=49a5da33-d528-4f9c-bb64-16929531a0c2","ios":"levelo://app?vid=49a5da33-d528-4f9c-bb64-16929531a0c2"},"vehicle_type_id":"4","last_reported":1702048036,"current_range_meters":24000,"station_id":"ce4bhh92rcd13ifvqfj0","pricing_plan_id":"free"},{"bike_id":"3c600bcf-06d0-4125-aa0f-bf2d6bf280be","system_id":"levelo_inurba_marseille","lat":43.2607,"lon":5.393983,"is_reserved":false,"is_disabled":false,"rental_uris":{"android":"levelo://app?vid=3c600bcf-06d0-4125-aa0f-bf2d6bf280be","ios":"levelo://app?vid=3c600bcf-06d0-4125-aa0f-bf2d6bf280be"},"vehicle_type_id":"4","last_reported":1702048036,"current_range_meters":28800,"station_id":"ce4bhh92rcd13ifvqfj0","pricing_plan_id":"free"},{"bike_id":"fb9cdd1a-d4c2-4f87-8fe2-1b88937e558e","system_id":"levelo_inurba_marseille","lat":43.275028,"lon":5.424534,"is_reserved":false,"is_disabled":false,"rental_uris":{"android":"levelo://app?vid=fb9cdd1a-d4c2-4f87-8fe2-1b88937e558e","ios":"levelo://app?vid=fb9cdd1a-d4c2-4f87-8fe2-1b88937e558e"},"vehicle_type_id":"4","last_reported":1702048036,"current_range_meters":22800,"station_id":"ce4bhn92rcd13ifvqgrg","pricing_plan_id":"free"},{"bike_id":"20703b68-db94-4e3f-bd24-b17fa2b28478","system_id":"levelo_inurba_marseille","lat":43.275028,"lon":5.424534,"is_reserved":false,"is_disabled":false,"rental_uris":{"android":"levelo://app?vid=20703b68-db94-4e3f-bd24-b17fa2b28478","ios":"levelo://app?vid=20703b68-db94-4e3f-bd24-b17fa2b28478"},"vehicle_type_id":"4","last_reported":1702048036,"current_range_meters":14800,"station_id":"ce4bhn92rcd13ifvqgrg","pricing_plan_id":"free"},{"bike_id":"e76bef69-c360-4ea2-8dad-c7c72a841809","system_id":"levelo_inurba_marseille","lat":43.255756,"lon":5.382303,"is_reserved":false,"is_disabled":false,"rental_uris":{"android":"levelo://app?vid=e76bef69-c360-4ea2-8dad-c7c72a841809","ios":"levelo://app?vid=e76bef69-c360-4ea2-8dad-c7c72a841809"},"vehicle_type_id":"4","last_reported":1702048036,"current_range_meters":0,"station_id":"ce4bhih2rcd13ifvqfs0","pricing_plan_id":"free"},{"bike_id":"fa57f91e-2870-41c4-89f3-404c813e5089","system_id":"levelo_inurba_marseille","lat":43.255782,"lon":5.382298,"is_reserved":false,"is_disabled":false,"rental_uris":{"android":"levelo://app?vid=fa57f91e-2870-41c4-89f3-404c813e5089","ios":"levelo://app?vid=fa57f91e-2870-41c4-89f3-404c813e5089"},"vehicle_type_id":"4","last_reported":1702048036,"current_range_meters":29200,"station_id":"ce4bhih2rcd13ifvqfs0","pricing_plan_id":"free"},{"bike_id":"438d6f1c-297a-4e42-9514-37116193c3bf","system_id":"levelo_inurba_marseille","lat":43.258224,"lon":5.394369,"is_reserved":false,"is_disabled":false,"rental_uris":{"android":"levelo://app?vid=438d6f1c-297a-4e42-9514-37116193c3bf","ios":"levelo://app?vid=438d6f1c-297a-4e42-9514-37116193c3bf"},"vehicle_type_id":"4","last_reported":1702048036,"current_range_meters":12400,"station_id":"ce4bhip2rcd13ifvqft0","pricing_plan_id":"free"},{"bike_id":"a697892b-cd1f-4b1f-86db-e40bde7b0dc0","system_id":"levelo_inurba_marseille","lat":43.258224,"lon":5.394369,"is_reserved":false,"is_disabled":false,"rental_uris":{"android":"levelo://app?vid=a697892b-cd1f-4b1f-86db-e40bde7b0dc0","ios":"levelo://app?vid=a697892b-cd1f-4b1f-86db-e40bde7b0dc0"},"vehicle_type_id":"4","last_reported":1702048036,"current_range_meters":25600,"station_id":"ce4bhip2rcd13ifvqft0","pricing_plan_id":"free"},{"bike_id":"e2f591a7-cdc3-45cb-a7f6-c65488c3a94b","system_id":"levelo_inurba_marseille","lat":43.25575,"lon":5.38235,"is_reserved":false,"is_disabled":false,"rental_uris":{"android":"levelo://app?vid=e2f591a7-cdc3-45cb-a7f6-c65488c3a94b","ios":"levelo://app?vid=e2f591a7-cdc3-45cb-a7f6-c65488c3a94b"},"vehicle_type_id":"4","last_reported":1702048036,"current_range_meters":26800,"station_id":"ce4bhih2rcd13ifvqfs0","pricing_plan_id":"free"},{"bike_id":"c023b84c-ff5a-4670-8332-49a1fe2de5ec","system_id":"levelo_inurba_marseille","lat":43.258658,"lon":5.398935,"is_reserved":false,"is_disabled":false,"rental_uris":{"android":"levelo://app?vid=c023b84c-ff5a-4670-8332-49a1fe2de5ec","ios":"levelo://app?vid=c023b84c-ff5a-4670-8332-49a1fe2de5ec"},"vehicle_type_id":"4","last_reported":1702048036,"current_range_meters":24400,"station_id":"ce4bhl92rcd13ifvqghg","pricing_plan_id":"free"},{"bike_id":"27aa3d96-c748-4b9e-a013-c515bd70360e","system_id":"levelo_inurba_marseille","lat":43.258658,"lon":5.398935,"is_reserved":false,"is_disabled":false,"rental_uris":{"android":"levelo://app?vid=27aa3d96-c748-4b9e-a013-c515bd70360e","ios":"levelo://app?vid=27aa3d96-c748-4b9e-a013-c515bd70360e"},"vehicle_type_id":"4","last_reported":1702048036,"current_range_meters":31200,"station_id":"ce4bhl92rcd13ifvqghg","pricing_plan_id":"free"},{"bike_id":"a8ad00dd-d8ad-4dfc-b12d-42daaaacf033","system_id":"levelo_inurba_marseille","lat":43.258658,"lon":5.398935,"is_reserved":false,"is_disabled":false,"rental_uris":{"android":"levelo://app?vid=a8ad00dd-d8ad-4dfc-b12d-42daaaacf033","ios":"levelo://app?vid=a8ad00dd-d8ad-4dfc-b12d-42daaaacf033"},"vehicle_type_id":"4","last_reported":1702048036,"current_range_meters":31200,"station_id":"ce4bhl92rcd13ifvqghg","pricing_plan_id":"free"},{"bike_id":"c39e6ef6-b28d-449e-9625-5e66e27f1c63","system_id":"levelo_inurba_marseille","lat":43.258658,"lon":5.398935,"is_reserved":false,"is_disabled":false,"rental_uris":{"android":"levelo://app?vid=c39e6ef6-b28d-449e-9625-5e66e27f1c63","ios":"levelo://app?vid=c39e6ef6-b28d-449e-9625-5e66e27f1c63"},"vehicle_type_id":"4","last_reported":1702048036,"current_range_meters":24800,"station_id":"ce4bhl92rcd13ifvqghg","pricing_plan_id":"free"},{"bike_id":"4a78d33b-2917-4bc6-b5fc-955fa4ec909b","system_id":"levelo_inurba_marseille","lat":43.250009,"lon":5.389195,"is_reserved":false,"is_disabled":false,"rental_uris":{"android":"levelo://app?vid=4a78d33b-2917-4bc6-b5fc-955fa4ec909b","ios":"levelo://app?vid=4a78d33b-2917-4bc6-b5fc-955fa4ec909b"},"vehicle_type_id":"4","last_reported":1702048036,"current_range_meters":27600,"station_id":"ce4bhgp2rcd13ifvqfd0","pricing_plan_id":"free"},{"bike_id":"da0ea312-dc5b-43cb-8701-759d75dd5d62","system_id":"levelo_inurba_marseille","lat":43.250023,"lon":5.38919,"is_reserved":false,"is_disabled":false,"rental_uris":{"android":"levelo://app?vid=da0ea312-dc5b-43cb-8701-759d75dd5d62","ios":"levelo://app?vid=da0ea312-dc5b-43cb-8701-759d75dd5d62"},"vehicle_type_id":"4","last_reported":1702048036,"current_range_meters":400,"station_id":"ce4bhgp2rcd13ifvqfd0","pricing_plan_id":"free"},{"bike_id":"55d4cda2-7880-44c8-8815-1b2f87dd305f","system_id":"levelo_inurba_marseille","lat":43.25111,"lon":5.40328,"is_reserved":false,"is_disabled":false,"rental_uris":{"android":"levelo://app?vid=55d4cda2-7880-44c8-8815-1b2f87dd305f","ios":"levelo://app?vid=55d4cda2-7880-44c8-8815-1b2f87dd305f"},"vehicle_type_id":"4","last_reported":1702048036,"current_range_meters":20800,"station_id":"ce4bhlh2rcd13ifvqgig","pricing_plan_id":"free"},{"bike_id":"2288e39f-96ff-448b-acd4-e5b2ce463492","system_id":"levelo_inurba_marseille","lat":43.246461,"lon":5.389014,"is_reserved":false,"is_disabled":false,"rental_uris":{"android":"levelo://app?vid=2288e39f-96ff-448b-acd4-e5b2ce463492","ios":"levelo://app?vid=2288e39f-96ff-448b-acd4-e5b2ce463492"},"vehicle_type_id":"4","last_reported":1702048036,"current_range_meters":24400,"station_id":"ce4bhg12rcd13ifvqf60","pricing_plan_id":"free"},{"bike_id":"44b1c750-7ca0-429c-9e49-ff6092265582","system_id":"levelo_inurba_marseille","lat":43.243884,"lon":5.370737,"is_reserved":false,"is_disabled":false,"rental_uris":{"android":"levelo://app?vid=44b1c750-7ca0-429c-9e49-ff6092265582","ios":"levelo://app?vid=44b1c750-7ca0-429c-9e49-ff6092265582"},"vehicle_type_id":"4","last_reported":1702048036,"current_range_meters":11200,"station_id":"ce4bhhh2rcd13ifvqfk0","pricing_plan_id":"free"},{"bike_id":"e03ecfe5-a444-41ed-93b1-161620be3006","system_id":"levelo_inurba_marseille","lat":43.245581,"lon":5.395069,"is_reserved":false,"is_disabled":false,"rental_uris":{"android":"levelo://app?vid=e03ecfe5-a444-41ed-93b1-161620be3006","ios":"levelo://app?vid=e03ecfe5-a444-41ed-93b1-161620be3006"},"vehicle_type_id":"4","last_reported":1702048036,"current_range_meters":12800,"station_id":"ce4bhlp2rcd13ifvqgjg","pricing_plan_id":"free"},{"bike_id":"30812910-fd9a-4f52-baeb-ef6d7da204d8","system_id":"levelo_inurba_marseille","lat":43.245581,"lon":5.395069,"is_reserved":false,"is_disabled":false,"rental_uris":{"android":"levelo://app?vid=30812910-fd9a-4f52-baeb-ef6d7da204d8","ios":"levelo://app?vid=30812910-fd9a-4f52-baeb-ef6d7da204d8"},"vehicle_type_id":"4","last_reported":1702048036,"current_range_meters":30400,"station_id":"ce4bhlp2rcd13ifvqgjg","pricing_plan_id":"free"},{"bike_id":"b3705516-da65-4902-b345-4cc53e261fdf","system_id":"levelo_inurba_marseille","lat":43.2408,"lon":5.37759,"is_reserved":false,"is_disabled":false,"rental_uris":{"android":"levelo://app?vid=b3705516-da65-4902-b345-4cc53e261fdf","ios":"levelo://app?vid=b3705516-da65-4902-b345-4cc53e261fdf"},"vehicle_type_id":"4","last_reported":1702048036,"current_range_meters":21600,"station_id":"","pricing_plan_id":"free"},{"bike_id":"2fe3436a-e755-4ff4-bc11-55b46fcaa8d1","system_id":"levelo_inurba_marseille","lat":43.240623,"lon":5.377642,"is_reserved":false,"is_disabled":false,"rental_uris":{"android":"levelo://app?vid=2fe3436a-e755-4ff4-bc11-55b46fcaa8d1","ios":"levelo://app?vid=2fe3436a-e755-4ff4-bc11-55b46fcaa8d1"},"vehicle_type_id":"4","last_reported":1702048036,"current_range_meters":21600,"station_id":"ce4bhnp2rcd13ifvqgvg","pricing_plan_id":"free"},{"bike_id":"f40c4135-d9b4-4cf5-9d9c-f5dcbb504333","system_id":"levelo_inurba_marseille","lat":43.239588,"lon":5.366238,"is_reserved":false,"is_disabled":false,"rental_uris":{"android":"levelo://app?vid=f40c4135-d9b4-4cf5-9d9c-f5dcbb504333","ios":"levelo://app?vid=f40c4135-d9b4-4cf5-9d9c-f5dcbb504333"},"vehicle_type_id":"4","last_reported":1702048036,"current_range_meters":28400,"station_id":"ce4bhi12rcd13ifvqfp0","pricing_plan_id":"free"},{"bike_id":"93954539-37ab-42cb-8148-c6cd6174d0ce","system_id":"levelo_inurba_marseille","lat":43.239588,"lon":5.366238,"is_reserved":false,"is_disabled":false,"rental_uris":{"android":"levelo://app?vid=93954539-37ab-42cb-8148-c6cd6174d0ce","ios":"levelo://app?vid=93954539-37ab-42cb-8148-c6cd6174d0ce"},"vehicle_type_id":"4","last_reported":1702048036,"current_range_meters":26800,"station_id":"ce4bhi12rcd13ifvqfp0","pricing_plan_id":"free"},{"bike_id":"19de1d90-0ef7-4697-bd3a-3e98bd2bf2e7","system_id":"levelo_inurba_marseille","lat":43.239588,"lon":5.366238,"is_reserved":false,"is_disabled":false,"rental_uris":{"android":"levelo://app?vid=19de1d90-0ef7-4697-bd3a-3e98bd2bf2e7","ios":"levelo://app?vid=19de1d90-0ef7-4697-bd3a-3e98bd2bf2e7"},"vehicle_type_id":"4","last_reported":1702048036,"current_range_meters":31200,"station_id":"ce4bhi12rcd13ifvqfp0","pricing_plan_id":"free"},{"bike_id":"c9aa026e-6c6e-4034-bb0f-bfb42e60e8dc","system_id":"levelo_inurba_marseille","lat":43.231919,"lon":5.355532,"is_reserved":false,"is_disabled":false,"rental_uris":{"android":"levelo://app?vid=c9aa026e-6c6e-4034-bb0f-bfb42e60e8dc","ios":"levelo://app?vid=c9aa026e-6c6e-4034-bb0f-bfb42e60e8dc"},"vehicle_type_id":"4","last_reported":1702048036,"current_range_meters":14400,"station_id":"ce4bhu92rcd13ifvqi70","pricing_plan_id":"free"},{"bike_id":"1c690641-a72b-433d-b1af-d36beaec8f2e","system_id":"levelo_inurba_marseille","lat":43.231894,"lon":5.399894,"is_reserved":false,"is_disabled":false,"rental_uris":{"android":"levelo://app?vid=1c690641-a72b-433d-b1af-d36beaec8f2e","ios":"levelo://app?vid=1c690641-a72b-433d-b1af-d36beaec8f2e"},"vehicle_type_id":"4","last_reported":1702048036,"current_range_meters":30800,"station_id":"ce4bhn12rcd13ifvqgqg","pricing_plan_id":"free"},{"bike_id":"be845917-f52e-4a9f-83ff-909546a09332","system_id":"levelo_inurba_marseille","lat":43.231794,"lon":5.400052,"is_reserved":false,"is_disabled":false,"rental_uris":{"android":"levelo://app?vid=be845917-f52e-4a9f-83ff-909546a09332","ios":"levelo://app?vid=be845917-f52e-4a9f-83ff-909546a09332"},"vehicle_type_id":"4","last_reported":1702048036,"current_range_meters":32000,"station_id":"ce4bhn12rcd13ifvqgqg","pricing_plan_id":"free"},{"bike_id":"f4b5f2ad-74ba-4551-9795-ff250393faca","system_id":"levelo_inurba_marseille","lat":43.231851,"lon":5.400031,"is_reserved":false,"is_disabled":false,"rental_uris":{"android":"levelo://app?vid=f4b5f2ad-74ba-4551-9795-ff250393faca","ios":"levelo://app?vid=f4b5f2ad-74ba-4551-9795-ff250393faca"},"vehicle_type_id":"4","last_reported":1702048036,"current_range_meters":23600,"station_id":"ce4bhn12rcd13ifvqgqg","pricing_plan_id":"free"},{"bike_id":"6c4620c0-0d4d-493f-9950-4fd3c4457696","system_id":"levelo_inurba_marseille","lat":43.231794,"lon":5.400052,"is_reserved":false,"is_disabled":false,"rental_uris":{"android":"levelo://app?vid=6c4620c0-0d4d-493f-9950-4fd3c4457696","ios":"levelo://app?vid=6c4620c0-0d4d-493f-9950-4fd3c4457696"},"vehicle_type_id":"4","last_reported":1702048036,"current_range_meters":32000,"station_id":"ce4bhn12rcd13ifvqgqg","pricing_plan_id":"free"},{"bike_id":"7f2675ba-8ad0-429b-9738-8fa4d2e8bc3d","system_id":"levelo_inurba_marseille","lat":43.23179,"lon":5.39992,"is_reserved":false,"is_disabled":false,"rental_uris":{"android":"levelo://app?vid=7f2675ba-8ad0-429b-9738-8fa4d2e8bc3d","ios":"levelo://app?vid=7f2675ba-8ad0-429b-9738-8fa4d2e8bc3d"},"vehicle_type_id":"4","last_reported":1702048036,"current_range_meters":19200,"station_id":"ce4bhn12rcd13ifvqgqg","pricing_plan_id":"free"},{"bike_id":"cfd1e2f1-adf6-4105-a6e0-255b7fb913f9","system_id":"levelo_inurba_marseille","lat":43.23179,"lon":5.39994,"is_reserved":false,"is_disabled":false,"rental_uris":{"android":"levelo://app?vid=cfd1e2f1-adf6-4105-a6e0-255b7fb913f9","ios":"levelo://app?vid=cfd1e2f1-adf6-4105-a6e0-255b7fb913f9"},"vehicle_type_id":"4","last_reported":1702048036,"current_range_meters":14000,"station_id":"ce4bhn12rcd13ifvqgqg","pricing_plan_id":"free"},{"bike_id":"52185dc8-f8c9-4df9-8092-bb2437fd062c","system_id":"levelo_inurba_marseille","lat":43.231562,"lon":5.436933,"is_reserved":false,"is_disabled":false,"rental_uris":{"android":"levelo://app?vid=52185dc8-f8c9-4df9-8092-bb2437fd062c","ios":"levelo://app?vid=52185dc8-f8c9-4df9-8092-bb2437fd062c"},"vehicle_type_id":"4","last_reported":1702048036,"current_range_meters":31200,"station_id":"ce4bhmp2rcd13ifvqgog","pricing_plan_id":"free"},{"bike_id":"6c3e3c9e-4b18-4000-ba39-0358b7d7d901","system_id":"levelo_inurba_marseille","lat":43.231562,"lon":5.436933,"is_reserved":false,"is_disabled":false,"rental_uris":{"android":"levelo://app?vid=6c3e3c9e-4b18-4000-ba39-0358b7d7d901","ios":"levelo://app?vid=6c3e3c9e-4b18-4000-ba39-0358b7d7d901"},"vehicle_type_id":"4","last_reported":1702048036,"current_range_meters":30400,"station_id":"ce4bhmp2rcd13ifvqgog","pricing_plan_id":"free"},{"bike_id":"b541fc35-af29-477f-a39a-2a5090fd4d28","system_id":"levelo_inurba_marseille","lat":43.231562,"lon":5.436933,"is_reserved":false,"is_disabled":false,"rental_uris":{"android":"levelo://app?vid=b541fc35-af29-477f-a39a-2a5090fd4d28","ios":"levelo://app?vid=b541fc35-af29-477f-a39a-2a5090fd4d28"},"vehicle_type_id":"4","last_reported":1702048036,"current_range_meters":31200,"station_id":"ce4bhmp2rcd13ifvqgog","pricing_plan_id":"free"}]}}