{"last_updated":1730671745,"ttl":60,"version":"2.2","data":{"bikes":[{"bike_id":"daa5500f-6039-4d77-bf02-00710b3acec6","system_id":"levelo_inurba_marseille","lat":43.2593,"lon":5.40909,"is_reserved":false,"is_disabled":false,"rental_uris":{"android":"levelo://app?vid=daa5500f-6039-4d77-bf02-00710b3acec6","ios":"levelo://app?vid=daa5500f-6039-4d77-bf02-00710b3acec6"},"vehicle_type_id":"4","last_reported":1730671745,"current_range_meters":2000,"station_id":"ce4bhm92rcd13ifvqglg","pricing_plan_id":"cebpf4jnsgd1na2vs0mg"},{"bike_id":"18db7a38-fb1c-4f2b-a7d3-41ca5532cc0b","system_id":"levelo_inurba_marseille","lat":43.32333,"lon":5.40622,"is_reserved":false,"is_disabled":false,"rental_uris":{"android":"levelo://app?vid=18db7a38-fb1c-4f2b-a7d3-41ca5532cc0b","ios":"levelo://app?vid=18db7a38-fb1c-4f2b-a7d3-41ca5532cc0b"},"vehicle_type_id":"4","last_reported":1730671745,"current_range_meters":16800,"station_id":"ce4bhq92rcd13ifvqhjg","pricing_plan_id":"cebpf4jnsgd1na2vs0mg"},{"bike_id":"cb5dd090-9b16-4336-9b85-e93aadf03b23","system_id":"levelo_inurba_marseille","lat":43.30249,"lon":5.40058,"is_reserved":false,"is_disabled":false,"rental_uris":{"android":"levelo://app?vid=cb5dd090-9b16-4336-9b85-e93aadf03b23","ios":"levelo://app?vid=cb5dd090-9b16-4336-9b85-e93aadf03b23"},"vehicle_type_id":"4","last_reported":1730671745,"current_range_meters":38400,"station_id":"ce4bgvh2rcd13ifvqcs0","pricing_plan_id":"cebpf4jnsgd1na2vs0mg"},{"bike_id":"d00abb61-0e57-498d-9b2a-8beda63b6fef","system_id":"levelo_inurba_marseille","lat":43.30884,"lon":5.39636,"is_reserved":false,"is_disabled":false,"rental_uris":{"android":"levelo://app?vid=d00abb61-0e57-498d-9b2a-8beda63b6fef","ios":"levelo://app?vid=d00abb61-0e57-498d-9b2a-8beda63b6fef"},"vehicle_type_id":"4","last_reported":1730671745,"current_range_meters":38800,"station_id":"ce4bh012rcd13ifvqcv0","pricing_plan_id":"cebpf4jnsgd1na2vs0mg"},{"bike_id":"e1a738f4-d190-4319-951b-0640d9a57607","system_id":"levelo_inurba_marseille","lat":43.33021,"lon":5.39038,"is_reserved":false,"is_disabled":false,"rental_uris":{"android":"levelo://app?vid=e1a738f4-d190-4319-951b-0640d9a57607","ios":"levelo://app?vid=e1a738f4-d190-4319-951b-0640d9a57607"},"vehicle_type_id":"4","last_reported":1730671745,"current_range_meters":8400,"station_id":"ce4bhr92rcd13ifvqhrg","pricing_plan_id":"cebpf4jnsgd1na2vs0mg"},{"bike_id":"84cd346e-b95a-41f9-83f2-f8ac21466dd6","system_id":"levelo_inurba_marseille","lat":43.29524,"lon":5.39401,"is_reserved":false,"is_disabled":false,"rental_uris":{"android":"levelo://app?vid=84cd346e-b95a-41f9-83f2-f8ac21466dd6","ios":"levelo://app?vid=84cd346e-b95a-41f9-83f2-f8ac21466dd6"},"vehicle_type_id":"4","last_reported":1730671745,"current_range_meters":39200,"station_id":"ce4bh292rcd13ifvqdf0","pricing_plan_id":"cebpf4jnsgd1na2vs0mg"},{"bike_id":"1400481a-d64a-45f2-94ac-6b422dab62e4","system_id":"levelo_inurba_marseille","lat":43.31333,"lon":5.39701,"is_reserved":false,"is_disabled":false,"rental_uris":{"android":"levelo://app?vid=1400481a-d64a-45f2-94ac-6b422dab62e4","ios":"levelo://app?vid=1400481a-d64a-45f2-94ac-6b422dab62e4"},"vehicle_type_id":"4","last_reported":1730671745,"current_range_meters":26000,"station_id":"ce4bgvp2rcd13ifvqcu0","pricing_plan_id":"cebpf4jnsgd1na2vs0mg"},{"bike_id":"f43d4415-80e9-4e60-9a34-d8b68f1c11c9","system_id":"levelo_inurba_marseille","lat":43.28347,"lon":5.38108,"is_reserved":false,"is_disabled":false,"rental_uris":{"android":"levelo://app?vid=f43d4415-80e9-4e60-9a34-d8b68f1c11c9","ios":"levelo://app?vid=f43d4415-80e9-4e60-9a34-d8b68f1c11c9"},"vehicle_type_id":"4","last_reported":1730671745,"current_range_meters":5600,"station_id":"ce4bh412rcd13ifvqdr0","pricing_plan_id":"cebpf4jnsgd1na2vs0mg"},{"bike_id":"3da35dce-79f8-44c4-8e97-0069b09975e5","system_id":"levelo_inurba_marseille","lat":43.28696,"lon":5.3998,"is_reserved":false,"is_disabled":false,"rental_uris":{"android":"levelo://app?vid=3da35dce-79f8-44c4-8e97-0069b09975e5","ios":"levelo://app?vid=3da35dce-79f8-44c4-8e97-0069b09975e5"},"vehicle_type_id":"4","last_reported":1730671745,"current_range_meters":37600,"station_id":"ce4bho92rcd13ifvqh3g","pricing_plan_id":"cebpf4jnsgd1na2vs0mg"},{"bike_id":"fcd81767-2dc7-4408-b5a4-0eadcf4a175a","system_id":"levelo_inurba_marseille","lat":43.31761,"lon":5.39015,"is_reserved":false,"is_disabled":false,"rental_uris":{"android":"levelo://app?vid=fcd81767-2dc7-4408-b5a4-0eadcf4a175a","ios":"levelo://app?vid=fcd81767-2dc7-4408-b5a4-0eadcf4a175a"},"vehicle_type_id":"4","last_reported":1730671745,"current_range_meters":37600,"station_id":"ce4bhqp2rcd13ifvqhng","pricing_plan_id":"cebpf4jnsgd1na2vs0mg"},{"bike_id":"66985a72-6dec-4528-bb13-5a4a46a040b6","system_id":"levelo_inurba_marseille","lat":43.25724,"lon":5.41107,"is_reserved":false,"is_disabled":false,"rental_uris":{"android":"levelo://app?vid=66985a72-6dec-4528-bb13-5a4a46a040b6","ios":"levelo://app?vid=66985a72-6dec-4528-bb13-5a4a46a040b6"},"vehicle_type_id":"4","last_reported":1730671745,"current_range_meters":30400,"station_id":"ce4bhkp2rcd13ifvqgd0","pricing_plan_id":"cebpf4jnsgd1na2vs0mg"},{"bike_id":"23f0d5b8-8fb5-4b86-ba3a-1de03be1db76","system_id":"levelo_inurba_marseille","lat":43.299415,"lon":5.373646,"is_reserved":false,"is_disabled":false,"rental_uris":{"android":"levelo://app?vid=23f0d5b8-8fb5-4b86-ba3a-1de03be1db76","ios":"levelo://app?vid=23f0d5b8-8fb5-4b86-ba3a-1de03be1db76"},"vehicle_type_id":"4","last_reported":1730671745,"current_range_meters":28400,"station_id":"ce4bgr92rcd13ifvqc7g","pricing_plan_id":"cebpf4jnsgd1na2vs0mg"},{"bike_id":"f000d6ee-3311-4e0f-8f93-4332274a3604","system_id":"levelo_inurba_marseille","lat":43.25811,"lon":5.39416,"is_reserved":false,"is_disabled":false,"rental_uris":{"android":"levelo://app?vid=f000d6ee-3311-4e0f-8f93-4332274a3604","ios":"levelo://app?vid=f000d6ee-3311-4e0f-8f93-4332274a3604"},"vehicle_type_id":"4","last_reported":1730671745,"current_range_meters":38800,"station_id":"ce4bhip2rcd13ifvqft0","pricing_plan_id":"cebpf4jnsgd1na2vs0mg"},{"bike_id":"ac6007e9-3662-42df-bfad-f48b7dd146f0","system_id":"levelo_inurba_marseille","lat":43.26488,"lon":5.3955,"is_reserved":false,"is_disabled":false,"rental_uris":{"android":"levelo://app?vid=ac6007e9-3662-42df-bfad-f48b7dd146f0","ios":"levelo://app?vid=ac6007e9-3662-42df-bfad-f48b7dd146f0"},"vehicle_type_id":"4","last_reported":1730671745,"current_range_meters":24800,"station_id":"ce4bhi12rcd13ifvqfq0","pricing_plan_id":"cebpf4jnsgd1na2vs0mg"},{"bike_id":"9d595e5c-d7f5-4c7a-bb7a-8c04bcf3ac7b","system_id":"levelo_inurba_marseille","lat":43.30877,"lon":5.39634,"is_reserved":false,"is_disabled":false,"rental_uris":{"android":"levelo://app?vid=9d595e5c-d7f5-4c7a-bb7a-8c04bcf3ac7b","ios":"levelo://app?vid=9d595e5c-d7f5-4c7a-bb7a-8c04bcf3ac7b"},"vehicle_type_id":"4","last_reported":1730671745,"current_range_meters":26000,"station_id":"ce4bh012rcd13ifvqcv0","pricing_plan_id":"cebpf4jnsgd1na2vs0mg"},{"bike_id":"38e520d4-7fa0-4038-8595-0c1445c11904","system_id":"levelo_inurba_marseille","lat":43.28036,"lon":5.36942,"is_reserved":false,"is_disabled":false,"rental_uris":{"android":"levelo://app?vid=38e520d4-7fa0-4038-8595-0c1445c11904","ios":"levelo://app?vid=38e520d4-7fa0-4038-8595-0c1445c11904"},"vehicle_type_id":"4","last_reported":1730671745,"current_range_meters":38800,"station_id":"ce4bha12rcd13ifvqef0","pricing_plan_id":"cebpf4jnsgd1na2vs0mg"},{"bike_id":"27493541-d07e-4a7d-b6d5-0bb3b0d5dd24","system_id":"levelo_inurba_marseille","lat":43.27991,"lon":5.40004,"is_reserved":false,"is_disabled":false,"rental_uris":{"android":"levelo://app?vid=27493541-d07e-4a7d-b6d5-0bb3b0d5dd24","ios":"levelo://app?vid=27493541-d07e-4a7d-b6d5-0bb3b0d5dd24"},"vehicle_type_id":"4","last_reported":1730671745,"current_range_meters":30800,"station_id":"ce4bho92rcd13ifvqh4g","pricing_plan_id":"cebpf4jnsgd1na2vs0mg"},{"bike_id":"721971d4-8baf-40a2-96cb-944e0c652d93","system_id":"levelo_inurba_marseille","lat":43.28703,"lon":5.3998,"is_reserved":false,"is_disabled":false,"rental_uris":{"android":"levelo://app?vid=721971d4-8baf-40a2-96cb-944e0c652d93","ios":"levelo://app?vid=721971d4-8baf-40a2-96cb-944e0c652d93"},"vehicle_type_id":"4","last_reported":1730671745,"current_range_meters":38800,"station_id":"ce4bho92rcd13ifvqh3g","pricing_plan_id":"cebpf4jnsgd1na2vs0mg"},{"bike_id":"797b5d79-42cb-4f61-b8cd-69e56d7ae17d","system_id":"levelo_inurba_marseille","lat":43.30331,"lon":5.40442,"is_reserved":false,"is_disabled":false,"rental_uris":{"android":"levelo://app?vid=797b5d79-42cb-4f61-b8cd-69e56d7ae17d","ios":"levelo://app?vid=797b5d79-42cb-4f61-b8cd-69e56d7ae17d"},"vehicle_type_id":"4","last_reported":1730671745,"current_range_meters":38800,"station_id":"ce4bh012rcd13ifvqd10","pricing_plan_id":"cebpf4jnsgd1na2vs0mg"},{"bike_id":"1ba580c9-3fb0-4129-84ee-aeea1e5c3f92","system_id":"levelo_inurba_marseille","lat":43.32001,"lon":5.38167,"is_reserved":false,"is_disabled":false,"rental_uris":{"android":"levelo://app?vid=1ba580c9-3fb0-4129-84ee-aeea1e5c3f92","ios":"levelo://app?vid=1ba580c9-3fb0-4129-84ee-aeea1e5c3f92"},"vehicle_type_id":"4","last_reported":1730671745,"current_range_meters":30400,"station_id":"ce4bhr12rcd13ifvqhpg","pricing_plan_id":"cebpf4jnsgd1na2vs0mg"},{"bike_id":"4147bbfb-4b14-4aca-b782-8ec6c0473609","system_id":"levelo_inurba_marseille","lat":43.23595,"lon":5.40339,"is_reserved":false,"is_disabled":false,"rental_uris":{"android":"levelo://app?vid=4147bbfb-4b14-4aca-b782-8ec6c0473609","ios":"levelo://app?vid=4147bbfb-4b14-4aca-b782-8ec6c0473609"},"vehicle_type_id":"4","last_reported":1730671745,"current_range_meters":19200,"station_id":"","pricing_plan_id":"cebpf4jnsgd1na2vs0mg"},{"bike_id":"1bdcf973-ef00-411e-850c-3aa168aad64d","system_id":"levelo_inurba_marseille","lat":43.27961,"lon":5.38719,"is_reserved":false,"is_disabled":false,"rental_uris":{"android":"levelo://app?vid=1bdcf973-ef00-411e-850c-3aa168aad64d","ios":"levelo://app?vid=1bdcf973-ef00-411e-850c-3aa168aad64d"},"vehicle_type_id":"4","last_reported":1730671745,"current_range_meters":11600,"station_id":"ce4bhg12rcd13ifvqf80","pricing_plan_id":"cebpf4jnsgd1na2vs0mg"},{"bike_id":"e1947fec-fd03-432f-b354-3f23097e35eb","system_id":"levelo_inurba_marseille","lat":43.28937,"lon":5.36402,"is_reserved":false,"is_disabled":false,"rental_uris":{"android":"levelo://app?vid=e1947fec-fd03-432f-b354-3f23097e35eb","ios":"levelo://app?vid=e1947fec-fd03-432f-b354-3f23097e35eb"},"vehicle_type_id":"4","last_reported":1730671745,"current_range_meters":16400,"station_id":"ce4bhc92rcd13ifvqetg","pricing_plan_id":"cebpf4jnsgd1na2vs0mg"},{"bike_id":"e34cb0e5-64fe-41ba-a20c-7021cdc7697f","system_id":"levelo_inurba_marseille","lat":43.28004,"lon":5.40005,"is_reserved":false,"is_disabled":false,"rental_uris":{"android":"levelo://app?vid=e34cb0e5-64fe-41ba-a20c-7021cdc7697f","ios":"levelo://app?vid=e34cb0e5-64fe-41ba-a20c-7021cdc7697f"},"vehicle_type_id":"4","last_reported":1730671745,"current_range_meters":38800,"station_id":"ce4bho92rcd13ifvqh4g","pricing_plan_id":"cebpf4jnsgd1na2vs0mg"},{"bike_id":"951a86b0-34d7-49cf-8185-35e052067ac1","system_id":"levelo_inurba_marseille","lat":43.28668,"lon":5.38659,"is_reserved":false,"is_disabled":false,"rental_uris":{"android":"levelo://app?vid=951a86b0-34d7-49cf-8185-35e052067ac1","ios":"levelo://app?vid=951a86b0-34d7-49cf-8185-35e052067ac1"},"vehicle_type_id":"4","last_reported":1730671745,"current_range_meters":38800,"station_id":"ce4bh492rcd13ifvqdug","pricing_plan_id":"cebpf4jnsgd1na2vs0mg"},{"bike_id":"085e82ad-9804-47b6-9ba5-6bbb40aaef5b","system_id":"levelo_inurba_marseille","lat":43.30879,"lon":5.39639,"is_reserved":false,"is_disabled":false,"rental_uris":{"android":"levelo://app?vid=085e82ad-9804-47b6-9ba5-6bbb40aaef5b","ios":"levelo://app?vid=085e82ad-9804-47b6-9ba5-6bbb40aaef5b"},"vehicle_type_id":"4","last_reported":1730671745,"current_range_meters":38800,"station_id":"ce4bh012rcd13ifvqcv0","pricing_plan_id":"cebpf4jnsgd1na2vs0mg"},{"bike_id":"db5d7aa3-0a2b-4c4a-ac97-c89e88e9cfa4","system_id":"levelo_inurba_marseille","lat":43.29056,"lon":5.35917,"is_reserved":false,"is_disabled":false,"rental_uris":{"android":"levelo://app?vid=db5d7aa3-0a2b-4c4a-ac97-c89e88e9cfa4","ios":"levelo://app?vid=db5d7aa3-0a2b-4c4a-ac97-c89e88e9cfa4"},"vehicle_type_id":"4","last_reported":1730671745,"current_range_meters":18000,"station_id":"ce4bha92rcd13ifvqeg0","pricing_plan_id":"cebpf4jnsgd1na2vs0mg"},{"bike_id":"cc6fd7a9-9c25-49e6-875e-4af1f3903391","system_id":"levelo_inurba_marseille","lat":43.271729,"lon":5.409992,"is_reserved":false,"is_disabled":false,"rental_uris":{"android":"levelo://app?vid=cc6fd7a9-9c25-49e6-875e-4af1f3903391","ios":"levelo://app?vid=cc6fd7a9-9c25-49e6-875e-4af1f3903391"},"vehicle_type_id":"4","last_reported":1730671745,"current_range_meters":10800,"station_id":"ce4bhl12rcd13ifvqgf0","pricing_plan_id":"cebpf4jnsgd1na2vs0mg"},{"bike_id":"7a58bdc6-5db2-4543-b33d-6202d289b688","system_id":"levelo_inurba_marseille","lat":43.33722,"lon":5.3918,"is_reserved":false,"is_disabled":false,"rental_uris":{"android":"levelo://app?vid=7a58bdc6-5db2-4543-b33d-6202d289b688","ios":"levelo://app?vid=7a58bdc6-5db2-4543-b33d-6202d289b688"},"vehicle_type_id":"4","last_reported":1730671745,"current_range_meters":26800,"station_id":"ce4bhr92rcd13ifvqhsg","pricing_plan_id":"cebpf4jnsgd1na2vs0mg"},{"bike_id":"199d375f-a68b-4b66-abb5-ba773fd75a7c","system_id":"levelo_inurba_marseille","lat":43.31694,"lon":5.40464,"is_reserved":false,"is_disabled":false,"rental_uris":{"android":"levelo://app?vid=199d375f-a68b-4b66-abb5-ba773fd75a7c","ios":"levelo://app?vid=199d375f-a68b-4b66-abb5-ba773fd75a7c"},"vehicle_type_id":"4","last_reported":1730671745,"current_range_meters":39200,"station_id":"ce4bh012rcd13ifvqd00","pricing_plan_id":"cebpf4jnsgd1na2vs0mg"},{"bike_id":"bda216a2-3893-41a6-9f78-0b1e26f9cb98","system_id":"levelo_inurba_marseille","lat":43.33612,"lon":5.41026,"is_reserved":false,"is_disabled":false,"rental_uris":{"android":"levelo://app?vid=bda216a2-3893-41a6-9f78-0b1e26f9cb98","ios":"levelo://app?vid=bda216a2-3893-41a6-9f78-0b1e26f9cb98"},"vehicle_type_id":"4","last_reported":1730671745,"current_range_meters":30400,"station_id":"ce4bhqh2rcd13ifvqhmg","pricing_plan_id":"cebpf4jnsgd1na2vs0mg"},{"bike_id":"eea79599-d46e-4d38-be2e-99a55dbf7709","system_id":"levelo_inurba_marseille","lat":43.2872,"lon":5.36071,"is_reserved":false,"is_disabled":false,"rental_uris":{"android":"levelo://app?vid=eea79599-d46e-4d38-be2e-99a55dbf7709","ios":"levelo://app?vid=eea79599-d46e-4d38-be2e-99a55dbf7709"},"vehicle_type_id":"4","last_reported":1730671745,"current_range_meters":32800,"station_id":"cki0cbj6b192h4jlfktg","pricing_plan_id":"cebpf4jnsgd1na2vs0mg"},{"bike_id":"2d7d7ecc-157d-4001-bd5a-e06f67808551","system_id":"levelo_inurba_marseille","lat":43.29304,"lon":5.37175,"is_reserved":false,"is_disabled":false,"rental_uris":{"android":"levelo://app?vid=2d7d7ecc-157d-4001-bd5a-e06f67808551","ios":"levelo://app?vid=2d7d7ecc-157d-4001-bd5a-e06f67808551"},"vehicle_type_id":"4","last_reported":1730671745,"current_range_meters":38800,"station_id":"ce4bgh92rcd13ifvqb40","pricing_plan_id":"cebpf4jnsgd1na2vs0mg"},{"bike_id":"ec807c85-2764-4f7b-b1c2-966d59778a5a","system_id":"levelo_inurba_marseille","lat":43.2511,"lon":5.4032,"is_reserved":false,"is_disabled":false,"rental_uris":{"android":"levelo://app?vid=ec807c85-2764-4f7b-b1c2-966d59778a5a","ios":"levelo://app?vid=ec807c85-2764-4f7b-b1c2-966d59778a5a"},"vehicle_type_id":"4","last_reported":1730671745,"current_range_meters":7200,"station_id":"ce4bhlh2rcd13ifvqgig","pricing_plan_id":"cebpf4jnsgd1na2vs0mg"},{"bike_id":"baea6945-ac3f-4195-a6a4-4b887db0844f","system_id":"levelo_inurba_marseille","lat":43.27067,"lon":5.42271,"is_reserved":false,"is_disabled":false,"rental_uris":{"android":"levelo://app?vid=baea6945-ac3f-4195-a6a4-4b887db0844f","ios":"levelo://app?vid=baea6945-ac3f-4195-a6a4-4b887db0844f"},"vehicle_type_id":"4","last_reported":1730671745,"current_range_meters":37600,"station_id":"ce4bhk92rcd13ifvqgb0","pricing_plan_id":"cebpf4jnsgd1na2vs0mg"},{"bike_id":"598535da-1e32-42e0-bd65-4ba25549dd70","system_id":"levelo_inurba_marseille","lat":43.31452,"lon":5.37368,"is_reserved":false,"is_disabled":false,"rental_uris":{"android":"levelo://app?vid=598535da-1e32-42e0-bd65-4ba25549dd70","ios":"levelo://app?vid=598535da-1e32-42e0-bd65-4ba25549dd70"},"vehicle_type_id":"4","last_reported":1730671745,"current_range_meters":28400,"station_id":"","pricing_plan_id":"cebpf4jnsgd1na2vs0mg"},{"bike_id":"2378f453-72a7-4eb2-ab3b-946285d406fd","system_id":"levelo_inurba_marseille","lat":43.29226,"lon":5.37739,"is_reserved":false,"is_disabled":false,"rental_uris":{"android":"levelo://app?vid=2378f453-72a7-4eb2-ab3b-946285d406fd","ios":"levelo://app?vid=2378f453-72a7-4eb2-ab3b-946285d406fd"},"vehicle_type_id":"4","last_reported":1730671745,"current_range_meters":10800,"station_id":"ce4bgi12rcd13ifvqb70","pricing_plan_id":"cebpf4jnsgd1na2vs0mg"},{"bike_id":"69c5828b-16b5-4e21-9a89-eb78828b437f","system_id":"levelo_inurba_marseille","lat":43.27068,"lon":5.42271,"is_reserved":false,"is_disabled":false,"rental_uris":{"android":"levelo://app?vid=69c5828b-16b5-4e21-9a89-eb78828b437f","ios":"levelo://app?vid=69c5828b-16b5-4e21-9a89-eb78828b437f"},"vehicle_type_id":"4","last_reported":1730671745,"current_range_meters":2800,"station_id":"ce4bhk92rcd13ifvqgb0","pricing_plan_id":"cebpf4jnsgd1na2vs0mg"},{"bike_id":"45e37847-060c-4fbe-958a-f63e7f57fa30","system_id":"levelo_inurba_marseille","lat":43.27069,"lon":5.42277,"is_reserved":false,"is_disabled":false,"rental_uris":{"android":"levelo://app?vid=45e37847-060c-4fbe-958a-f63e7f57fa30","ios":"levelo://app?vid=45e37847-060c-4fbe-958a-f63e7f57fa30"},"vehicle_type_id":"4","last_reported":1730671745,"current_range_meters":22800,"station_id":"ce4bhk92rcd13ifvqgb0","pricing_plan_id":"cebpf4jnsgd1na2vs0mg"},{"bike_id":"9f223478-460e-4c61-b4f2-20e23bd73f46","system_id":"levelo_inurba_marseille","lat":43.29515,"lon":5.394,"is_reserved":false,"is_disabled":false,"rental_uris":{"android":"levelo://app?vid=9f223478-460e-4c61-b4f2-20e23bd73f46","ios":"levelo://app?vid=9f223478-460e-4c61-b4f2-20e23bd73f46"},"vehicle_type_id":"4","last_reported":1730671745,"current_range_meters":38400,"station_id":"ce4bh292rcd13ifvqdf0","pricing_plan_id":"cebpf4jnsgd1na2vs0mg"},{"bike_id":"9c6a4c09-d997-448d-8062-9335e03a26ba","system_id":"levelo_inurba_marseille","lat":43.29224,"lon":5.37732,"is_reserved":false,"is_disabled":false,"rental_uris":{"android":"levelo://app?vid=9c6a4c09-d997-448d-8062-9335e03a26ba","ios":"levelo://app?vid=9c6a4c09-d997-448d-8062-9335e03a26ba"},"vehicle_type_id":"4","last_reported":1730671745,"current_range_meters":38000,"station_id":"ce4bgi12rcd13ifvqb70","pricing_plan_id":"cebpf4jnsgd1na2vs0mg"},{"bike_id":"8c0eb2b5-3b07-4476-8d7b-9509e4791f89","system_id":"levelo_inurba_marseille","lat":43.30305,"lon":5.39204,"is_reserved":false,"is_disabled":false,"rental_uris":{"android":"levelo://app?vid=8c0eb2b5-3b07-4476-8d7b-9509e4791f89","ios":"levelo://app?vid=8c0eb2b5-3b07-4476-8d7b-9509e4791f89"},"vehicle_type_id":"4","last_reported":1730671745,"current_range_meters":38800,"station_id":"ce4bgkh2rcd13ifvqbk0","pricing_plan_id":"cebpf4jnsgd1na2vs0mg"},{"bike_id":"bccff042-7a73-473f-84a3-995e2b18cc84","system_id":"levelo_inurba_marseille","lat":43.26956,"lon":5.38632,"is_reserved":false,"is_disabled":false,"rental_uris":{"android":"levelo://app?vid=bccff042-7a73-473f-84a3-995e2b18cc84","ios":"levelo://app?vid=bccff042-7a73-473f-84a3-995e2b18cc84"},"vehicle_type_id":"4","last_reported":1730671745,"current_range_meters":18800,"station_id":"ce4bhh92rcd13ifvqfh0","pricing_plan_id":"cebpf4jnsgd1na2vs0mg"},{"bike_id":"d913fab4-bb2f-44f8-b36a-6495c97411c9","system_id":"levelo_inurba_marseille","lat":43.30796,"lon":5.381513,"is_reserved":false,"is_disabled":false,"rental_uris":{"android":"levelo://app?vid=d913fab4-bb2f-44f8-b36a-6495c97411c9","ios":"levelo://app?vid=d913fab4-bb2f-44f8-b36a-6495c97411c9"},"vehicle_type_id":"4","last_reported":1730671745,"current_range_meters":36000,"station_id":"ce4bgt12rcd13ifvqce0","pricing_plan_id":"cebpf4jnsgd1na2vs0mg"},{"bike_id":"eb24a00e-1e20-4259-88a1-cee03da7d520","system_id":"levelo_inurba_marseille","lat":43.303,"lon":5.39209,"is_reserved":false,"is_disabled":false,"rental_uris":{"android":"levelo://app?vid=eb24a00e-1e20-4259-88a1-cee03da7d520","ios":"levelo://app?vid=eb24a00e-1e20-4259-88a1-cee03da7d520"},"vehicle_type_id":"4","last_reported":1730671745,"current_range_meters":37600,"station_id":"ce4bgkh2rcd13ifvqbk0","pricing_plan_id":"cebpf4jnsgd1na2vs0mg"},{"bike_id":"acdc64f2-12f9-4086-9b0a-da9f545a5540","system_id":"levelo_inurba_marseille","lat":43.29197,"lon":5.39321,"is_reserved":false,"is_disabled":false,"rental_uris":{"android":"levelo://app?vid=acdc64f2-12f9-4086-9b0a-da9f545a5540","ios":"levelo://app?vid=acdc64f2-12f9-4086-9b0a-da9f545a5540"},"vehicle_type_id":"4","last_reported":1730671745,"current_range_meters":34800,"station_id":"ce4bh192rcd13ifvqdd0","pricing_plan_id":"cebpf4jnsgd1na2vs0mg"},{"bike_id":"6ed71df9-9717-4ae2-92c9-2a4bddd7b946","system_id":"levelo_inurba_marseille","lat":43.33605,"lon":5.41029,"is_reserved":false,"is_disabled":false,"rental_uris":{"android":"levelo://app?vid=6ed71df9-9717-4ae2-92c9-2a4bddd7b946","ios":"levelo://app?vid=6ed71df9-9717-4ae2-92c9-2a4bddd7b946"},"vehicle_type_id":"4","last_reported":1730671745,"current_range_meters":38800,"station_id":"ce4bhqh2rcd13ifvqhmg","pricing_plan_id":"cebpf4jnsgd1na2vs0mg"},{"bike_id":"7fbf8144-3771-4c80-933c-e46773d31661","system_id":"levelo_inurba_marseille","lat":43.29439,"lon":5.39757,"is_reserved":false,"is_disabled":false,"rental_uris":{"android":"levelo://app?vid=7fbf8144-3771-4c80-933c-e46773d31661","ios":"levelo://app?vid=7fbf8144-3771-4c80-933c-e46773d31661"},"vehicle_type_id":"4","last_reported":1730671745,"current_range_meters":38000,"station_id":"ce4bh3h2rcd13ifvqdo0","pricing_plan_id":"cebpf4jnsgd1na2vs0mg"},{"bike_id":"a70c5b6a-99aa-4284-b650-968af180e27b","system_id":"levelo_inurba_marseille","lat":43.32371,"lon":5.38882,"is_reserved":false,"is_disabled":false,"rental_uris":{"android":"levelo://app?vid=a70c5b6a-99aa-4284-b650-968af180e27b","ios":"levelo://app?vid=a70c5b6a-99aa-4284-b650-968af180e27b"},"vehicle_type_id":"4","last_reported":1730671745,"current_range_meters":18800,"station_id":"ce4bhqp2rcd13ifvqhog","pricing_plan_id":"cebpf4jnsgd1na2vs0mg"},{"bike_id":"fe992ae4-ac79-4281-917d-e85d4fe4b5fa","system_id":"levelo_inurba_marseille","lat":43.28408,"lon":5.37528,"is_reserved":false,"is_disabled":false,"rental_uris":{"android":"levelo://app?vid=fe992ae4-ac79-4281-917d-e85d4fe4b5fa","ios":"levelo://app?vid=fe992ae4-ac79-4281-917d-e85d4fe4b5fa"},"vehicle_type_id":"4","last_reported":1730671745,"current_range_meters":30400,"station_id":"ce4bh412rcd13ifvqds0","pricing_plan_id":"cebpf4jnsgd1na2vs0mg"},{"bike_id":"7eda7bfe-0c5b-4987-9da0-a8aaf18a280a","system_id":"levelo_inurba_marseille","lat":43.27993,"lon":5.4166,"is_reserved":false,"is_disabled":false,"rental_uris":{"android":"levelo://app?vid=7eda7bfe-0c5b-4987-9da0-a8aaf18a280a","ios":"levelo://app?vid=7eda7bfe-0c5b-4987-9da0-a8aaf18a280a"},"vehicle_type_id":"4","last_reported":1730671745,"current_range_meters":35200,"station_id":"ce4bho12rcd13ifvqh1g","pricing_plan_id":"cebpf4jnsgd1na2vs0mg"},{"bike_id":"ebcfb78a-de02-4f73-b55b-f01aeb9a484d","system_id":"levelo_inurba_marseille","lat":43.29278,"lon":5.40141,"is_reserved":false,"is_disabled":false,"rental_uris":{"android":"levelo://app?vid=ebcfb78a-de02-4f73-b55b-f01aeb9a484d","ios":"levelo://app?vid=ebcfb78a-de02-4f73-b55b-f01aeb9a484d"},"vehicle_type_id":"4","last_reported":1730671745,"current_range_meters":38800,"station_id":"ce4bh312rcd13ifvqdk0","pricing_plan_id":"cebpf4jnsgd1na2vs0mg"},{"bike_id":"75576e24-6890-4288-9aa5-db2804891d6f","system_id":"levelo_inurba_marseille","lat":43.26944,"lon":5.40251,"is_reserved":false,"is_disabled":false,"rental_uris":{"android":"levelo://app?vid=75576e24-6890-4288-9aa5-db2804891d6f","ios":"levelo://app?vid=75576e24-6890-4288-9aa5-db2804891d6f"},"vehicle_type_id":"4","last_reported":1730671745,"current_range_meters":36800,"station_id":"cjm6bp8fraef2m0cb0m0","pricing_plan_id":"cebpf4jnsgd1na2vs0mg"},{"bike_id":"bc06a247-2a81-4abe-ae86-31e66b2eeccb","system_id":"levelo_inurba_marseille","lat":43.29902,"lon":5.43661,"is_reserved":false,"is_disabled":false,"rental_uris":{"android":"levelo://app?vid=bc06a247-2a81-4abe-ae86-31e66b2eeccb","ios":"levelo://app?vid=bc06a247-2a81-4abe-ae86-31e66b2eeccb"},"vehicle_type_id":"4","last_reported":1730671745,"current_range_meters":13600,"station_id":"ce4bhpp2rcd13ifvqhfg","pricing_plan_id":"cebpf4jnsgd1na2vs0mg"},{"bike_id":"9f1d73ae-f88e-42f5-8c82-b051d0e932a6","system_id":"levelo_inurba_marseille","lat":43.30431,"lon":5.39755,"is_reserved":false,"is_disabled":false,"rental_uris":{"android":"levelo://app?vid=9f1d73ae-f88e-42f5-8c82-b051d0e932a6","ios":"levelo://app?vid=9f1d73ae-f88e-42f5-8c82-b051d0e932a6"},"vehicle_type_id":"4","last_reported":1730671745,"current_range_meters":24400,"station_id":"ce4bh092rcd13ifvqd20","pricing_plan_id":"cebpf4jnsgd1na2vs0mg"},{"bike_id":"4b837655-8b63-404b-87df-4dd61789f22d","system_id":"levelo_inurba_marseille","lat":43.29877,"lon":5.39741,"is_reserved":false,"is_disabled":false,"rental_uris":{"android":"levelo://app?vid=4b837655-8b63-404b-87df-4dd61789f22d","ios":"levelo://app?vid=4b837655-8b63-404b-87df-4dd61789f22d"},"vehicle_type_id":"4","last_reported":1730671745,"current_range_meters":28400,"station_id":"ce4bh0h2rcd13ifvqd50","pricing_plan_id":"cebpf4jnsgd1na2vs0mg"},{"bike_id":"fb4e1e71-6079-48b3-8726-235aa8bb755d","system_id":"levelo_inurba_marseille","lat":43.30186,"lon":5.36617,"is_reserved":false,"is_disabled":false,"rental_uris":{"android":"levelo://app?vid=fb4e1e71-6079-48b3-8726-235aa8bb755d","ios":"levelo://app?vid=fb4e1e71-6079-48b3-8726-235aa8bb755d"},"vehicle_type_id":"4","last_reported":1730671745,"current_range_meters":28800,"station_id":"ce4bgrh2rcd13ifvqc8g","pricing_plan_id":"cebpf4jnsgd1na2vs0mg"},{"bike_id":"272c9abf-a133-4324-9208-08b126787068","system_id":"levelo_inurba_marseille","lat":43.27898,"lon":5.37993,"is_reserved":false,"is_disabled":false,"rental_uris":{"android":"levelo://app?vid=272c9abf-a133-4324-9208-08b126787068","ios":"levelo://app?vid=272c9abf-a133-4324-9208-08b126787068"},"vehicle_type_id":"4","last_reported":1730671745,"current_range_meters":38800,"station_id":"ce4bhf92rcd13ifvqf50","pricing_plan_id":"cebpf4jnsgd1na2vs0mg"},{"bike_id":"931c7ce7-0b8e-45c8-b8c4-2e528c075a18","system_id":"levelo_inurba_marseille","lat":43.30799,"lon":5.3815,"is_reserved":false,"is_disabled":false,"rental_uris":{"android":"levelo://app?vid=931c7ce7-0b8e-45c8-b8c4-2e528c075a18","ios":"levelo://app?vid=931c7ce7-0b8e-45c8-b8c4-2e528c075a18"},"vehicle_type_id":"4","last_reported":1730671745,"current_range_meters":37600,"station_id":"ce4bgt12rcd13ifvqce0","pricing_plan_id":"cebpf4jnsgd1na2vs0mg"},{"bike_id":"b8b8e78b-55ed-4a91-b7d6-8216533cb204","system_id":"levelo_inurba_marseille","lat":43.29685,"lon":5.37286,"is_reserved":false,"is_disabled":false,"rental_uris":{"android":"levelo://app?vid=b8b8e78b-55ed-4a91-b7d6-8216533cb204","ios":"levelo://app?vid=b8b8e78b-55ed-4a91-b7d6-8216533cb204"},"vehicle_type_id":"4","last_reported":1730671745,"current_range_meters":18800,"station_id":"ce4bgk12rcd13ifvqbj0","pricing_plan_id":"cebpf4jnsgd1na2vs0mg"},{"bike_id":"16f80d5a-857a-4485-a2d3-ea2e0a422bbb","system_id":"levelo_inurba_marseille","lat":43.30934,"lon":5.40145,"is_reserved":false,"is_disabled":false,"rental_uris":{"android":"levelo://app?vid=16f80d5a-857a-4485-a2d3-ea2e0a422bbb","ios":"levelo://app?vid=16f80d5a-857a-4485-a2d3-ea2e0a422bbb"},"vehicle_type_id":"4","last_reported":1730671745,"current_range_meters":38800,"station_id":"ce4bgvp2rcd13ifvqct0","pricing_plan_id":"cebpf4jnsgd1na2vs0mg"},{"bike_id":"7fa9e0db-d5db-4e00-9bab-71088473e9a3","system_id":"levelo_inurba_marseille","lat":43.28352,"lon":5.38111,"is_reserved":false,"is_disabled":false,"rental_uris":{"android":"levelo://app?vid=7fa9e0db-d5db-4e00-9bab-71088473e9a3","ios":"levelo://app?vid=7fa9e0db-d5db-4e00-9bab-71088473e9a3"},"vehicle_type_id":"4","last_reported":1730671745,"current_range_meters":32800,"station_id":"ce4bh412rcd13ifvqdr0","pricing_plan_id":"cebpf4jnsgd1na2vs0mg"},{"bike_id":"5af32b3b-d3c5-4761-95bd-a51ac5c29c07","system_id":"levelo_inurba_marseille","lat":43.30895,"lon":5.37191,"is_reserved":false,"is_disabled":false,"rental_uris":{"android":"levelo://app?vid=5af32b3b-d3c5-4761-95bd-a51ac5c29c07","ios":"levelo://app?vid=5af32b3b-d3c5-4761-95bd-a51ac5c29c07"},"vehicle_type_id":"4","last_reported":1730671745,"current_range_meters":38800,"station_id":"ce4bguh2rcd13ifvqckg","pricing_plan_id":"cebpf4jnsgd1na2vs0mg"},{"bike_id":"70d5e483-c520-4792-8685-c5bc1d83869e","system_id":"levelo_inurba_marseille","lat":43.28696,"lon":5.39984,"is_reserved":false,"is_disabled":false,"rental_uris":{"android":"levelo://app?vid=70d5e483-c520-4792-8685-c5bc1d83869e","ios":"levelo://app?vid=70d5e483-c520-4792-8685-c5bc1d83869e"},"vehicle_type_id":"4","last_reported":1730671745,"current_range_meters":38000,"station_id":"ce4bho92rcd13ifvqh3g","pricing_plan_id":"cebpf4jnsgd1na2vs0mg"},{"bike_id":"2d43d95d-11e3-40a1-b106-4c33b1fd64b0","system_id":"levelo_inurba_marseille","lat":43.29171,"lon":5.37136,"is_reserved":false,"is_disabled":false,"rental_uris":{"android":"levelo://app?vid=2d43d95d-11e3-40a1-b106-4c33b1fd64b0","ios":"levelo://app?vid=2d43d95d-11e3-40a1-b106-4c33b1fd64b0"},"vehicle_type_id":"4","last_reported":1730671745,"current_range_meters":18800,"station_id":"ce4bha92rcd13ifvqeh0","pricing_plan_id":"cebpf4jnsgd1na2vs0mg"},{"bike_id":"4e93fd09-23f1-4573-bd06-9d1abc868d68","system_id":"levelo_inurba_marseille","lat":43.25864,"lon":5.39898,"is_reserved":false,"is_disabled":false,"rental_uris":{"android":"levelo://app?vid=4e93fd09-23f1-4573-bd06-9d1abc868d68","ios":"levelo://app?vid=4e93fd09-23f1-4573-bd06-9d1abc868d68"},"vehicle_type_id":"4","last_reported":1730671745,"current_range_meters":21600,"station_id":"ce4bhl92rcd13ifvqghg","pricing_plan_id":"cebpf4jnsgd1na2vs0mg"},{"bike_id":"f453d8a2-14e2-497a-a14a-49c40244a6ee","system_id":"levelo_inurba_marseille","lat":43.25865,"lon":5.39901,"is_reserved":false,"is_disabled":false,"rental_uris":{"android":"levelo://app?vid=f453d8a2-14e2-497a-a14a-49c40244a6ee","ios":"levelo://app?vid=f453d8a2-14e2-497a-a14a-49c40244a6ee"},"vehicle_type_id":"4","last_reported":1730671745,"current_range_meters":19200,"station_id":"ce4bhl92rcd13ifvqghg","pricing_plan_id":"cebpf4jnsgd1na2vs0mg"},{"bike_id":"1eeb5c5c-a3a6-4ef6-a852-f083a9363eab","system_id":"levelo_inurba_marseille","lat":43.27068,"lon":5.42275,"is_reserved":false,"is_disabled":false,"rental_uris":{"android":"levelo://app?vid=1eeb5c5c-a3a6-4ef6-a852-f083a9363eab","ios":"levelo://app?vid=1eeb5c5c-a3a6-4ef6-a852-f083a9363eab"},"vehicle_type_id":"4","last_reported":1730671745,"current_range_meters":8800,"station_id":"ce4bhk92rcd13ifvqgb0","pricing_plan_id":"cebpf4jnsgd1na2vs0mg"},{"bike_id":"a2598aa5-9816-4e78-9749-c5763c54c5e6","system_id":"levelo_inurba_marseille","lat":43.3018,"lon":5.36613,"is_reserved":false,"is_disabled":false,"rental_uris":{"android":"levelo://app?vid=a2598aa5-9816-4e78-9749-c5763c54c5e6","ios":"levelo://app?vid=a2598aa5-9816-4e78-9749-c5763c54c5e6"},"vehicle_type_id":"4","last_reported":1730671745,"current_range_meters":37600,"station_id":"ce4bgrh2rcd13ifvqc8g","pricing_plan_id":"cebpf4jnsgd1na2vs0mg"},{"bike_id":"4e317739-b20f-4f8d-987b-ba9b04b0c4a9","system_id":"levelo_inurba_marseille","lat":43.28612,"lon":5.37057,"is_reserved":false,"is_disabled":false,"rental_uris":{"android":"levelo://app?vid=4e317739-b20f-4f8d-987b-ba9b04b0c4a9","ios":"levelo://app?vid=4e317739-b20f-4f8d-987b-ba9b04b0c4a9"},"vehicle_type_id":"4","last_reported":1730671745,"current_range_meters":38800,"station_id":"ce4bht12rcd13ifvqi60","pricing_plan_id":"cebpf4jnsgd1na2vs0mg"},{"bike_id":"7ce77be2-28e6-467f-9494-16f057502bba","system_id":"levelo_inurba_marseille","lat":43.28152,"lon":5.42637,"is_reserved":false,"is_disabled":false,"rental_uris":{"android":"levelo://app?vid=7ce77be2-28e6-467f-9494-16f057502bba","ios":"levelo://app?vid=7ce77be2-28e6-467f-9494-16f057502bba"},"vehicle_type_id":"4","last_reported":1730671745,"current_range_meters":32400,"station_id":"ce4bhnh2rcd13ifvqgug","pricing_plan_id":"cebpf4jnsgd1na2vs0mg"},{"bike_id":"e50fd69d-8268-4029-bf65-400af74520b3","system_id":"levelo_inurba_marseille","lat":43.28007,"lon":5.41665,"is_reserved":false,"is_disabled":false,"rental_uris":{"android":"levelo://app?vid=e50fd69d-8268-4029-bf65-400af74520b3","ios":"levelo://app?vid=e50fd69d-8268-4029-bf65-400af74520b3"},"vehicle_type_id":"4","last_reported":1730671745,"current_range_meters":12000,"station_id":"ce4bho12rcd13ifvqh1g","pricing_plan_id":"cebpf4jnsgd1na2vs0mg"},{"bike_id":"c06cb4e2-b45b-4f9a-8267-61b02ae08a9c","system_id":"levelo_inurba_marseille","lat":43.30919,"lon":5.40143,"is_reserved":false,"is_disabled":false,"rental_uris":{"android":"levelo://app?vid=c06cb4e2-b45b-4f9a-8267-61b02ae08a9c","ios":"levelo://app?vid=c06cb4e2-b45b-4f9a-8267-61b02ae08a9c"},"vehicle_type_id":"4","last_reported":1730671745,"current_range_meters":36400,"station_id":"ce4bgvp2rcd13ifvqct0","pricing_plan_id":"cebpf4jnsgd1na2vs0mg"},{"bike_id":"8da279a8-814d-45a9-8c6d-35bc493d6faf","system_id":"levelo_inurba_marseille","lat":43.30433,"lon":5.38896,"is_reserved":false,"is_disabled":false,"rental_uris":{"android":"levelo://app?vid=8da279a8-814d-45a9-8c6d-35bc493d6faf","ios":"levelo://app?vid=8da279a8-814d-45a9-8c6d-35bc493d6faf"},"vehicle_type_id":"4","last_reported":1730671745,"current_range_meters":37600,"station_id":"ce4bgk12rcd13ifvqbi0","pricing_plan_id":"cebpf4jnsgd1na2vs0mg"},{"bike_id":"f3542a6b-3eaa-46f0-b4d2-58992c330d1f","system_id":"levelo_inurba_marseille","lat":43.29899,"lon":5.43665,"is_reserved":false,"is_disabled":false,"rental_uris":{"android":"levelo://app?vid=f3542a6b-3eaa-46f0-b4d2-58992c330d1f","ios":"levelo://app?vid=f3542a6b-3eaa-46f0-b4d2-58992c330d1f"},"vehicle_type_id":"4","last_reported":1730671745,"current_range_meters":3600,"station_id":"ce4bhpp2rcd13ifvqhfg","pricing_plan_id":"cebpf4jnsgd1na2vs0mg"},{"bike_id":"3cdad684-1947-405c-bc67-ba936517febd","system_id":"levelo_inurba_marseille","lat":43.313238,"lon":5.396778,"is_reserved":false,"is_disabled":false,"rental_uris":{"android":"levelo://app?vid=3cdad684-1947-405c-bc67-ba936517febd","ios":"levelo://app?vid=3cdad684-1947-405c-bc67-ba936517febd"},"vehicle_type_id":"4","last_reported":1730671745,"current_range_meters":38800,"station_id":"ce4bgvp2rcd13ifvqcu0","pricing_plan_id":"cebpf4jnsgd1na2vs0mg"},{"bike_id":"3c073b0e-e7f9-4adb-9cbd-3464ac137f74","system_id":"levelo_inurba_marseille","lat":43.29194,"lon":5.35805,"is_reserved":false,"is_disabled":false,"rental_uris":{"android":"levelo://app?vid=3c073b0e-e7f9-4adb-9cbd-3464ac137f74","ios":"levelo://app?vid=3c073b0e-e7f9-4adb-9cbd-3464ac137f74"},"vehicle_type_id":"4","last_reported":1730671745,"current_range_meters":38000,"station_id":"ce4bhb12rcd13ifvqel0","pricing_plan_id":"cebpf4jnsgd1na2vs0mg"},{"bike_id":"9dc3374b-0b85-4a8b-88a8-db8ad8f687c8","system_id":"levelo_inurba_marseille","lat":43.24075,"lon":5.37756,"is_reserved":false,"is_disabled":false,"rental_uris":{"android":"levelo://app?vid=9dc3374b-0b85-4a8b-88a8-db8ad8f687c8","ios":"levelo://app?vid=9dc3374b-0b85-4a8b-88a8-db8ad8f687c8"},"vehicle_type_id":"4","last_reported":1730671745,"current_range_meters":15200,"station_id":"ce4bhnp2rcd13ifvqgvg","pricing_plan_id":"cebpf4jnsgd1na2vs0mg"},{"bike_id":"33f6555c-2637-4d7c-9ff9-8a6e91a19910","system_id":"levelo_inurba_marseille","lat":43.27175,"lon":5.41011,"is_reserved":false,"is_disabled":false,"rental_uris":{"android":"levelo://app?vid=33f6555c-2637-4d7c-9ff9-8a6e91a19910","ios":"levelo://app?vid=33f6555c-2637-4d7c-9ff9-8a6e91a19910"},"vehicle_type_id":"4","last_reported":1730671745,"current_range_meters":14000,"station_id":"ce4bhl12rcd13ifvqgf0","pricing_plan_id":"cebpf4jnsgd1na2vs0mg"},{"bike_id":"b3ec251f-24f4-482a-b204-71972a8c9fa0","system_id":"levelo_inurba_marseille","lat":43.30957,"lon":5.39046,"is_reserved":false,"is_disabled":false,"rental_uris":{"android":"levelo://app?vid=b3ec251f-24f4-482a-b204-71972a8c9fa0","ios":"levelo://app?vid=b3ec251f-24f4-482a-b204-71972a8c9fa0"},"vehicle_type_id":"4","last_reported":1730671745,"current_range_meters":38000,"station_id":"ce4bgup2rcd13ifvqco0","pricing_plan_id":"cebpf4jnsgd1na2vs0mg"},{"bike_id":"5145bf55-02c3-4ba4-99d0-1c276f90d766","system_id":"levelo_inurba_marseille","lat":43.29572,"lon":5.39966,"is_reserved":false,"is_disabled":false,"rental_uris":{"android":"levelo://app?vid=5145bf55-02c3-4ba4-99d0-1c276f90d766","ios":"levelo://app?vid=5145bf55-02c3-4ba4-99d0-1c276f90d766"},"vehicle_type_id":"4","last_reported":1730671745,"current_range_meters":38800,"station_id":"ce4bh312rcd13ifvqdj0","pricing_plan_id":"cebpf4jnsgd1na2vs0mg"},{"bike_id":"05c66aec-3888-466b-8d45-bb881b5e27a5","system_id":"levelo_inurba_marseille","lat":43.29526,"lon":5.394,"is_reserved":false,"is_disabled":false,"rental_uris":{"android":"levelo://app?vid=05c66aec-3888-466b-8d45-bb881b5e27a5","ios":"levelo://app?vid=05c66aec-3888-466b-8d45-bb881b5e27a5"},"vehicle_type_id":"4","last_reported":1730671745,"current_range_meters":27200,"station_id":"ce4bh292rcd13ifvqdf0","pricing_plan_id":"cebpf4jnsgd1na2vs0mg"},{"bike_id":"4d916b62-8bbd-40bf-8461-f3dd3e4562e6","system_id":"levelo_inurba_marseille","lat":43.31175,"lon":5.38707,"is_reserved":false,"is_disabled":false,"rental_uris":{"android":"levelo://app?vid=4d916b62-8bbd-40bf-8461-f3dd3e4562e6","ios":"levelo://app?vid=4d916b62-8bbd-40bf-8461-f3dd3e4562e6"},"vehicle_type_id":"4","last_reported":1730671745,"current_range_meters":38400,"station_id":"ce4bgv12rcd13ifvqcp0","pricing_plan_id":"cebpf4jnsgd1na2vs0mg"},{"bike_id":"12e2a17d-b267-46ea-b046-7d399d7c3544","system_id":"levelo_inurba_marseille","lat":43.33725,"lon":5.39179,"is_reserved":false,"is_disabled":false,"rental_uris":{"android":"levelo://app?vid=12e2a17d-b267-46ea-b046-7d399d7c3544","ios":"levelo://app?vid=12e2a17d-b267-46ea-b046-7d399d7c3544"},"vehicle_type_id":"4","last_reported":1730671745,"current_range_meters":39200,"station_id":"ce4bhr92rcd13ifvqhsg","pricing_plan_id":"cebpf4jnsgd1na2vs0mg"},{"bike_id":"ba58b731-f187-4881-b0b1-6ef9d12dd0ca","system_id":"levelo_inurba_marseille","lat":43.28411,"lon":5.37509,"is_reserved":false,"is_disabled":false,"rental_uris":{"android":"levelo://app?vid=ba58b731-f187-4881-b0b1-6ef9d12dd0ca","ios":"levelo://app?vid=ba58b731-f187-4881-b0b1-6ef9d12dd0ca"},"vehicle_type_id":"4","last_reported":1730671745,"current_range_meters":30800,"station_id":"ce4bh412rcd13ifvqds0","pricing_plan_id":"cebpf4jnsgd1na2vs0mg"},{"bike_id":"c0ebe450-9030-4e51-8924-ad0c358a4408","system_id":"levelo_inurba_marseille","lat":43.33604,"lon":5.41033,"is_reserved":false,"is_disabled":false,"rental_uris":{"android":"levelo://app?vid=c0ebe450-9030-4e51-8924-ad0c358a4408","ios":"levelo://app?vid=c0ebe450-9030-4e51-8924-ad0c358a4408"},"vehicle_type_id":"4","last_reported":1730671745,"current_range_meters":10800,"station_id":"ce4bhqh2rcd13ifvqhmg","pricing_plan_id":"cebpf4jnsgd1na2vs0mg"},{"bike_id":"b8a27d33-0523-4800-a895-12050a0aebb0","system_id":"levelo_inurba_marseille","lat":43.28926,"lon":5.38387,"is_reserved":false,"is_disabled":false,"rental_uris":{"android":"levelo://app?vid=b8a27d33-0523-4800-a895-12050a0aebb0","ios":"levelo://app?vid=b8a27d33-0523-4800-a895-12050a0aebb0"},"vehicle_type_id":"4","last_reported":1730671745,"current_range_meters":36800,"station_id":"ce4bh612rcd13ifvqe6g","pricing_plan_id":"cebpf4jnsgd1na2vs0mg"},{"bike_id":"25bd32bb-494a-4771-a736-a4858e5fd359","system_id":"levelo_inurba_marseille","lat":43.28862,"lon":5.39329,"is_reserved":false,"is_disabled":false,"rental_uris":{"android":"levelo://app?vid=25bd32bb-494a-4771-a736-a4858e5fd359","ios":"levelo://app?vid=25bd32bb-494a-4771-a736-a4858e5fd359"},"vehicle_type_id":"4","last_reported":1730671745,"current_range_meters":22400,"station_id":"ce4bh2p2rcd13ifvqdi0","pricing_plan_id":"cebpf4jnsgd1na2vs0mg"},{"bike_id":"d4472d20-9c4b-4c70-ad00-3a005519a429","system_id":"levelo_inurba_marseille","lat":43.35392,"lon":5.35725,"is_reserved":false,"is_disabled":false,"rental_uris":{"android":"levelo://app?vid=d4472d20-9c4b-4c70-ad00-3a005519a429","ios":"levelo://app?vid=d4472d20-9c4b-4c70-ad00-3a005519a429"},"vehicle_type_id":"4","last_reported":1730671745,"current_range_meters":12000,"station_id":"","pricing_plan_id":"cebpf4jnsgd1na2vs0mg"},{"bike_id":"6338020e-474a-4c99-b365-eea26fe54739","system_id":"levelo_inurba_marseille","lat":43.32284,"lon":5.38272,"is_reserved":false,"is_disabled":false,"rental_uris":{"android":"levelo://app?vid=6338020e-474a-4c99-b365-eea26fe54739","ios":"levelo://app?vid=6338020e-474a-4c99-b365-eea26fe54739"},"vehicle_type_id":"4","last_reported":1730671745,"current_range_meters":38800,"station_id":"ce4bhr12rcd13ifvqhqg","pricing_plan_id":"cebpf4jnsgd1na2vs0mg"},{"bike_id":"f23c62f0-5403-4d96-9600-def855fd3713","system_id":"levelo_inurba_marseille","lat":43.29517,"lon":5.39031,"is_reserved":false,"is_disabled":false,"rental_uris":{"android":"levelo://app?vid=f23c62f0-5403-4d96-9600-def855fd3713","ios":"levelo://app?vid=f23c62f0-5403-4d96-9600-def855fd3713"},"vehicle_type_id":"4","last_reported":1730671745,"current_range_meters":17200,"station_id":"ce4bh3p2rcd13ifvqdp0","pricing_plan_id":"cebpf4jnsgd1na2vs0mg"},{"bike_id":"d654e893-cc06-4152-b5e1-480855c6d7d0","system_id":"levelo_inurba_marseille","lat":43.29549,"lon":5.42277,"is_reserved":false,"is_disabled":false,"rental_uris":{"android":"levelo://app?vid=d654e893-cc06-4152-b5e1-480855c6d7d0","ios":"levelo://app?vid=d654e893-cc06-4152-b5e1-480855c6d7d0"},"vehicle_type_id":"4","last_reported":1730671745,"current_range_meters":36400,"station_id":"ce4bhph2rcd13ifvqhdg","pricing_plan_id":"cebpf4jnsgd1na2vs0mg"},{"bike_id":"14d63bfa-786a-4d8b-a903-efd4550403af","system_id":"levelo_inurba_marseille","lat":43.28943,"lon":5.36638,"is_reserved":false,"is_disabled":false,"rental_uris":{"android":"levelo://app?vid=14d63bfa-786a-4d8b-a903-efd4550403af","ios":"levelo://app?vid=14d63bfa-786a-4d8b-a903-efd4550403af"},"vehicle_type_id":"4","last_reported":1730671745,"current_range_meters":36800,"station_id":"ce4bhap2rcd13ifvqek0","pricing_plan_id":"cebpf4jnsgd1na2vs0mg"},{"bike_id":"5a6ad07b-627a-4714-b47f-97b54fb615ec","system_id":"levelo_inurba_marseille","lat":43.29574,"lon":5.39967,"is_reserved":false,"is_disabled":false,"rental_uris":{"android":"levelo://app?vid=5a6ad07b-627a-4714-b47f-97b54fb615ec","ios":"levelo://app?vid=5a6ad07b-627a-4714-b47f-97b54fb615ec"},"vehicle_type_id":"4","last_reported":1730671745,"current_range_meters":28000,"station_id":"ce4bh312rcd13ifvqdj0","pricing_plan_id":"cebpf4jnsgd1na2vs0mg"},{"bike_id":"9590fcd8-990f-40e6-9308-a196638a7b22","system_id":"levelo_inurba_marseille","lat":43.26061,"lon":5.39397,"is_reserved":false,"is_disabled":false,"rental_uris":{"android":"levelo://app?vid=9590fcd8-990f-40e6-9308-a196638a7b22","ios":"levelo://app?vid=9590fcd8-990f-40e6-9308-a196638a7b22"},"vehicle_type_id":"4","last_reported":1730671745,"current_range_meters":27600,"station_id":"ce4bhh92rcd13ifvqfj0","pricing_plan_id":"cebpf4jnsgd1na2vs0mg"},{"bike_id":"f8833f7b-49c8-440c-b671-beb72799bdec","system_id":"levelo_inurba_marseille","lat":43.24983,"lon":5.37509,"is_reserved":false,"is_disabled":false,"rental_uris":{"android":"levelo://app?vid=f8833f7b-49c8-440c-b671-beb72799bdec","ios":"levelo://app?vid=f8833f7b-49c8-440c-b671-beb72799bdec"},"vehicle_type_id":"4","last_reported":1730671745,"current_range_meters":28800,"station_id":"","pricing_plan_id":"cebpf4jnsgd1na2vs0mg"},{"bike_id":"b4c26404-be14-4de0-97fe-975ad815c2aa","system_id":"levelo_inurba_marseille","lat":43.25499,"lon":5.37654,"is_reserved":false,"is_disabled":false,"rental_uris":{"android":"levelo://app?vid=b4c26404-be14-4de0-97fe-975ad815c2aa","ios":"levelo://app?vid=b4c26404-be14-4de0-97fe-975ad815c2aa"},"vehicle_type_id":"4","last_reported":1730671745,"current_range_meters":38800,"station_id":"ce4bhh12rcd13ifvqff0","pricing_plan_id":"cebpf4jnsgd1na2vs0mg"},{"bike_id":"e7453847-165d-4e50-a796-bedc702cb92c","system_id":"levelo_inurba_marseille","lat":43.29445,"lon":5.39758,"is_reserved":false,"is_disabled":false,"rental_uris":{"android":"levelo://app?vid=e7453847-165d-4e50-a796-bedc702cb92c","ios":"levelo://app?vid=e7453847-165d-4e50-a796-bedc702cb92c"},"vehicle_type_id":"4","last_reported":1730671745,"current_range_meters":38800,"station_id":"ce4bh3h2rcd13ifvqdo0","pricing_plan_id":"cebpf4jnsgd1na2vs0mg"},{"bike_id":"0d325674-1265-4898-b788-3f204d50c915","system_id":"levelo_inurba_marseille","lat":43.28453,"lon":5.35873,"is_reserved":false,"is_disabled":false,"rental_uris":{"android":"levelo://app?vid=0d325674-1265-4898-b788-3f204d50c915","ios":"levelo://app?vid=0d325674-1265-4898-b788-3f204d50c915"},"vehicle_type_id":"4","last_reported":1730671745,"current_range_meters":38800,"station_id":"ce4bhah2rcd13ifvqei0","pricing_plan_id":"cebpf4jnsgd1na2vs0mg"},{"bike_id":"d34e2da6-3d21-4a87-bc60-66261e2f3cba","system_id":"levelo_inurba_marseille","lat":43.30143,"lon":5.38783,"is_reserved":false,"is_disabled":false,"rental_uris":{"android":"levelo://app?vid=d34e2da6-3d21-4a87-bc60-66261e2f3cba","ios":"levelo://app?vid=d34e2da6-3d21-4a87-bc60-66261e2f3cba"},"vehicle_type_id":"4","last_reported":1730671745,"current_range_meters":36800,"station_id":"ce4bghh2rcd13ifvqb60","pricing_plan_id":"cebpf4jnsgd1na2vs0mg"},{"bike_id":"6343cda6-6330-478c-8080-96c31f72a038","system_id":"levelo_inurba_marseille","lat":43.295532,"lon":5.42293,"is_reserved":false,"is_disabled":false,"rental_uris":{"android":"levelo://app?vid=6343cda6-6330-478c-8080-96c31f72a038","ios":"levelo://app?vid=6343cda6-6330-478c-8080-96c31f72a038"},"vehicle_type_id":"4","last_reported":1730671745,"current_range_meters":38400,"station_id":"ce4bhph2rcd13ifvqhdg","pricing_plan_id":"cebpf4jnsgd1na2vs0mg"},{"bike_id":"4c539fc3-030d-47f5-bc3f-71d2ca4b026e","system_id":"levelo_inurba_marseille","lat":43.2572,"lon":5.41113,"is_reserved":false,"is_disabled":false,"rental_uris":{"android":"levelo://app?vid=4c539fc3-030d-47f5-bc3f-71d2ca4b026e","ios":"levelo://app?vid=4c539fc3-030d-47f5-bc3f-71d2ca4b026e"},"vehicle_type_id":"4","last_reported":1730671745,"current_range_meters":4000,"station_id":"ce4bhkp2rcd13ifvqgd0","pricing_plan_id":"cebpf4jnsgd1na2vs0mg"},{"bike_id":"2b4bbfed-255f-4cd0-bf8b-80e072c9cbe9","system_id":"levelo_inurba_marseille","lat":43.32105,"lon":5.3678,"is_reserved":false,"is_disabled":false,"rental_uris":{"android":"levelo://app?vid=2b4bbfed-255f-4cd0-bf8b-80e072c9cbe9","ios":"levelo://app?vid=2b4bbfed-255f-4cd0-bf8b-80e072c9cbe9"},"vehicle_type_id":"4","last_reported":1730671745,"current_range_meters":8400,"station_id":"ce4bhrh2rcd13ifvqhug","pricing_plan_id":"cebpf4jnsgd1na2vs0mg"},{"bike_id":"b5cc074e-2188-459d-8e7c-27bf21e159cd","system_id":"levelo_inurba_marseille","lat":43.28663,"lon":5.36358,"is_reserved":false,"is_disabled":false,"rental_uris":{"android":"levelo://app?vid=b5cc074e-2188-459d-8e7c-27bf21e159cd","ios":"levelo://app?vid=b5cc074e-2188-459d-8e7c-27bf21e159cd"},"vehicle_type_id":"4","last_reported":1730671745,"current_range_meters":32400,"station_id":"ce4bhah2rcd13ifvqej0","pricing_plan_id":"cebpf4jnsgd1na2vs0mg"},{"bike_id":"a55a47e8-aa3d-43f4-94db-063f8cbc25c5","system_id":"levelo_inurba_marseille","lat":43.300815,"lon":5.390812,"is_reserved":false,"is_disabled":false,"rental_uris":{"android":"levelo://app?vid=a55a47e8-aa3d-43f4-94db-063f8cbc25c5","ios":"levelo://app?vid=a55a47e8-aa3d-43f4-94db-063f8cbc25c5"},"vehicle_type_id":"4","last_reported":1730671745,"current_range_meters":19200,"station_id":"ce4bh392rcd13ifvqdm0","pricing_plan_id":"cebpf4jnsgd1na2vs0mg"},{"bike_id":"d76cbc23-515d-43bd-af0e-134e3c469824","system_id":"levelo_inurba_marseille","lat":43.29921,"lon":5.3747,"is_reserved":false,"is_disabled":false,"rental_uris":{"android":"levelo://app?vid=d76cbc23-515d-43bd-af0e-134e3c469824","ios":"levelo://app?vid=d76cbc23-515d-43bd-af0e-134e3c469824"},"vehicle_type_id":"4","last_reported":1730671745,"current_range_meters":38800,"station_id":"ce4bgjh2rcd13ifvqbg0","pricing_plan_id":"cebpf4jnsgd1na2vs0mg"},{"bike_id":"abb6da65-3dc2-49f7-b72f-461efda57767","system_id":"levelo_inurba_marseille","lat":43.28352,"lon":5.38102,"is_reserved":false,"is_disabled":false,"rental_uris":{"android":"levelo://app?vid=abb6da65-3dc2-49f7-b72f-461efda57767","ios":"levelo://app?vid=abb6da65-3dc2-49f7-b72f-461efda57767"},"vehicle_type_id":"4","last_reported":1730671745,"current_range_meters":35600,"station_id":"ce4bh412rcd13ifvqdr0","pricing_plan_id":"cebpf4jnsgd1na2vs0mg"},{"bike_id":"f21348a8-a761-4ca5-8ad0-efb009b4de77","system_id":"levelo_inurba_marseille","lat":43.24548,"lon":5.39533,"is_reserved":false,"is_disabled":false,"rental_uris":{"android":"levelo://app?vid=f21348a8-a761-4ca5-8ad0-efb009b4de77","ios":"levelo://app?vid=f21348a8-a761-4ca5-8ad0-efb009b4de77"},"vehicle_type_id":"4","last_reported":1730671745,"current_range_meters":26800,"station_id":"ce4bhlp2rcd13ifvqgjg","pricing_plan_id":"cebpf4jnsgd1na2vs0mg"},{"bike_id":"81cbfe91-68c9-4a60-b933-5430cf549ffb","system_id":"levelo_inurba_marseille","lat":43.27991,"lon":5.41659,"is_reserved":false,"is_disabled":false,"rental_uris":{"android":"levelo://app?vid=81cbfe91-68c9-4a60-b933-5430cf549ffb","ios":"levelo://app?vid=81cbfe91-68c9-4a60-b933-5430cf549ffb"},"vehicle_type_id":"4","last_reported":1730671745,"current_range_meters":36400,"station_id":"ce4bho12rcd13ifvqh1g","pricing_plan_id":"cebpf4jnsgd1na2vs0mg"},{"bike_id":"60b44956-9029-465b-bff1-e2638a9b3ec0","system_id":"levelo_inurba_marseille","lat":43.28099,"lon":5.3785,"is_reserved":false,"is_disabled":false,"rental_uris":{"android":"levelo://app?vid=60b44956-9029-465b-bff1-e2638a9b3ec0","ios":"levelo://app?vid=60b44956-9029-465b-bff1-e2638a9b3ec0"},"vehicle_type_id":"4","last_reported":1730671745,"current_range_meters":36800,"station_id":"ce4bha12rcd13ifvqee0","pricing_plan_id":"cebpf4jnsgd1na2vs0mg"},{"bike_id":"c556f04d-a5be-4d49-ad15-6cb970cca7df","system_id":"levelo_inurba_marseille","lat":43.31722,"lon":5.42399,"is_reserved":false,"is_disabled":false,"rental_uris":{"android":"levelo://app?vid=c556f04d-a5be-4d49-ad15-6cb970cca7df","ios":"levelo://app?vid=c556f04d-a5be-4d49-ad15-6cb970cca7df"},"vehicle_type_id":"4","last_reported":1730671745,"current_range_meters":38000,"station_id":"ce4bhp92rcd13ifvqhbg","pricing_plan_id":"cebpf4jnsgd1na2vs0mg"},{"bike_id":"e11d5255-2ce6-4a68-8d0c-4cc6508d90bb","system_id":"levelo_inurba_marseille","lat":43.25725,"lon":5.41119,"is_reserved":false,"is_disabled":false,"rental_uris":{"android":"levelo://app?vid=e11d5255-2ce6-4a68-8d0c-4cc6508d90bb","ios":"levelo://app?vid=e11d5255-2ce6-4a68-8d0c-4cc6508d90bb"},"vehicle_type_id":"4","last_reported":1730671745,"current_range_meters":8000,"station_id":"ce4bhkp2rcd13ifvqgd0","pricing_plan_id":"cebpf4jnsgd1na2vs0mg"},{"bike_id":"43388393-6cc6-4a31-abea-717587f3ccfe","system_id":"levelo_inurba_marseille","lat":43.29532,"lon":5.38546,"is_reserved":false,"is_disabled":false,"rental_uris":{"android":"levelo://app?vid=43388393-6cc6-4a31-abea-717587f3ccfe","ios":"levelo://app?vid=43388393-6cc6-4a31-abea-717587f3ccfe"},"vehicle_type_id":"4","last_reported":1730671745,"current_range_meters":14000,"station_id":"ce4bgih2rcd13ifvqba0","pricing_plan_id":"cebpf4jnsgd1na2vs0mg"},{"bike_id":"89b5db9e-d734-4d56-8435-3c882b9b96c6","system_id":"levelo_inurba_marseille","lat":43.28921,"lon":5.38399,"is_reserved":false,"is_disabled":false,"rental_uris":{"android":"levelo://app?vid=89b5db9e-d734-4d56-8435-3c882b9b96c6","ios":"levelo://app?vid=89b5db9e-d734-4d56-8435-3c882b9b96c6"},"vehicle_type_id":"4","last_reported":1730671745,"current_range_meters":33600,"station_id":"ce4bh612rcd13ifvqe6g","pricing_plan_id":"cebpf4jnsgd1na2vs0mg"},{"bike_id":"58937cbf-ce81-4e79-a196-4b6daa35f3e4","system_id":"levelo_inurba_marseille","lat":43.31485,"lon":5.37308,"is_reserved":false,"is_disabled":false,"rental_uris":{"android":"levelo://app?vid=58937cbf-ce81-4e79-a196-4b6daa35f3e4","ios":"levelo://app?vid=58937cbf-ce81-4e79-a196-4b6daa35f3e4"},"vehicle_type_id":"4","last_reported":1730671745,"current_range_meters":38800,"station_id":"ce4bgt12rcd13ifvqcd0","pricing_plan_id":"cebpf4jnsgd1na2vs0mg"},{"bike_id":"3dd46dbd-b1d1-47c8-a63a-3f5d34e36643","system_id":"levelo_inurba_marseille","lat":43.28,"lon":5.41659,"is_reserved":false,"is_disabled":false,"rental_uris":{"android":"levelo://app?vid=3dd46dbd-b1d1-47c8-a63a-3f5d34e36643","ios":"levelo://app?vid=3dd46dbd-b1d1-47c8-a63a-3f5d34e36643"},"vehicle_type_id":"4","last_reported":1730671745,"current_range_meters":36800,"station_id":"ce4bho12rcd13ifvqh1g","pricing_plan_id":"cebpf4jnsgd1na2vs0mg"},{"bike_id":"374240d0-28e5-4ea0-9d18-62bf81192f0c","system_id":"levelo_inurba_marseille","lat":43.24802,"lon":5.37452,"is_reserved":false,"is_disabled":false,"rental_uris":{"android":"levelo://app?vid=374240d0-28e5-4ea0-9d18-62bf81192f0c","ios":"levelo://app?vid=374240d0-28e5-4ea0-9d18-62bf81192f0c"},"vehicle_type_id":"4","last_reported":1730671745,"current_range_meters":38000,"station_id":"ce4bhgh2rcd13ifvqfb0","pricing_plan_id":"cebpf4jnsgd1na2vs0mg"},{"bike_id":"35b13398-104a-4231-8e32-46092601ae4e","system_id":"levelo_inurba_marseille","lat":43.27939,"lon":5.41036,"is_reserved":false,"is_disabled":false,"rental_uris":{"android":"levelo://app?vid=35b13398-104a-4231-8e32-46092601ae4e","ios":"levelo://app?vid=35b13398-104a-4231-8e32-46092601ae4e"},"vehicle_type_id":"4","last_reported":1730671745,"current_range_meters":6000,"station_id":"ce4bhnp2rcd13ifvqh0g","pricing_plan_id":"cebpf4jnsgd1na2vs0mg"},{"bike_id":"52c87382-fa2b-4b96-89a5-f73605f11272","system_id":"levelo_inurba_marseille","lat":43.23845,"lon":5.38959,"is_reserved":false,"is_disabled":false,"rental_uris":{"android":"levelo://app?vid=52c87382-fa2b-4b96-89a5-f73605f11272","ios":"levelo://app?vid=52c87382-fa2b-4b96-89a5-f73605f11272"},"vehicle_type_id":"4","last_reported":1730671745,"current_range_meters":25200,"station_id":"","pricing_plan_id":"cebpf4jnsgd1na2vs0mg"},{"bike_id":"cb4481be-7a6d-46fa-8d3b-34e0418df02d","system_id":"levelo_inurba_marseille","lat":43.29252,"lon":5.40904,"is_reserved":false,"is_disabled":false,"rental_uris":{"android":"levelo://app?vid=cb4481be-7a6d-46fa-8d3b-34e0418df02d","ios":"levelo://app?vid=cb4481be-7a6d-46fa-8d3b-34e0418df02d"},"vehicle_type_id":"4","last_reported":1730671745,"current_range_meters":30000,"station_id":"ce4bh192rcd13ifvqdc0","pricing_plan_id":"cebpf4jnsgd1na2vs0mg"},{"bike_id":"d9dc8537-c347-484e-85bf-922b9e13a4cd","system_id":"levelo_inurba_marseille","lat":43.29279,"lon":5.40114,"is_reserved":false,"is_disabled":false,"rental_uris":{"android":"levelo://app?vid=d9dc8537-c347-484e-85bf-922b9e13a4cd","ios":"levelo://app?vid=d9dc8537-c347-484e-85bf-922b9e13a4cd"},"vehicle_type_id":"4","last_reported":1730671745,"current_range_meters":27600,"station_id":"ce4bh312rcd13ifvqdk0","pricing_plan_id":"cebpf4jnsgd1na2vs0mg"},{"bike_id":"a43019a8-a760-4309-a043-c8c927a99dee","system_id":"levelo_inurba_marseille","lat":43.3107,"lon":5.38343,"is_reserved":false,"is_disabled":false,"rental_uris":{"android":"levelo://app?vid=a43019a8-a760-4309-a043-c8c927a99dee","ios":"levelo://app?vid=a43019a8-a760-4309-a043-c8c927a99dee"},"vehicle_type_id":"4","last_reported":1730671745,"current_range_meters":27600,"station_id":"ce4bgv92rcd13ifvqcr0","pricing_plan_id":"cebpf4jnsgd1na2vs0mg"},{"bike_id":"65b8cd1a-e70d-47e3-b20c-e805078513ec","system_id":"levelo_inurba_marseille","lat":43.23969,"lon":5.36626,"is_reserved":false,"is_disabled":false,"rental_uris":{"android":"levelo://app?vid=65b8cd1a-e70d-47e3-b20c-e805078513ec","ios":"levelo://app?vid=65b8cd1a-e70d-47e3-b20c-e805078513ec"},"vehicle_type_id":"4","last_reported":1730671745,"current_range_meters":29600,"station_id":"ce4bhi12rcd13ifvqfp0","pricing_plan_id":"cebpf4jnsgd1na2vs0mg"},{"bike_id":"739c9dca-9415-4b03-859b-1606e5caa095","system_id":"levelo_inurba_marseille","lat":43.34142,"lon":5.40909,"is_reserved":false,"is_disabled":false,"rental_uris":{"android":"levelo://app?vid=739c9dca-9415-4b03-859b-1606e5caa095","ios":"levelo://app?vid=739c9dca-9415-4b03-859b-1606e5caa095"},"vehicle_type_id":"4","last_reported":1730671745,"current_range_meters":37600,"station_id":"ce4bhqh2rcd13ifvqhlg","pricing_plan_id":"cebpf4jnsgd1na2vs0mg"},{"bike_id":"8b21536a-a3d2-44a9-b7ec-b0dca9c27722","system_id":"levelo_inurba_marseille","lat":43.272071,"lon":5.391812,"is_reserved":false,"is_disabled":false,"rental_uris":{"android":"levelo://app?vid=8b21536a-a3d2-44a9-b7ec-b0dca9c27722","ios":"levelo://app?vid=8b21536a-a3d2-44a9-b7ec-b0dca9c27722"},"vehicle_type_id":"4","last_reported":1730671745,"current_range_meters":33600,"station_id":"ce4bhhp2rcd13ifvqfm0","pricing_plan_id":"cebpf4jnsgd1na2vs0mg"},{"bike_id":"fcfab836-9abe-4972-97b8-684dd5a14828","system_id":"levelo_inurba_marseille","lat":43.2798,"lon":5.38767,"is_reserved":false,"is_disabled":false,"rental_uris":{"android":"levelo://app?vid=fcfab836-9abe-4972-97b8-684dd5a14828","ios":"levelo://app?vid=fcfab836-9abe-4972-97b8-684dd5a14828"},"vehicle_type_id":"4","last_reported":1730671745,"current_range_meters":16800,"station_id":"ce4bhg12rcd13ifvqf80","pricing_plan_id":"cebpf4jnsgd1na2vs0mg"},{"bike_id":"1b80601b-8be3-4b0b-bcc4-eebb89de1629","system_id":"levelo_inurba_marseille","lat":43.25831,"lon":5.39428,"is_reserved":false,"is_disabled":false,"rental_uris":{"android":"levelo://app?vid=1b80601b-8be3-4b0b-bcc4-eebb89de1629","ios":"levelo://app?vid=1b80601b-8be3-4b0b-bcc4-eebb89de1629"},"vehicle_type_id":"4","last_reported":1730671745,"current_range_meters":33200,"station_id":"ce4bhip2rcd13ifvqft0","pricing_plan_id":"cebpf4jnsgd1na2vs0mg"},{"bike_id":"dd65bf1a-59fa-4bab-90e0-a371c903a900","system_id":"levelo_inurba_marseille","lat":43.280778,"lon":5.396622,"is_reserved":false,"is_disabled":false,"rental_uris":{"android":"levelo://app?vid=dd65bf1a-59fa-4bab-90e0-a371c903a900","ios":"levelo://app?vid=dd65bf1a-59fa-4bab-90e0-a371c903a900"},"vehicle_type_id":"4","last_reported":1730671745,"current_range_meters":30800,"station_id":"ce4bho12rcd13ifvqh2g","pricing_plan_id":"cebpf4jnsgd1na2vs0mg"},{"bike_id":"fc01ac91-958f-424a-99ad-0c74a70e91dc","system_id":"levelo_inurba_marseille","lat":43.2841,"lon":5.37524,"is_reserved":false,"is_disabled":false,"rental_uris":{"android":"levelo://app?vid=fc01ac91-958f-424a-99ad-0c74a70e91dc","ios":"levelo://app?vid=fc01ac91-958f-424a-99ad-0c74a70e91dc"},"vehicle_type_id":"4","last_reported":1730671745,"current_range_meters":38400,"station_id":"ce4bh412rcd13ifvqds0","pricing_plan_id":"cebpf4jnsgd1na2vs0mg"},{"bike_id":"168886e7-81ac-4e64-ac55-a569484d654b","system_id":"levelo_inurba_marseille","lat":43.2681,"lon":5.40265,"is_reserved":false,"is_disabled":false,"rental_uris":{"android":"levelo://app?vid=168886e7-81ac-4e64-ac55-a569484d654b","ios":"levelo://app?vid=168886e7-81ac-4e64-ac55-a569484d654b"},"vehicle_type_id":"4","last_reported":1730671745,"current_range_meters":34000,"station_id":"ce501612rcd8frsf0b60","pricing_plan_id":"cebpf4jnsgd1na2vs0mg"},{"bike_id":"95e3f851-48ae-4212-a71d-5b0ac6a0798d","system_id":"levelo_inurba_marseille","lat":43.28677,"lon":5.38648,"is_reserved":false,"is_disabled":false,"rental_uris":{"android":"levelo://app?vid=95e3f851-48ae-4212-a71d-5b0ac6a0798d","ios":"levelo://app?vid=95e3f851-48ae-4212-a71d-5b0ac6a0798d"},"vehicle_type_id":"4","last_reported":1730671745,"current_range_meters":38800,"station_id":"ce4bh492rcd13ifvqdug","pricing_plan_id":"cebpf4jnsgd1na2vs0mg"},{"bike_id":"2df6f291-096d-459d-b928-e87b0c0efefb","system_id":"levelo_inurba_marseille","lat":43.26681,"lon":5.38272,"is_reserved":false,"is_disabled":false,"rental_uris":{"android":"levelo://app?vid=2df6f291-096d-459d-b928-e87b0c0efefb","ios":"levelo://app?vid=2df6f291-096d-459d-b928-e87b0c0efefb"},"vehicle_type_id":"4","last_reported":1730671745,"current_range_meters":38400,"station_id":"ce4bhg92rcd13ifvqf90","pricing_plan_id":"cebpf4jnsgd1na2vs0mg"},{"bike_id":"c8ff769d-3de8-4ba5-b126-ee1befb95d70","system_id":"levelo_inurba_marseille","lat":43.2386,"lon":5.38979,"is_reserved":false,"is_disabled":false,"rental_uris":{"android":"levelo://app?vid=c8ff769d-3de8-4ba5-b126-ee1befb95d70","ios":"levelo://app?vid=c8ff769d-3de8-4ba5-b126-ee1befb95d70"},"vehicle_type_id":"4","last_reported":1730671745,"current_range_meters":11200,"station_id":"","pricing_plan_id":"cebpf4jnsgd1na2vs0mg"},{"bike_id":"8c67d340-801d-46e5-b910-2f8aff3ff078","system_id":"levelo_inurba_marseille","lat":43.33319,"lon":5.37061,"is_reserved":false,"is_disabled":false,"rental_uris":{"android":"levelo://app?vid=8c67d340-801d-46e5-b910-2f8aff3ff078","ios":"levelo://app?vid=8c67d340-801d-46e5-b910-2f8aff3ff078"},"vehicle_type_id":"4","last_reported":1730671745,"current_range_meters":3600,"station_id":"","pricing_plan_id":"cebpf4jnsgd1na2vs0mg"},{"bike_id":"25100a09-57ed-4168-9d8e-21ca7605f21f","system_id":"levelo_inurba_marseille","lat":43.27905,"lon":5.39587,"is_reserved":false,"is_disabled":false,"rental_uris":{"android":"levelo://app?vid=25100a09-57ed-4168-9d8e-21ca7605f21f","ios":"levelo://app?vid=25100a09-57ed-4168-9d8e-21ca7605f21f"},"vehicle_type_id":"4","last_reported":1730671745,"current_range_meters":38800,"station_id":"ce4bhf92rcd13ifvqf40","pricing_plan_id":"cebpf4jnsgd1na2vs0mg"},{"bike_id":"9d4fef8a-b9eb-4375-a8e9-7f26c81a4ac1","system_id":"levelo_inurba_marseille","lat":43.30636,"lon":5.40084,"is_reserved":false,"is_disabled":false,"rental_uris":{"android":"levelo://app?vid=9d4fef8a-b9eb-4375-a8e9-7f26c81a4ac1","ios":"levelo://app?vid=9d4fef8a-b9eb-4375-a8e9-7f26c81a4ac1"},"vehicle_type_id":"4","last_reported":1730671745,"current_range_meters":37600,"station_id":"ce4bh112rcd13ifvqda0","pricing_plan_id":"cebpf4jnsgd1na2vs0mg"},{"bike_id":"55058f14-9ca9-431e-be66-1c549b35234d","system_id":"levelo_inurba_marseille","lat":43.29257,"lon":5.409,"is_reserved":false,"is_disabled":false,"rental_uris":{"android":"levelo://app?vid=55058f14-9ca9-431e-be66-1c549b35234d","ios":"levelo://app?vid=55058f14-9ca9-431e-be66-1c549b35234d"},"vehicle_type_id":"4","last_reported":1730671745,"current_range_meters":38800,"station_id":"ce4bh192rcd13ifvqdc0","pricing_plan_id":"cebpf4jnsgd1na2vs0mg"},{"bike_id":"8a6622b3-8d8a-4745-9a4e-f0dd34eaf266","system_id":"levelo_inurba_marseille","lat":43.27992,"lon":5.40005,"is_reserved":false,"is_disabled":false,"rental_uris":{"android":"levelo://app?vid=8a6622b3-8d8a-4745-9a4e-f0dd34eaf266","ios":"levelo://app?vid=8a6622b3-8d8a-4745-9a4e-f0dd34eaf266"},"vehicle_type_id":"4","last_reported":1730671745,"current_range_meters":38800,"station_id":"ce4bho92rcd13ifvqh4g","pricing_plan_id":"cebpf4jnsgd1na2vs0mg"},{"bike_id":"79f5032c-4427-40bb-bbad-7f35acb21ebc","system_id":"levelo_inurba_marseille","lat":43.32292,"lon":5.38269,"is_reserved":false,"is_disabled":false,"rental_uris":{"android":"levelo://app?vid=79f5032c-4427-40bb-bbad-7f35acb21ebc","ios":"levelo://app?vid=79f5032c-4427-40bb-bbad-7f35acb21ebc"},"vehicle_type_id":"4","last_reported":1730671745,"current_range_meters":38800,"station_id":"ce4bhr12rcd13ifvqhqg","pricing_plan_id":"cebpf4jnsgd1na2vs0mg"},{"bike_id":"488a49df-c9c8-4124-a350-5f746b788f43","system_id":"levelo_inurba_marseille","lat":43.27946,"lon":5.41038,"is_reserved":false,"is_disabled":false,"rental_uris":{"android":"levelo://app?vid=488a49df-c9c8-4124-a350-5f746b788f43","ios":"levelo://app?vid=488a49df-c9c8-4124-a350-5f746b788f43"},"vehicle_type_id":"4","last_reported":1730671745,"current_range_meters":24400,"station_id":"ce4bhnp2rcd13ifvqh0g","pricing_plan_id":"cebpf4jnsgd1na2vs0mg"},{"bike_id":"38d0560a-3fe8-4eeb-bac6-2cb7f8e2b987","system_id":"levelo_inurba_marseille","lat":43.30592,"lon":5.37221,"is_reserved":false,"is_disabled":false,"rental_uris":{"android":"levelo://app?vid=38d0560a-3fe8-4eeb-bac6-2cb7f8e2b987","ios":"levelo://app?vid=38d0560a-3fe8-4eeb-bac6-2cb7f8e2b987"},"vehicle_type_id":"4","last_reported":1730671745,"current_range_meters":38000,"station_id":"ce4bgqh2rcd13ifvqc4g","pricing_plan_id":"cebpf4jnsgd1na2vs0mg"},{"bike_id":"a22693e4-0adf-4f9e-bba6-8cb69985560f","system_id":"levelo_inurba_marseille","lat":43.28457,"lon":5.3588,"is_reserved":false,"is_disabled":false,"rental_uris":{"android":"levelo://app?vid=a22693e4-0adf-4f9e-bba6-8cb69985560f","ios":"levelo://app?vid=a22693e4-0adf-4f9e-bba6-8cb69985560f"},"vehicle_type_id":"4","last_reported":1730671745,"current_range_meters":39200,"station_id":"ce4bhah2rcd13ifvqei0","pricing_plan_id":"cebpf4jnsgd1na2vs0mg"},{"bike_id":"55a5ca7c-6af1-429c-9c94-9fa3bccda2bb","system_id":"levelo_inurba_marseille","lat":43.28349,"lon":5.38105,"is_reserved":false,"is_disabled":false,"rental_uris":{"android":"levelo://app?vid=55a5ca7c-6af1-429c-9c94-9fa3bccda2bb","ios":"levelo://app?vid=55a5ca7c-6af1-429c-9c94-9fa3bccda2bb"},"vehicle_type_id":"4","last_reported":1730671745,"current_range_meters":30000,"station_id":"ce4bh412rcd13ifvqdr0","pricing_plan_id":"cebpf4jnsgd1na2vs0mg"},{"bike_id":"7a8975a1-c523-47ba-83a1-459b86ea01d9","system_id":"levelo_inurba_marseille","lat":43.29198,"lon":5.39323,"is_reserved":false,"is_disabled":false,"rental_uris":{"android":"levelo://app?vid=7a8975a1-c523-47ba-83a1-459b86ea01d9","ios":"levelo://app?vid=7a8975a1-c523-47ba-83a1-459b86ea01d9"},"vehicle_type_id":"4","last_reported":1730671745,"current_range_meters":16400,"station_id":"ce4bh192rcd13ifvqdd0","pricing_plan_id":"cebpf4jnsgd1na2vs0mg"},{"bike_id":"45c7a3c0-af85-4364-867b-3d9ff6d0ca07","system_id":"levelo_inurba_marseille","lat":43.28076,"lon":5.39664,"is_reserved":false,"is_disabled":false,"rental_uris":{"android":"levelo://app?vid=45c7a3c0-af85-4364-867b-3d9ff6d0ca07","ios":"levelo://app?vid=45c7a3c0-af85-4364-867b-3d9ff6d0ca07"},"vehicle_type_id":"4","last_reported":1730671745,"current_range_meters":22800,"station_id":"ce4bho12rcd13ifvqh2g","pricing_plan_id":"cebpf4jnsgd1na2vs0mg"},{"bike_id":"737e9747-c831-402d-a747-149225195082","system_id":"levelo_inurba_marseille","lat":43.31327,"lon":5.39696,"is_reserved":false,"is_disabled":false,"rental_uris":{"android":"levelo://app?vid=737e9747-c831-402d-a747-149225195082","ios":"levelo://app?vid=737e9747-c831-402d-a747-149225195082"},"vehicle_type_id":"4","last_reported":1730671745,"current_range_meters":30000,"station_id":"ce4bgvp2rcd13ifvqcu0","pricing_plan_id":"cebpf4jnsgd1na2vs0mg"},{"bike_id":"9f291bd9-d215-48e7-b0f9-b9b731b7acd8","system_id":"levelo_inurba_marseille","lat":43.25114,"lon":5.40319,"is_reserved":false,"is_disabled":false,"rental_uris":{"android":"levelo://app?vid=9f291bd9-d215-48e7-b0f9-b9b731b7acd8","ios":"levelo://app?vid=9f291bd9-d215-48e7-b0f9-b9b731b7acd8"},"vehicle_type_id":"4","last_reported":1730671745,"current_range_meters":35600,"station_id":"ce4bhlh2rcd13ifvqgig","pricing_plan_id":"cebpf4jnsgd1na2vs0mg"},{"bike_id":"d5324ca5-5a3a-4892-bb8c-7dbf331e6ea6","system_id":"levelo_inurba_marseille","lat":43.32492,"lon":5.36558,"is_reserved":false,"is_disabled":false,"rental_uris":{"android":"levelo://app?vid=d5324ca5-5a3a-4892-bb8c-7dbf331e6ea6","ios":"levelo://app?vid=d5324ca5-5a3a-4892-bb8c-7dbf331e6ea6"},"vehicle_type_id":"4","last_reported":1730671745,"current_range_meters":38800,"station_id":"ce4bhs12rcd13ifvqhvg","pricing_plan_id":"cebpf4jnsgd1na2vs0mg"},{"bike_id":"5cc1b89a-20d6-49a0-91d5-f05de96f3f6e","system_id":"levelo_inurba_marseille","lat":43.23197,"lon":5.39969,"is_reserved":false,"is_disabled":false,"rental_uris":{"android":"levelo://app?vid=5cc1b89a-20d6-49a0-91d5-f05de96f3f6e","ios":"levelo://app?vid=5cc1b89a-20d6-49a0-91d5-f05de96f3f6e"},"vehicle_type_id":"4","last_reported":1730671745,"current_range_meters":32000,"station_id":"ce4bhn12rcd13ifvqgqg","pricing_plan_id":"cebpf4jnsgd1na2vs0mg"},{"bike_id":"67eb986a-2443-4b00-bfd5-cb3a7ef594a8","system_id":"levelo_inurba_marseille","lat":43.290207,"lon":5.399365,"is_reserved":false,"is_disabled":false,"rental_uris":{"android":"levelo://app?vid=67eb986a-2443-4b00-bfd5-cb3a7ef594a8","ios":"levelo://app?vid=67eb986a-2443-4b00-bfd5-cb3a7ef594a8"},"vehicle_type_id":"4","last_reported":1730671745,"current_range_meters":38400,"station_id":"ce4bh392rcd13ifvqdm0","pricing_plan_id":"cebpf4jnsgd1na2vs0mg"},{"bike_id":"7b8934ab-1a6b-4c2d-b5fa-40771c000556","system_id":"levelo_inurba_marseille","lat":43.270726,"lon":5.422836,"is_reserved":false,"is_disabled":false,"rental_uris":{"android":"levelo://app?vid=7b8934ab-1a6b-4c2d-b5fa-40771c000556","ios":"levelo://app?vid=7b8934ab-1a6b-4c2d-b5fa-40771c000556"},"vehicle_type_id":"4","last_reported":1730671745,"current_range_meters":20400,"station_id":"ce4bhk92rcd13ifvqgb0","pricing_plan_id":"cebpf4jnsgd1na2vs0mg"},{"bike_id":"cb8cbe74-bf02-4189-810a-cbe7a5df91d3","system_id":"levelo_inurba_marseille","lat":43.28363,"lon":5.38627,"is_reserved":false,"is_disabled":false,"rental_uris":{"android":"levelo://app?vid=cb8cbe74-bf02-4189-810a-cbe7a5df91d3","ios":"levelo://app?vid=cb8cbe74-bf02-4189-810a-cbe7a5df91d3"},"vehicle_type_id":"4","last_reported":1730671745,"current_range_meters":3600,"station_id":"ce4bh492rcd13ifvqdvg","pricing_plan_id":"cebpf4jnsgd1na2vs0mg"},{"bike_id":"832b60bc-0d06-41a3-b29c-3ff7d0f476e1","system_id":"levelo_inurba_marseille","lat":43.23195,"lon":5.35553,"is_reserved":false,"is_disabled":false,"rental_uris":{"android":"levelo://app?vid=832b60bc-0d06-41a3-b29c-3ff7d0f476e1","ios":"levelo://app?vid=832b60bc-0d06-41a3-b29c-3ff7d0f476e1"},"vehicle_type_id":"4","last_reported":1730671745,"current_range_meters":38400,"station_id":"ce4bhu92rcd13ifvqi70","pricing_plan_id":"cebpf4jnsgd1na2vs0mg"},{"bike_id":"f9fb44a8-1b67-4c9c-ab5a-c47ed3b4d290","system_id":"levelo_inurba_marseille","lat":43.28702,"lon":5.39979,"is_reserved":false,"is_disabled":false,"rental_uris":{"android":"levelo://app?vid=f9fb44a8-1b67-4c9c-ab5a-c47ed3b4d290","ios":"levelo://app?vid=f9fb44a8-1b67-4c9c-ab5a-c47ed3b4d290"},"vehicle_type_id":"4","last_reported":1730671745,"current_range_meters":37600,"station_id":"ce4bho92rcd13ifvqh3g","pricing_plan_id":"cebpf4jnsgd1na2vs0mg"},{"bike_id":"7580d83e-3d7c-46be-82b1-25f013a114af","system_id":"levelo_inurba_marseille","lat":43.31075,"lon":5.40101,"is_reserved":false,"is_disabled":false,"rental_uris":{"android":"levelo://app?vid=7580d83e-3d7c-46be-82b1-25f013a114af","ios":"levelo://app?vid=7580d83e-3d7c-46be-82b1-25f013a114af"},"vehicle_type_id":"4","last_reported":1730671745,"current_range_meters":22800,"station_id":"","pricing_plan_id":"cebpf4jnsgd1na2vs0mg"},{"bike_id":"95176e65-2057-4dd1-bdba-201dc08b6b3e","system_id":"levelo_inurba_marseille","lat":43.26804,"lon":5.40265,"is_reserved":false,"is_disabled":false,"rental_uris":{"android":"levelo://app?vid=95176e65-2057-4dd1-bdba-201dc08b6b3e","ios":"levelo://app?vid=95176e65-2057-4dd1-bdba-201dc08b6b3e"},"vehicle_type_id":"4","last_reported":1730671745,"current_range_meters":37600,"station_id":"ce501612rcd8frsf0b60","pricing_plan_id":"cebpf4jnsgd1na2vs0mg"},{"bike_id":"c36500d8-3c1b-40b4-b412-de69c457b9cb","system_id":"levelo_inurba_marseille","lat":43.28098,"lon":5.41026,"is_reserved":false,"is_disabled":false,"rental_uris":{"android":"levelo://app?vid=c36500d8-3c1b-40b4-b412-de69c457b9cb","ios":"levelo://app?vid=c36500d8-3c1b-40b4-b412-de69c457b9cb"},"vehicle_type_id":"4","last_reported":1730671745,"current_range_meters":8400,"station_id":"","pricing_plan_id":"cebpf4jnsgd1na2vs0mg"},{"bike_id":"95296791-a591-4ff0-afa8-95caf4a09725","system_id":"levelo_inurba_marseille","lat":43.30948,"lon":5.39051,"is_reserved":false,"is_disabled":false,"rental_uris":{"android":"levelo://app?vid=95296791-a591-4ff0-afa8-95caf4a09725","ios":"levelo://app?vid=95296791-a591-4ff0-afa8-95caf4a09725"},"vehicle_type_id":"4","last_reported":1730671745,"current_range_meters":39200,"station_id":"ce4bgup2rcd13ifvqco0","pricing_plan_id":"cebpf4jnsgd1na2vs0mg"},{"bike_id":"6e1fbd51-13a4-4793-a06b-fac9c5d733fb","system_id":"levelo_inurba_marseille","lat":43.27944,"lon":5.41053,"is_reserved":false,"is_disabled":false,"rental_uris":{"android":"levelo://app?vid=6e1fbd51-13a4-4793-a06b-fac9c5d733fb","ios":"levelo://app?vid=6e1fbd51-13a4-4793-a06b-fac9c5d733fb"},"vehicle_type_id":"4","last_reported":1730671745,"current_range_meters":38800,"station_id":"ce4bhnp2rcd13ifvqh0g","pricing_plan_id":"cebpf4jnsgd1na2vs0mg"},{"bike_id":"28259b1f-656a-4ffb-88be-b4129f4b0771","system_id":"levelo_inurba_marseille","lat":43.30892,"lon":5.37194,"is_reserved":false,"is_disabled":false,"rental_uris":{"android":"levelo://app?vid=28259b1f-656a-4ffb-88be-b4129f4b0771","ios":"levelo://app?vid=28259b1f-656a-4ffb-88be-b4129f4b0771"},"vehicle_type_id":"4","last_reported":1730671745,"current_range_meters":38800,"station_id":"ce4bguh2rcd13ifvqckg","pricing_plan_id":"cebpf4jnsgd1na2vs0mg"},{"bike_id":"24f1eb47-eb3e-41ef-a7ab-52d326ab4d91","system_id":"levelo_inurba_marseille","lat":43.31084,"lon":5.42436,"is_reserved":false,"is_disabled":false,"rental_uris":{"android":"levelo://app?vid=24f1eb47-eb3e-41ef-a7ab-52d326ab4d91","ios":"levelo://app?vid=24f1eb47-eb3e-41ef-a7ab-52d326ab4d91"},"vehicle_type_id":"4","last_reported":1730671745,"current_range_meters":24000,"station_id":"ce4bhp92rcd13ifvqhag","pricing_plan_id":"cebpf4jnsgd1na2vs0mg"},{"bike_id":"2f198e17-c1d9-44a9-a2a2-6c2ed86edf11","system_id":"levelo_inurba_marseille","lat":43.25115,"lon":5.40316,"is_reserved":false,"is_disabled":false,"rental_uris":{"android":"levelo://app?vid=2f198e17-c1d9-44a9-a2a2-6c2ed86edf11","ios":"levelo://app?vid=2f198e17-c1d9-44a9-a2a2-6c2ed86edf11"},"vehicle_type_id":"4","last_reported":1730671745,"current_range_meters":4800,"station_id":"ce4bhlh2rcd13ifvqgig","pricing_plan_id":"cebpf4jnsgd1na2vs0mg"},{"bike_id":"3a735f4a-9486-422a-b719-6ba035a5a00f","system_id":"levelo_inurba_marseille","lat":43.27175,"lon":5.4099,"is_reserved":false,"is_disabled":false,"rental_uris":{"android":"levelo://app?vid=3a735f4a-9486-422a-b719-6ba035a5a00f","ios":"levelo://app?vid=3a735f4a-9486-422a-b719-6ba035a5a00f"},"vehicle_type_id":"4","last_reported":1730671745,"current_range_meters":8800,"station_id":"ce4bhl12rcd13ifvqgf0","pricing_plan_id":"cebpf4jnsgd1na2vs0mg"},{"bike_id":"c076fd1a-7c4f-40f3-9e0f-eb299ba402af","system_id":"levelo_inurba_marseille","lat":43.31329,"lon":5.39694,"is_reserved":false,"is_disabled":false,"rental_uris":{"android":"levelo://app?vid=c076fd1a-7c4f-40f3-9e0f-eb299ba402af","ios":"levelo://app?vid=c076fd1a-7c4f-40f3-9e0f-eb299ba402af"},"vehicle_type_id":"4","last_reported":1730671745,"current_range_meters":18800,"station_id":"ce4bgvp2rcd13ifvqcu0","pricing_plan_id":"cebpf4jnsgd1na2vs0mg"},{"bike_id":"580c00db-6f10-43b4-adc7-c7bc72e50856","system_id":"levelo_inurba_marseille","lat":43.30325,"lon":5.40443,"is_reserved":false,"is_disabled":false,"rental_uris":{"android":"levelo://app?vid=580c00db-6f10-43b4-adc7-c7bc72e50856","ios":"levelo://app?vid=580c00db-6f10-43b4-adc7-c7bc72e50856"},"vehicle_type_id":"4","last_reported":1730671745,"current_range_meters":38800,"station_id":"ce4bh012rcd13ifvqd10","pricing_plan_id":"cebpf4jnsgd1na2vs0mg"},{"bike_id":"07e3742d-2161-4edf-9c5a-456e12ab7829","system_id":"levelo_inurba_marseille","lat":43.31126,"lon":5.37758,"is_reserved":false,"is_disabled":false,"rental_uris":{"android":"levelo://app?vid=07e3742d-2161-4edf-9c5a-456e12ab7829","ios":"levelo://app?vid=07e3742d-2161-4edf-9c5a-456e12ab7829"},"vehicle_type_id":"4","last_reported":1730671745,"current_range_meters":7200,"station_id":"ce4bgt92rcd13ifvqcg0","pricing_plan_id":"cebpf4jnsgd1na2vs0mg"},{"bike_id":"b2e6e4e5-7aca-47b0-be55-21652fd207f2","system_id":"levelo_inurba_marseille","lat":43.25713,"lon":5.41103,"is_reserved":false,"is_disabled":false,"rental_uris":{"android":"levelo://app?vid=b2e6e4e5-7aca-47b0-be55-21652fd207f2","ios":"levelo://app?vid=b2e6e4e5-7aca-47b0-be55-21652fd207f2"},"vehicle_type_id":"4","last_reported":1730671745,"current_range_meters":29600,"station_id":"ce4bhkp2rcd13ifvqgd0","pricing_plan_id":"cebpf4jnsgd1na2vs0mg"},{"bike_id":"5198d27c-a112-4e5e-adc0-f87f04562149","system_id":"levelo_inurba_marseille","lat":43.29039,"lon":5.39964,"is_reserved":false,"is_disabled":false,"rental_uris":{"android":"levelo://app?vid=5198d27c-a112-4e5e-adc0-f87f04562149","ios":"levelo://app?vid=5198d27c-a112-4e5e-adc0-f87f04562149"},"vehicle_type_id":"4","last_reported":1730671745,"current_range_meters":24000,"station_id":"ce4bh392rcd13ifvqdm0","pricing_plan_id":"cebpf4jnsgd1na2vs0mg"},{"bike_id":"21b6a47e-9737-4680-920e-981a44ffa120","system_id":"levelo_inurba_marseille","lat":43.30417,"lon":5.39755,"is_reserved":false,"is_disabled":false,"rental_uris":{"android":"levelo://app?vid=21b6a47e-9737-4680-920e-981a44ffa120","ios":"levelo://app?vid=21b6a47e-9737-4680-920e-981a44ffa120"},"vehicle_type_id":"4","last_reported":1730671745,"current_range_meters":33600,"station_id":"ce4bh092rcd13ifvqd20","pricing_plan_id":"cebpf4jnsgd1na2vs0mg"},{"bike_id":"d74200e6-8722-4834-ae0b-188969c02116","system_id":"levelo_inurba_marseille","lat":43.30427,"lon":5.38883,"is_reserved":false,"is_disabled":false,"rental_uris":{"android":"levelo://app?vid=d74200e6-8722-4834-ae0b-188969c02116","ios":"levelo://app?vid=d74200e6-8722-4834-ae0b-188969c02116"},"vehicle_type_id":"4","last_reported":1730671745,"current_range_meters":38800,"station_id":"ce4bgk12rcd13ifvqbi0","pricing_plan_id":"cebpf4jnsgd1na2vs0mg"},{"bike_id":"2d920c92-c11d-45a1-a4dc-ebe0cf8cfa59","system_id":"levelo_inurba_marseille","lat":43.284119,"lon":5.375078,"is_reserved":false,"is_disabled":false,"rental_uris":{"android":"levelo://app?vid=2d920c92-c11d-45a1-a4dc-ebe0cf8cfa59","ios":"levelo://app?vid=2d920c92-c11d-45a1-a4dc-ebe0cf8cfa59"},"vehicle_type_id":"4","last_reported":1730671745,"current_range_meters":31200,"station_id":"ce4bh412rcd13ifvqds0","pricing_plan_id":"cebpf4jnsgd1na2vs0mg"},{"bike_id":"d49eab38-7ea8-46ec-9331-cc74e18ed3bd","system_id":"levelo_inurba_marseille","lat":43.24668,"lon":5.3816,"is_reserved":false,"is_disabled":false,"rental_uris":{"android":"levelo://app?vid=d49eab38-7ea8-46ec-9331-cc74e18ed3bd","ios":"levelo://app?vid=d49eab38-7ea8-46ec-9331-cc74e18ed3bd"},"vehicle_type_id":"4","last_reported":1730671745,"current_range_meters":38800,"station_id":"ce4bhih2rcd13ifvqfr0","pricing_plan_id":"cebpf4jnsgd1na2vs0mg"},{"bike_id":"fcdd5933-89bc-4fad-bfde-3a40e0572351","system_id":"levelo_inurba_marseille","lat":43.3032,"lon":5.40446,"is_reserved":false,"is_disabled":false,"rental_uris":{"android":"levelo://app?vid=fcdd5933-89bc-4fad-bfde-3a40e0572351","ios":"levelo://app?vid=fcdd5933-89bc-4fad-bfde-3a40e0572351"},"vehicle_type_id":"4","last_reported":1730671745,"current_range_meters":38000,"station_id":"ce4bh012rcd13ifvqd10","pricing_plan_id":"cebpf4jnsgd1na2vs0mg"},{"bike_id":"379405aa-f2fe-4f9b-86d8-0b5b3856508a","system_id":"levelo_inurba_marseille","lat":43.30091,"lon":5.39084,"is_reserved":false,"is_disabled":false,"rental_uris":{"android":"levelo://app?vid=379405aa-f2fe-4f9b-86d8-0b5b3856508a","ios":"levelo://app?vid=379405aa-f2fe-4f9b-86d8-0b5b3856508a"},"vehicle_type_id":"4","last_reported":1730671745,"current_range_meters":38000,"station_id":"ce4bh192rcd13ifvqdb0","pricing_plan_id":"cebpf4jnsgd1na2vs0mg"},{"bike_id":"404adbec-82e0-4fea-88d0-40aca2322bfb","system_id":"levelo_inurba_marseille","lat":43.29553,"lon":5.42292,"is_reserved":false,"is_disabled":false,"rental_uris":{"android":"levelo://app?vid=404adbec-82e0-4fea-88d0-40aca2322bfb","ios":"levelo://app?vid=404adbec-82e0-4fea-88d0-40aca2322bfb"},"vehicle_type_id":"4","last_reported":1730671745,"current_range_meters":35200,"station_id":"ce4bhph2rcd13ifvqhdg","pricing_plan_id":"cebpf4jnsgd1na2vs0mg"},{"bike_id":"fa649200-6745-4ffb-8508-e8297bb2a9dd","system_id":"levelo_inurba_marseille","lat":43.28932,"lon":5.36629,"is_reserved":false,"is_disabled":false,"rental_uris":{"android":"levelo://app?vid=fa649200-6745-4ffb-8508-e8297bb2a9dd","ios":"levelo://app?vid=fa649200-6745-4ffb-8508-e8297bb2a9dd"},"vehicle_type_id":"4","last_reported":1730671745,"current_range_meters":17200,"station_id":"ce4bhap2rcd13ifvqek0","pricing_plan_id":"cebpf4jnsgd1na2vs0mg"},{"bike_id":"643f0b74-3410-4b14-8f20-b5835e9acabc","system_id":"levelo_inurba_marseille","lat":43.28028,"lon":5.36948,"is_reserved":false,"is_disabled":false,"rental_uris":{"android":"levelo://app?vid=643f0b74-3410-4b14-8f20-b5835e9acabc","ios":"levelo://app?vid=643f0b74-3410-4b14-8f20-b5835e9acabc"},"vehicle_type_id":"4","last_reported":1730671745,"current_range_meters":38800,"station_id":"ce4bha12rcd13ifvqef0","pricing_plan_id":"cebpf4jnsgd1na2vs0mg"},{"bike_id":"92076b3b-01fa-412f-b9fe-8f2ce833c281","system_id":"levelo_inurba_marseille","lat":43.29162,"lon":5.39275,"is_reserved":false,"is_disabled":false,"rental_uris":{"android":"levelo://app?vid=92076b3b-01fa-412f-b9fe-8f2ce833c281","ios":"levelo://app?vid=92076b3b-01fa-412f-b9fe-8f2ce833c281"},"vehicle_type_id":"4","last_reported":1730671745,"current_range_meters":14800,"station_id":"ce4bh192rcd13ifvqdd0","pricing_plan_id":"cebpf4jnsgd1na2vs0mg"},{"bike_id":"f27cce01-0565-4e26-a6f2-ebdbee094f5e","system_id":"levelo_inurba_marseille","lat":43.29413,"lon":5.38629,"is_reserved":false,"is_disabled":false,"rental_uris":{"android":"levelo://app?vid=f27cce01-0565-4e26-a6f2-ebdbee094f5e","ios":"levelo://app?vid=f27cce01-0565-4e26-a6f2-ebdbee094f5e"},"vehicle_type_id":"4","last_reported":1730671745,"current_range_meters":38800,"station_id":"ce4bh2h2rcd13ifvqdh0","pricing_plan_id":"cebpf4jnsgd1na2vs0mg"},{"bike_id":"b6c9e670-f3a4-44e1-9439-288521edc05e","system_id":"levelo_inurba_marseille","lat":43.26559,"lon":5.37285,"is_reserved":false,"is_disabled":false,"rental_uris":{"android":"levelo://app?vid=b6c9e670-f3a4-44e1-9439-288521edc05e","ios":"levelo://app?vid=b6c9e670-f3a4-44e1-9439-288521edc05e"},"vehicle_type_id":"4","last_reported":1730671745,"current_range_meters":14800,"station_id":"ce4bhg12rcd13ifvqf70","pricing_plan_id":"cebpf4jnsgd1na2vs0mg"},{"bike_id":"3060e12c-0318-48df-8b3d-466aa19dbff5","system_id":"levelo_inurba_marseille","lat":43.30328,"lon":5.40439,"is_reserved":false,"is_disabled":false,"rental_uris":{"android":"levelo://app?vid=3060e12c-0318-48df-8b3d-466aa19dbff5","ios":"levelo://app?vid=3060e12c-0318-48df-8b3d-466aa19dbff5"},"vehicle_type_id":"4","last_reported":1730671745,"current_range_meters":27200,"station_id":"ce4bh012rcd13ifvqd10","pricing_plan_id":"cebpf4jnsgd1na2vs0mg"},{"bike_id":"571da7e4-b5d4-4b07-b67c-7f557ad7bb12","system_id":"levelo_inurba_marseille","lat":43.28035,"lon":5.36939,"is_reserved":false,"is_disabled":false,"rental_uris":{"android":"levelo://app?vid=571da7e4-b5d4-4b07-b67c-7f557ad7bb12","ios":"levelo://app?vid=571da7e4-b5d4-4b07-b67c-7f557ad7bb12"},"vehicle_type_id":"4","last_reported":1730671745,"current_range_meters":38800,"station_id":"ce4bha12rcd13ifvqef0","pricing_plan_id":"cebpf4jnsgd1na2vs0mg"},{"bike_id":"e54a9e25-ac9f-47a2-b6ce-8e7088772790","system_id":"levelo_inurba_marseille","lat":43.33019,"lon":5.39037,"is_reserved":false,"is_disabled":false,"rental_uris":{"android":"levelo://app?vid=e54a9e25-ac9f-47a2-b6ce-8e7088772790","ios":"levelo://app?vid=e54a9e25-ac9f-47a2-b6ce-8e7088772790"},"vehicle_type_id":"4","last_reported":1730671745,"current_range_meters":14800,"station_id":"ce4bhr92rcd13ifvqhrg","pricing_plan_id":"cebpf4jnsgd1na2vs0mg"},{"bike_id":"1974fd74-3dba-4353-901e-87c28577af74","system_id":"levelo_inurba_marseille","lat":43.29909,"lon":5.37473,"is_reserved":false,"is_disabled":false,"rental_uris":{"android":"levelo://app?vid=1974fd74-3dba-4353-901e-87c28577af74","ios":"levelo://app?vid=1974fd74-3dba-4353-901e-87c28577af74"},"vehicle_type_id":"4","last_reported":1730671745,"current_range_meters":37600,"station_id":"ce4bgjh2rcd13ifvqbg0","pricing_plan_id":"cebpf4jnsgd1na2vs0mg"},{"bike_id":"329d0a9a-38c3-4530-98be-d74ad035c8be","system_id":"levelo_inurba_marseille","lat":43.240807,"lon":5.377567,"is_reserved":false,"is_disabled":false,"rental_uris":{"android":"levelo://app?vid=329d0a9a-38c3-4530-98be-d74ad035c8be","ios":"levelo://app?vid=329d0a9a-38c3-4530-98be-d74ad035c8be"},"vehicle_type_id":"4","last_reported":1730671745,"current_range_meters":14400,"station_id":"ce4bhnp2rcd13ifvqgvg","pricing_plan_id":"cebpf4jnsgd1na2vs0mg"},{"bike_id":"2ebb78a4-8ee6-422a-9991-ae656bc17c18","system_id":"levelo_inurba_marseille","lat":43.25719,"lon":5.41115,"is_reserved":false,"is_disabled":false,"rental_uris":{"android":"levelo://app?vid=2ebb78a4-8ee6-422a-9991-ae656bc17c18","ios":"levelo://app?vid=2ebb78a4-8ee6-422a-9991-ae656bc17c18"},"vehicle_type_id":"4","last_reported":1730671745,"current_range_meters":2800,"station_id":"ce4bhkp2rcd13ifvqgd0","pricing_plan_id":"cebpf4jnsgd1na2vs0mg"},{"bike_id":"995bbdf8-52c0-4121-b0a8-c6f5c3060245","system_id":"levelo_inurba_marseille","lat":43.25865,"lon":5.39914,"is_reserved":false,"is_disabled":false,"rental_uris":{"android":"levelo://app?vid=995bbdf8-52c0-4121-b0a8-c6f5c3060245","ios":"levelo://app?vid=995bbdf8-52c0-4121-b0a8-c6f5c3060245"},"vehicle_type_id":"4","last_reported":1730671745,"current_range_meters":20800,"station_id":"ce4bhl92rcd13ifvqghg","pricing_plan_id":"cebpf4jnsgd1na2vs0mg"},{"bike_id":"3f021583-0e65-40bc-8201-d19e27615a6e","system_id":"levelo_inurba_marseille","lat":43.30246,"lon":5.40063,"is_reserved":false,"is_disabled":false,"rental_uris":{"android":"levelo://app?vid=3f021583-0e65-40bc-8201-d19e27615a6e","ios":"levelo://app?vid=3f021583-0e65-40bc-8201-d19e27615a6e"},"vehicle_type_id":"4","last_reported":1730671745,"current_range_meters":17600,"station_id":"ce4bgvh2rcd13ifvqcs0","pricing_plan_id":"cebpf4jnsgd1na2vs0mg"},{"bike_id":"2fbd6a30-32e8-46a3-aeec-07004af69821","system_id":"levelo_inurba_marseille","lat":43.32337,"lon":5.40614,"is_reserved":false,"is_disabled":false,"rental_uris":{"android":"levelo://app?vid=2fbd6a30-32e8-46a3-aeec-07004af69821","ios":"levelo://app?vid=2fbd6a30-32e8-46a3-aeec-07004af69821"},"vehicle_type_id":"4","last_reported":1730671745,"current_range_meters":24800,"station_id":"ce4bhq92rcd13ifvqhjg","pricing_plan_id":"cebpf4jnsgd1na2vs0mg"},{"bike_id":"a90aaece-4904-4f4d-bfd7-414f05c29807","system_id":"levelo_inurba_marseille","lat":43.30929,"lon":5.40149,"is_reserved":false,"is_disabled":false,"rental_uris":{"android":"levelo://app?vid=a90aaece-4904-4f4d-bfd7-414f05c29807","ios":"levelo://app?vid=a90aaece-4904-4f4d-bfd7-414f05c29807"},"vehicle_type_id":"4","last_reported":1730671745,"current_range_meters":20000,"station_id":"ce4bgvp2rcd13ifvqct0","pricing_plan_id":"cebpf4jnsgd1na2vs0mg"},{"bike_id":"b7025435-eb3f-456a-8fb2-f639e2f34d1f","system_id":"levelo_inurba_marseille","lat":43.23179,"lon":5.39988,"is_reserved":false,"is_disabled":false,"rental_uris":{"android":"levelo://app?vid=b7025435-eb3f-456a-8fb2-f639e2f34d1f","ios":"levelo://app?vid=b7025435-eb3f-456a-8fb2-f639e2f34d1f"},"vehicle_type_id":"4","last_reported":1730671745,"current_range_meters":22800,"station_id":"ce4bhn12rcd13ifvqgqg","pricing_plan_id":"cebpf4jnsgd1na2vs0mg"},{"bike_id":"c45bdead-0b4b-4bc3-ae8d-a3a1eeb7c5ba","system_id":"levelo_inurba_marseille","lat":43.2846,"lon":5.35893,"is_reserved":false,"is_disabled":false,"rental_uris":{"android":"levelo://app?vid=c45bdead-0b4b-4bc3-ae8d-a3a1eeb7c5ba","ios":"levelo://app?vid=c45bdead-0b4b-4bc3-ae8d-a3a1eeb7c5ba"},"vehicle_type_id":"4","last_reported":1730671745,"current_range_meters":38800,"station_id":"ce4bhah2rcd13ifvqei0","pricing_plan_id":"cebpf4jnsgd1na2vs0mg"},{"bike_id":"4c891a83-029b-4718-828e-846535ee78e1","system_id":"levelo_inurba_marseille","lat":43.28662,"lon":5.36356,"is_reserved":false,"is_disabled":false,"rental_uris":{"android":"levelo://app?vid=4c891a83-029b-4718-828e-846535ee78e1","ios":"levelo://app?vid=4c891a83-029b-4718-828e-846535ee78e1"},"vehicle_type_id":"4","last_reported":1730671745,"current_range_meters":38800,"station_id":"ce4bhah2rcd13ifvqej0","pricing_plan_id":"cebpf4jnsgd1na2vs0mg"},{"bike_id":"a3ae4c1b-8ed3-43f0-95b2-9f60ca274476","system_id":"levelo_inurba_marseille","lat":43.308041,"lon":5.381647,"is_reserved":false,"is_disabled":false,"rental_uris":{"android":"levelo://app?vid=a3ae4c1b-8ed3-43f0-95b2-9f60ca274476","ios":"levelo://app?vid=a3ae4c1b-8ed3-43f0-95b2-9f60ca274476"},"vehicle_type_id":"4","last_reported":1730671745,"current_range_meters":36000,"station_id":"ce4bhs12rcd13ifvqhvg","pricing_plan_id":"cebpf4jnsgd1na2vs0mg"},{"bike_id":"ab9173ec-0645-441d-90af-326a5e948990","system_id":"levelo_inurba_marseille","lat":43.2835,"lon":5.38112,"is_reserved":false,"is_disabled":false,"rental_uris":{"android":"levelo://app?vid=ab9173ec-0645-441d-90af-326a5e948990","ios":"levelo://app?vid=ab9173ec-0645-441d-90af-326a5e948990"},"vehicle_type_id":"4","last_reported":1730671745,"current_range_meters":30400,"station_id":"ce4bh412rcd13ifvqdr0","pricing_plan_id":"cebpf4jnsgd1na2vs0mg"},{"bike_id":"0d2305bf-cad7-4f51-a7f4-06f39ed0c63c","system_id":"levelo_inurba_marseille","lat":43.31168,"lon":5.38712,"is_reserved":false,"is_disabled":false,"rental_uris":{"android":"levelo://app?vid=0d2305bf-cad7-4f51-a7f4-06f39ed0c63c","ios":"levelo://app?vid=0d2305bf-cad7-4f51-a7f4-06f39ed0c63c"},"vehicle_type_id":"4","last_reported":1730671745,"current_range_meters":30400,"station_id":"ce4bgv12rcd13ifvqcp0","pricing_plan_id":"cebpf4jnsgd1na2vs0mg"},{"bike_id":"db26f5ad-b2ef-45e2-bcad-4925a1d4e797","system_id":"levelo_inurba_marseille","lat":43.30141,"lon":5.39869,"is_reserved":false,"is_disabled":false,"rental_uris":{"android":"levelo://app?vid=db26f5ad-b2ef-45e2-bcad-4925a1d4e797","ios":"levelo://app?vid=db26f5ad-b2ef-45e2-bcad-4925a1d4e797"},"vehicle_type_id":"4","last_reported":1730671745,"current_range_meters":12000,"station_id":"ce4bh0h2rcd13ifvqd40","pricing_plan_id":"cebpf4jnsgd1na2vs0mg"},{"bike_id":"32192aed-72bc-40ea-855d-a6b85235471b","system_id":"levelo_inurba_marseille","lat":43.30955,"lon":5.39029,"is_reserved":false,"is_disabled":false,"rental_uris":{"android":"levelo://app?vid=32192aed-72bc-40ea-855d-a6b85235471b","ios":"levelo://app?vid=32192aed-72bc-40ea-855d-a6b85235471b"},"vehicle_type_id":"4","last_reported":1730671745,"current_range_meters":38800,"station_id":"ce4bgup2rcd13ifvqco0","pricing_plan_id":"cebpf4jnsgd1na2vs0mg"},{"bike_id":"718d9ab7-5921-49b7-8148-169d6d564cef","system_id":"levelo_inurba_marseille","lat":43.287009,"lon":5.373847,"is_reserved":false,"is_disabled":false,"rental_uris":{"android":"levelo://app?vid=718d9ab7-5921-49b7-8148-169d6d564cef","ios":"levelo://app?vid=718d9ab7-5921-49b7-8148-169d6d564cef"},"vehicle_type_id":"4","last_reported":1730671745,"current_range_meters":38800,"station_id":"ce4bh3p2rcd13ifvqdq0","pricing_plan_id":"cebpf4jnsgd1na2vs0mg"},{"bike_id":"d5154aa7-9f6d-4f09-8dd7-076b92df9944","system_id":"levelo_inurba_marseille","lat":43.30954,"lon":5.39036,"is_reserved":false,"is_disabled":false,"rental_uris":{"android":"levelo://app?vid=d5154aa7-9f6d-4f09-8dd7-076b92df9944","ios":"levelo://app?vid=d5154aa7-9f6d-4f09-8dd7-076b92df9944"},"vehicle_type_id":"4","last_reported":1730671745,"current_range_meters":36800,"station_id":"ce4bgup2rcd13ifvqco0","pricing_plan_id":"cebpf4jnsgd1na2vs0mg"},{"bike_id":"00fec830-acb5-4b09-91f7-c6176b6375eb","system_id":"levelo_inurba_marseille","lat":43.28084,"lon":5.39656,"is_reserved":false,"is_disabled":false,"rental_uris":{"android":"levelo://app?vid=00fec830-acb5-4b09-91f7-c6176b6375eb","ios":"levelo://app?vid=00fec830-acb5-4b09-91f7-c6176b6375eb"},"vehicle_type_id":"4","last_reported":1730671745,"current_range_meters":21600,"station_id":"ce4bho12rcd13ifvqh2g","pricing_plan_id":"cebpf4jnsgd1na2vs0mg"},{"bike_id":"ad6b9979-2833-497c-ae59-5afeb88a87ce","system_id":"levelo_inurba_marseille","lat":43.32357,"lon":5.36755,"is_reserved":false,"is_disabled":false,"rental_uris":{"android":"levelo://app?vid=ad6b9979-2833-497c-ae59-5afeb88a87ce","ios":"levelo://app?vid=ad6b9979-2833-497c-ae59-5afeb88a87ce"},"vehicle_type_id":"4","last_reported":1730671745,"current_range_meters":38800,"station_id":"ce4bhsh2rcd13ifvqi2g","pricing_plan_id":"cebpf4jnsgd1na2vs0mg"},{"bike_id":"4c37402e-d84e-439b-8190-b6fa7aba4890","system_id":"levelo_inurba_marseille","lat":43.305912,"lon":5.393502,"is_reserved":false,"is_disabled":false,"rental_uris":{"android":"levelo://app?vid=4c37402e-d84e-439b-8190-b6fa7aba4890","ios":"levelo://app?vid=4c37402e-d84e-439b-8190-b6fa7aba4890"},"vehicle_type_id":"4","last_reported":1730671745,"current_range_meters":38800,"station_id":"ce4bh0p2rcd13ifvqd80","pricing_plan_id":"cebpf4jnsgd1na2vs0mg"},{"bike_id":"66a019b4-c5f6-4c92-9845-b4f6f6433871","system_id":"levelo_inurba_marseille","lat":43.28697,"lon":5.39986,"is_reserved":false,"is_disabled":false,"rental_uris":{"android":"levelo://app?vid=66a019b4-c5f6-4c92-9845-b4f6f6433871","ios":"levelo://app?vid=66a019b4-c5f6-4c92-9845-b4f6f6433871"},"vehicle_type_id":"4","last_reported":1730671745,"current_range_meters":38400,"station_id":"ce4bho92rcd13ifvqh3g","pricing_plan_id":"cebpf4jnsgd1na2vs0mg"},{"bike_id":"b44939f3-d8c5-4fe0-b15a-afc4e39e9275","system_id":"levelo_inurba_marseille","lat":43.27563,"lon":5.3842,"is_reserved":false,"is_disabled":false,"rental_uris":{"android":"levelo://app?vid=b44939f3-d8c5-4fe0-b15a-afc4e39e9275","ios":"levelo://app?vid=b44939f3-d8c5-4fe0-b15a-afc4e39e9275"},"vehicle_type_id":"4","last_reported":1730671745,"current_range_meters":36800,"station_id":"ce4bhh92rcd13ifvqfi0","pricing_plan_id":"cebpf4jnsgd1na2vs0mg"},{"bike_id":"4b6f215b-07b3-48c8-a69b-dfd8398aaf0c","system_id":"levelo_inurba_marseille","lat":43.28673,"lon":5.3867,"is_reserved":false,"is_disabled":false,"rental_uris":{"android":"levelo://app?vid=4b6f215b-07b3-48c8-a69b-dfd8398aaf0c","ios":"levelo://app?vid=4b6f215b-07b3-48c8-a69b-dfd8398aaf0c"},"vehicle_type_id":"4","last_reported":1730671745,"current_range_meters":37600,"station_id":"ce4bh492rcd13ifvqdug","pricing_plan_id":"cebpf4jnsgd1na2vs0mg"},{"bike_id":"9f897de5-c475-4cd1-ae2f-d0364984f88e","system_id":"levelo_inurba_marseille","lat":43.31325,"lon":5.39687,"is_reserved":false,"is_disabled":false,"rental_uris":{"android":"levelo://app?vid=9f897de5-c475-4cd1-ae2f-d0364984f88e","ios":"levelo://app?vid=9f897de5-c475-4cd1-ae2f-d0364984f88e"},"vehicle_type_id":"4","last_reported":1730671745,"current_range_meters":17600,"station_id":"ce4bgvp2rcd13ifvqcu0","pricing_plan_id":"cebpf4jnsgd1na2vs0mg"},{"bike_id":"428877d8-69fc-463f-973f-8d4d4aadb160","system_id":"levelo_inurba_marseille","lat":43.26551,"lon":5.37286,"is_reserved":false,"is_disabled":false,"rental_uris":{"android":"levelo://app?vid=428877d8-69fc-463f-973f-8d4d4aadb160","ios":"levelo://app?vid=428877d8-69fc-463f-973f-8d4d4aadb160"},"vehicle_type_id":"4","last_reported":1730671745,"current_range_meters":24800,"station_id":"ce4bhg12rcd13ifvqf70","pricing_plan_id":"cebpf4jnsgd1na2vs0mg"},{"bike_id":"bb7e73e5-0d1d-4bd2-95ee-b69908cce557","system_id":"levelo_inurba_marseille","lat":43.28566,"lon":5.39495,"is_reserved":false,"is_disabled":false,"rental_uris":{"android":"levelo://app?vid=bb7e73e5-0d1d-4bd2-95ee-b69908cce557","ios":"levelo://app?vid=bb7e73e5-0d1d-4bd2-95ee-b69908cce557"},"vehicle_type_id":"4","last_reported":1730671745,"current_range_meters":36800,"station_id":"ce4bh292rcd13ifvqdg0","pricing_plan_id":"cebpf4jnsgd1na2vs0mg"},{"bike_id":"d82a0734-6a50-4380-b728-e06844fe66f8","system_id":"levelo_inurba_marseille","lat":43.28368,"lon":5.38635,"is_reserved":false,"is_disabled":false,"rental_uris":{"android":"levelo://app?vid=d82a0734-6a50-4380-b728-e06844fe66f8","ios":"levelo://app?vid=d82a0734-6a50-4380-b728-e06844fe66f8"},"vehicle_type_id":"4","last_reported":1730671745,"current_range_meters":18000,"station_id":"ce4bh492rcd13ifvqdvg","pricing_plan_id":"cebpf4jnsgd1na2vs0mg"},{"bike_id":"5229ac13-cebc-41be-a25c-1aa4b6823fd9","system_id":"levelo_inurba_marseille","lat":43.31083,"lon":5.4243,"is_reserved":false,"is_disabled":false,"rental_uris":{"android":"levelo://app?vid=5229ac13-cebc-41be-a25c-1aa4b6823fd9","ios":"levelo://app?vid=5229ac13-cebc-41be-a25c-1aa4b6823fd9"},"vehicle_type_id":"4","last_reported":1730671745,"current_range_meters":32400,"station_id":"ce4bhp92rcd13ifvqhag","pricing_plan_id":"cebpf4jnsgd1na2vs0mg"},{"bike_id":"22277462-ea58-4946-ba2c-ef08f6cd7659","system_id":"levelo_inurba_marseille","lat":43.2797,"lon":5.4105,"is_reserved":false,"is_disabled":false,"rental_uris":{"android":"levelo://app?vid=22277462-ea58-4946-ba2c-ef08f6cd7659","ios":"levelo://app?vid=22277462-ea58-4946-ba2c-ef08f6cd7659"},"vehicle_type_id":"4","last_reported":1730671745,"current_range_meters":15200,"station_id":"","pricing_plan_id":"cebpf4jnsgd1na2vs0mg"},{"bike_id":"c07332d5-f871-4d7c-9894-5a99fdbe9ec1","system_id":"levelo_inurba_marseille","lat":43.25092,"lon":5.39522,"is_reserved":false,"is_disabled":false,"rental_uris":{"android":"levelo://app?vid=c07332d5-f871-4d7c-9894-5a99fdbe9ec1","ios":"levelo://app?vid=c07332d5-f871-4d7c-9894-5a99fdbe9ec1"},"vehicle_type_id":"4","last_reported":1730671745,"current_range_meters":27600,"station_id":"ce4bhm12rcd13ifvqgkg","pricing_plan_id":"cebpf4jnsgd1na2vs0mg"},{"bike_id":"3d7ab54b-b990-4712-9c45-65077183f11b","system_id":"levelo_inurba_marseille","lat":43.31991,"lon":5.38152,"is_reserved":false,"is_disabled":false,"rental_uris":{"android":"levelo://app?vid=3d7ab54b-b990-4712-9c45-65077183f11b","ios":"levelo://app?vid=3d7ab54b-b990-4712-9c45-65077183f11b"},"vehicle_type_id":"4","last_reported":1730671745,"current_range_meters":38800,"station_id":"ce4bhr12rcd13ifvqhpg","pricing_plan_id":"cebpf4jnsgd1na2vs0mg"},{"bike_id":"e21d598a-9c17-40cc-a015-24b909216836","system_id":"levelo_inurba_marseille","lat":43.2293,"lon":5.35374,"is_reserved":false,"is_disabled":false,"rental_uris":{"android":"levelo://app?vid=e21d598a-9c17-40cc-a015-24b909216836","ios":"levelo://app?vid=e21d598a-9c17-40cc-a015-24b909216836"},"vehicle_type_id":"4","last_reported":1730671745,"current_range_meters":15200,"station_id":"cpo3532slgdg3j2ikp40","pricing_plan_id":"cebpf4jnsgd1na2vs0mg"},{"bike_id":"f42ec8c6-4406-4c62-8b31-c81755021518","system_id":"levelo_inurba_marseille","lat":43.27575,"lon":5.38436,"is_reserved":false,"is_disabled":false,"rental_uris":{"android":"levelo://app?vid=f42ec8c6-4406-4c62-8b31-c81755021518","ios":"levelo://app?vid=f42ec8c6-4406-4c62-8b31-c81755021518"},"vehicle_type_id":"4","last_reported":1730671745,"current_range_meters":29600,"station_id":"ce4bhh92rcd13ifvqfi0","pricing_plan_id":"cebpf4jnsgd1na2vs0mg"},{"bike_id":"307f8e5c-51c3-4161-8dbe-9cd41667dbdb","system_id":"levelo_inurba_marseille","lat":43.287,"lon":5.37379,"is_reserved":false,"is_disabled":false,"rental_uris":{"android":"levelo://app?vid=307f8e5c-51c3-4161-8dbe-9cd41667dbdb","ios":"levelo://app?vid=307f8e5c-51c3-4161-8dbe-9cd41667dbdb"},"vehicle_type_id":"4","last_reported":1730671745,"current_range_meters":30800,"station_id":"ce4bh3p2rcd13ifvqdq0","pricing_plan_id":"cebpf4jnsgd1na2vs0mg"},{"bike_id":"3577ba93-f937-41b5-9c02-695a9a7cc4d5","system_id":"levelo_inurba_marseille","lat":43.29446,"lon":5.39739,"is_reserved":false,"is_disabled":false,"rental_uris":{"android":"levelo://app?vid=3577ba93-f937-41b5-9c02-695a9a7cc4d5","ios":"levelo://app?vid=3577ba93-f937-41b5-9c02-695a9a7cc4d5"},"vehicle_type_id":"4","last_reported":1730671745,"current_range_meters":36800,"station_id":"ce4bh3h2rcd13ifvqdo0","pricing_plan_id":"cebpf4jnsgd1na2vs0mg"},{"bike_id":"adf06377-165c-4fc2-94be-7da5ca126dc2","system_id":"levelo_inurba_marseille","lat":43.30634,"lon":5.40094,"is_reserved":false,"is_disabled":false,"rental_uris":{"android":"levelo://app?vid=adf06377-165c-4fc2-94be-7da5ca126dc2","ios":"levelo://app?vid=adf06377-165c-4fc2-94be-7da5ca126dc2"},"vehicle_type_id":"4","last_reported":1730671745,"current_range_meters":38800,"station_id":"ce4bh112rcd13ifvqda0","pricing_plan_id":"cebpf4jnsgd1na2vs0mg"},