{"last_updated":1721405352,"ttl":30,"version":"2.2","data":{"bikes":[{"bike_id":"d1d81e54-fed9-443c-944a-6820c8a62e66","system_id":"levelo_inurba_marseille","lat":43.31251,"lon":5.36793,"is_reserved":false,"is_disabled":false,"rental_uris":{"android":"levelo://app?vid=d1d81e54-fed9-443c-944a-6820c8a62e66","ios":"levelo://app?vid=d1d81e54-fed9-443c-944a-6820c8a62e66"},"vehicle_type_id":"4","last_reported":1721405352,"current_range_meters":4400,"station_id":"","pricing_plan_id":"cebpf4jnsgd1na2vs0mg"},{"bike_id":"7df8dd4a-c865-4f29-b768-21740d0daaaa","system_id":"levelo_inurba_marseille","lat":43.314495,"lon":5.373782,"is_reserved":false,"is_disabled":false,"rental_uris":{"android":"levelo://app?vid=7df8dd4a-c865-4f29-b768-21740d0daaaa","ios":"levelo://app?vid=7df8dd4a-c865-4f29-b768-21740d0daaaa"},"vehicle_type_id":"4","last_reported":1721405352,"current_range_meters":27200,"station_id":"","pricing_plan_id":"cebpf4jnsgd1na2vs0mg"},{"bike_id":"4f843a89-c095-43ad-810f-70f65d0849d5","system_id":"levelo_inurba_marseille","lat":43.31847,"lon":5.36264,"is_reserved":false,"is_disabled":false,"rental_uris":{"android":"levelo://app?vid=4f843a89-c095-43ad-810f-70f65d0849d5","ios":"levelo://app?vid=4f843a89-c095-43ad-810f-70f65d0849d5"},"vehicle_type_id":"4","last_reported":1721405352,"current_range_meters":7600,"station_id":"","pricing_plan_id":"cebpf4jnsgd1na2vs0mg"},{"bike_id":"3e6e4115-4ba2-4ccf-b36c-fa82b2256e99","system_id":"levelo_inurba_marseille","lat":43.30562,"lon":5.36563,"is_reserved":false,"is_disabled":false,"rental_uris":{"android":"levelo://app?vid=3e6e4115-4ba2-4ccf-b36c-fa82b2256e99","ios":"levelo://app?vid=3e6e4115-4ba2-4ccf-b36c-fa82b2256e99"},"vehicle_type_id":"4","last_reported":1721405352,"current_range_meters":0,"station_id":"ce4bgs12rcd13ifvqcag","pricing_plan_id":"cebpf4jnsgd1na2vs0mg"},{"bike_id":"70465c97-b6ce-4cce-97b8-8a7b5d6bd44e","system_id":"levelo_inurba_marseille","lat":43.3053,"lon":5.36652,"is_reserved":false,"is_disabled":false,"rental_uris":{"android":"levelo://app?vid=70465c97-b6ce-4cce-97b8-8a7b5d6bd44e","ios":"levelo://app?vid=70465c97-b6ce-4cce-97b8-8a7b5d6bd44e"},"vehicle_type_id":"4","last_reported":1721405352,"current_range_meters":1200,"station_id":"","pricing_plan_id":"cebpf4jnsgd1na2vs0mg"},{"bike_id":"b1b47c40-80c2-4647-b4f2-e88362349665","system_id":"levelo_inurba_marseille","lat":43.305706,"lon":5.365654,"is_reserved":false,"is_disabled":false,"rental_uris":{"android":"levelo://app?vid=b1b47c40-80c2-4647-b4f2-e88362349665","ios":"levelo://app?vid=b1b47c40-80c2-4647-b4f2-e88362349665"},"vehicle_type_id":"4","last_reported":1721405352,"current_range_meters":0,"station_id":"ce4bgs12rcd13ifvqcag","pricing_plan_id":"cebpf4jnsgd1na2vs0mg"},{"bike_id":"5cdaeef9-afdd-4676-b13b-399462faf228","system_id":"levelo_inurba_marseille","lat":43.305989,"lon":5.37225,"is_reserved":false,"is_disabled":false,"rental_uris":{"android":"levelo://app?vid=5cdaeef9-afdd-4676-b13b-399462faf228","ios":"levelo://app?vid=5cdaeef9-afdd-4676-b13b-399462faf228"},"vehicle_type_id":"4","last_reported":1721405352,"current_range_meters":24400,"station_id":"ce4bgqh2rcd13ifvqc4g","pricing_plan_id":"cebpf4jnsgd1na2vs0mg"},{"bike_id":"5fae362d-70ed-4a3a-8021-49a7737cf1a6","system_id":"levelo_inurba_marseille","lat":43.311125,"lon":5.377624,"is_reserved":false,"is_disabled":false,"rental_uris":{"android":"levelo://app?vid=5fae362d-70ed-4a3a-8021-49a7737cf1a6","ios":"levelo://app?vid=5fae362d-70ed-4a3a-8021-49a7737cf1a6"},"vehicle_type_id":"4","last_reported":1721405352,"current_range_meters":10400,"station_id":"ce4bgt92rcd13ifvqcg0","pricing_plan_id":"cebpf4jnsgd1na2vs0mg"},{"bike_id":"e7a8745c-cb05-4f06-a69b-3135dbd29769","system_id":"levelo_inurba_marseille","lat":43.307945,"lon":5.376487,"is_reserved":false,"is_disabled":false,"rental_uris":{"android":"levelo://app?vid=e7a8745c-cb05-4f06-a69b-3135dbd29769","ios":"levelo://app?vid=e7a8745c-cb05-4f06-a69b-3135dbd29769"},"vehicle_type_id":"4","last_reported":1721405352,"current_range_meters":11200,"station_id":"ce4bgv92rcd13ifvqcq0","pricing_plan_id":"cebpf4jnsgd1na2vs0mg"},{"bike_id":"d8a71245-9cf0-4e32-a69b-088634465c19","system_id":"levelo_inurba_marseille","lat":43.307945,"lon":5.376487,"is_reserved":false,"is_disabled":false,"rental_uris":{"android":"levelo://app?vid=d8a71245-9cf0-4e32-a69b-088634465c19","ios":"levelo://app?vid=d8a71245-9cf0-4e32-a69b-088634465c19"},"vehicle_type_id":"4","last_reported":1721405352,"current_range_meters":4800,"station_id":"ce4bgv92rcd13ifvqcq0","pricing_plan_id":"cebpf4jnsgd1na2vs0mg"},{"bike_id":"a4acf741-c176-4f18-8c6a-1a5f0ad54d82","system_id":"levelo_inurba_marseille","lat":43.307945,"lon":5.376487,"is_reserved":false,"is_disabled":false,"rental_uris":{"android":"levelo://app?vid=a4acf741-c176-4f18-8c6a-1a5f0ad54d82","ios":"levelo://app?vid=a4acf741-c176-4f18-8c6a-1a5f0ad54d82"},"vehicle_type_id":"4","last_reported":1721405352,"current_range_meters":3200,"station_id":"ce4bgv92rcd13ifvqcq0","pricing_plan_id":"cebpf4jnsgd1na2vs0mg"},{"bike_id":"c3cdefc8-0e44-4d03-a5c8-fa0a6d21bb4d","system_id":"levelo_inurba_marseille","lat":43.32192,"lon":5.36862,"is_reserved":false,"is_disabled":false,"rental_uris":{"android":"levelo://app?vid=c3cdefc8-0e44-4d03-a5c8-fa0a6d21bb4d","ios":"levelo://app?vid=c3cdefc8-0e44-4d03-a5c8-fa0a6d21bb4d"},"vehicle_type_id":"4","last_reported":1721405352,"current_range_meters":7200,"station_id":"","pricing_plan_id":"cebpf4jnsgd1na2vs0mg"},{"bike_id":"76a061d0-1df0-43fe-9fb7-49f46b3824e1","system_id":"levelo_inurba_marseille","lat":43.303046,"lon":5.368981,"is_reserved":false,"is_disabled":false,"rental_uris":{"android":"levelo://app?vid=76a061d0-1df0-43fe-9fb7-49f46b3824e1","ios":"levelo://app?vid=76a061d0-1df0-43fe-9fb7-49f46b3824e1"},"vehicle_type_id":"4","last_reported":1721405352,"current_range_meters":0,"station_id":"ce4bgqh2rcd13ifvqc5g","pricing_plan_id":"cebpf4jnsgd1na2vs0mg"},{"bike_id":"ccfd861f-a439-41d0-9495-87df9ba2d9c2","system_id":"levelo_inurba_marseille","lat":43.301939,"lon":5.366286,"is_reserved":false,"is_disabled":false,"rental_uris":{"android":"levelo://app?vid=ccfd861f-a439-41d0-9495-87df9ba2d9c2","ios":"levelo://app?vid=ccfd861f-a439-41d0-9495-87df9ba2d9c2"},"vehicle_type_id":"4","last_reported":1721405352,"current_range_meters":11200,"station_id":"ce4bgrh2rcd13ifvqc8g","pricing_plan_id":"cebpf4jnsgd1na2vs0mg"},{"bike_id":"e971d03e-85dc-49a7-8dc7-8d1da0fb6fb6","system_id":"levelo_inurba_marseille","lat":43.301939,"lon":5.366286,"is_reserved":false,"is_disabled":false,"rental_uris":{"android":"levelo://app?vid=e971d03e-85dc-49a7-8dc7-8d1da0fb6fb6","ios":"levelo://app?vid=e971d03e-85dc-49a7-8dc7-8d1da0fb6fb6"},"vehicle_type_id":"4","last_reported":1721405352,"current_range_meters":30000,"station_id":"ce4bgrh2rcd13ifvqc8g","pricing_plan_id":"cebpf4jnsgd1na2vs0mg"},{"bike_id":"5935fed0-7384-4ae2-8f11-bc7a4e201fed","system_id":"levelo_inurba_marseille","lat":43.30183,"lon":5.36616,"is_reserved":false,"is_disabled":false,"rental_uris":{"android":"levelo://app?vid=5935fed0-7384-4ae2-8f11-bc7a4e201fed","ios":"levelo://app?vid=5935fed0-7384-4ae2-8f11-bc7a4e201fed"},"vehicle_type_id":"4","last_reported":1721405352,"current_range_meters":0,"station_id":"ce4bgrh2rcd13ifvqc8g","pricing_plan_id":"cebpf4jnsgd1na2vs0mg"},{"bike_id":"1d8d01dc-e882-47d5-b892-5057c60a5cf8","system_id":"levelo_inurba_marseille","lat":43.308012,"lon":5.381511,"is_reserved":false,"is_disabled":false,"rental_uris":{"android":"levelo://app?vid=1d8d01dc-e882-47d5-b892-5057c60a5cf8","ios":"levelo://app?vid=1d8d01dc-e882-47d5-b892-5057c60a5cf8"},"vehicle_type_id":"4","last_reported":1721405352,"current_range_meters":3600,"station_id":"ce4bgt12rcd13ifvqce0","pricing_plan_id":"cebpf4jnsgd1na2vs0mg"},{"bike_id":"bb063a93-198b-49a4-a670-2f034639b5d2","system_id":"levelo_inurba_marseille","lat":43.308012,"lon":5.381511,"is_reserved":false,"is_disabled":false,"rental_uris":{"android":"levelo://app?vid=bb063a93-198b-49a4-a670-2f034639b5d2","ios":"levelo://app?vid=bb063a93-198b-49a4-a670-2f034639b5d2"},"vehicle_type_id":"4","last_reported":1721405352,"current_range_meters":4000,"station_id":"ce4bgt12rcd13ifvqce0","pricing_plan_id":"cebpf4jnsgd1na2vs0mg"},{"bike_id":"b40b3dc5-d19b-46bd-8916-80ac89370637","system_id":"levelo_inurba_marseille","lat":43.310804,"lon":5.38359,"is_reserved":false,"is_disabled":false,"rental_uris":{"android":"levelo://app?vid=b40b3dc5-d19b-46bd-8916-80ac89370637","ios":"levelo://app?vid=b40b3dc5-d19b-46bd-8916-80ac89370637"},"vehicle_type_id":"4","last_reported":1721405352,"current_range_meters":0,"station_id":"ce4bgv92rcd13ifvqcr0","pricing_plan_id":"cebpf4jnsgd1na2vs0mg"},{"bike_id":"8acb224e-ff76-4d93-9722-dd3ed3d93a36","system_id":"levelo_inurba_marseille","lat":43.308012,"lon":5.381511,"is_reserved":false,"is_disabled":false,"rental_uris":{"android":"levelo://app?vid=8acb224e-ff76-4d93-9722-dd3ed3d93a36","ios":"levelo://app?vid=8acb224e-ff76-4d93-9722-dd3ed3d93a36"},"vehicle_type_id":"4","last_reported":1721405352,"current_range_meters":18800,"station_id":"ce4bgt12rcd13ifvqce0","pricing_plan_id":"cebpf4jnsgd1na2vs0mg"},{"bike_id":"c58d955b-6437-48c3-a2e3-9259b441ef3f","system_id":"levelo_inurba_marseille","lat":43.301939,"lon":5.366286,"is_reserved":false,"is_disabled":false,"rental_uris":{"android":"levelo://app?vid=c58d955b-6437-48c3-a2e3-9259b441ef3f","ios":"levelo://app?vid=c58d955b-6437-48c3-a2e3-9259b441ef3f"},"vehicle_type_id":"4","last_reported":1721405352,"current_range_meters":0,"station_id":"ce4bgrh2rcd13ifvqc8g","pricing_plan_id":"cebpf4jnsgd1na2vs0mg"},{"bike_id":"5a3fcda9-6106-4131-8ea4-46117a18fa08","system_id":"levelo_inurba_marseille","lat":43.30459,"lon":5.37906,"is_reserved":false,"is_disabled":false,"rental_uris":{"android":"levelo://app?vid=5a3fcda9-6106-4131-8ea4-46117a18fa08","ios":"levelo://app?vid=5a3fcda9-6106-4131-8ea4-46117a18fa08"},"vehicle_type_id":"4","last_reported":1721405352,"current_range_meters":20800,"station_id":"ce4bgup2rcd13ifvqcn0","pricing_plan_id":"cebpf4jnsgd1na2vs0mg"},{"bike_id":"035a4d41-7816-4b2f-a5a7-5dce30f4b5b0","system_id":"levelo_inurba_marseille","lat":43.324771,"lon":5.36557,"is_reserved":false,"is_disabled":false,"rental_uris":{"android":"levelo://app?vid=035a4d41-7816-4b2f-a5a7-5dce30f4b5b0","ios":"levelo://app?vid=035a4d41-7816-4b2f-a5a7-5dce30f4b5b0"},"vehicle_type_id":"4","last_reported":1721405352,"current_range_meters":2800,"station_id":"ce4bhs12rcd13ifvqhvg","pricing_plan_id":"cebpf4jnsgd1na2vs0mg"},{"bike_id":"49c9174c-e04b-4e00-9848-b6d035396dd2","system_id":"levelo_inurba_marseille","lat":43.324771,"lon":5.36557,"is_reserved":false,"is_disabled":false,"rental_uris":{"android":"levelo://app?vid=49c9174c-e04b-4e00-9848-b6d035396dd2","ios":"levelo://app?vid=49c9174c-e04b-4e00-9848-b6d035396dd2"},"vehicle_type_id":"4","last_reported":1721405352,"current_range_meters":22000,"station_id":"ce4bhs12rcd13ifvqhvg","pricing_plan_id":"cebpf4jnsgd1na2vs0mg"},{"bike_id":"7be3282a-b6f6-4e7b-a1b0-43769aad1701","system_id":"levelo_inurba_marseille","lat":43.324771,"lon":5.36557,"is_reserved":false,"is_disabled":false,"rental_uris":{"android":"levelo://app?vid=7be3282a-b6f6-4e7b-a1b0-43769aad1701","ios":"levelo://app?vid=7be3282a-b6f6-4e7b-a1b0-43769aad1701"},"vehicle_type_id":"4","last_reported":1721405352,"current_range_meters":9200,"station_id":"ce4bhs12rcd13ifvqhvg","pricing_plan_id":"cebpf4jnsgd1na2vs0mg"},{"bike_id":"8f962ede-c569-4563-8b57-1cf223c13657","system_id":"levelo_inurba_marseille","lat":43.324771,"lon":5.36557,"is_reserved":false,"is_disabled":false,"rental_uris":{"android":"levelo://app?vid=8f962ede-c569-4563-8b57-1cf223c13657","ios":"levelo://app?vid=8f962ede-c569-4563-8b57-1cf223c13657"},"vehicle_type_id":"4","last_reported":1721405352,"current_range_meters":15200,"station_id":"ce4bhs12rcd13ifvqhvg","pricing_plan_id":"cebpf4jnsgd1na2vs0mg"},{"bike_id":"05d27eb7-236a-4f21-8435-5ac3e652eaa5","system_id":"levelo_inurba_marseille","lat":43.32483,"lon":5.36559,"is_reserved":false,"is_disabled":false,"rental_uris":{"android":"levelo://app?vid=05d27eb7-236a-4f21-8435-5ac3e652eaa5","ios":"levelo://app?vid=05d27eb7-236a-4f21-8435-5ac3e652eaa5"},"vehicle_type_id":"4","last_reported":1721405352,"current_range_meters":8400,"station_id":"ce4bhs12rcd13ifvqhvg","pricing_plan_id":"cebpf4jnsgd1na2vs0mg"},{"bike_id":"90270526-1e56-4c61-a0d9-617fdcd14640","system_id":"levelo_inurba_marseille","lat":43.324771,"lon":5.36557,"is_reserved":false,"is_disabled":false,"rental_uris":{"android":"levelo://app?vid=90270526-1e56-4c61-a0d9-617fdcd14640","ios":"levelo://app?vid=90270526-1e56-4c61-a0d9-617fdcd14640"},"vehicle_type_id":"4","last_reported":1721405352,"current_range_meters":6400,"station_id":"ce4bhs12rcd13ifvqhvg","pricing_plan_id":"cebpf4jnsgd1na2vs0mg"},{"bike_id":"f1fe3f3f-2143-44a1-86fd-cffcf96be0e6","system_id":"levelo_inurba_marseille","lat":43.324771,"lon":5.36557,"is_reserved":false,"is_disabled":false,"rental_uris":{"android":"levelo://app?vid=f1fe3f3f-2143-44a1-86fd-cffcf96be0e6","ios":"levelo://app?vid=f1fe3f3f-2143-44a1-86fd-cffcf96be0e6"},"vehicle_type_id":"4","last_reported":1721405352,"current_range_meters":19600,"station_id":"ce4bhs12rcd13ifvqhvg","pricing_plan_id":"cebpf4jnsgd1na2vs0mg"},{"bike_id":"843acb09-ec00-42a4-8f8a-3a11a4562824","system_id":"levelo_inurba_marseille","lat":43.324771,"lon":5.36557,"is_reserved":false,"is_disabled":false,"rental_uris":{"android":"levelo://app?vid=843acb09-ec00-42a4-8f8a-3a11a4562824","ios":"levelo://app?vid=843acb09-ec00-42a4-8f8a-3a11a4562824"},"vehicle_type_id":"4","last_reported":1721405352,"current_range_meters":31600,"station_id":"ce4bhs12rcd13ifvqhvg","pricing_plan_id":"cebpf4jnsgd1na2vs0mg"},{"bike_id":"2cc0e66a-a2fa-466f-8a05-5990f0e1d535","system_id":"levelo_inurba_marseille","lat":43.324771,"lon":5.36557,"is_reserved":false,"is_disabled":false,"rental_uris":{"android":"levelo://app?vid=2cc0e66a-a2fa-466f-8a05-5990f0e1d535","ios":"levelo://app?vid=2cc0e66a-a2fa-466f-8a05-5990f0e1d535"},"vehicle_type_id":"4","last_reported":1721405352,"current_range_meters":6400,"station_id":"ce4bhs12rcd13ifvqhvg","pricing_plan_id":"cebpf4jnsgd1na2vs0mg"},{"bike_id":"2baca4ef-0d69-4564-91f0-6aa88a9ace5b","system_id":"levelo_inurba_marseille","lat":43.324771,"lon":5.36557,"is_reserved":false,"is_disabled":false,"rental_uris":{"android":"levelo://app?vid=2baca4ef-0d69-4564-91f0-6aa88a9ace5b","ios":"levelo://app?vid=2baca4ef-0d69-4564-91f0-6aa88a9ace5b"},"vehicle_type_id":"4","last_reported":1721405352,"current_range_meters":15600,"station_id":"ce4bhs12rcd13ifvqhvg","pricing_plan_id":"cebpf4jnsgd1na2vs0mg"},{"bike_id":"9014f068-5a11-4fb2-941c-66a8fa7e70df","system_id":"levelo_inurba_marseille","lat":43.310804,"lon":5.38359,"is_reserved":false,"is_disabled":false,"rental_uris":{"android":"levelo://app?vid=9014f068-5a11-4fb2-941c-66a8fa7e70df","ios":"levelo://app?vid=9014f068-5a11-4fb2-941c-66a8fa7e70df"},"vehicle_type_id":"4","last_reported":1721405352,"current_range_meters":14800,"station_id":"ce4bgv92rcd13ifvqcr0","pricing_plan_id":"cebpf4jnsgd1na2vs0mg"},{"bike_id":"fd3c7c98-da07-48a4-a9ba-3fcd2aad3632","system_id":"levelo_inurba_marseille","lat":43.3014,"lon":5.3742,"is_reserved":false,"is_disabled":false,"rental_uris":{"android":"levelo://app?vid=fd3c7c98-da07-48a4-a9ba-3fcd2aad3632","ios":"levelo://app?vid=fd3c7c98-da07-48a4-a9ba-3fcd2aad3632"},"vehicle_type_id":"4","last_reported":1721405352,"current_range_meters":7200,"station_id":"ce4bgs92rcd13ifvqcc0","pricing_plan_id":"cebpf4jnsgd1na2vs0mg"},{"bike_id":"3ce919f2-2df5-4f56-83b9-a2c0725df5a1","system_id":"levelo_inurba_marseille","lat":43.3057,"lon":5.38142,"is_reserved":false,"is_disabled":false,"rental_uris":{"android":"levelo://app?vid=3ce919f2-2df5-4f56-83b9-a2c0725df5a1","ios":"levelo://app?vid=3ce919f2-2df5-4f56-83b9-a2c0725df5a1"},"vehicle_type_id":"4","last_reported":1721405352,"current_range_meters":19200,"station_id":"","pricing_plan_id":"cebpf4jnsgd1na2vs0mg"},{"bike_id":"0c542167-59a1-4de5-9e79-54119b9f5a77","system_id":"levelo_inurba_marseille","lat":43.319935,"lon":5.381699,"is_reserved":false,"is_disabled":false,"rental_uris":{"android":"levelo://app?vid=0c542167-59a1-4de5-9e79-54119b9f5a77","ios":"levelo://app?vid=0c542167-59a1-4de5-9e79-54119b9f5a77"},"vehicle_type_id":"4","last_reported":1721405352,"current_range_meters":8400,"station_id":"ce4bhr12rcd13ifvqhpg","pricing_plan_id":"cebpf4jnsgd1na2vs0mg"},{"bike_id":"6dab0504-ad07-432c-866a-d46e51d87850","system_id":"levelo_inurba_marseille","lat":43.319935,"lon":5.381699,"is_reserved":false,"is_disabled":false,"rental_uris":{"android":"levelo://app?vid=6dab0504-ad07-432c-866a-d46e51d87850","ios":"levelo://app?vid=6dab0504-ad07-432c-866a-d46e51d87850"},"vehicle_type_id":"4","last_reported":1721405352,"current_range_meters":11200,"station_id":"ce4bhr12rcd13ifvqhpg","pricing_plan_id":"cebpf4jnsgd1na2vs0mg"},{"bike_id":"ce2ca987-d84f-400a-8282-f1f1dda161ee","system_id":"levelo_inurba_marseille","lat":43.319935,"lon":5.381699,"is_reserved":false,"is_disabled":false,"rental_uris":{"android":"levelo://app?vid=ce2ca987-d84f-400a-8282-f1f1dda161ee","ios":"levelo://app?vid=ce2ca987-d84f-400a-8282-f1f1dda161ee"},"vehicle_type_id":"4","last_reported":1721405352,"current_range_meters":0,"station_id":"ce4bhr12rcd13ifvqhpg","pricing_plan_id":"cebpf4jnsgd1na2vs0mg"},{"bike_id":"6cb73d12-d253-4b00-a2cd-0035f62fe6b9","system_id":"levelo_inurba_marseille","lat":43.319935,"lon":5.381699,"is_reserved":false,"is_disabled":false,"rental_uris":{"android":"levelo://app?vid=6cb73d12-d253-4b00-a2cd-0035f62fe6b9","ios":"levelo://app?vid=6cb73d12-d253-4b00-a2cd-0035f62fe6b9"},"vehicle_type_id":"4","last_reported":1721405352,"current_range_meters":12000,"station_id":"ce4bhr12rcd13ifvqhpg","pricing_plan_id":"cebpf4jnsgd1na2vs0mg"},{"bike_id":"3e33f0da-5c93-4035-b4c0-a63d03b0123e","system_id":"levelo_inurba_marseille","lat":43.313571,"lon":5.384829,"is_reserved":false,"is_disabled":false,"rental_uris":{"android":"levelo://app?vid=3e33f0da-5c93-4035-b4c0-a63d03b0123e","ios":"levelo://app?vid=3e33f0da-5c93-4035-b4c0-a63d03b0123e"},"vehicle_type_id":"4","last_reported":1721405352,"current_range_meters":17200,"station_id":"ce4bgt92rcd13ifvqcf0","pricing_plan_id":"cebpf4jnsgd1na2vs0mg"},{"bike_id":"8da3914e-948b-4cb5-9066-ef47c3cef4a1","system_id":"levelo_inurba_marseille","lat":43.313571,"lon":5.384829,"is_reserved":false,"is_disabled":false,"rental_uris":{"android":"levelo://app?vid=8da3914e-948b-4cb5-9066-ef47c3cef4a1","ios":"levelo://app?vid=8da3914e-948b-4cb5-9066-ef47c3cef4a1"},"vehicle_type_id":"4","last_reported":1721405352,"current_range_meters":7600,"station_id":"ce4bgt92rcd13ifvqcf0","pricing_plan_id":"cebpf4jnsgd1na2vs0mg"},{"bike_id":"6644cc8a-9803-44cc-a171-6bf9cd08bfdb","system_id":"levelo_inurba_marseille","lat":43.313571,"lon":5.384829,"is_reserved":false,"is_disabled":false,"rental_uris":{"android":"levelo://app?vid=6644cc8a-9803-44cc-a171-6bf9cd08bfdb","ios":"levelo://app?vid=6644cc8a-9803-44cc-a171-6bf9cd08bfdb"},"vehicle_type_id":"4","last_reported":1721405352,"current_range_meters":1600,"station_id":"ce4bgt92rcd13ifvqcf0","pricing_plan_id":"cebpf4jnsgd1na2vs0mg"},{"bike_id":"a2207ccb-825a-4586-8328-82ef20f2b22e","system_id":"levelo_inurba_marseille","lat":43.313571,"lon":5.384829,"is_reserved":false,"is_disabled":false,"rental_uris":{"android":"levelo://app?vid=a2207ccb-825a-4586-8328-82ef20f2b22e","ios":"levelo://app?vid=a2207ccb-825a-4586-8328-82ef20f2b22e"},"vehicle_type_id":"4","last_reported":1721405352,"current_range_meters":7200,"station_id":"ce4bgt92rcd13ifvqcf0","pricing_plan_id":"cebpf4jnsgd1na2vs0mg"},{"bike_id":"b6483ed4-f65c-439a-8cdb-7b492df9ce72","system_id":"levelo_inurba_marseille","lat":43.313571,"lon":5.384829,"is_reserved":false,"is_disabled":false,"rental_uris":{"android":"levelo://app?vid=b6483ed4-f65c-439a-8cdb-7b492df9ce72","ios":"levelo://app?vid=b6483ed4-f65c-439a-8cdb-7b492df9ce72"},"vehicle_type_id":"4","last_reported":1721405352,"current_range_meters":0,"station_id":"ce4bgt92rcd13ifvqcf0","pricing_plan_id":"cebpf4jnsgd1na2vs0mg"},{"bike_id":"5d27a091-8774-4e2a-bc85-ad7b6f6f233b","system_id":"levelo_inurba_marseille","lat":43.298433,"lon":5.362774,"is_reserved":false,"is_disabled":false,"rental_uris":{"android":"levelo://app?vid=5d27a091-8774-4e2a-bc85-ad7b6f6f233b","ios":"levelo://app?vid=5d27a091-8774-4e2a-bc85-ad7b6f6f233b"},"vehicle_type_id":"4","last_reported":1721405352,"current_range_meters":19600,"station_id":"ce4bgpp2rcd13ifvqc3g","pricing_plan_id":"cebpf4jnsgd1na2vs0mg"},{"bike_id":"53965cd8-903a-41e5-a6b6-c44984e9bc24","system_id":"levelo_inurba_marseille","lat":43.298433,"lon":5.362774,"is_reserved":false,"is_disabled":false,"rental_uris":{"android":"levelo://app?vid=53965cd8-903a-41e5-a6b6-c44984e9bc24","ios":"levelo://app?vid=53965cd8-903a-41e5-a6b6-c44984e9bc24"},"vehicle_type_id":"4","last_reported":1721405352,"current_range_meters":31200,"station_id":"ce4bgpp2rcd13ifvqc3g","pricing_plan_id":"cebpf4jnsgd1na2vs0mg"},{"bike_id":"f3b24cca-a6bb-4be1-994b-02d83a938e7d","system_id":"levelo_inurba_marseille","lat":43.29842,"lon":5.36267,"is_reserved":false,"is_disabled":false,"rental_uris":{"android":"levelo://app?vid=f3b24cca-a6bb-4be1-994b-02d83a938e7d","ios":"levelo://app?vid=f3b24cca-a6bb-4be1-994b-02d83a938e7d"},"vehicle_type_id":"4","last_reported":1721405352,"current_range_meters":0,"station_id":"ce4bgpp2rcd13ifvqc3g","pricing_plan_id":"cebpf4jnsgd1na2vs0mg"},{"bike_id":"b1f218e2-3e93-492a-8033-3f32a8682552","system_id":"levelo_inurba_marseille","lat":43.298433,"lon":5.362774,"is_reserved":false,"is_disabled":false,"rental_uris":{"android":"levelo://app?vid=b1f218e2-3e93-492a-8033-3f32a8682552","ios":"levelo://app?vid=b1f218e2-3e93-492a-8033-3f32a8682552"},"vehicle_type_id":"4","last_reported":1721405352,"current_range_meters":16000,"station_id":"ce4bgpp2rcd13ifvqc3g","pricing_plan_id":"cebpf4jnsgd1na2vs0mg"},{"bike_id":"4cdc6582-5ff8-4cfb-87ec-4aad34b38c22","system_id":"levelo_inurba_marseille","lat":43.311722,"lon":5.387247,"is_reserved":false,"is_disabled":false,"rental_uris":{"android":"levelo://app?vid=4cdc6582-5ff8-4cfb-87ec-4aad34b38c22","ios":"levelo://app?vid=4cdc6582-5ff8-4cfb-87ec-4aad34b38c22"},"vehicle_type_id":"4","last_reported":1721405352,"current_range_meters":3200,"station_id":"ce4bgv12rcd13ifvqcp0","pricing_plan_id":"cebpf4jnsgd1na2vs0mg"},{"bike_id":"f45e669a-cc19-4a31-9a6f-90bcda7468bc","system_id":"levelo_inurba_marseille","lat":43.31173,"lon":5.38723,"is_reserved":false,"is_disabled":false,"rental_uris":{"android":"levelo://app?vid=f45e669a-cc19-4a31-9a6f-90bcda7468bc","ios":"levelo://app?vid=f45e669a-cc19-4a31-9a6f-90bcda7468bc"},"vehicle_type_id":"4","last_reported":1721405352,"current_range_meters":0,"station_id":"ce4bgv12rcd13ifvqcp0","pricing_plan_id":"cebpf4jnsgd1na2vs0mg"},{"bike_id":"f2a37dcd-9e62-4042-9942-4335be4a077a","system_id":"levelo_inurba_marseille","lat":43.311819,"lon":5.387349,"is_reserved":false,"is_disabled":false,"rental_uris":{"android":"levelo://app?vid=f2a37dcd-9e62-4042-9942-4335be4a077a","ios":"levelo://app?vid=f2a37dcd-9e62-4042-9942-4335be4a077a"},"vehicle_type_id":"4","last_reported":1721405352,"current_range_meters":19600,"station_id":"ce4bh0p2rcd13ifvqd80","pricing_plan_id":"cebpf4jnsgd1na2vs0mg"},{"bike_id":"2c84fbad-2736-4002-a3a0-db945b3b0e10","system_id":"levelo_inurba_marseille","lat":43.28573,"lon":5.394992,"is_reserved":false,"is_disabled":false,"rental_uris":{"android":"levelo://app?vid=2c84fbad-2736-4002-a3a0-db945b3b0e10","ios":"levelo://app?vid=2c84fbad-2736-4002-a3a0-db945b3b0e10"},"vehicle_type_id":"4","last_reported":1721405352,"current_range_meters":20800,"station_id":"ce4bh292rcd13ifvqdg0","pricing_plan_id":"cebpf4jnsgd1na2vs0mg"},{"bike_id":"5ad2283a-12b2-4eae-a29e-2dc319f775a2","system_id":"levelo_inurba_marseille","lat":43.297774,"lon":5.370875,"is_reserved":false,"is_disabled":false,"rental_uris":{"android":"levelo://app?vid=5ad2283a-12b2-4eae-a29e-2dc319f775a2","ios":"levelo://app?vid=5ad2283a-12b2-4eae-a29e-2dc319f775a2"},"vehicle_type_id":"4","last_reported":1721405352,"current_range_meters":12400,"station_id":"ce4bgop2rcd13ifvqc1g","pricing_plan_id":"cebpf4jnsgd1na2vs0mg"},{"bike_id":"a9629d6f-3f90-430d-9f88-78342679067b","system_id":"levelo_inurba_marseille","lat":43.322872,"lon":5.382756,"is_reserved":false,"is_disabled":false,"rental_uris":{"android":"levelo://app?vid=a9629d6f-3f90-430d-9f88-78342679067b","ios":"levelo://app?vid=a9629d6f-3f90-430d-9f88-78342679067b"},"vehicle_type_id":"4","last_reported":1721405352,"current_range_meters":23200,"station_id":"ce4bhr12rcd13ifvqhqg","pricing_plan_id":"cebpf4jnsgd1na2vs0mg"},{"bike_id":"adaeb449-c2f7-4542-aaa0-2bc83171b11f","system_id":"levelo_inurba_marseille","lat":43.322872,"lon":5.382756,"is_reserved":false,"is_disabled":false,"rental_uris":{"android":"levelo://app?vid=adaeb449-c2f7-4542-aaa0-2bc83171b11f","ios":"levelo://app?vid=adaeb449-c2f7-4542-aaa0-2bc83171b11f"},"vehicle_type_id":"4","last_reported":1721405352,"current_range_meters":31200,"station_id":"ce4bhr12rcd13ifvqhqg","pricing_plan_id":"cebpf4jnsgd1na2vs0mg"},{"bike_id":"2d9fc4f7-ca51-434a-958d-cf13d7b17e05","system_id":"levelo_inurba_marseille","lat":43.297844,"lon":5.37255,"is_reserved":false,"is_disabled":false,"rental_uris":{"android":"levelo://app?vid=2d9fc4f7-ca51-434a-958d-cf13d7b17e05","ios":"levelo://app?vid=2d9fc4f7-ca51-434a-958d-cf13d7b17e05"},"vehicle_type_id":"4","last_reported":1721405352,"current_range_meters":6000,"station_id":"","pricing_plan_id":"cebpf4jnsgd1na2vs0mg"},{"bike_id":"792d9209-d42c-4aa8-b0df-f9e278e12e7f","system_id":"levelo_inurba_marseille","lat":43.299724,"lon":5.371829,"is_reserved":false,"is_disabled":false,"rental_uris":{"android":"levelo://app?vid=792d9209-d42c-4aa8-b0df-f9e278e12e7f","ios":"levelo://app?vid=792d9209-d42c-4aa8-b0df-f9e278e12e7f"},"vehicle_type_id":"4","last_reported":1721405352,"current_range_meters":3600,"station_id":"ce4bgr92rcd13ifvqc7g","pricing_plan_id":"cebpf4jnsgd1na2vs0mg"},{"bike_id":"7115b116-9ca2-46a3-ad6f-acd748697aa2","system_id":"levelo_inurba_marseille","lat":43.297163,"lon":5.365866,"is_reserved":false,"is_disabled":false,"rental_uris":{"android":"levelo://app?vid=7115b116-9ca2-46a3-ad6f-acd748697aa2","ios":"levelo://app?vid=7115b116-9ca2-46a3-ad6f-acd748697aa2"},"vehicle_type_id":"4","last_reported":1721405352,"current_range_meters":8000,"station_id":"ce4bgn12rcd13ifvqbt0","pricing_plan_id":"cebpf4jnsgd1na2vs0mg"},{"bike_id":"d5b336d5-20a6-4fc5-b892-b02408ec7f3b","system_id":"levelo_inurba_marseille","lat":43.297163,"lon":5.365866,"is_reserved":false,"is_disabled":false,"rental_uris":{"android":"levelo://app?vid=d5b336d5-20a6-4fc5-b892-b02408ec7f3b","ios":"levelo://app?vid=d5b336d5-20a6-4fc5-b892-b02408ec7f3b"},"vehicle_type_id":"4","last_reported":1721405352,"current_range_meters":0,"station_id":"ce4bgn12rcd13ifvqbt0","pricing_plan_id":"cebpf4jnsgd1na2vs0mg"},{"bike_id":"dabbb642-c9a8-4911-b695-580d2b897d62","system_id":"levelo_inurba_marseille","lat":43.297163,"lon":5.365866,"is_reserved":false,"is_disabled":false,"rental_uris":{"android":"levelo://app?vid=dabbb642-c9a8-4911-b695-580d2b897d62","ios":"levelo://app?vid=dabbb642-c9a8-4911-b695-580d2b897d62"},"vehicle_type_id":"4","last_reported":1721405352,"current_range_meters":13200,"station_id":"ce4bgn12rcd13ifvqbt0","pricing_plan_id":"cebpf4jnsgd1na2vs0mg"},{"bike_id":"fdd01edf-9026-4bf0-adbf-9442286ad54e","system_id":"levelo_inurba_marseille","lat":43.297163,"lon":5.365866,"is_reserved":false,"is_disabled":false,"rental_uris":{"android":"levelo://app?vid=fdd01edf-9026-4bf0-adbf-9442286ad54e","ios":"levelo://app?vid=fdd01edf-9026-4bf0-adbf-9442286ad54e"},"vehicle_type_id":"4","last_reported":1721405352,"current_range_meters":28000,"station_id":"ce4bgn12rcd13ifvqbt0","pricing_plan_id":"cebpf4jnsgd1na2vs0mg"},{"bike_id":"846b0eb1-d404-4693-9733-11bfc546685c","system_id":"levelo_inurba_marseille","lat":43.2968,"lon":5.37291,"is_reserved":false,"is_disabled":false,"rental_uris":{"android":"levelo://app?vid=846b0eb1-d404-4693-9733-11bfc546685c","ios":"levelo://app?vid=846b0eb1-d404-4693-9733-11bfc546685c"},"vehicle_type_id":"4","last_reported":1721405352,"current_range_meters":25200,"station_id":"ce4bgk12rcd13ifvqbj0","pricing_plan_id":"cebpf4jnsgd1na2vs0mg"},{"bike_id":"1ed6ca1a-fd48-441f-8185-7a298337d45f","system_id":"levelo_inurba_marseille","lat":43.29622,"lon":5.37164,"is_reserved":false,"is_disabled":false,"rental_uris":{"android":"levelo://app?vid=1ed6ca1a-fd48-441f-8185-7a298337d45f","ios":"levelo://app?vid=1ed6ca1a-fd48-441f-8185-7a298337d45f"},"vehicle_type_id":"4","last_reported":1721405352,"current_range_meters":0,"station_id":"ce4bgnh2rcd13ifvqc0g","pricing_plan_id":"cebpf4jnsgd1na2vs0mg"},{"bike_id":"07435e07-69d0-4563-aa0f-d07a9b3607ca","system_id":"levelo_inurba_marseille","lat":43.296131,"lon":5.370773,"is_reserved":false,"is_disabled":false,"rental_uris":{"android":"levelo://app?vid=07435e07-69d0-4563-aa0f-d07a9b3607ca","ios":"levelo://app?vid=07435e07-69d0-4563-aa0f-d07a9b3607ca"},"vehicle_type_id":"4","last_reported":1721405352,"current_range_meters":2000,"station_id":"ce4bgnh2rcd13ifvqc0g","pricing_plan_id":"cebpf4jnsgd1na2vs0mg"},{"bike_id":"f15ca30d-05ba-43ca-9356-47c0e5f73ae2","system_id":"levelo_inurba_marseille","lat":43.296131,"lon":5.370773,"is_reserved":false,"is_disabled":false,"rental_uris":{"android":"levelo://app?vid=f15ca30d-05ba-43ca-9356-47c0e5f73ae2","ios":"levelo://app?vid=f15ca30d-05ba-43ca-9356-47c0e5f73ae2"},"vehicle_type_id":"4","last_reported":1721405352,"current_range_meters":7200,"station_id":"ce4bgnh2rcd13ifvqc0g","pricing_plan_id":"cebpf4jnsgd1na2vs0mg"},{"bike_id":"dc9664e2-a9e2-410e-ab22-fbbc7a08c8ac","system_id":"levelo_inurba_marseille","lat":43.30966,"lon":5.39007,"is_reserved":false,"is_disabled":false,"rental_uris":{"android":"levelo://app?vid=dc9664e2-a9e2-410e-ab22-fbbc7a08c8ac","ios":"levelo://app?vid=dc9664e2-a9e2-410e-ab22-fbbc7a08c8ac"},"vehicle_type_id":"4","last_reported":1721405352,"current_range_meters":10400,"station_id":"ce4bgup2rcd13ifvqco0","pricing_plan_id":"cebpf4jnsgd1na2vs0mg"},{"bike_id":"9280efc5-aad9-4979-b7c8-e60d56677045","system_id":"levelo_inurba_marseille","lat":43.299028,"lon":5.381509,"is_reserved":false,"is_disabled":false,"rental_uris":{"android":"levelo://app?vid=9280efc5-aad9-4979-b7c8-e60d56677045","ios":"levelo://app?vid=9280efc5-aad9-4979-b7c8-e60d56677045"},"vehicle_type_id":"4","last_reported":1721405352,"current_range_meters":10400,"station_id":"ce4bgj12rcd13ifvqbc0","pricing_plan_id":"cebpf4jnsgd1na2vs0mg"},{"bike_id":"f2cf2c84-2b02-422f-94e0-f99d35d4537b","system_id":"levelo_inurba_marseille","lat":43.299028,"lon":5.381509,"is_reserved":false,"is_disabled":false,"rental_uris":{"android":"levelo://app?vid=f2cf2c84-2b02-422f-94e0-f99d35d4537b","ios":"levelo://app?vid=f2cf2c84-2b02-422f-94e0-f99d35d4537b"},"vehicle_type_id":"4","last_reported":1721405352,"current_range_meters":0,"station_id":"ce4bgj12rcd13ifvqbc0","pricing_plan_id":"cebpf4jnsgd1na2vs0mg"},{"bike_id":"bdf92c7f-9f31-47f0-a028-f60ff8e84718","system_id":"levelo_inurba_marseille","lat":43.296935,"lon":5.376544,"is_reserved":false,"is_disabled":false,"rental_uris":{"android":"levelo://app?vid=bdf92c7f-9f31-47f0-a028-f60ff8e84718","ios":"levelo://app?vid=bdf92c7f-9f31-47f0-a028-f60ff8e84718"},"vehicle_type_id":"4","last_reported":1721405352,"current_range_meters":19600,"station_id":"ce4bgkh2rcd13ifvqbl0","pricing_plan_id":"cebpf4jnsgd1na2vs0mg"},{"bike_id":"a2dc6ef7-a6a6-427e-aaf0-a58298a5bd15","system_id":"levelo_inurba_marseille","lat":43.296935,"lon":5.376544,"is_reserved":false,"is_disabled":false,"rental_uris":{"android":"levelo://app?vid=a2dc6ef7-a6a6-427e-aaf0-a58298a5bd15","ios":"levelo://app?vid=a2dc6ef7-a6a6-427e-aaf0-a58298a5bd15"},"vehicle_type_id":"4","last_reported":1721405352,"current_range_meters":3200,"station_id":"ce4bgkh2rcd13ifvqbl0","pricing_plan_id":"cebpf4jnsgd1na2vs0mg"},{"bike_id":"337dd8b8-42b9-4c87-8b44-fbcb629590f1","system_id":"levelo_inurba_marseille","lat":43.309589,"lon":5.390258,"is_reserved":false,"is_disabled":false,"rental_uris":{"android":"levelo://app?vid=337dd8b8-42b9-4c87-8b44-fbcb629590f1","ios":"levelo://app?vid=337dd8b8-42b9-4c87-8b44-fbcb629590f1"},"vehicle_type_id":"4","last_reported":1721405352,"current_range_meters":1200,"station_id":"ce4bgup2rcd13ifvqco0","pricing_plan_id":"cebpf4jnsgd1na2vs0mg"},{"bike_id":"b0dcfb87-6a5f-4a6e-bbac-7b879c16dec6","system_id":"levelo_inurba_marseille","lat":43.309589,"lon":5.390258,"is_reserved":false,"is_disabled":false,"rental_uris":{"android":"levelo://app?vid=b0dcfb87-6a5f-4a6e-bbac-7b879c16dec6","ios":"levelo://app?vid=b0dcfb87-6a5f-4a6e-bbac-7b879c16dec6"},"vehicle_type_id":"4","last_reported":1721405352,"current_range_meters":14800,"station_id":"ce4bgup2rcd13ifvqco0","pricing_plan_id":"cebpf4jnsgd1na2vs0mg"},{"bike_id":"5559300c-8667-4479-b262-4d097007656e","system_id":"levelo_inurba_marseille","lat":43.30949,"lon":5.39057,"is_reserved":false,"is_disabled":false,"rental_uris":{"android":"levelo://app?vid=5559300c-8667-4479-b262-4d097007656e","ios":"levelo://app?vid=5559300c-8667-4479-b262-4d097007656e"},"vehicle_type_id":"4","last_reported":1721405352,"current_range_meters":12400,"station_id":"ce4bgup2rcd13ifvqco0","pricing_plan_id":"cebpf4jnsgd1na2vs0mg"},{"bike_id":"05722783-b0d0-4f08-bedd-da0a5f0b45ee","system_id":"levelo_inurba_marseille","lat":43.317557,"lon":5.390173,"is_reserved":false,"is_disabled":false,"rental_uris":{"android":"levelo://app?vid=05722783-b0d0-4f08-bedd-da0a5f0b45ee","ios":"levelo://app?vid=05722783-b0d0-4f08-bedd-da0a5f0b45ee"},"vehicle_type_id":"4","last_reported":1721405352,"current_range_meters":15200,"station_id":"ce4bhqp2rcd13ifvqhng","pricing_plan_id":"cebpf4jnsgd1na2vs0mg"},{"bike_id":"f50c33b1-ce34-415e-ab93-480bac6523e4","system_id":"levelo_inurba_marseille","lat":43.298037,"lon":5.381066,"is_reserved":false,"is_disabled":false,"rental_uris":{"android":"levelo://app?vid=f50c33b1-ce34-415e-ab93-480bac6523e4","ios":"levelo://app?vid=f50c33b1-ce34-415e-ab93-480bac6523e4"},"vehicle_type_id":"4","last_reported":1721405352,"current_range_meters":19600,"station_id":"ce4bgip2rcd13ifvqbb0","pricing_plan_id":"cebpf4jnsgd1na2vs0mg"},{"bike_id":"8b0cbb8a-b0ae-4a06-a759-9efe38546447","system_id":"levelo_inurba_marseille","lat":43.29702,"lon":5.37896,"is_reserved":false,"is_disabled":false,"rental_uris":{"android":"levelo://app?vid=8b0cbb8a-b0ae-4a06-a759-9efe38546447","ios":"levelo://app?vid=8b0cbb8a-b0ae-4a06-a759-9efe38546447"},"vehicle_type_id":"4","last_reported":1721405352,"current_range_meters":19600,"station_id":"","pricing_plan_id":"cebpf4jnsgd1na2vs0mg"},{"bike_id":"2ebaed9b-f1fa-4476-aceb-9d7af8dff395","system_id":"levelo_inurba_marseille","lat":43.29794,"lon":5.38102,"is_reserved":false,"is_disabled":false,"rental_uris":{"android":"levelo://app?vid=2ebaed9b-f1fa-4476-aceb-9d7af8dff395","ios":"levelo://app?vid=2ebaed9b-f1fa-4476-aceb-9d7af8dff395"},"vehicle_type_id":"4","last_reported":1721405352,"current_range_meters":0,"station_id":"ce4bgip2rcd13ifvqbb0","pricing_plan_id":"cebpf4jnsgd1na2vs0mg"},{"bike_id":"b1ed1f11-3857-4419-bbe5-8ad58fa5181b","system_id":"levelo_inurba_marseille","lat":43.304274,"lon":5.388873,"is_reserved":false,"is_disabled":false,"rental_uris":{"android":"levelo://app?vid=b1ed1f11-3857-4419-bbe5-8ad58fa5181b","ios":"levelo://app?vid=b1ed1f11-3857-4419-bbe5-8ad58fa5181b"},"vehicle_type_id":"4","last_reported":1721405352,"current_range_meters":15200,"station_id":"ce4bgk12rcd13ifvqbi0","pricing_plan_id":"cebpf4jnsgd1na2vs0mg"},{"bike_id":"7c72f47f-0abb-41fb-813b-54b19c192e43","system_id":"levelo_inurba_marseille","lat":43.296263,"lon":5.377094,"is_reserved":false,"is_disabled":false,"rental_uris":{"android":"levelo://app?vid=7c72f47f-0abb-41fb-813b-54b19c192e43","ios":"levelo://app?vid=7c72f47f-0abb-41fb-813b-54b19c192e43"},"vehicle_type_id":"4","last_reported":1721405352,"current_range_meters":0,"station_id":"ce4bgi92rcd13ifvqb90","pricing_plan_id":"cebpf4jnsgd1na2vs0mg"},{"bike_id":"7589dbba-0965-4703-a2b9-443fefe0bea1","system_id":"levelo_inurba_marseille","lat":43.295279,"lon":5.375048,"is_reserved":false,"is_disabled":false,"rental_uris":{"android":"levelo://app?vid=7589dbba-0965-4703-a2b9-443fefe0bea1","ios":"levelo://app?vid=7589dbba-0965-4703-a2b9-443fefe0bea1"},"vehicle_type_id":"4","last_reported":1721405352,"current_range_meters":2800,"station_id":"ce4bgkp2rcd13ifvqbmg","pricing_plan_id":"cebpf4jnsgd1na2vs0mg"},{"bike_id":"dfa53602-2b3b-45ca-8b13-4b767ba549d2","system_id":"levelo_inurba_marseille","lat":43.296263,"lon":5.377094,"is_reserved":false,"is_disabled":false,"rental_uris":{"android":"levelo://app?vid=dfa53602-2b3b-45ca-8b13-4b767ba549d2","ios":"levelo://app?vid=dfa53602-2b3b-45ca-8b13-4b767ba549d2"},"vehicle_type_id":"4","last_reported":1721405352,"current_range_meters":6400,"station_id":"ce4bgi92rcd13ifvqb90","pricing_plan_id":"cebpf4jnsgd1na2vs0mg"},{"bike_id":"fead9b96-6297-490c-8c33-93c95a0b1d38","system_id":"levelo_inurba_marseille","lat":43.295279,"lon":5.375048,"is_reserved":false,"is_disabled":false,"rental_uris":{"android":"levelo://app?vid=fead9b96-6297-490c-8c33-93c95a0b1d38","ios":"levelo://app?vid=fead9b96-6297-490c-8c33-93c95a0b1d38"},"vehicle_type_id":"4","last_reported":1721405352,"current_range_meters":20800,"station_id":"ce4bgkp2rcd13ifvqbmg","pricing_plan_id":"cebpf4jnsgd1na2vs0mg"},{"bike_id":"21124404-e14d-46d7-ab2f-008f93232f71","system_id":"levelo_inurba_marseille","lat":43.295279,"lon":5.375048,"is_reserved":false,"is_disabled":false,"rental_uris":{"android":"levelo://app?vid=21124404-e14d-46d7-ab2f-008f93232f71","ios":"levelo://app?vid=21124404-e14d-46d7-ab2f-008f93232f71"},"vehicle_type_id":"4","last_reported":1721405352,"current_range_meters":20400,"station_id":"ce4bgkp2rcd13ifvqbmg","pricing_plan_id":"cebpf4jnsgd1na2vs0mg"},{"bike_id":"9d90f509-7b12-4e4b-97d9-7079d66ea96b","system_id":"levelo_inurba_marseille","lat":43.299707,"lon":5.384859,"is_reserved":false,"is_disabled":false,"rental_uris":{"android":"levelo://app?vid=9d90f509-7b12-4e4b-97d9-7079d66ea96b","ios":"levelo://app?vid=9d90f509-7b12-4e4b-97d9-7079d66ea96b"},"vehicle_type_id":"4","last_reported":1721405352,"current_range_meters":14800,"station_id":"ce4bgj92rcd13ifvqbd0","pricing_plan_id":"cebpf4jnsgd1na2vs0mg"},{"bike_id":"3a1f181c-4135-499a-a2f3-18ef0db97fe7","system_id":"levelo_inurba_marseille","lat":43.299707,"lon":5.384859,"is_reserved":false,"is_disabled":false,"rental_uris":{"android":"levelo://app?vid=3a1f181c-4135-499a-a2f3-18ef0db97fe7","ios":"levelo://app?vid=3a1f181c-4135-499a-a2f3-18ef0db97fe7"},"vehicle_type_id":"4","last_reported":1721405352,"current_range_meters":0,"station_id":"ce4bgj92rcd13ifvqbd0","pricing_plan_id":"cebpf4jnsgd1na2vs0mg"},{"bike_id":"5d880afc-14f1-4e76-9c69-f84f3e8b7427","system_id":"levelo_inurba_marseille","lat":43.295279,"lon":5.375048,"is_reserved":false,"is_disabled":false,"rental_uris":{"android":"levelo://app?vid=5d880afc-14f1-4e76-9c69-f84f3e8b7427","ios":"levelo://app?vid=5d880afc-14f1-4e76-9c69-f84f3e8b7427"},"vehicle_type_id":"4","last_reported":1721405352,"current_range_meters":27200,"station_id":"ce4bgkp2rcd13ifvqbmg","pricing_plan_id":"cebpf4jnsgd1na2vs0mg"},{"bike_id":"18491e9b-089a-423d-92a6-2224fb4ac1cb","system_id":"levelo_inurba_marseille","lat":43.30473,"lon":5.39011,"is_reserved":false,"is_disabled":false,"rental_uris":{"android":"levelo://app?vid=18491e9b-089a-423d-92a6-2224fb4ac1cb","ios":"levelo://app?vid=18491e9b-089a-423d-92a6-2224fb4ac1cb"},"vehicle_type_id":"4","last_reported":1721405352,"current_range_meters":7200,"station_id":"","pricing_plan_id":"cebpf4jnsgd1na2vs0mg"},{"bike_id":"bc7d12c2-ecad-4c8f-9837-421ac42ae651","system_id":"levelo_inurba_marseille","lat":43.301067,"lon":5.387633,"is_reserved":false,"is_disabled":false,"rental_uris":{"android":"levelo://app?vid=bc7d12c2-ecad-4c8f-9837-421ac42ae651","ios":"levelo://app?vid=bc7d12c2-ecad-4c8f-9837-421ac42ae651"},"vehicle_type_id":"4","last_reported":1721405352,"current_range_meters":0,"station_id":"ce4bghh2rcd13ifvqb60","pricing_plan_id":"cebpf4jnsgd1na2vs0mg"},{"bike_id":"c52e6abf-dcb1-4521-9aaa-06fe6c52601b","system_id":"levelo_inurba_marseille","lat":43.32367,"lon":5.388836,"is_reserved":false,"is_disabled":false,"rental_uris":{"android":"levelo://app?vid=c52e6abf-dcb1-4521-9aaa-06fe6c52601b","ios":"levelo://app?vid=c52e6abf-dcb1-4521-9aaa-06fe6c52601b"},"vehicle_type_id":"4","last_reported":1721405352,"current_range_meters":18400,"station_id":"ce4bhqp2rcd13ifvqhog","pricing_plan_id":"cebpf4jnsgd1na2vs0mg"},{"bike_id":"7f71b95f-7674-4dcc-96e5-5f6b6e6138d1","system_id":"levelo_inurba_marseille","lat":43.32367,"lon":5.388836,"is_reserved":false,"is_disabled":false,"rental_uris":{"android":"levelo://app?vid=7f71b95f-7674-4dcc-96e5-5f6b6e6138d1","ios":"levelo://app?vid=7f71b95f-7674-4dcc-96e5-5f6b6e6138d1"},"vehicle_type_id":"4","last_reported":1721405352,"current_range_meters":22400,"station_id":"ce4bhqp2rcd13ifvqhog","pricing_plan_id":"cebpf4jnsgd1na2vs0mg"},{"bike_id":"907f2b18-3282-44f8-bc35-b3c85b1e6644","system_id":"levelo_inurba_marseille","lat":43.292749,"lon":5.368402,"is_reserved":false,"is_disabled":false,"rental_uris":{"android":"levelo://app?vid=907f2b18-3282-44f8-bc35-b3c85b1e6644","ios":"levelo://app?vid=907f2b18-3282-44f8-bc35-b3c85b1e6644"},"vehicle_type_id":"4","last_reported":1721405352,"current_range_meters":28400,"station_id":"ce4bhbp2rcd13ifvqesg","pricing_plan_id":"cebpf4jnsgd1na2vs0mg"},{"bike_id":"2ad24c17-36ea-4da2-9e3f-80f2f2c03868","system_id":"levelo_inurba_marseille","lat":43.293259,"lon":5.371586,"is_reserved":false,"is_disabled":false,"rental_uris":{"android":"levelo://app?vid=2ad24c17-36ea-4da2-9e3f-80f2f2c03868","ios":"levelo://app?vid=2ad24c17-36ea-4da2-9e3f-80f2f2c03868"},"vehicle_type_id":"4","last_reported":1721405352,"current_range_meters":800,"station_id":"ce4bgh92rcd13ifvqb40","pricing_plan_id":"cebpf4jnsgd1na2vs0mg"},{"bike_id":"81f6f935-0814-4776-86f2-77860a2ccc01","system_id":"levelo_inurba_marseille","lat":43.29275,"lon":5.36844,"is_reserved":false,"is_disabled":false,"rental_uris":{"android":"levelo://app?vid=81f6f935-0814-4776-86f2-77860a2ccc01","ios":"levelo://app?vid=81f6f935-0814-4776-86f2-77860a2ccc01"},"vehicle_type_id":"4","last_reported":1721405352,"current_range_meters":0,"station_id":"ce4bhbp2rcd13ifvqesg","pricing_plan_id":"cebpf4jnsgd1na2vs0mg"},{"bike_id":"736a8855-3fe2-436e-a204-3f0309527ad0","system_id":"levelo_inurba_marseille","lat":43.292749,"lon":5.368402,"is_reserved":false,"is_disabled":false,"rental_uris":{"android":"levelo://app?vid=736a8855-3fe2-436e-a204-3f0309527ad0","ios":"levelo://app?vid=736a8855-3fe2-436e-a204-3f0309527ad0"},"vehicle_type_id":"4","last_reported":1721405352,"current_range_meters":0,"station_id":"ce4bhbp2rcd13ifvqesg","pricing_plan_id":"cebpf4jnsgd1na2vs0mg"},{"bike_id":"790f2a76-066d-4329-b2d5-409fef62153e","system_id":"levelo_inurba_marseille","lat":43.293009,"lon":5.374584,"is_reserved":false,"is_disabled":false,"rental_uris":{"android":"levelo://app?vid=790f2a76-066d-4329-b2d5-409fef62153e","ios":"levelo://app?vid=790f2a76-066d-4329-b2d5-409fef62153e"},"vehicle_type_id":"4","last_reported":1721405352,"current_range_meters":24000,"station_id":"ce4bgi12rcd13ifvqb70","pricing_plan_id":"cebpf4jnsgd1na2vs0mg"},{"bike_id":"416249da-414b-4caf-8373-875ebcc23e08","system_id":"levelo_inurba_marseille","lat":43.293009,"lon":5.374584,"is_reserved":false,"is_disabled":false,"rental_uris":{"android":"levelo://app?vid=416249da-414b-4caf-8373-875ebcc23e08","ios":"levelo://app?vid=416249da-414b-4caf-8373-875ebcc23e08"},"vehicle_type_id":"4","last_reported":1721405352,"current_range_meters":2000,"station_id":"ce4bgi12rcd13ifvqb70","pricing_plan_id":"cebpf4jnsgd1na2vs0mg"},{"bike_id":"76467b65-4f4e-468a-9f90-7be3d7cef006","system_id":"levelo_inurba_marseille","lat":43.29375,"lon":5.37852,"is_reserved":false,"is_disabled":false,"rental_uris":{"android":"levelo://app?vid=76467b65-4f4e-468a-9f90-7be3d7cef006","ios":"levelo://app?vid=76467b65-4f4e-468a-9f90-7be3d7cef006"},"vehicle_type_id":"4","last_reported":1721405352,"current_range_meters":0,"station_id":"ce4bgjh2rcd13ifvqbf0","pricing_plan_id":"cebpf4jnsgd1na2vs0mg"},{"bike_id":"b4567dbe-51bc-48fe-9e15-1e27b17dee9f","system_id":"levelo_inurba_marseille","lat":43.303002,"lon":5.392142,"is_reserved":false,"is_disabled":false,"rental_uris":{"android":"levelo://app?vid=b4567dbe-51bc-48fe-9e15-1e27b17dee9f","ios":"levelo://app?vid=b4567dbe-51bc-48fe-9e15-1e27b17dee9f"},"vehicle_type_id":"4","last_reported":1721405352,"current_range_meters":9600,"station_id":"ce4bgkh2rcd13ifvqbk0","pricing_plan_id":"cebpf4jnsgd1na2vs0mg"},{"bike_id":"1f42873d-4637-47be-96b1-97a3c5f02dcb","system_id":"levelo_inurba_marseille","lat":43.2936,"lon":5.37835,"is_reserved":false,"is_disabled":false,"rental_uris":{"android":"levelo://app?vid=1f42873d-4637-47be-96b1-97a3c5f02dcb","ios":"levelo://app?vid=1f42873d-4637-47be-96b1-97a3c5f02dcb"},"vehicle_type_id":"4","last_reported":1721405352,"current_range_meters":0,"station_id":"ce4bgjh2rcd13ifvqbf0","pricing_plan_id":"cebpf4jnsgd1na2vs0mg"},{"bike_id":"1e7b6c99-b1c4-43b9-8868-e8c09de39110","system_id":"levelo_inurba_marseille","lat":43.292311,"lon":5.360731,"is_reserved":false,"is_disabled":false,"rental_uris":{"android":"levelo://app?vid=1e7b6c99-b1c4-43b9-8868-e8c09de39110","ios":"levelo://app?vid=1e7b6c99-b1c4-43b9-8868-e8c09de39110"},"vehicle_type_id":"4","last_reported":1721405352,"current_range_meters":0,"station_id":"ce4bhbh2rcd13ifvqeqg","pricing_plan_id":"cebpf4jnsgd1na2vs0mg"},{"bike_id":"425ac808-f649-4143-8a26-9f5f87afd509","system_id":"levelo_inurba_marseille","lat":43.291994,"lon":5.357886,"is_reserved":false,"is_disabled":false,"rental_uris":{"android":"levelo://app?vid=425ac808-f649-4143-8a26-9f5f87afd509","ios":"levelo://app?vid=425ac808-f649-4143-8a26-9f5f87afd509"},"vehicle_type_id":"4","last_reported":1721405352,"current_range_meters":14000,"station_id":"ce4bhb12rcd13ifvqel0","pricing_plan_id":"cebpf4jnsgd1na2vs0mg"},{"bike_id":"4696325a-0803-4a81-9dda-ee6d97a5f6c8","system_id":"levelo_inurba_marseille","lat":43.309047,"lon":5.396551,"is_reserved":false,"is_disabled":false,"rental_uris":{"android":"levelo://app?vid=4696325a-0803-4a81-9dda-ee6d97a5f6c8","ios":"levelo://app?vid=4696325a-0803-4a81-9dda-ee6d97a5f6c8"},"vehicle_type_id":"4","last_reported":1721405352,"current_range_meters":24400,"station_id":"ce4bh012rcd13ifvqcv0","pricing_plan_id":"cebpf4jnsgd1na2vs0mg"},{"bike_id":"114de1bb-47d1-482c-94e1-92ed536ef20a","system_id":"levelo_inurba_marseille","lat":43.29529,"lon":5.385581,"is_reserved":false,"is_disabled":false,"rental_uris":{"android":"levelo://app?vid=114de1bb-47d1-482c-94e1-92ed536ef20a","ios":"levelo://app?vid=114de1bb-47d1-482c-94e1-92ed536ef20a"},"vehicle_type_id":"4","last_reported":1721405352,"current_range_meters":7600,"station_id":"ce4bgih2rcd13ifvqba0","pricing_plan_id":"cebpf4jnsgd1na2vs0mg"},{"bike_id":"f7454259-490e-4030-9437-dafdb55fe005","system_id":"levelo_inurba_marseille","lat":43.290779,"lon":5.371482,"is_reserved":false,"is_disabled":false,"rental_uris":{"android":"levelo://app?vid=f7454259-490e-4030-9437-dafdb55fe005","ios":"levelo://app?vid=f7454259-490e-4030-9437-dafdb55fe005"},"vehicle_type_id":"4","last_reported":1721405352,"current_range_meters":3600,"station_id":"ce4bh5p2rcd13ifvqe4g","pricing_plan_id":"cebpf4jnsgd1na2vs0mg"},{"bike_id":"cb64042c-8226-46bc-8515-46baa4799789","system_id":"levelo_inurba_marseille","lat":43.290169,"lon":5.367652,"is_reserved":false,"is_disabled":false,"rental_uris":{"android":"levelo://app?vid=cb64042c-8226-46bc-8515-46baa4799789","ios":"levelo://app?vid=cb64042c-8226-46bc-8515-46baa4799789"},"vehicle_type_id":"4","last_reported":1721405352,"current_range_meters":2800,"station_id":"","pricing_plan_id":"cebpf4jnsgd1na2vs0mg"},{"bike_id":"aa2356a6-281f-40b9-bff9-48cd99c3b44f","system_id":"levelo_inurba_marseille","lat":43.302008,"lon":5.394694,"is_reserved":false,"is_disabled":false,"rental_uris":{"android":"levelo://app?vid=aa2356a6-281f-40b9-bff9-48cd99c3b44f","ios":"levelo://app?vid=aa2356a6-281f-40b9-bff9-48cd99c3b44f"},"vehicle_type_id":"4","last_reported":1721405352,"current_range_meters":15600,"station_id":"ce4bh0p2rcd13ifvqd70","pricing_plan_id":"cebpf4jnsgd1na2vs0mg"},{"bike_id":"389460ab-a8f3-4ca8-8cfc-f3b315c34ca9","system_id":"levelo_inurba_marseille","lat":43.30211,"lon":5.39463,"is_reserved":false,"is_disabled":false,"rental_uris":{"android":"levelo://app?vid=389460ab-a8f3-4ca8-8cfc-f3b315c34ca9","ios":"levelo://app?vid=389460ab-a8f3-4ca8-8cfc-f3b315c34ca9"},"vehicle_type_id":"4","last_reported":1721405352,"current_range_meters":12400,"station_id":"ce4bh0p2rcd13ifvqd70","pricing_plan_id":"cebpf4jnsgd1na2vs0mg"},{"bike_id":"7902bedd-d059-4ab7-aa0e-2f60ce1dc18f","system_id":"levelo_inurba_marseille","lat":43.290624,"lon":5.359245,"is_reserved":false,"is_disabled":false,"rental_uris":{"android":"levelo://app?vid=7902bedd-d059-4ab7-aa0e-2f60ce1dc18f","ios":"levelo://app?vid=7902bedd-d059-4ab7-aa0e-2f60ce1dc18f"},"vehicle_type_id":"4","last_reported":1721405352,"current_range_meters":14000,"station_id":"ce4bha92rcd13ifvqeg0","pricing_plan_id":"cebpf4jnsgd1na2vs0mg"},{"bike_id":"d38b66d1-46be-4502-8941-fa6e55a002e9","system_id":"levelo_inurba_marseille","lat":43.290624,"lon":5.359245,"is_reserved":false,"is_disabled":false,"rental_uris":{"android":"levelo://app?vid=d38b66d1-46be-4502-8941-fa6e55a002e9","ios":"levelo://app?vid=d38b66d1-46be-4502-8941-fa6e55a002e9"},"vehicle_type_id":"4","last_reported":1721405352,"current_range_meters":10800,"station_id":"ce4bha92rcd13ifvqeg0","pricing_plan_id":"cebpf4jnsgd1na2vs0mg"},{"bike_id":"7530be38-0dd2-42cf-b88b-53d5d8eab5e4","system_id":"levelo_inurba_marseille","lat":43.290624,"lon":5.359245,"is_reserved":false,"is_disabled":false,"rental_uris":{"android":"levelo://app?vid=7530be38-0dd2-42cf-b88b-53d5d8eab5e4","ios":"levelo://app?vid=7530be38-0dd2-42cf-b88b-53d5d8eab5e4"},"vehicle_type_id":"4","last_reported":1721405352,"current_range_meters":29600,"station_id":"ce4bha92rcd13ifvqeg0","pricing_plan_id":"cebpf4jnsgd1na2vs0mg"},{"bike_id":"ae9454ec-c6f9-4a74-9a83-6b9ce8b10599","system_id":"levelo_inurba_marseille","lat":43.294153,"lon":5.386305,"is_reserved":false,"is_disabled":false,"rental_uris":{"android":"levelo://app?vid=ae9454ec-c6f9-4a74-9a83-6b9ce8b10599","ios":"levelo://app?vid=ae9454ec-c6f9-4a74-9a83-6b9ce8b10599"},"vehicle_type_id":"4","last_reported":1721405352,"current_range_meters":0,"station_id":"ce4bh2h2rcd13ifvqdh0","pricing_plan_id":"cebpf4jnsgd1na2vs0mg"},{"bike_id":"63387e1e-f545-4bf1-80bf-156e7aa067b8","system_id":"levelo_inurba_marseille","lat":43.290319,"lon":5.375732,"is_reserved":false,"is_disabled":false,"rental_uris":{"android":"levelo://app?vid=63387e1e-f545-4bf1-80bf-156e7aa067b8","ios":"levelo://app?vid=63387e1e-f545-4bf1-80bf-156e7aa067b8"},"vehicle_type_id":"4","last_reported":1721405352,"current_range_meters":23200,"station_id":"ce4bh692rcd13ifvqe90","pricing_plan_id":"cebpf4jnsgd1na2vs0mg"},{"bike_id":"4a651bd3-e536-4ab5-bbb4-2de721ac641d","system_id":"levelo_inurba_marseille","lat":43.294153,"lon":5.386305,"is_reserved":false,"is_disabled":false,"rental_uris":{"android":"levelo://app?vid=4a651bd3-e536-4ab5-bbb4-2de721ac641d","ios":"levelo://app?vid=4a651bd3-e536-4ab5-bbb4-2de721ac641d"},"vehicle_type_id":"4","last_reported":1721405352,"current_range_meters":31600,"station_id":"ce4bh2h2rcd13ifvqdh0","pricing_plan_id":"cebpf4jnsgd1na2vs0mg"},{"bike_id":"24ae69a1-8ef0-475a-b6a1-158e7c214377","system_id":"levelo_inurba_marseille","lat":43.28946,"lon":5.36637,"is_reserved":false,"is_disabled":false,"rental_uris":{"android":"levelo://app?vid=24ae69a1-8ef0-475a-b6a1-158e7c214377","ios":"levelo://app?vid=24ae69a1-8ef0-475a-b6a1-158e7c214377"},"vehicle_type_id":"4","last_reported":1721405352,"current_range_meters":0,"station_id":"ce4bhap2rcd13ifvqek0","pricing_plan_id":"cebpf4jnsgd1na2vs0mg"},{"bike_id":"06acc42b-3be2-4edd-a9a5-549bbd98117b","system_id":"levelo_inurba_marseille","lat":43.289184,"lon":5.366408,"is_reserved":false,"is_disabled":false,"rental_uris":{"android":"levelo://app?vid=06acc42b-3be2-4edd-a9a5-549bbd98117b","ios":"levelo://app?vid=06acc42b-3be2-4edd-a9a5-549bbd98117b"},"vehicle_type_id":"4","last_reported":1721405352,"current_range_meters":5600,"station_id":"ce4bhap2rcd13ifvqek0","pricing_plan_id":"cebpf4jnsgd1na2vs0mg"},{"bike_id":"ef93735b-fd74-4300-8f80-a209a87f15fe","system_id":"levelo_inurba_marseille","lat":43.290327,"lon":5.375711,"is_reserved":false,"is_disabled":false,"rental_uris":{"android":"levelo://app?vid=ef93735b-fd74-4300-8f80-a209a87f15fe","ios":"levelo://app?vid=ef93735b-fd74-4300-8f80-a209a87f15fe"},"vehicle_type_id":"4","last_reported":1721405352,"current_range_meters":13600,"station_id":"ce4bh692rcd13ifvqe90","pricing_plan_id":"cebpf4jnsgd1na2vs0mg"},{"bike_id":"bdf27ca8-dae7-43a8-9923-bdf4ba875153","system_id":"levelo_inurba_marseille","lat":43.290319,"lon":5.375732,"is_reserved":false,"is_disabled":false,"rental_uris":{"android":"levelo://app?vid=bdf27ca8-dae7-43a8-9923-bdf4ba875153","ios":"levelo://app?vid=bdf27ca8-dae7-43a8-9923-bdf4ba875153"},"vehicle_type_id":"4","last_reported":1721405352,"current_range_meters":0,"station_id":"ce4bh692rcd13ifvqe90","pricing_plan_id":"cebpf4jnsgd1na2vs0mg"},{"bike_id":"fb60b199-acee-43ac-b10c-7516602ae851","system_id":"levelo_inurba_marseille","lat":43.289468,"lon":5.363719,"is_reserved":false,"is_disabled":false,"rental_uris":{"android":"levelo://app?vid=fb60b199-acee-43ac-b10c-7516602ae851","ios":"levelo://app?vid=fb60b199-acee-43ac-b10c-7516602ae851"},"vehicle_type_id":"4","last_reported":1721405352,"current_range_meters":18400,"station_id":"ce4bhc92rcd13ifvqetg","pricing_plan_id":"cebpf4jnsgd1na2vs0mg"},{"bike_id":"c131ebf8-9d73-4b06-ae6d-55fc6290bf63","system_id":"levelo_inurba_marseille","lat":43.304274,"lon":5.397513,"is_reserved":false,"is_disabled":false,"rental_uris":{"android":"levelo://app?vid=c131ebf8-9d73-4b06-ae6d-55fc6290bf63","ios":"levelo://app?vid=c131ebf8-9d73-4b06-ae6d-55fc6290bf63"},"vehicle_type_id":"4","last_reported":1721405352,"current_range_meters":6400,"station_id":"ce4bh092rcd13ifvqd20","pricing_plan_id":"cebpf4jnsgd1na2vs0mg"},{"bike_id":"1216d0af-f0eb-443d-9b2e-e68186811e61","system_id":"levelo_inurba_marseille","lat":43.290058,"lon":5.356137,"is_reserved":false,"is_disabled":false,"rental_uris":{"android":"levelo://app?vid=1216d0af-f0eb-443d-9b2e-e68186811e61","ios":"levelo://app?vid=1216d0af-f0eb-443d-9b2e-e68186811e61"},"vehicle_type_id":"4","last_reported":1721405352,"current_range_meters":6800,"station_id":"ce4bhb92rcd13ifvqen0","pricing_plan_id":"cebpf4jnsgd1na2vs0mg"},{"bike_id":"1a17d640-ccc9-437e-8263-8b50d040032e","system_id":"levelo_inurba_marseille","lat":43.290104,"lon":5.356111,"is_reserved":false,"is_disabled":false,"rental_uris":{"android":"levelo://app?vid=1a17d640-ccc9-437e-8263-8b50d040032e","ios":"levelo://app?vid=1a17d640-ccc9-437e-8263-8b50d040032e"},"vehicle_type_id":"4","last_reported":1721405352,"current_range_meters":16000,"station_id":"ce4bhb92rcd13ifvqen0","pricing_plan_id":"cebpf4jnsgd1na2vs0mg"},{"bike_id":"e9ae717c-4b9a-40f9-bd4a-b0c939ab2789","system_id":"levelo_inurba_marseille","lat":43.29005,"lon":5.35609,"is_reserved":false,"is_disabled":false,"rental_uris":{"android":"levelo://app?vid=e9ae717c-4b9a-40f9-bd4a-b0c939ab2789","ios":"levelo://app?vid=e9ae717c-4b9a-40f9-bd4a-b0c939ab2789"},"vehicle_type_id":"4","last_reported":1721405352,"current_range_meters":14000,"station_id":"ce4bhb92rcd13ifvqen0","pricing_plan_id":"cebpf4jnsgd1na2vs0mg"},{"bike_id":"15bea4be-8946-49d6-a845-76f52e4db790","system_id":"levelo_inurba_marseille","lat":43.290103,"lon":5.356114,"is_reserved":false,"is_disabled":false,"rental_uris":{"android":"levelo://app?vid=15bea4be-8946-49d6-a845-76f52e4db790","ios":"levelo://app?vid=15bea4be-8946-49d6-a845-76f52e4db790"},"vehicle_type_id":"4","last_reported":1721405352,"current_range_meters":19600,"station_id":"ce4bhb92rcd13ifvqen0","pricing_plan_id":"cebpf4jnsgd1na2vs0mg"},{"bike_id":"c8cde4b6-b137-42a2-ac15-d85e3a0e87d3","system_id":"levelo_inurba_marseille","lat":43.29003,"lon":5.35612,"is_reserved":false,"is_disabled":false,"rental_uris":{"android":"levelo://app?vid=c8cde4b6-b137-42a2-ac15-d85e3a0e87d3","ios":"levelo://app?vid=c8cde4b6-b137-42a2-ac15-d85e3a0e87d3"},"vehicle_type_id":"4","last_reported":1721405352,"current_range_meters":800,"station_id":"ce4bhb92rcd13ifvqen0","pricing_plan_id":"cebpf4jnsgd1na2vs0mg"},{"bike_id":"22582b81-8795-4b12-84b1-2cfb555dfd5c","system_id":"levelo_inurba_marseille","lat":43.29,"lon":5.35608,"is_reserved":false,"is_disabled":false,"rental_uris":{"android":"levelo://app?vid=22582b81-8795-4b12-84b1-2cfb555dfd5c","ios":"levelo://app?vid=22582b81-8795-4b12-84b1-2cfb555dfd5c"},"vehicle_type_id":"4","last_reported":1721405352,"current_range_meters":0,"station_id":"ce4bhb92rcd13ifvqen0","pricing_plan_id":"cebpf4jnsgd1na2vs0mg"},{"bike_id":"6a301ce2-d33a-47d0-bc08-b57455a12923","system_id":"levelo_inurba_marseille","lat":43.295169,"lon":5.390426,"is_reserved":false,"is_disabled":false,"rental_uris":{"android":"levelo://app?vid=6a301ce2-d33a-47d0-bc08-b57455a12923","ios":"levelo://app?vid=6a301ce2-d33a-47d0-bc08-b57455a12923"},"vehicle_type_id":"4","last_reported":1721405352,"current_range_meters":8000,"station_id":"ce4bh3p2rcd13ifvqdp0","pricing_plan_id":"cebpf4jnsgd1na2vs0mg"},{"bike_id":"03b5571e-f0b9-4a0c-a45d-bd38ac69b7c7","system_id":"levelo_inurba_marseille","lat":43.297807,"lon":5.393533,"is_reserved":false,"is_disabled":false,"rental_uris":{"android":"levelo://app?vid=03b5571e-f0b9-4a0c-a45d-bd38ac69b7c7","ios":"levelo://app?vid=03b5571e-f0b9-4a0c-a45d-bd38ac69b7c7"},"vehicle_type_id":"4","last_reported":1721405352,"current_range_meters":0,"station_id":"chh1huq6cuj3fo74tm60","pricing_plan_id":"cebpf4jnsgd1na2vs0mg"},{"bike_id":"babe1f76-d957-49b2-b746-c776fcb1f271","system_id":"levelo_inurba_marseille","lat":43.289741,"lon":5.378306,"is_reserved":false,"is_disabled":false,"rental_uris":{"android":"levelo://app?vid=babe1f76-d957-49b2-b746-c776fcb1f271","ios":"levelo://app?vid=babe1f76-d957-49b2-b746-c776fcb1f271"},"vehicle_type_id":"4","last_reported":1721405352,"current_range_meters":31200,"station_id":"ce4bh9p2rcd13ifvqed0","pricing_plan_id":"cebpf4jnsgd1na2vs0mg"},{"bike_id":"d61ca9d3-e302-41f5-a303-c92ba8627f89","system_id":"levelo_inurba_marseille","lat":43.297807,"lon":5.393533,"is_reserved":false,"is_disabled":false,"rental_uris":{"android":"levelo://app?vid=d61ca9d3-e302-41f5-a303-c92ba8627f89","ios":"levelo://app?vid=d61ca9d3-e302-41f5-a303-c92ba8627f89"},"vehicle_type_id":"4","last_reported":1721405352,"current_range_meters":19600,"station_id":"chh1huq6cuj3fo74tm60","pricing_plan_id":"cebpf4jnsgd1na2vs0mg"},{"bike_id":"c041865b-97dc-440d-b9fa-c1ed8864ac11","system_id":"levelo_inurba_marseille","lat":43.297815,"lon":5.393548,"is_reserved":false,"is_disabled":false,"rental_uris":{"android":"levelo://app?vid=c041865b-97dc-440d-b9fa-c1ed8864ac11","ios":"levelo://app?vid=c041865b-97dc-440d-b9fa-c1ed8864ac11"},"vehicle_type_id":"4","last_reported":1721405352,"current_range_meters":7600,"station_id":"chh1huq6cuj3fo74tm60","pricing_plan_id":"cebpf4jnsgd1na2vs0mg"},{"bike_id":"9d845a19-c82a-40ed-8891-1b2eba76ec6d","system_id":"levelo_inurba_marseille","lat":43.28978,"lon":5.37837,"is_reserved":false,"is_disabled":false,"rental_uris":{"android":"levelo://app?vid=9d845a19-c82a-40ed-8891-1b2eba76ec6d","ios":"levelo://app?vid=9d845a19-c82a-40ed-8891-1b2eba76ec6d"},"vehicle_type_id":"4","last_reported":1721405352,"current_range_meters":19200,"station_id":"ce4bh9p2rcd13ifvqed0","pricing_plan_id":"cebpf4jnsgd1na2vs0mg"},{"bike_id":"3fd4f6d0-0784-4673-8fbf-4bbcceb47dbf","system_id":"levelo_inurba_marseille","lat":43.295169,"lon":5.390426,"is_reserved":false,"is_disabled":false,"rental_uris":{"android":"levelo://app?vid=3fd4f6d0-0784-4673-8fbf-4bbcceb47dbf","ios":"levelo://app?vid=3fd4f6d0-0784-4673-8fbf-4bbcceb47dbf"},"vehicle_type_id":"4","last_reported":1721405352,"current_range_meters":7600,"station_id":"ce4bh3p2rcd13ifvqdp0","pricing_plan_id":"cebpf4jnsgd1na2vs0mg"},{"bike_id":"31c4af69-07ac-4b9b-9413-74de1647d9fe","system_id":"levelo_inurba_marseille","lat":43.330442,"lon":5.389148,"is_reserved":false,"is_disabled":false,"rental_uris":{"android":"levelo://app?vid=31c4af69-07ac-4b9b-9413-74de1647d9fe","ios":"levelo://app?vid=31c4af69-07ac-4b9b-9413-74de1647d9fe"},"vehicle_type_id":"4","last_reported":1721405352,"current_range_meters":29200,"station_id":"ce4bhr92rcd13ifvqhrg","pricing_plan_id":"cebpf4jnsgd1na2vs0mg"},{"bike_id":"8d0aeca1-60bf-4514-ad24-02e94937587c","system_id":"levelo_inurba_marseille","lat":43.330442,"lon":5.389148,"is_reserved":false,"is_disabled":false,"rental_uris":{"android":"levelo://app?vid=8d0aeca1-60bf-4514-ad24-02e94937587c","ios":"levelo://app?vid=8d0aeca1-60bf-4514-ad24-02e94937587c"},"vehicle_type_id":"4","last_reported":1721405352,"current_range_meters":31600,"station_id":"ce4bhr92rcd13ifvqhrg","pricing_plan_id":"cebpf4jnsgd1na2vs0mg"},{"bike_id":"e7096b33-0d4a-4a2c-a4a5-ab71962941f7","system_id":"levelo_inurba_marseille","lat":43.330442,"lon":5.389148,"is_reserved":false,"is_disabled":false,"rental_uris":{"android":"levelo://app?vid=e7096b33-0d4a-4a2c-a4a5-ab71962941f7","ios":"levelo://app?vid=e7096b33-0d4a-4a2c-a4a5-ab71962941f7"},"vehicle_type_id":"4","last_reported":1721405352,"current_range_meters":31600,"station_id":"ce4bhr92rcd13ifvqhrg","pricing_plan_id":"cebpf4jnsgd1na2vs0mg"},{"bike_id":"f7f439fd-d242-4537-9f3a-a2680020e3ac","system_id":"levelo_inurba_marseille","lat":43.28856,"lon":5.358371,"is_reserved":false,"is_disabled":false,"rental_uris":{"android":"levelo://app?vid=f7f439fd-d242-4537-9f3a-a2680020e3ac","ios":"levelo://app?vid=f7f439fd-d242-4537-9f3a-a2680020e3ac"},"vehicle_type_id":"4","last_reported":1721405352,"current_range_meters":400,"station_id":"ce4bhb12rcd13ifvqem0","pricing_plan_id":"cebpf4jnsgd1na2vs0mg"},{"bike_id":"6afa8b78-cf8c-48d9-896e-07be64797160","system_id":"levelo_inurba_marseille","lat":43.28848,"lon":5.35869,"is_reserved":false,"is_disabled":false,"rental_uris":{"android":"levelo://app?vid=6afa8b78-cf8c-48d9-896e-07be64797160","ios":"levelo://app?vid=6afa8b78-cf8c-48d9-896e-07be64797160"},"vehicle_type_id":"4","last_reported":1721405352,"current_range_meters":0,"station_id":"ce4bhb12rcd13ifvqem0","pricing_plan_id":"cebpf4jnsgd1na2vs0mg"},{"bike_id":"47f135ea-933a-4c5c-b992-a0eee233cac6","system_id":"levelo_inurba_marseille","lat":43.30642,"lon":5.401031,"is_reserved":false,"is_disabled":false,"rental_uris":{"android":"levelo://app?vid=47f135ea-933a-4c5c-b992-a0eee233cac6","ios":"levelo://app?vid=47f135ea-933a-4c5c-b992-a0eee233cac6"},"vehicle_type_id":"4","last_reported":1721405352,"current_range_meters":0,"station_id":"ce4bh112rcd13ifvqda0","pricing_plan_id":"cebpf4jnsgd1na2vs0mg"},{"bike_id":"7346a38b-c58e-4ae9-8bf9-d05f7d737ba3","system_id":"levelo_inurba_marseille","lat":43.30642,"lon":5.401031,"is_reserved":false,"is_disabled":false,"rental_uris":{"android":"levelo://app?vid=7346a38b-c58e-4ae9-8bf9-d05f7d737ba3","ios":"levelo://app?vid=7346a38b-c58e-4ae9-8bf9-d05f7d737ba3"},"vehicle_type_id":"4","last_reported":1721405352,"current_range_meters":0,"station_id":"ce4bh112rcd13ifvqda0","pricing_plan_id":"cebpf4jnsgd1na2vs0mg"},{"bike_id":"b5f84fb0-09bb-4914-b36d-004ae4988198","system_id":"levelo_inurba_marseille","lat":43.33769,"lon":5.374615,"is_reserved":false,"is_disabled":false,"rental_uris":{"android":"levelo://app?vid=b5f84fb0-09bb-4914-b36d-004ae4988198","ios":"levelo://app?vid=b5f84fb0-09bb-4914-b36d-004ae4988198"},"vehicle_type_id":"4","last_reported":1721405352,"current_range_meters":0,"station_id":"","pricing_plan_id":"cebpf4jnsgd1na2vs0mg"},{"bike_id":"ac377a63-6a02-42fa-8a70-d5bb9b7546c9","system_id":"levelo_inurba_marseille","lat":43.337751,"lon":5.374319,"is_reserved":false,"is_disabled":false,"rental_uris":{"android":"levelo://app?vid=ac377a63-6a02-42fa-8a70-d5bb9b7546c9","ios":"levelo://app?vid=ac377a63-6a02-42fa-8a70-d5bb9b7546c9"},"vehicle_type_id":"4","last_reported":1721405352,"current_range_meters":25200,"station_id":"","pricing_plan_id":"cebpf4jnsgd1na2vs0mg"},{"bike_id":"32c6f5d0-e34b-458a-98b2-b0e6f95de53e","system_id":"levelo_inurba_marseille","lat":43.301117,"lon":5.398795,"is_reserved":false,"is_disabled":false,"rental_uris":{"android":"levelo://app?vid=32c6f5d0-e34b-458a-98b2-b0e6f95de53e","ios":"levelo://app?vid=32c6f5d0-e34b-458a-98b2-b0e6f95de53e"},"vehicle_type_id":"4","last_reported":1721405352,"current_range_meters":27600,"station_id":"ce4bh0h2rcd13ifvqd40","pricing_plan_id":"cebpf4jnsgd1na2vs0mg"},{"bike_id":"83448945-077b-4344-8432-25edafb62c73","system_id":"levelo_inurba_marseille","lat":43.286591,"lon":5.363346,"is_reserved":false,"is_disabled":false,"rental_uris":{"android":"levelo://app?vid=83448945-077b-4344-8432-25edafb62c73","ios":"levelo://app?vid=83448945-077b-4344-8432-25edafb62c73"},"vehicle_type_id":"4","last_reported":1721405352,"current_range_meters":6800,"station_id":"ce4bhah2rcd13ifvqej0","pricing_plan_id":"cebpf4jnsgd1na2vs0mg"},{"bike_id":"9e6195e1-4293-42ef-a712-35e9e1565ac2","system_id":"levelo_inurba_marseille","lat":43.298681,"lon":5.397225,"is_reserved":false,"is_disabled":false,"rental_uris":{"android":"levelo://app?vid=9e6195e1-4293-42ef-a712-35e9e1565ac2","ios":"levelo://app?vid=9e6195e1-4293-42ef-a712-35e9e1565ac2"},"vehicle_type_id":"4","last_reported":1721405352,"current_range_meters":16400,"station_id":"ce4bh0h2rcd13ifvqd50","pricing_plan_id":"cebpf4jnsgd1na2vs0mg"},{"bike_id":"1c025a43-992b-4205-8242-ccfa04e9220f","system_id":"levelo_inurba_marseille","lat":43.286591,"lon":5.363346,"is_reserved":false,"is_disabled":false,"rental_uris":{"android":"levelo://app?vid=1c025a43-992b-4205-8242-ccfa04e9220f","ios":"levelo://app?vid=1c025a43-992b-4205-8242-ccfa04e9220f"},"vehicle_type_id":"4","last_reported":1721405352,"current_range_meters":31200,"station_id":"ce4bhah2rcd13ifvqej0","pricing_plan_id":"cebpf4jnsgd1na2vs0mg"},{"bike_id":"2d950b91-f24a-4c26-984a-4c4d05424b8c","system_id":"levelo_inurba_marseille","lat":43.298681,"lon":5.397225,"is_reserved":false,"is_disabled":false,"rental_uris":{"android":"levelo://app?vid=2d950b91-f24a-4c26-984a-4c4d05424b8c","ios":"levelo://app?vid=2d950b91-f24a-4c26-984a-4c4d05424b8c"},"vehicle_type_id":"4","last_reported":1721405352,"current_range_meters":13200,"station_id":"ce4bh0h2rcd13ifvqd50","pricing_plan_id":"cebpf4jnsgd1na2vs0mg"},{"bike_id":"07971323-8cff-41e0-aa57-8ffb7e088bb6","system_id":"levelo_inurba_marseille","lat":43.286961,"lon":5.373785,"is_reserved":false,"is_disabled":false,"rental_uris":{"android":"levelo://app?vid=07971323-8cff-41e0-aa57-8ffb7e088bb6","ios":"levelo://app?vid=07971323-8cff-41e0-aa57-8ffb7e088bb6"},"vehicle_type_id":"4","last_reported":1721405352,"current_range_meters":13600,"station_id":"ce4bh3p2rcd13ifvqdq0","pricing_plan_id":"cebpf4jnsgd1na2vs0mg"},{"bike_id":"ca833fad-2341-494a-9e0a-314d4c1f10ee","system_id":"levelo_inurba_marseille","lat":43.286591,"lon":5.363346,"is_reserved":false,"is_disabled":false,"rental_uris":{"android":"levelo://app?vid=ca833fad-2341-494a-9e0a-314d4c1f10ee","ios":"levelo://app?vid=ca833fad-2341-494a-9e0a-314d4c1f10ee"},"vehicle_type_id":"4","last_reported":1721405352,"current_range_meters":28000,"station_id":"ce4bhah2rcd13ifvqej0","pricing_plan_id":"cebpf4jnsgd1na2vs0mg"},{"bike_id":"7be4f28c-c133-4384-9f4a-1cddd675f447","system_id":"levelo_inurba_marseille","lat":43.28701,"lon":5.37394,"is_reserved":false,"is_disabled":false,"rental_uris":{"android":"levelo://app?vid=7be4f28c-c133-4384-9f4a-1cddd675f447","ios":"levelo://app?vid=7be4f28c-c133-4384-9f4a-1cddd675f447"},"vehicle_type_id":"4","last_reported":1721405352,"current_range_meters":19600,"station_id":"ce4bh3p2rcd13ifvqdq0","pricing_plan_id":"cebpf4jnsgd1na2vs0mg"},{"bike_id":"1566e3a8-7f15-4a5e-9d65-2c760b248aa6","system_id":"levelo_inurba_marseille","lat":43.286591,"lon":5.363346,"is_reserved":false,"is_disabled":false,"rental_uris":{"android":"levelo://app?vid=1566e3a8-7f15-4a5e-9d65-2c760b248aa6","ios":"levelo://app?vid=1566e3a8-7f15-4a5e-9d65-2c760b248aa6"},"vehicle_type_id":"4","last_reported":1721405352,"current_range_meters":10000,"station_id":"ce4bhah2rcd13ifvqej0","pricing_plan_id":"cebpf4jnsgd1na2vs0mg"},{"bike_id":"63016e64-acad-4208-a385-953f03480402","system_id":"levelo_inurba_marseille","lat":43.290336,"lon":5.386425,"is_reserved":false,"is_disabled":false,"rental_uris":{"android":"levelo://app?vid=63016e64-acad-4208-a385-953f03480402","ios":"levelo://app?vid=63016e64-acad-4208-a385-953f03480402"},"vehicle_type_id":"4","last_reported":1721405352,"current_range_meters":0,"station_id":"ce4bh4p2rcd13ifvqe0g","pricing_plan_id":"cebpf4jnsgd1na2vs0mg"},{"bike_id":"c68732bb-5afc-4a6b-8e1c-41d42e44023f","system_id":"levelo_inurba_marseille","lat":43.290336,"lon":5.386425,"is_reserved":false,"is_disabled":false,"rental_uris":{"android":"levelo://app?vid=c68732bb-5afc-4a6b-8e1c-41d42e44023f","ios":"levelo://app?vid=c68732bb-5afc-4a6b-8e1c-41d42e44023f"},"vehicle_type_id":"4","last_reported":1721405352,"current_range_meters":1200,"station_id":"ce4bh4p2rcd13ifvqe0g","pricing_plan_id":"cebpf4jnsgd1na2vs0mg"},{"bike_id":"15881d5e-662e-4895-942a-ce5760bfd4ca","system_id":"levelo_inurba_marseille","lat":43.290336,"lon":5.386425,"is_reserved":false,"is_disabled":false,"rental_uris":{"android":"levelo://app?vid=15881d5e-662e-4895-942a-ce5760bfd4ca","ios":"levelo://app?vid=15881d5e-662e-4895-942a-ce5760bfd4ca"},"vehicle_type_id":"4","last_reported":1721405352,"current_range_meters":20400,"station_id":"ce4bh4p2rcd13ifvqe0g","pricing_plan_id":"cebpf4jnsgd1na2vs0mg"},{"bike_id":"9b716e3a-ce0e-4ac1-9909-a38684e5c47f","system_id":"levelo_inurba_marseille","lat":43.290336,"lon":5.386425,"is_reserved":false,"is_disabled":false,"rental_uris":{"android":"levelo://app?vid=9b716e3a-ce0e-4ac1-9909-a38684e5c47f","ios":"levelo://app?vid=9b716e3a-ce0e-4ac1-9909-a38684e5c47f"},"vehicle_type_id":"4","last_reported":1721405352,"current_range_meters":1200,"station_id":"ce4bh4p2rcd13ifvqe0g","pricing_plan_id":"cebpf4jnsgd1na2vs0mg"},{"bike_id":"17efc39b-37f7-4fa6-a436-50922ff9dcb8","system_id":"levelo_inurba_marseille","lat":43.302759,"lon":5.400793,"is_reserved":false,"is_disabled":false,"rental_uris":{"android":"levelo://app?vid=17efc39b-37f7-4fa6-a436-50922ff9dcb8","ios":"levelo://app?vid=17efc39b-37f7-4fa6-a436-50922ff9dcb8"},"vehicle_type_id":"4","last_reported":1721405352,"current_range_meters":23200,"station_id":"ce4bgvh2rcd13ifvqcs0","pricing_plan_id":"cebpf4jnsgd1na2vs0mg"},{"bike_id":"fd871d72-3ada-4396-a9ed-db86f5853cf9","system_id":"levelo_inurba_marseille","lat":43.316828,"lon":5.404723,"is_reserved":false,"is_disabled":false,"rental_uris":{"android":"levelo://app?vid=fd871d72-3ada-4396-a9ed-db86f5853cf9","ios":"levelo://app?vid=fd871d72-3ada-4396-a9ed-db86f5853cf9"},"vehicle_type_id":"4","last_reported":1721405352,"current_range_meters":31200,"station_id":"ce4bh012rcd13ifvqd00","pricing_plan_id":"cebpf4jnsgd1na2vs0mg"},{"bike_id":"94b0432f-5292-4748-b12e-797b6ea3e313","system_id":"levelo_inurba_marseille","lat":43.316821,"lon":5.404737,"is_reserved":false,"is_disabled":false,"rental_uris":{"android":"levelo://app?vid=94b0432f-5292-4748-b12e-797b6ea3e313","ios":"levelo://app?vid=94b0432f-5292-4748-b12e-797b6ea3e313"},"vehicle_type_id":"4","last_reported":1721405352,"current_range_meters":10000,"station_id":"ce4bh012rcd13ifvqd00","pricing_plan_id":"cebpf4jnsgd1na2vs0mg"},{"bike_id":"31a35e04-1082-4508-b485-e671beafb82b","system_id":"levelo_inurba_marseille","lat":43.316821,"lon":5.404737,"is_reserved":false,"is_disabled":false,"rental_uris":{"android":"levelo://app?vid=31a35e04-1082-4508-b485-e671beafb82b","ios":"levelo://app?vid=31a35e04-1082-4508-b485-e671beafb82b"},"vehicle_type_id":"4","last_reported":1721405352,"current_range_meters":3600,"station_id":"ce4bh012rcd13ifvqd00","pricing_plan_id":"cebpf4jnsgd1na2vs0mg"},{"bike_id":"2b208ada-615a-448d-b277-a3f395b9fc52","system_id":"levelo_inurba_marseille","lat":43.291994,"lon":5.392907,"is_reserved":false,"is_disabled":false,"rental_uris":{"android":"levelo://app?vid=2b208ada-615a-448d-b277-a3f395b9fc52","ios":"levelo://app?vid=2b208ada-615a-448d-b277-a3f395b9fc52"},"vehicle_type_id":"4","last_reported":1721405352,"current_range_meters":25600,"station_id":"ce4bh192rcd13ifvqdd0","pricing_plan_id":"cebpf4jnsgd1na2vs0mg"},{"bike_id":"a5e918e4-37bb-491d-b186-409faa884fd2","system_id":"levelo_inurba_marseille","lat":43.29203,"lon":5.39318,"is_reserved":false,"is_disabled":false,"rental_uris":{"android":"levelo://app?vid=a5e918e4-37bb-491d-b186-409faa884fd2","ios":"levelo://app?vid=a5e918e4-37bb-491d-b186-409faa884fd2"},"vehicle_type_id":"4","last_reported":1721405352,"current_range_meters":0,"station_id":"ce4bh192rcd13ifvqdd0","pricing_plan_id":"cebpf4jnsgd1na2vs0mg"},{"bike_id":"cd4531f9-95aa-4337-a6f1-01f6c076bccb","system_id":"levelo_inurba_marseille","lat":43.291994,"lon":5.392907,"is_reserved":false,"is_disabled":false,"rental_uris":{"android":"levelo://app?vid=cd4531f9-95aa-4337-a6f1-01f6c076bccb","ios":"levelo://app?vid=cd4531f9-95aa-4337-a6f1-01f6c076bccb"},"vehicle_type_id":"4","last_reported":1721405352,"current_range_meters":0,"station_id":"ce4bh192rcd13ifvqdd0","pricing_plan_id":"cebpf4jnsgd1na2vs0mg"},{"bike_id":"7074a228-676d-44a8-9279-845825663251","system_id":"levelo_inurba_marseille","lat":43.28465,"lon":5.35888,"is_reserved":false,"is_disabled":false,"rental_uris":{"android":"levelo://app?vid=7074a228-676d-44a8-9279-845825663251","ios":"levelo://app?vid=7074a228-676d-44a8-9279-845825663251"},"vehicle_type_id":"4","last_reported":1721405352,"current_range_meters":400,"station_id":"ce4bhah2rcd13ifvqei0","pricing_plan_id":"cebpf4jnsgd1na2vs0mg"},{"bike_id":"a0a42420-8202-4956-8124-17e57fb6b5c7","system_id":"levelo_inurba_marseille","lat":43.29446,"lon":5.39743,"is_reserved":false,"is_disabled":false,"rental_uris":{"android":"levelo://app?vid=a0a42420-8202-4956-8124-17e57fb6b5c7","ios":"levelo://app?vid=a0a42420-8202-4956-8124-17e57fb6b5c7"},"vehicle_type_id":"4","last_reported":1721405352,"current_range_meters":24800,"station_id":"ce4bh3h2rcd13ifvqdo0","pricing_plan_id":"cebpf4jnsgd1na2vs0mg"},{"bike_id":"4b685420-4d8c-456f-a8d0-721232ef1ca5","system_id":"levelo_inurba_marseille","lat":43.284534,"lon":5.358662,"is_reserved":false,"is_disabled":false,"rental_uris":{"android":"levelo://app?vid=4b685420-4d8c-456f-a8d0-721232ef1ca5","ios":"levelo://app?vid=4b685420-4d8c-456f-a8d0-721232ef1ca5"},"vehicle_type_id":"4","last_reported":1721405352,"current_range_meters":16400,"station_id":"ce4bhah2rcd13ifvqei0","pricing_plan_id":"cebpf4jnsgd1na2vs0mg"},{"bike_id":"6c6e0428-76ab-4e44-8d55-df9e88047ca1","system_id":"levelo_inurba_marseille","lat":43.294314,"lon":5.397498,"is_reserved":false,"is_disabled":false,"rental_uris":{"android":"levelo://app?vid=6c6e0428-76ab-4e44-8d55-df9e88047ca1","ios":"levelo://app?vid=6c6e0428-76ab-4e44-8d55-df9e88047ca1"},"vehicle_type_id":"4","last_reported":1721405352,"current_range_meters":4800,"station_id":"ce4bh3h2rcd13ifvqdo0","pricing_plan_id":"cebpf4jnsgd1na2vs0mg"},{"bike_id":"311946ca-efe9-4188-b28e-b7920d0482eb","system_id":"levelo_inurba_marseille","lat":43.2862,"lon":5.35108,"is_reserved":false,"is_disabled":false,"rental_uris":{"android":"levelo://app?vid=311946ca-efe9-4188-b28e-b7920d0482eb","ios":"levelo://app?vid=311946ca-efe9-4188-b28e-b7920d0482eb"},"vehicle_type_id":"4","last_reported":1721405352,"current_range_meters":30400,"station_id":"ce4bhch2rcd13ifvqeug","pricing_plan_id":"cebpf4jnsgd1na2vs0mg"},{"bike_id":"b3590562-213d-4101-a928-d826f43b7cb3","system_id":"levelo_inurba_marseille","lat":43.2862,"lon":5.35106,"is_reserved":false,"is_disabled":false,"rental_uris":{"android":"levelo://app?vid=b3590562-213d-4101-a928-d826f43b7cb3","ios":"levelo://app?vid=b3590562-213d-4101-a928-d826f43b7cb3"},"vehicle_type_id":"4","last_reported":1721405352,"current_range_meters":4000,"station_id":"ce4bhch2rcd13ifvqeug","pricing_plan_id":"cebpf4jnsgd1na2vs0mg"},{"bike_id":"cc1f3db7-4c7d-4ac5-9d28-b171f46a2186","system_id":"levelo_inurba_marseille","lat":43.28619,"lon":5.35108,"is_reserved":false,"is_disabled":false,"rental_uris":{"android":"levelo://app?vid=cc1f3db7-4c7d-4ac5-9d28-b171f46a2186","ios":"levelo://app?vid=cc1f3db7-4c7d-4ac5-9d28-b171f46a2186"},"vehicle_type_id":"4","last_reported":1721405352,"current_range_meters":18000,"station_id":"ce4bhch2rcd13ifvqeug","pricing_plan_id":"cebpf4jnsgd1na2vs0mg"},{"bike_id":"3ca7d5ff-82f9-4c0f-aaf3-70d55b3925ff","system_id":"levelo_inurba_marseille","lat":43.28619,"lon":5.35107,"is_reserved":false,"is_disabled":false,"rental_uris":{"android":"levelo://app?vid=3ca7d5ff-82f9-4c0f-aaf3-70d55b3925ff","ios":"levelo://app?vid=3ca7d5ff-82f9-4c0f-aaf3-70d55b3925ff"},"vehicle_type_id":"4","last_reported":1721405352,"current_range_meters":0,"station_id":"ce4bhch2rcd13ifvqeug","pricing_plan_id":"cebpf4jnsgd1na2vs0mg"},{"bike_id":"6cf3ac93-b010-43d7-886d-5edf43d44b5d","system_id":"levelo_inurba_marseille","lat":43.28618,"lon":5.3511,"is_reserved":false,"is_disabled":false,"rental_uris":{"android":"levelo://app?vid=6cf3ac93-b010-43d7-886d-5edf43d44b5d","ios":"levelo://app?vid=6cf3ac93-b010-43d7-886d-5edf43d44b5d"},"vehicle_type_id":"4","last_reported":1721405352,"current_range_meters":24400,"station_id":"ce4bhch2rcd13ifvqeug","pricing_plan_id":"cebpf4jnsgd1na2vs0mg"},{"bike_id":"16fb9995-c78c-4a22-9f4a-10a8f153b835","system_id":"levelo_inurba_marseille","lat":43.28618,"lon":5.35109,"is_reserved":false,"is_disabled":false,"rental_uris":{"android":"levelo://app?vid=16fb9995-c78c-4a22-9f4a-10a8f153b835","ios":"levelo://app?vid=16fb9995-c78c-4a22-9f4a-10a8f153b835"},"vehicle_type_id":"4","last_reported":1721405352,"current_range_meters":1600,"station_id":"ce4bhch2rcd13ifvqeug","pricing_plan_id":"cebpf4jnsgd1na2vs0mg"},{"bike_id":"a434d9f1-68ca-4a85-a9cf-4d404e5bb872","system_id":"levelo_inurba_marseille","lat":43.285856,"lon":5.350771,"is_reserved":false,"is_disabled":false,"rental_uris":{"android":"levelo://app?vid=a434d9f1-68ca-4a85-a9cf-4d404e5bb872","ios":"levelo://app?vid=a434d9f1-68ca-4a85-a9cf-4d404e5bb872"},"vehicle_type_id":"4","last_reported":1721405352,"current_range_meters":9200,"station_id":"ce4bhch2rcd13ifvqeug","pricing_plan_id":"cebpf4jnsgd1na2vs0mg"},{"bike_id":"fe4bf4cc-cbf6-4c1d-a146-560439751581","system_id":"levelo_inurba_marseille","lat":43.285856,"lon":5.350771,"is_reserved":false,"is_disabled":false,"rental_uris":{"android":"levelo://app?vid=fe4bf4cc-cbf6-4c1d-a146-560439751581","ios":"levelo://app?vid=fe4bf4cc-cbf6-4c1d-a146-560439751581"},"vehicle_type_id":"4","last_reported":1721405352,"current_range_meters":27200,"station_id":"ce4bhch2rcd13ifvqeug","pricing_plan_id":"cebpf4jnsgd1na2vs0mg"},{"bike_id":"321ab57b-136a-4703-8a5e-5b0af4dc1fc8","system_id":"levelo_inurba_marseille","lat":43.28618,"lon":5.35107,"is_reserved":false,"is_disabled":false,"rental_uris":{"android":"levelo://app?vid=321ab57b-136a-4703-8a5e-5b0af4dc1fc8","ios":"levelo://app?vid=321ab57b-136a-4703-8a5e-5b0af4dc1fc8"},"vehicle_type_id":"4","last_reported":1721405352,"current_range_meters":31200,"station_id":"ce4bhch2rcd13ifvqeug","pricing_plan_id":"cebpf4jnsgd1na2vs0mg"},{"bike_id":"56039a57-1662-42ca-8949-1347c5fde01f","system_id":"levelo_inurba_marseille","lat":43.285856,"lon":5.350771,"is_reserved":false,"is_disabled":false,"rental_uris":{"android":"levelo://app?vid=56039a57-1662-42ca-8949-1347c5fde01f","ios":"levelo://app?vid=56039a57-1662-42ca-8949-1347c5fde01f"},"vehicle_type_id":"4","last_reported":1721405352,"current_range_meters":29200,"station_id":"ce4bhch2rcd13ifvqeug","pricing_plan_id":"cebpf4jnsgd1na2vs0mg"},{"bike_id":"11c16963-829c-4f0b-a9f0-5d7843bd52d4","system_id":"levelo_inurba_marseille","lat":43.28619,"lon":5.35102,"is_reserved":false,"is_disabled":false,"rental_uris":{"android":"levelo://app?vid=11c16963-829c-4f0b-a9f0-5d7843bd52d4","ios":"levelo://app?vid=11c16963-829c-4f0b-a9f0-5d7843bd52d4"},"vehicle_type_id":"4","last_reported":1721405352,"current_range_meters":10800,"station_id":"ce4bhch2rcd13ifvqeug","pricing_plan_id":"cebpf4jnsgd1na2vs0mg"},{"bike_id":"4f07802d-14e2-43c8-aa2a-6f5f72f8adbf","system_id":"levelo_inurba_marseille","lat":43.28615,"lon":5.3511,"is_reserved":false,"is_disabled":false,"rental_uris":{"android":"levelo://app?vid=4f07802d-14e2-43c8-aa2a-6f5f72f8adbf","ios":"levelo://app?vid=4f07802d-14e2-43c8-aa2a-6f5f72f8adbf"},"vehicle_type_id":"4","last_reported":1721405352,"current_range_meters":22800,"station_id":"ce4bhch2rcd13ifvqeug","pricing_plan_id":"cebpf4jnsgd1na2vs0mg"},{"bike_id":"3317d603-bc52-4a72-b49a-be1f808a7319","system_id":"levelo_inurba_marseille","lat":43.28615,"lon":5.35107,"is_reserved":false,"is_disabled":false,"rental_uris":{"android":"levelo://app?vid=3317d603-bc52-4a72-b49a-be1f808a7319","ios":"levelo://app?vid=3317d603-bc52-4a72-b49a-be1f808a7319"},"vehicle_type_id":"4","last_reported":1721405352,"current_range_meters":6400,"station_id":"ce4bhch2rcd13ifvqeug","pricing_plan_id":"cebpf4jnsgd1na2vs0mg"},{"bike_id":"9bacedbe-251e-47d8-877f-318a46a3d97f","system_id":"levelo_inurba_marseille","lat":43.28616,"lon":5.35103,"is_reserved":false,"is_disabled":false,"rental_uris":{"android":"levelo://app?vid=9bacedbe-251e-47d8-877f-318a46a3d97f","ios":"levelo://app?vid=9bacedbe-251e-47d8-877f-318a46a3d97f"},"vehicle_type_id":"4","last_reported":1721405352,"current_range_meters":31200,"station_id":"ce4bhch2rcd13ifvqeug","pricing_plan_id":"cebpf4jnsgd1na2vs0mg"},{"bike_id":"9ab2c131-758a-4b43-89dd-016b9c016f60","system_id":"levelo_inurba_marseille","lat":43.285856,"lon":5.350771,"is_reserved":false,"is_disabled":false,"rental_uris":{"android":"levelo://app?vid=9ab2c131-758a-4b43-89dd-016b9c016f60","ios":"levelo://app?vid=9ab2c131-758a-4b43-89dd-016b9c016f60"},"vehicle_type_id":"4","last_reported":1721405352,"current_range_meters":31200,"station_id":"ce4bhch2rcd13ifvqeug","pricing_plan_id":"cebpf4jnsgd1na2vs0mg"},{"bike_id":"bb16a811-dbce-4ed4-8efc-388a840a8f72","system_id":"levelo_inurba_marseille","lat":43.28614,"lon":5.351086,"is_reserved":false,"is_disabled":false,"rental_uris":{"android":"levelo://app?vid=bb16a811-dbce-4ed4-8efc-388a840a8f72","ios":"levelo://app?vid=bb16a811-dbce-4ed4-8efc-388a840a8f72"},"vehicle_type_id":"4","last_reported":1721405352,"current_range_meters":29600,"station_id":"ce4bhch2rcd13ifvqeug","pricing_plan_id":"cebpf4jnsgd1na2vs0mg"},{"bike_id":"624ac2a3-f6da-4cac-b267-a281fc53663d","system_id":"levelo_inurba_marseille","lat":43.28614,"lon":5.35108,"is_reserved":false,"is_disabled":false,"rental_uris":{"android":"levelo://app?vid=624ac2a3-f6da-4cac-b267-a281fc53663d","ios":"levelo://app?vid=624ac2a3-f6da-4cac-b267-a281fc53663d"},"vehicle_type_id":"4","last_reported":1721405352,"current_range_meters":7600,"station_id":"ce4bhch2rcd13ifvqeug","pricing_plan_id":"cebpf4jnsgd1na2vs0mg"},{"bike_id":"f5f14af6-1515-47e5-bff1-a51a7153c653","system_id":"levelo_inurba_marseille","lat":43.28616,"lon":5.35101,"is_reserved":false,"is_disabled":false,"rental_uris":{"android":"levelo://app?vid=f5f14af6-1515-47e5-bff1-a51a7153c653","ios":"levelo://app?vid=f5f14af6-1515-47e5-bff1-a51a7153c653"},"vehicle_type_id":"4","last_reported":1721405352,"current_range_meters":0,"station_id":"ce4bhch2rcd13ifvqeug","pricing_plan_id":"cebpf4jnsgd1na2vs0mg"},{"bike_id":"fcd1d44a-6fee-41fa-a06e-e203771b06cb","system_id":"levelo_inurba_marseille","lat":43.28615,"lon":5.35103,"is_reserved":false,"is_disabled":false,"rental_uris":{"android":"levelo://app?vid=fcd1d44a-6fee-41fa-a06e-e203771b06cb","ios":"levelo://app?vid=fcd1d44a-6fee-41fa-a06e-e203771b06cb"},"vehicle_type_id":"4","last_reported":1721405352,"current_range_meters":16400,"station_id":"ce4bhch2rcd13ifvqeug","pricing_plan_id":"cebpf4jnsgd1na2vs0mg"},{"bike_id":"88b75c36-9df1-41c1-98d9-bc6d360078c6","system_id":"levelo_inurba_marseille","lat":43.28614,"lon":5.35106,"is_reserved":false,"is_disabled":false,"rental_uris":{"android":"levelo://app?vid=88b75c36-9df1-41c1-98d9-bc6d360078c6","ios":"levelo://app?vid=88b75c36-9df1-41c1-98d9-bc6d360078c6"},"vehicle_type_id":"4","last_reported":1721405352,"current_range_meters":22400,"station_id":"ce4bhch2rcd13ifvqeug","pricing_plan_id":"cebpf4jnsgd1na2vs0mg"},{"bike_id":"3f1bf83f-01a8-47aa-8bad-855bed86a15f","system_id":"levelo_inurba_marseille","lat":43.28614,"lon":5.35105,"is_reserved":false,"is_disabled":false,"rental_uris":{"android":"levelo://app?vid=3f1bf83f-01a8-47aa-8bad-855bed86a15f","ios":"levelo://app?vid=3f1bf83f-01a8-47aa-8bad-855bed86a15f"},"vehicle_type_id":"4","last_reported":1721405352,"current_range_meters":0,"station_id":"ce4bhch2rcd13ifvqeug","pricing_plan_id":"cebpf4jnsgd1na2vs0mg"},{"bike_id":"a9cac9d5-971e-4337-9c34-2508a74c87ac","system_id":"levelo_inurba_marseille","lat":43.28615,"lon":5.35101,"is_reserved":false,"is_disabled":false,"rental_uris":{"android":"levelo://app?vid=a9cac9d5-971e-4337-9c34-2508a74c87ac","ios":"levelo://app?vid=a9cac9d5-971e-4337-9c34-2508a74c87ac"},"vehicle_type_id":"4","last_reported":1721405352,"current_range_meters":19200,"station_id":"ce4bhch2rcd13ifvqeug","pricing_plan_id":"cebpf4jnsgd1na2vs0mg"},{"bike_id":"db5804ca-0927-4d39-9ba1-dfc52bdd38b5","system_id":"levelo_inurba_marseille","lat":43.28614,"lon":5.35104,"is_reserved":false,"is_disabled":false,"rental_uris":{"android":"levelo://app?vid=db5804ca-0927-4d39-9ba1-dfc52bdd38b5","ios":"levelo://app?vid=db5804ca-0927-4d39-9ba1-dfc52bdd38b5"},"vehicle_type_id":"4","last_reported":1721405352,"current_range_meters":20800,"station_id":"ce4bhch2rcd13ifvqeug","pricing_plan_id":"cebpf4jnsgd1na2vs0mg"},{"bike_id":"c1497b21-d888-4e35-a350-a0f9b5d18988","system_id":"levelo_inurba_marseille","lat":43.28614,"lon":5.35104,"is_reserved":false,"is_disabled":false,"rental_uris":{"android":"levelo://app?vid=c1497b21-d888-4e35-a350-a0f9b5d18988","ios":"levelo://app?vid=c1497b21-d888-4e35-a350-a0f9b5d18988"},"vehicle_type_id":"4","last_reported":1721405352,"current_range_meters":7600,"station_id":"ce4bhch2rcd13ifvqeug","pricing_plan_id":"cebpf4jnsgd1na2vs0mg"},{"bike_id":"32e1b000-8f36-4c29-9f9e-311808acc698","system_id":"levelo_inurba_marseille","lat":43.28614,"lon":5.35102,"is_reserved":false,"is_disabled":false,"rental_uris":{"android":"levelo://app?vid=32e1b000-8f36-4c29-9f9e-311808acc698","ios":"levelo://app?vid=32e1b000-8f36-4c29-9f9e-311808acc698"},"vehicle_type_id":"4","last_reported":1721405352,"current_range_meters":31200,"station_id":"ce4bhch2rcd13ifvqeug","pricing_plan_id":"cebpf4jnsgd1na2vs0mg"},{"bike_id":"74ab1e53-4590-4cd4-b8ee-1e62e3d8ac01","system_id":"levelo_inurba_marseille","lat":43.28613,"lon":5.35104,"is_reserved":false,"is_disabled":false,"rental_uris":{"android":"levelo://app?vid=74ab1e53-4590-4cd4-b8ee-1e62e3d8ac01","ios":"levelo://app?vid=74ab1e53-4590-4cd4-b8ee-1e62e3d8ac01"},"vehicle_type_id":"4","last_reported":1721405352,"current_range_meters":25200,"station_id":"ce4bhch2rcd13ifvqeug","pricing_plan_id":"cebpf4jnsgd1na2vs0mg"},{"bike_id":"b1e82b11-1c71-4b79-86e7-e78ea197fd72","system_id":"levelo_inurba_marseille","lat":43.28613,"lon":5.35104,"is_reserved":false,"is_disabled":false,"rental_uris":{"android":"levelo://app?vid=b1e82b11-1c71-4b79-86e7-e78ea197fd72","ios":"levelo://app?vid=b1e82b11-1c71-4b79-86e7-e78ea197fd72"},"vehicle_type_id":"4","last_reported":1721405352,"current_range_meters":27200,"station_id":"ce4bhch2rcd13ifvqeug","pricing_plan_id":"cebpf4jnsgd1na2vs0mg"},{"bike_id":"5d8c4e57-036d-445b-8a6b-bd419cb1e9e0","system_id":"levelo_inurba_marseille","lat":43.28612,"lon":5.35107,"is_reserved":false,"is_disabled":false,"rental_uris":{"android":"levelo://app?vid=5d8c4e57-036d-445b-8a6b-bd419cb1e9e0","ios":"levelo://app?vid=5d8c4e57-036d-445b-8a6b-bd419cb1e9e0"},"vehicle_type_id":"4","last_reported":1721405352,"current_range_meters":14800,"station_id":"ce4bhch2rcd13ifvqeug","pricing_plan_id":"cebpf4jnsgd1na2vs0mg"},{"bike_id":"68492d5d-cc30-47b9-8229-3b8e5a1bd167","system_id":"levelo_inurba_marseille","lat":43.285856,"lon":5.350771,"is_reserved":false,"is_disabled":false,"rental_uris":{"android":"levelo://app?vid=68492d5d-cc30-47b9-8229-3b8e5a1bd167","ios":"levelo://app?vid=68492d5d-cc30-47b9-8229-3b8e5a1bd167"},"vehicle_type_id":"4","last_reported":1721405352,"current_range_meters":29200,"station_id":"ce4bhch2rcd13ifvqeug","pricing_plan_id":"cebpf4jnsgd1na2vs0mg"},{"bike_id":"23685a7d-6ac0-4a6c-84d1-0c06c226ab1e","system_id":"levelo_inurba_marseille","lat":43.285856,"lon":5.350771,"is_reserved":false,"is_disabled":false,"rental_uris":{"android":"levelo://app?vid=23685a7d-6ac0-4a6c-84d1-0c06c226ab1e","ios":"levelo://app?vid=23685a7d-6ac0-4a6c-84d1-0c06c226ab1e"},"vehicle_type_id":"4","last_reported":1721405352,"current_range_meters":31200,"station_id":"ce4bhch2rcd13ifvqeug","pricing_plan_id":"cebpf4jnsgd1na2vs0mg"},{"bike_id":"4c09a479-8fc0-4c87-a15a-c2882c31bba2","system_id":"levelo_inurba_marseille","lat":43.28612,"lon":5.35098,"is_reserved":false,"is_disabled":false,"rental_uris":{"android":"levelo://app?vid=4c09a479-8fc0-4c87-a15a-c2882c31bba2","ios":"levelo://app?vid=4c09a479-8fc0-4c87-a15a-c2882c31bba2"},"vehicle_type_id":"4","last_reported":1721405352,"current_range_meters":22800,"station_id":"ce4bhch2rcd13ifvqeug","pricing_plan_id":"cebpf4jnsgd1na2vs0mg"},{"bike_id":"b5ec4810-5fc9-46a3-a831-6d56d719779e","system_id":"levelo_inurba_marseille","lat":43.286096,"lon":5.351054,"is_reserved":false,"is_disabled":false,"rental_uris":{"android":"levelo://app?vid=b5ec4810-5fc9-46a3-a831-6d56d719779e","ios":"levelo://app?vid=b5ec4810-5fc9-46a3-a831-6d56d719779e"},"vehicle_type_id":"4","last_reported":1721405352,"current_range_meters":30000,"station_id":"ce4bhch2rcd13ifvqeug","pricing_plan_id":"cebpf4jnsgd1na2vs0mg"},{"bike_id":"8bc7f93a-717e-4f92-9253-1207c2a15251","system_id":"levelo_inurba_marseille","lat":43.28611,"lon":5.351,"is_reserved":false,"is_disabled":false,"rental_uris":{"android":"levelo://app?vid=8bc7f93a-717e-4f92-9253-1207c2a15251","ios":"levelo://app?vid=8bc7f93a-717e-4f92-9253-1207c2a15251"},"vehicle_type_id":"4","last_reported":1721405352,"current_range_meters":24800,"station_id":"ce4bhch2rcd13ifvqeug","pricing_plan_id":"cebpf4jnsgd1na2vs0mg"},{"bike_id":"42609ca6-3ac0-432e-98b8-e19d4f0613a4","system_id":"levelo_inurba_marseille","lat":43.2861,"lon":5.35101,"is_reserved":false,"is_disabled":false,"rental_uris":{"android":"levelo://app?vid=42609ca6-3ac0-432e-98b8-e19d4f0613a4","ios":"levelo://app?vid=42609ca6-3ac0-432e-98b8-e19d4f0613a4"},"vehicle_type_id":"4","last_reported":1721405352,"current_range_meters":13600,"station_id":"ce4bhch2rcd13ifvqeug","pricing_plan_id":"cebpf4jnsgd1na2vs0mg"},{"bike_id":"d7eeb3df-27f4-4105-818d-83beaaa7a2be","system_id":"levelo_inurba_marseille","lat":43.28611,"lon":5.35097,"is_reserved":false,"is_disabled":false,"rental_uris":{"android":"levelo://app?vid=d7eeb3df-27f4-4105-818d-83beaaa7a2be","ios":"levelo://app?vid=d7eeb3df-27f4-4105-818d-83beaaa7a2be"},"vehicle_type_id":"4","last_reported":1721405352,"current_range_meters":14800,"station_id":"ce4bhch2rcd13ifvqeug","pricing_plan_id":"cebpf4jnsgd1na2vs0mg"},{"bike_id":"5697f5fd-e679-4087-9be8-40a027b7cde5","system_id":"levelo_inurba_marseille","lat":43.285856,"lon":5.350771,"is_reserved":false,"is_disabled":false,"rental_uris":{"android":"levelo://app?vid=5697f5fd-e679-4087-9be8-40a027b7cde5","ios":"levelo://app?vid=5697f5fd-e679-4087-9be8-40a027b7cde5"},"vehicle_type_id":"4","last_reported":1721405352,"current_range_meters":18000,"station_id":"ce4bhch2rcd13ifvqeug","pricing_plan_id":"cebpf4jnsgd1na2vs0mg"},{"bike_id":"5bec8908-7dc1-4a04-9d47-d70dbfa45d22","system_id":"levelo_inurba_marseille","lat":43.29574,"lon":5.39963,"is_reserved":false,"is_disabled":false,"rental_uris":{"android":"levelo://app?vid=5bec8908-7dc1-4a04-9d47-d70dbfa45d22","ios":"levelo://app?vid=5bec8908-7dc1-4a04-9d47-d70dbfa45d22"},"vehicle_type_id":"4","last_reported":1721405352,"current_range_meters":0,"station_id":"ce4bh312rcd13ifvqdj0","pricing_plan_id":"cebpf4jnsgd1na2vs0mg"},{"bike_id":"c5458681-7ca8-4cec-8fdf-bf8395eca56f","system_id":"levelo_inurba_marseille","lat":43.283998,"lon":5.375062,"is_reserved":false,"is_disabled":false,"rental_uris":{"android":"levelo://app?vid=c5458681-7ca8-4cec-8fdf-bf8395eca56f","ios":"levelo://app?vid=c5458681-7ca8-4cec-8fdf-bf8395eca56f"},"vehicle_type_id":"4","last_reported":1721405352,"current_range_meters":18400,"station_id":"ce4bh412rcd13ifvqds0","pricing_plan_id":"cebpf4jnsgd1na2vs0mg"},{"bike_id":"f32cb4d9-8200-492a-aff7-bfd4b5f0316a","system_id":"levelo_inurba_marseille","lat":43.283998,"lon":5.375062,"is_reserved":false,"is_disabled":false,"rental_uris":{"android":"levelo://app?vid=f32cb4d9-8200-492a-aff7-bfd4b5f0316a","ios":"levelo://app?vid=f32cb4d9-8200-492a-aff7-bfd4b5f0316a"},"vehicle_type_id":"4","last_reported":1721405352,"current_range_meters":2000,"station_id":"ce4bh412rcd13ifvqds0","pricing_plan_id":"cebpf4jnsgd1na2vs0mg"},{"bike_id":"5ca8b89f-5c90-42e6-a9b5-fe595117294c","system_id":"levelo_inurba_marseille","lat":43.286048,"lon":5.383713,"is_reserved":false,"is_disabled":false,"rental_uris":{"android":"levelo://app?vid=5ca8b89f-5c90-42e6-a9b5-fe595117294c","ios":"levelo://app?vid=5ca8b89f-5c90-42e6-a9b5-fe595117294c"},"vehicle_type_id":"4","last_reported":1721405352,"current_range_meters":5200,"station_id":"ce4bh4p2rcd13ifvqe1g","pricing_plan_id":"cebpf4jnsgd1na2vs0mg"},{"bike_id":"bf2896eb-aa36-4837-ba7e-1eb786b03e00","system_id":"levelo_inurba_marseille","lat":43.298037,"lon":5.381066,"is_reserved":false,"is_disabled":false,"rental_uris":{"android":"levelo://app?vid=bf2896eb-aa36-4837-ba7e-1eb786b03e00","ios":"levelo://app?vid=bf2896eb-aa36-4837-ba7e-1eb786b03e00"},"vehicle_type_id":"4","last_reported":1721405352,"current_range_meters":2000,"station_id":"ce4bgip2rcd13ifvqbb0","pricing_plan_id":"cebpf4jnsgd1na2vs0mg"},{"bike_id":"c97c4d69-9e84-42f5-b2c6-ced8bf99daef","system_id":"levelo_inurba_marseille","lat":43.284982,"lon":5.351331,"is_reserved":false,"is_disabled":false,"rental_uris":{"android":"levelo://app?vid=c97c4d69-9e84-42f5-b2c6-ced8bf99daef","ios":"levelo://app?vid=c97c4d69-9e84-42f5-b2c6-ced8bf99daef"},"vehicle_type_id":"4","last_reported":1721405352,"current_range_meters":22000,"station_id":"","pricing_plan_id":"cebpf4jnsgd1na2vs0mg"},{"bike_id":"df48ea9b-83f7-40b8-af16-2d19e8afdebe","system_id":"levelo_inurba_marseille","lat":43.323464,"lon":5.406297,"is_reserved":false,"is_disabled":false,"rental_uris":{"android":"levelo://app?vid=df48ea9b-83f7-40b8-af16-2d19e8afdebe","ios":"levelo://app?vid=df48ea9b-83f7-40b8-af16-2d19e8afdebe"},"vehicle_type_id":"4","last_reported":1721405352,"current_range_meters":11600,"station_id":"ce4bhq92rcd13ifvqhjg","pricing_plan_id":"cebpf4jnsgd1na2vs0mg"},{"bike_id":"e6f542bc-8ea6-4d0c-a08d-43a6c5c6c2e4","system_id":"levelo_inurba_marseille","lat":43.323464,"lon":5.406297,"is_reserved":false,"is_disabled":false,"rental_uris":{"android":"levelo://app?vid=e6f542bc-8ea6-4d0c-a08d-43a6c5c6c2e4","ios":"levelo://app?vid=e6f542bc-8ea6-4d0c-a08d-43a6c5c6c2e4"},"vehicle_type_id":"4","last_reported":1721405352,"current_range_meters":30800,"station_id":"ce4bhq92rcd13ifvqhjg","pricing_plan_id":"cebpf4jnsgd1na2vs0mg"},{"bike_id":"371efaaa-8354-4056-9d70-a2c2ac1cdc6a","system_id":"levelo_inurba_marseille","lat":43.32345,"lon":5.40619,"is_reserved":false,"is_disabled":false,"rental_uris":{"android":"levelo://app?vid=371efaaa-8354-4056-9d70-a2c2ac1cdc6a","ios":"levelo://app?vid=371efaaa-8354-4056-9d70-a2c2ac1cdc6a"},"vehicle_type_id":"4","last_reported":1721405352,"current_range_meters":0,"station_id":"ce4bhq92rcd13ifvqhjg","pricing_plan_id":"cebpf4jnsgd1na2vs0mg"},{"bike_id":"d6fc13ce-375a-44ee-b2fa-f15ebebf57af","system_id":"levelo_inurba_marseille","lat":43.33717,"lon":5.391857,"is_reserved":false,"is_disabled":false,"rental_uris":{"android":"levelo://app?vid=d6fc13ce-375a-44ee-b2fa-f15ebebf57af","ios":"levelo://app?vid=d6fc13ce-375a-44ee-b2fa-f15ebebf57af"},"vehicle_type_id":"4","last_reported":1721405352,"current_range_meters":18400,"station_id":"ce4bhr92rcd13ifvqhsg","pricing_plan_id":"cebpf4jnsgd1na2vs0mg"},{"bike_id":"dcfed4d1-45ea-4b5d-9fdc-4e051e073d47","system_id":"levelo_inurba_marseille","lat":43.32342,"lon":5.40623,"is_reserved":false,"is_disabled":false,"rental_uris":{"android":"levelo://app?vid=dcfed4d1-45ea-4b5d-9fdc-4e051e073d47","ios":"levelo://app?vid=dcfed4d1-45ea-4b5d-9fdc-4e051e073d47"},"vehicle_type_id":"4","last_reported":1721405352,"current_range_meters":1200,"station_id":"ce4bhq92rcd13ifvqhjg","pricing_plan_id":"cebpf4jnsgd1na2vs0mg"},{"bike_id":"109585da-68a7-42e7-91fe-673f22251065","system_id":"levelo_inurba_marseille","lat":43.284793,"lon":5.384113,"is_reserved":false,"is_disabled":false,"rental_uris":{"android":"levelo://app?vid=109585da-68a7-42e7-91fe-673f22251065","ios":"levelo://app?vid=109585da-68a7-42e7-91fe-673f22251065"},"vehicle_type_id":"4","last_reported":1721405352,"current_range_meters":28400,"station_id":"ce4bh512rcd13ifvqe3g","pricing_plan_id":"cebpf4jnsgd1na2vs0mg"},{"bike_id":"c18935d1-1ca5-4111-ab4d-5b2881c77cec","system_id":"levelo_inurba_marseille","lat":43.288497,"lon":5.393089,"is_reserved":false,"is_disabled":false,"rental_uris":{"android":"levelo://app?vid=c18935d1-1ca5-4111-ab4d-5b2881c77cec","ios":"levelo://app?vid=c18935d1-1ca5-4111-ab4d-5b2881c77cec"},"vehicle_type_id":"4","last_reported":1721405352,"current_range_meters":8400,"station_id":"ce4bh2p2rcd13ifvqdi0","pricing_plan_id":"cebpf4jnsgd1na2vs0mg"},{"bike_id":"3206a138-438c-4569-9709-06c0ed4a152c","system_id":"levelo_inurba_marseille","lat":43.284776,"lon":5.385603,"is_reserved":false,"is_disabled":false,"rental_uris":{"android":"levelo://app?vid=3206a138-438c-4569-9709-06c0ed4a152c","ios":"levelo://app?vid=3206a138-438c-4569-9709-06c0ed4a152c"},"vehicle_type_id":"4","last_reported":1721405352,"current_range_meters":0,"station_id":"ce4bh8p2rcd13ifvqeb0","pricing_plan_id":"cebpf4jnsgd1na2vs0mg"},{"bike_id":"c32a8442-8fd9-4066-bf4b-8b4d75250ebd","system_id":"levelo_inurba_marseille","lat":43.28425,"lon":5.34999,"is_reserved":false,"is_disabled":false,"rental_uris":{"android":"levelo://app?vid=c32a8442-8fd9-4066-bf4b-8b4d75250ebd","ios":"levelo://app?vid=c32a8442-8fd9-4066-bf4b-8b4d75250ebd"},"vehicle_type_id":"4","last_reported":1721405352,"current_range_meters":15600,"station_id":"ce4bhbh2rcd13ifvqepg","pricing_plan_id":"cebpf4jnsgd1na2vs0mg"},{"bike_id":"5aacd088-d5a6-4cd3-83a3-c11191736117","system_id":"levelo_inurba_marseille","lat":43.284278,"lon":5.349882,"is_reserved":false,"is_disabled":false,"rental_uris":{"android":"levelo://app?vid=5aacd088-d5a6-4cd3-83a3-c11191736117","ios":"levelo://app?vid=5aacd088-d5a6-4cd3-83a3-c11191736117"},"vehicle_type_id":"4","last_reported":1721405352,"current_range_meters":18800,"station_id":"ce4bhbh2rcd13ifvqepg","pricing_plan_id":"cebpf4jnsgd1na2vs0mg"},{"bike_id":"e72edf5f-de15-4665-91aa-1093aaf660c2","system_id":"levelo_inurba_marseille","lat":43.284214,"lon":5.349706,"is_reserved":false,"is_disabled":false,"rental_uris":{"android":"levelo://app?vid=e72edf5f-de15-4665-91aa-1093aaf660c2","ios":"levelo://app?vid=e72edf5f-de15-4665-91aa-1093aaf660c2"},"vehicle_type_id":"4","last_reported":1721405352,"current_range_meters":9600,"station_id":"ce4bhbh2rcd13ifvqepg","pricing_plan_id":"cebpf4jnsgd1na2vs0mg"},{"bike_id":"bc6dcc68-40f0-4982-a18c-accb1486a91e","system_id":"levelo_inurba_marseille","lat":43.28426,"lon":5.349883,"is_reserved":false,"is_disabled":false,"rental_uris":{"android":"levelo://app?vid=bc6dcc68-40f0-4982-a18c-accb1486a91e","ios":"levelo://app?vid=bc6dcc68-40f0-4982-a18c-accb1486a91e"},"vehicle_type_id":"4","last_reported":1721405352,"current_range_meters":9200,"station_id":"ce4bhbh2rcd13ifvqepg","pricing_plan_id":"cebpf4jnsgd1na2vs0mg"},