{"last_updated":1711436799,"ttl":30,"version":"2.2","data":{"bikes":[{"bike_id":"3274eeee-135d-47cc-83b7-ec35de958beb","system_id":"levelo_inurba_marseille","lat":43.313391,"lon":5.36706,"is_reserved":false,"is_disabled":false,"rental_uris":{"android":"levelo://app?vid=3274eeee-135d-47cc-83b7-ec35de958beb","ios":"levelo://app?vid=3274eeee-135d-47cc-83b7-ec35de958beb"},"vehicle_type_id":"4","last_reported":1711436799,"current_range_meters":24800,"station_id":"ce4bgr92rcd13ifvqc6g","pricing_plan_id":"cebpf4jnsgd1na2vs0mg"},{"bike_id":"d7d47401-643b-4e96-a5b6-f1cb9369e0bf","system_id":"levelo_inurba_marseille","lat":43.313391,"lon":5.36706,"is_reserved":false,"is_disabled":false,"rental_uris":{"android":"levelo://app?vid=d7d47401-643b-4e96-a5b6-f1cb9369e0bf","ios":"levelo://app?vid=d7d47401-643b-4e96-a5b6-f1cb9369e0bf"},"vehicle_type_id":"4","last_reported":1711436799,"current_range_meters":8400,"station_id":"ce4bgr92rcd13ifvqc6g","pricing_plan_id":"cebpf4jnsgd1na2vs0mg"},{"bike_id":"c7288b4f-19de-4080-8b27-fe190ed1182a","system_id":"levelo_inurba_marseille","lat":43.31341,"lon":5.367098,"is_reserved":false,"is_disabled":false,"rental_uris":{"android":"levelo://app?vid=c7288b4f-19de-4080-8b27-fe190ed1182a","ios":"levelo://app?vid=c7288b4f-19de-4080-8b27-fe190ed1182a"},"vehicle_type_id":"4","last_reported":1711436799,"current_range_meters":21200,"station_id":"ce4bgr92rcd13ifvqc6g","pricing_plan_id":"cebpf4jnsgd1na2vs0mg"},{"bike_id":"7df9b438-9540-4774-97a1-a84967abcdd7","system_id":"levelo_inurba_marseille","lat":43.313391,"lon":5.36706,"is_reserved":false,"is_disabled":false,"rental_uris":{"android":"levelo://app?vid=7df9b438-9540-4774-97a1-a84967abcdd7","ios":"levelo://app?vid=7df9b438-9540-4774-97a1-a84967abcdd7"},"vehicle_type_id":"4","last_reported":1711436799,"current_range_meters":23200,"station_id":"ce4bgr92rcd13ifvqc6g","pricing_plan_id":"cebpf4jnsgd1na2vs0mg"},{"bike_id":"9830e22d-1975-4470-ba8d-a2eecb958187","system_id":"levelo_inurba_marseille","lat":43.313391,"lon":5.36706,"is_reserved":false,"is_disabled":false,"rental_uris":{"android":"levelo://app?vid=9830e22d-1975-4470-ba8d-a2eecb958187","ios":"levelo://app?vid=9830e22d-1975-4470-ba8d-a2eecb958187"},"vehicle_type_id":"4","last_reported":1711436799,"current_range_meters":20400,"station_id":"ce4bgr92rcd13ifvqc6g","pricing_plan_id":"cebpf4jnsgd1na2vs0mg"},{"bike_id":"6fe4f311-e94e-46b3-9972-c0f66b5ce041","system_id":"levelo_inurba_marseille","lat":43.313391,"lon":5.36706,"is_reserved":false,"is_disabled":false,"rental_uris":{"android":"levelo://app?vid=6fe4f311-e94e-46b3-9972-c0f66b5ce041","ios":"levelo://app?vid=6fe4f311-e94e-46b3-9972-c0f66b5ce041"},"vehicle_type_id":"4","last_reported":1711436799,"current_range_meters":20400,"station_id":"ce4bgr92rcd13ifvqc6g","pricing_plan_id":"cebpf4jnsgd1na2vs0mg"},{"bike_id":"900a7e75-c4fb-4946-be33-30b7f0dbb8dc","system_id":"levelo_inurba_marseille","lat":43.31341,"lon":5.367098,"is_reserved":false,"is_disabled":false,"rental_uris":{"android":"levelo://app?vid=900a7e75-c4fb-4946-be33-30b7f0dbb8dc","ios":"levelo://app?vid=900a7e75-c4fb-4946-be33-30b7f0dbb8dc"},"vehicle_type_id":"4","last_reported":1711436799,"current_range_meters":17600,"station_id":"ce4bgr92rcd13ifvqc6g","pricing_plan_id":"cebpf4jnsgd1na2vs0mg"},{"bike_id":"2fa0b8c4-d1cb-4a11-8c0e-4a29cbcede26","system_id":"levelo_inurba_marseille","lat":43.31341,"lon":5.367098,"is_reserved":false,"is_disabled":false,"rental_uris":{"android":"levelo://app?vid=2fa0b8c4-d1cb-4a11-8c0e-4a29cbcede26","ios":"levelo://app?vid=2fa0b8c4-d1cb-4a11-8c0e-4a29cbcede26"},"vehicle_type_id":"4","last_reported":1711436799,"current_range_meters":30000,"station_id":"ce4bgr92rcd13ifvqc6g","pricing_plan_id":"cebpf4jnsgd1na2vs0mg"},{"bike_id":"c9e426dc-a5dc-4bcf-bcb3-3df94e7e6e52","system_id":"levelo_inurba_marseille","lat":43.31341,"lon":5.367098,"is_reserved":false,"is_disabled":false,"rental_uris":{"android":"levelo://app?vid=c9e426dc-a5dc-4bcf-bcb3-3df94e7e6e52","ios":"levelo://app?vid=c9e426dc-a5dc-4bcf-bcb3-3df94e7e6e52"},"vehicle_type_id":"4","last_reported":1711436799,"current_range_meters":24000,"station_id":"ce4bgr92rcd13ifvqc6g","pricing_plan_id":"cebpf4jnsgd1na2vs0mg"},{"bike_id":"6214468b-7142-491f-87bd-7df55f894ccf","system_id":"levelo_inurba_marseille","lat":43.313391,"lon":5.36706,"is_reserved":false,"is_disabled":false,"rental_uris":{"android":"levelo://app?vid=6214468b-7142-491f-87bd-7df55f894ccf","ios":"levelo://app?vid=6214468b-7142-491f-87bd-7df55f894ccf"},"vehicle_type_id":"4","last_reported":1711436799,"current_range_meters":31200,"station_id":"ce4bgr92rcd13ifvqc6g","pricing_plan_id":"cebpf4jnsgd1na2vs0mg"},{"bike_id":"466e3f13-ac6e-44bf-bc1f-63cf360907f5","system_id":"levelo_inurba_marseille","lat":43.31228,"lon":5.36857,"is_reserved":false,"is_disabled":false,"rental_uris":{"android":"levelo://app?vid=466e3f13-ac6e-44bf-bc1f-63cf360907f5","ios":"levelo://app?vid=466e3f13-ac6e-44bf-bc1f-63cf360907f5"},"vehicle_type_id":"4","last_reported":1711436799,"current_range_meters":22000,"station_id":"ce4bgl92rcd13ifvqbq0","pricing_plan_id":"cebpf4jnsgd1na2vs0mg"},{"bike_id":"b5933ab8-72dd-4095-a115-548aa50410bd","system_id":"levelo_inurba_marseille","lat":43.312235,"lon":5.368648,"is_reserved":false,"is_disabled":false,"rental_uris":{"android":"levelo://app?vid=b5933ab8-72dd-4095-a115-548aa50410bd","ios":"levelo://app?vid=b5933ab8-72dd-4095-a115-548aa50410bd"},"vehicle_type_id":"4","last_reported":1711436799,"current_range_meters":24800,"station_id":"ce4bgl92rcd13ifvqbq0","pricing_plan_id":"cebpf4jnsgd1na2vs0mg"},{"bike_id":"3cdc4b8e-cc7a-4ea9-b529-81ad42df707f","system_id":"levelo_inurba_marseille","lat":43.309076,"lon":5.368465,"is_reserved":false,"is_disabled":false,"rental_uris":{"android":"levelo://app?vid=3cdc4b8e-cc7a-4ea9-b529-81ad42df707f","ios":"levelo://app?vid=3cdc4b8e-cc7a-4ea9-b529-81ad42df707f"},"vehicle_type_id":"4","last_reported":1711436799,"current_range_meters":22400,"station_id":"ce4bgn92rcd13ifvqbvg","pricing_plan_id":"cebpf4jnsgd1na2vs0mg"},{"bike_id":"6ebec298-7ee9-4246-b42c-d56319a20863","system_id":"levelo_inurba_marseille","lat":43.309076,"lon":5.368465,"is_reserved":false,"is_disabled":false,"rental_uris":{"android":"levelo://app?vid=6ebec298-7ee9-4246-b42c-d56319a20863","ios":"levelo://app?vid=6ebec298-7ee9-4246-b42c-d56319a20863"},"vehicle_type_id":"4","last_reported":1711436799,"current_range_meters":4000,"station_id":"ce4bgn92rcd13ifvqbvg","pricing_plan_id":"cebpf4jnsgd1na2vs0mg"},{"bike_id":"efd49b58-bd45-4ace-8506-7c3d2aa2dbc5","system_id":"levelo_inurba_marseille","lat":43.309076,"lon":5.368465,"is_reserved":false,"is_disabled":false,"rental_uris":{"android":"levelo://app?vid=efd49b58-bd45-4ace-8506-7c3d2aa2dbc5","ios":"levelo://app?vid=efd49b58-bd45-4ace-8506-7c3d2aa2dbc5"},"vehicle_type_id":"4","last_reported":1711436799,"current_range_meters":16000,"station_id":"ce4bgn92rcd13ifvqbvg","pricing_plan_id":"cebpf4jnsgd1na2vs0mg"},{"bike_id":"c32e2564-4fc3-4006-9ed6-c179a23c67ed","system_id":"levelo_inurba_marseille","lat":43.309076,"lon":5.368465,"is_reserved":false,"is_disabled":false,"rental_uris":{"android":"levelo://app?vid=c32e2564-4fc3-4006-9ed6-c179a23c67ed","ios":"levelo://app?vid=c32e2564-4fc3-4006-9ed6-c179a23c67ed"},"vehicle_type_id":"4","last_reported":1711436799,"current_range_meters":10000,"station_id":"ce4bgn92rcd13ifvqbvg","pricing_plan_id":"cebpf4jnsgd1na2vs0mg"},{"bike_id":"a254e217-9097-48a7-a78f-80fd717170d7","system_id":"levelo_inurba_marseille","lat":43.309076,"lon":5.368465,"is_reserved":false,"is_disabled":false,"rental_uris":{"android":"levelo://app?vid=a254e217-9097-48a7-a78f-80fd717170d7","ios":"levelo://app?vid=a254e217-9097-48a7-a78f-80fd717170d7"},"vehicle_type_id":"4","last_reported":1711436799,"current_range_meters":28000,"station_id":"ce4bgn92rcd13ifvqbvg","pricing_plan_id":"cebpf4jnsgd1na2vs0mg"},{"bike_id":"8204f04d-7d46-40d0-a794-0a60c4915ba6","system_id":"levelo_inurba_marseille","lat":43.309076,"lon":5.368465,"is_reserved":false,"is_disabled":false,"rental_uris":{"android":"levelo://app?vid=8204f04d-7d46-40d0-a794-0a60c4915ba6","ios":"levelo://app?vid=8204f04d-7d46-40d0-a794-0a60c4915ba6"},"vehicle_type_id":"4","last_reported":1711436799,"current_range_meters":28800,"station_id":"ce4bgn92rcd13ifvqbvg","pricing_plan_id":"cebpf4jnsgd1na2vs0mg"},{"bike_id":"32aceb33-726f-4499-aa18-737cc3e4691b","system_id":"levelo_inurba_marseille","lat":43.309076,"lon":5.368465,"is_reserved":false,"is_disabled":false,"rental_uris":{"android":"levelo://app?vid=32aceb33-726f-4499-aa18-737cc3e4691b","ios":"levelo://app?vid=32aceb33-726f-4499-aa18-737cc3e4691b"},"vehicle_type_id":"4","last_reported":1711436799,"current_range_meters":22400,"station_id":"ce4bgn92rcd13ifvqbvg","pricing_plan_id":"cebpf4jnsgd1na2vs0mg"},{"bike_id":"04e07203-a8d3-4748-a4a4-ce74b06b1176","system_id":"levelo_inurba_marseille","lat":43.314811,"lon":5.373103,"is_reserved":false,"is_disabled":false,"rental_uris":{"android":"levelo://app?vid=04e07203-a8d3-4748-a4a4-ce74b06b1176","ios":"levelo://app?vid=04e07203-a8d3-4748-a4a4-ce74b06b1176"},"vehicle_type_id":"4","last_reported":1711436799,"current_range_meters":24400,"station_id":"ce4bgt12rcd13ifvqcd0","pricing_plan_id":"cebpf4jnsgd1na2vs0mg"},{"bike_id":"f0334a92-5930-476f-8420-51cfcc0f4787","system_id":"levelo_inurba_marseille","lat":43.314811,"lon":5.373103,"is_reserved":false,"is_disabled":false,"rental_uris":{"android":"levelo://app?vid=f0334a92-5930-476f-8420-51cfcc0f4787","ios":"levelo://app?vid=f0334a92-5930-476f-8420-51cfcc0f4787"},"vehicle_type_id":"4","last_reported":1711436799,"current_range_meters":14800,"station_id":"ce4bgt12rcd13ifvqcd0","pricing_plan_id":"cebpf4jnsgd1na2vs0mg"},{"bike_id":"3672d290-b867-417a-9fef-1e6cc79107f7","system_id":"levelo_inurba_marseille","lat":43.308944,"lon":5.371927,"is_reserved":false,"is_disabled":false,"rental_uris":{"android":"levelo://app?vid=3672d290-b867-417a-9fef-1e6cc79107f7","ios":"levelo://app?vid=3672d290-b867-417a-9fef-1e6cc79107f7"},"vehicle_type_id":"4","last_reported":1711436799,"current_range_meters":17600,"station_id":"ce4bguh2rcd13ifvqckg","pricing_plan_id":"cebpf4jnsgd1na2vs0mg"},{"bike_id":"f7588ebb-d04f-4ce3-92c9-a6124ea0012e","system_id":"levelo_inurba_marseille","lat":43.309039,"lon":5.371797,"is_reserved":false,"is_disabled":false,"rental_uris":{"android":"levelo://app?vid=f7588ebb-d04f-4ce3-92c9-a6124ea0012e","ios":"levelo://app?vid=f7588ebb-d04f-4ce3-92c9-a6124ea0012e"},"vehicle_type_id":"4","last_reported":1711436799,"current_range_meters":12800,"station_id":"ce4bguh2rcd13ifvqckg","pricing_plan_id":"cebpf4jnsgd1na2vs0mg"},{"bike_id":"6afbf574-8a58-4a8e-88d5-44119b4ba6ce","system_id":"levelo_inurba_marseille","lat":43.309034,"lon":5.371783,"is_reserved":false,"is_disabled":false,"rental_uris":{"android":"levelo://app?vid=6afbf574-8a58-4a8e-88d5-44119b4ba6ce","ios":"levelo://app?vid=6afbf574-8a58-4a8e-88d5-44119b4ba6ce"},"vehicle_type_id":"4","last_reported":1711436799,"current_range_meters":12400,"station_id":"ce4bguh2rcd13ifvqckg","pricing_plan_id":"cebpf4jnsgd1na2vs0mg"},{"bike_id":"a65ec720-711f-44ea-a0d0-fdb80b41ca69","system_id":"levelo_inurba_marseille","lat":43.309034,"lon":5.371783,"is_reserved":false,"is_disabled":false,"rental_uris":{"android":"levelo://app?vid=a65ec720-711f-44ea-a0d0-fdb80b41ca69","ios":"levelo://app?vid=a65ec720-711f-44ea-a0d0-fdb80b41ca69"},"vehicle_type_id":"4","last_reported":1711436799,"current_range_meters":18400,"station_id":"ce4bguh2rcd13ifvqckg","pricing_plan_id":"cebpf4jnsgd1na2vs0mg"},{"bike_id":"a19d9850-1dbb-4386-81f9-2938b1edd2f2","system_id":"levelo_inurba_marseille","lat":43.305368,"lon":5.367343,"is_reserved":false,"is_disabled":false,"rental_uris":{"android":"levelo://app?vid=a19d9850-1dbb-4386-81f9-2938b1edd2f2","ios":"levelo://app?vid=a19d9850-1dbb-4386-81f9-2938b1edd2f2"},"vehicle_type_id":"4","last_reported":1711436799,"current_range_meters":24000,"station_id":"ce4bgrp2rcd13ifvqc9g","pricing_plan_id":"cebpf4jnsgd1na2vs0mg"},{"bike_id":"10a22abd-7bc5-4459-9ca3-6205ae745f43","system_id":"levelo_inurba_marseille","lat":43.305706,"lon":5.365654,"is_reserved":false,"is_disabled":false,"rental_uris":{"android":"levelo://app?vid=10a22abd-7bc5-4459-9ca3-6205ae745f43","ios":"levelo://app?vid=10a22abd-7bc5-4459-9ca3-6205ae745f43"},"vehicle_type_id":"4","last_reported":1711436799,"current_range_meters":28000,"station_id":"ce4bgs12rcd13ifvqcag","pricing_plan_id":"cebpf4jnsgd1na2vs0mg"},{"bike_id":"dd9ffa2f-b022-446c-9185-dd61607b6f04","system_id":"levelo_inurba_marseille","lat":43.305368,"lon":5.367343,"is_reserved":false,"is_disabled":false,"rental_uris":{"android":"levelo://app?vid=dd9ffa2f-b022-446c-9185-dd61607b6f04","ios":"levelo://app?vid=dd9ffa2f-b022-446c-9185-dd61607b6f04"},"vehicle_type_id":"4","last_reported":1711436799,"current_range_meters":25200,"station_id":"ce4bgrp2rcd13ifvqc9g","pricing_plan_id":"cebpf4jnsgd1na2vs0mg"},{"bike_id":"475d6770-dbfc-4fee-ac2d-3dfd245ca69d","system_id":"levelo_inurba_marseille","lat":43.305368,"lon":5.367343,"is_reserved":false,"is_disabled":false,"rental_uris":{"android":"levelo://app?vid=475d6770-dbfc-4fee-ac2d-3dfd245ca69d","ios":"levelo://app?vid=475d6770-dbfc-4fee-ac2d-3dfd245ca69d"},"vehicle_type_id":"4","last_reported":1711436799,"current_range_meters":18800,"station_id":"ce4bgrp2rcd13ifvqc9g","pricing_plan_id":"cebpf4jnsgd1na2vs0mg"},{"bike_id":"e2e93cbe-e1df-4742-a1ac-54c36221e0ab","system_id":"levelo_inurba_marseille","lat":43.305368,"lon":5.367343,"is_reserved":false,"is_disabled":false,"rental_uris":{"android":"levelo://app?vid=e2e93cbe-e1df-4742-a1ac-54c36221e0ab","ios":"levelo://app?vid=e2e93cbe-e1df-4742-a1ac-54c36221e0ab"},"vehicle_type_id":"4","last_reported":1711436799,"current_range_meters":25600,"station_id":"ce4bgrp2rcd13ifvqc9g","pricing_plan_id":"cebpf4jnsgd1na2vs0mg"},{"bike_id":"06cc3bed-0570-4736-b776-44f051105ed5","system_id":"levelo_inurba_marseille","lat":43.305706,"lon":5.365654,"is_reserved":false,"is_disabled":false,"rental_uris":{"android":"levelo://app?vid=06cc3bed-0570-4736-b776-44f051105ed5","ios":"levelo://app?vid=06cc3bed-0570-4736-b776-44f051105ed5"},"vehicle_type_id":"4","last_reported":1711436799,"current_range_meters":4800,"station_id":"ce4bgs12rcd13ifvqcag","pricing_plan_id":"cebpf4jnsgd1na2vs0mg"},{"bike_id":"fdfa15b6-eb5b-4c58-a3ba-20088d1d729b","system_id":"levelo_inurba_marseille","lat":43.30541,"lon":5.36557,"is_reserved":false,"is_disabled":false,"rental_uris":{"android":"levelo://app?vid=fdfa15b6-eb5b-4c58-a3ba-20088d1d729b","ios":"levelo://app?vid=fdfa15b6-eb5b-4c58-a3ba-20088d1d729b"},"vehicle_type_id":"4","last_reported":1711436799,"current_range_meters":12800,"station_id":"ce4bgs12rcd13ifvqcag","pricing_plan_id":"cebpf4jnsgd1na2vs0mg"},{"bike_id":"30aaeccf-4425-4a5b-b1d8-855c64e3379c","system_id":"levelo_inurba_marseille","lat":43.305706,"lon":5.365654,"is_reserved":false,"is_disabled":false,"rental_uris":{"android":"levelo://app?vid=30aaeccf-4425-4a5b-b1d8-855c64e3379c","ios":"levelo://app?vid=30aaeccf-4425-4a5b-b1d8-855c64e3379c"},"vehicle_type_id":"4","last_reported":1711436799,"current_range_meters":26800,"station_id":"ce4bgs12rcd13ifvqcag","pricing_plan_id":"cebpf4jnsgd1na2vs0mg"},{"bike_id":"d0aa1942-34f2-4c38-acb8-a6d2da4aa2b6","system_id":"levelo_inurba_marseille","lat":43.305706,"lon":5.365654,"is_reserved":false,"is_disabled":false,"rental_uris":{"android":"levelo://app?vid=d0aa1942-34f2-4c38-acb8-a6d2da4aa2b6","ios":"levelo://app?vid=d0aa1942-34f2-4c38-acb8-a6d2da4aa2b6"},"vehicle_type_id":"4","last_reported":1711436799,"current_range_meters":14000,"station_id":"ce4bgs12rcd13ifvqcag","pricing_plan_id":"cebpf4jnsgd1na2vs0mg"},{"bike_id":"5e3433b5-d3c4-43f2-8051-3a2d6586b8fb","system_id":"levelo_inurba_marseille","lat":43.305317,"lon":5.367009,"is_reserved":false,"is_disabled":false,"rental_uris":{"android":"levelo://app?vid=5e3433b5-d3c4-43f2-8051-3a2d6586b8fb","ios":"levelo://app?vid=5e3433b5-d3c4-43f2-8051-3a2d6586b8fb"},"vehicle_type_id":"4","last_reported":1711436799,"current_range_meters":800,"station_id":"ce4bgrp2rcd13ifvqc9g","pricing_plan_id":"cebpf4jnsgd1na2vs0mg"},{"bike_id":"7c43f844-c15d-4db3-9b15-18d50b632101","system_id":"levelo_inurba_marseille","lat":43.305368,"lon":5.367343,"is_reserved":false,"is_disabled":false,"rental_uris":{"android":"levelo://app?vid=7c43f844-c15d-4db3-9b15-18d50b632101","ios":"levelo://app?vid=7c43f844-c15d-4db3-9b15-18d50b632101"},"vehicle_type_id":"4","last_reported":1711436799,"current_range_meters":22400,"station_id":"ce4bgrp2rcd13ifvqc9g","pricing_plan_id":"cebpf4jnsgd1na2vs0mg"},{"bike_id":"5b5cdb31-2412-4fc3-93d5-b8a7b2a53893","system_id":"levelo_inurba_marseille","lat":43.31119,"lon":5.37766,"is_reserved":false,"is_disabled":false,"rental_uris":{"android":"levelo://app?vid=5b5cdb31-2412-4fc3-93d5-b8a7b2a53893","ios":"levelo://app?vid=5b5cdb31-2412-4fc3-93d5-b8a7b2a53893"},"vehicle_type_id":"4","last_reported":1711436799,"current_range_meters":28400,"station_id":"ce4bgt92rcd13ifvqcg0","pricing_plan_id":"cebpf4jnsgd1na2vs0mg"},{"bike_id":"ee95c5b4-e4d9-43f5-bd11-04b6bec40863","system_id":"levelo_inurba_marseille","lat":43.31114,"lon":5.37777,"is_reserved":false,"is_disabled":false,"rental_uris":{"android":"levelo://app?vid=ee95c5b4-e4d9-43f5-bd11-04b6bec40863","ios":"levelo://app?vid=ee95c5b4-e4d9-43f5-bd11-04b6bec40863"},"vehicle_type_id":"4","last_reported":1711436799,"current_range_meters":12800,"station_id":"ce4bgt92rcd13ifvqcg0","pricing_plan_id":"cebpf4jnsgd1na2vs0mg"},{"bike_id":"56841b4a-a43c-4915-b29f-509c98cabf43","system_id":"levelo_inurba_marseille","lat":43.303046,"lon":5.368981,"is_reserved":false,"is_disabled":false,"rental_uris":{"android":"levelo://app?vid=56841b4a-a43c-4915-b29f-509c98cabf43","ios":"levelo://app?vid=56841b4a-a43c-4915-b29f-509c98cabf43"},"vehicle_type_id":"4","last_reported":1711436799,"current_range_meters":23600,"station_id":"ce4bgqh2rcd13ifvqc5g","pricing_plan_id":"cebpf4jnsgd1na2vs0mg"},{"bike_id":"ff42b60c-3524-4cad-be6b-0eb470ad97dc","system_id":"levelo_inurba_marseille","lat":43.307945,"lon":5.376487,"is_reserved":false,"is_disabled":false,"rental_uris":{"android":"levelo://app?vid=ff42b60c-3524-4cad-be6b-0eb470ad97dc","ios":"levelo://app?vid=ff42b60c-3524-4cad-be6b-0eb470ad97dc"},"vehicle_type_id":"4","last_reported":1711436799,"current_range_meters":26400,"station_id":"ce4bgv92rcd13ifvqcq0","pricing_plan_id":"cebpf4jnsgd1na2vs0mg"},{"bike_id":"07998814-84a2-4311-a30b-eb2c4477a0f2","system_id":"levelo_inurba_marseille","lat":43.307945,"lon":5.376487,"is_reserved":false,"is_disabled":false,"rental_uris":{"android":"levelo://app?vid=07998814-84a2-4311-a30b-eb2c4477a0f2","ios":"levelo://app?vid=07998814-84a2-4311-a30b-eb2c4477a0f2"},"vehicle_type_id":"4","last_reported":1711436799,"current_range_meters":26800,"station_id":"ce4bgv92rcd13ifvqcq0","pricing_plan_id":"cebpf4jnsgd1na2vs0mg"},{"bike_id":"d77f755d-b037-4442-bdc8-9671d97db5c4","system_id":"levelo_inurba_marseille","lat":43.307945,"lon":5.376487,"is_reserved":false,"is_disabled":false,"rental_uris":{"android":"levelo://app?vid=d77f755d-b037-4442-bdc8-9671d97db5c4","ios":"levelo://app?vid=d77f755d-b037-4442-bdc8-9671d97db5c4"},"vehicle_type_id":"4","last_reported":1711436799,"current_range_meters":18000,"station_id":"ce4bgv92rcd13ifvqcq0","pricing_plan_id":"cebpf4jnsgd1na2vs0mg"},{"bike_id":"fa12fedc-c150-4959-8172-462b429a0446","system_id":"levelo_inurba_marseille","lat":43.317075,"lon":5.377367,"is_reserved":false,"is_disabled":false,"rental_uris":{"android":"levelo://app?vid=fa12fedc-c150-4959-8172-462b429a0446","ios":"levelo://app?vid=fa12fedc-c150-4959-8172-462b429a0446"},"vehicle_type_id":"4","last_reported":1711436799,"current_range_meters":11200,"station_id":"ce4bgth2rcd13ifvqch0","pricing_plan_id":"cebpf4jnsgd1na2vs0mg"},{"bike_id":"2f4ca2c6-f10b-45f1-81d5-2ec4bff30e46","system_id":"levelo_inurba_marseille","lat":43.31664,"lon":5.37773,"is_reserved":false,"is_disabled":false,"rental_uris":{"android":"levelo://app?vid=2f4ca2c6-f10b-45f1-81d5-2ec4bff30e46","ios":"levelo://app?vid=2f4ca2c6-f10b-45f1-81d5-2ec4bff30e46"},"vehicle_type_id":"4","last_reported":1711436799,"current_range_meters":7200,"station_id":"","pricing_plan_id":"cebpf4jnsgd1na2vs0mg"},{"bike_id":"939b6bf5-1fce-4acd-bd94-4a1c05f12092","system_id":"levelo_inurba_marseille","lat":43.317085,"lon":5.377516,"is_reserved":false,"is_disabled":false,"rental_uris":{"android":"levelo://app?vid=939b6bf5-1fce-4acd-bd94-4a1c05f12092","ios":"levelo://app?vid=939b6bf5-1fce-4acd-bd94-4a1c05f12092"},"vehicle_type_id":"4","last_reported":1711436799,"current_range_meters":5200,"station_id":"ce4bgth2rcd13ifvqch0","pricing_plan_id":"cebpf4jnsgd1na2vs0mg"},{"bike_id":"d2073c47-2589-4717-856d-e95a22e82f22","system_id":"levelo_inurba_marseille","lat":43.30304,"lon":5.368987,"is_reserved":false,"is_disabled":false,"rental_uris":{"android":"levelo://app?vid=d2073c47-2589-4717-856d-e95a22e82f22","ios":"levelo://app?vid=d2073c47-2589-4717-856d-e95a22e82f22"},"vehicle_type_id":"4","last_reported":1711436799,"current_range_meters":22800,"station_id":"ce4bgqh2rcd13ifvqc5g","pricing_plan_id":"cebpf4jnsgd1na2vs0mg"},{"bike_id":"078fdd96-59e3-4cc4-b264-5370fd541429","system_id":"levelo_inurba_marseille","lat":43.303046,"lon":5.368981,"is_reserved":false,"is_disabled":false,"rental_uris":{"android":"levelo://app?vid=078fdd96-59e3-4cc4-b264-5370fd541429","ios":"levelo://app?vid=078fdd96-59e3-4cc4-b264-5370fd541429"},"vehicle_type_id":"4","last_reported":1711436799,"current_range_meters":24400,"station_id":"ce4bgqh2rcd13ifvqc5g","pricing_plan_id":"cebpf4jnsgd1na2vs0mg"},{"bike_id":"7526b5bd-7103-44e0-91cc-ab5a7745e752","system_id":"levelo_inurba_marseille","lat":43.303046,"lon":5.368981,"is_reserved":false,"is_disabled":false,"rental_uris":{"android":"levelo://app?vid=7526b5bd-7103-44e0-91cc-ab5a7745e752","ios":"levelo://app?vid=7526b5bd-7103-44e0-91cc-ab5a7745e752"},"vehicle_type_id":"4","last_reported":1711436799,"current_range_meters":2000,"station_id":"ce4bgqh2rcd13ifvqc5g","pricing_plan_id":"cebpf4jnsgd1na2vs0mg"},{"bike_id":"1b7235a3-8635-4d75-9bad-6dd20d8eb2c5","system_id":"levelo_inurba_marseille","lat":43.303046,"lon":5.368981,"is_reserved":false,"is_disabled":false,"rental_uris":{"android":"levelo://app?vid=1b7235a3-8635-4d75-9bad-6dd20d8eb2c5","ios":"levelo://app?vid=1b7235a3-8635-4d75-9bad-6dd20d8eb2c5"},"vehicle_type_id":"4","last_reported":1711436799,"current_range_meters":24400,"station_id":"ce4bgqh2rcd13ifvqc5g","pricing_plan_id":"cebpf4jnsgd1na2vs0mg"},{"bike_id":"c65f7ee2-5e3a-491a-896e-a3ba8058f6db","system_id":"levelo_inurba_marseille","lat":43.30304,"lon":5.368987,"is_reserved":false,"is_disabled":false,"rental_uris":{"android":"levelo://app?vid=c65f7ee2-5e3a-491a-896e-a3ba8058f6db","ios":"levelo://app?vid=c65f7ee2-5e3a-491a-896e-a3ba8058f6db"},"vehicle_type_id":"4","last_reported":1711436799,"current_range_meters":4400,"station_id":"ce4bgqh2rcd13ifvqc5g","pricing_plan_id":"cebpf4jnsgd1na2vs0mg"},{"bike_id":"ac99bd84-6c08-4261-80b5-1fd219569640","system_id":"levelo_inurba_marseille","lat":43.303046,"lon":5.368981,"is_reserved":false,"is_disabled":false,"rental_uris":{"android":"levelo://app?vid=ac99bd84-6c08-4261-80b5-1fd219569640","ios":"levelo://app?vid=ac99bd84-6c08-4261-80b5-1fd219569640"},"vehicle_type_id":"4","last_reported":1711436799,"current_range_meters":23200,"station_id":"ce4bgqh2rcd13ifvqc5g","pricing_plan_id":"cebpf4jnsgd1na2vs0mg"},{"bike_id":"fc2b475c-7fdd-4e3d-a5f0-7b06a3e37fd6","system_id":"levelo_inurba_marseille","lat":43.30304,"lon":5.368987,"is_reserved":false,"is_disabled":false,"rental_uris":{"android":"levelo://app?vid=fc2b475c-7fdd-4e3d-a5f0-7b06a3e37fd6","ios":"levelo://app?vid=fc2b475c-7fdd-4e3d-a5f0-7b06a3e37fd6"},"vehicle_type_id":"4","last_reported":1711436799,"current_range_meters":800,"station_id":"ce4bgqh2rcd13ifvqc5g","pricing_plan_id":"cebpf4jnsgd1na2vs0mg"},{"bike_id":"1db4273c-5714-4d6a-a430-4f9f73ffbe01","system_id":"levelo_inurba_marseille","lat":43.303046,"lon":5.368981,"is_reserved":false,"is_disabled":false,"rental_uris":{"android":"levelo://app?vid=1db4273c-5714-4d6a-a430-4f9f73ffbe01","ios":"levelo://app?vid=1db4273c-5714-4d6a-a430-4f9f73ffbe01"},"vehicle_type_id":"4","last_reported":1711436799,"current_range_meters":22800,"station_id":"ce4bgqh2rcd13ifvqc5g","pricing_plan_id":"cebpf4jnsgd1na2vs0mg"},{"bike_id":"90e2b910-b521-40ff-9d18-77d7ab766fae","system_id":"levelo_inurba_marseille","lat":43.30304,"lon":5.368987,"is_reserved":false,"is_disabled":false,"rental_uris":{"android":"levelo://app?vid=90e2b910-b521-40ff-9d18-77d7ab766fae","ios":"levelo://app?vid=90e2b910-b521-40ff-9d18-77d7ab766fae"},"vehicle_type_id":"4","last_reported":1711436799,"current_range_meters":18400,"station_id":"ce4bgqh2rcd13ifvqc5g","pricing_plan_id":"cebpf4jnsgd1na2vs0mg"},{"bike_id":"4a88a868-c198-4671-9b02-814cbf41b977","system_id":"levelo_inurba_marseille","lat":43.315289,"lon":5.380349,"is_reserved":false,"is_disabled":false,"rental_uris":{"android":"levelo://app?vid=4a88a868-c198-4671-9b02-814cbf41b977","ios":"levelo://app?vid=4a88a868-c198-4671-9b02-814cbf41b977"},"vehicle_type_id":"4","last_reported":1711436799,"current_range_meters":26400,"station_id":"ce4bhsp2rcd13ifvqi50","pricing_plan_id":"cebpf4jnsgd1na2vs0mg"},{"bike_id":"68bcaff6-c169-448d-82e9-b5405e03ddca","system_id":"levelo_inurba_marseille","lat":43.308012,"lon":5.381511,"is_reserved":false,"is_disabled":false,"rental_uris":{"android":"levelo://app?vid=68bcaff6-c169-448d-82e9-b5405e03ddca","ios":"levelo://app?vid=68bcaff6-c169-448d-82e9-b5405e03ddca"},"vehicle_type_id":"4","last_reported":1711436799,"current_range_meters":22800,"station_id":"ce4bgt12rcd13ifvqce0","pricing_plan_id":"cebpf4jnsgd1na2vs0mg"},{"bike_id":"12be5ff7-81c8-4883-b903-f46e1f342699","system_id":"levelo_inurba_marseille","lat":43.308012,"lon":5.381511,"is_reserved":false,"is_disabled":false,"rental_uris":{"android":"levelo://app?vid=12be5ff7-81c8-4883-b903-f46e1f342699","ios":"levelo://app?vid=12be5ff7-81c8-4883-b903-f46e1f342699"},"vehicle_type_id":"4","last_reported":1711436799,"current_range_meters":19600,"station_id":"ce4bgt12rcd13ifvqce0","pricing_plan_id":"cebpf4jnsgd1na2vs0mg"},{"bike_id":"aa5b0390-5d05-4819-bc6b-6552633e7bed","system_id":"levelo_inurba_marseille","lat":43.308012,"lon":5.381511,"is_reserved":false,"is_disabled":false,"rental_uris":{"android":"levelo://app?vid=aa5b0390-5d05-4819-bc6b-6552633e7bed","ios":"levelo://app?vid=aa5b0390-5d05-4819-bc6b-6552633e7bed"},"vehicle_type_id":"4","last_reported":1711436799,"current_range_meters":21200,"station_id":"ce4bgt12rcd13ifvqce0","pricing_plan_id":"cebpf4jnsgd1na2vs0mg"},{"bike_id":"bb7447ee-9f19-4b84-bc68-c9a31907a312","system_id":"levelo_inurba_marseille","lat":43.308012,"lon":5.381511,"is_reserved":false,"is_disabled":false,"rental_uris":{"android":"levelo://app?vid=bb7447ee-9f19-4b84-bc68-c9a31907a312","ios":"levelo://app?vid=bb7447ee-9f19-4b84-bc68-c9a31907a312"},"vehicle_type_id":"4","last_reported":1711436799,"current_range_meters":7200,"station_id":"ce4bgt12rcd13ifvqce0","pricing_plan_id":"cebpf4jnsgd1na2vs0mg"},{"bike_id":"c80bf600-49eb-412a-9bd3-755835131af1","system_id":"levelo_inurba_marseille","lat":43.308012,"lon":5.381511,"is_reserved":false,"is_disabled":false,"rental_uris":{"android":"levelo://app?vid=c80bf600-49eb-412a-9bd3-755835131af1","ios":"levelo://app?vid=c80bf600-49eb-412a-9bd3-755835131af1"},"vehicle_type_id":"4","last_reported":1711436799,"current_range_meters":16400,"station_id":"ce4bgt12rcd13ifvqce0","pricing_plan_id":"cebpf4jnsgd1na2vs0mg"},{"bike_id":"830e11aa-ede8-44e9-bd32-fe5b0a0dff29","system_id":"levelo_inurba_marseille","lat":43.308012,"lon":5.381511,"is_reserved":false,"is_disabled":false,"rental_uris":{"android":"levelo://app?vid=830e11aa-ede8-44e9-bd32-fe5b0a0dff29","ios":"levelo://app?vid=830e11aa-ede8-44e9-bd32-fe5b0a0dff29"},"vehicle_type_id":"4","last_reported":1711436799,"current_range_meters":24000,"station_id":"ce4bgt12rcd13ifvqce0","pricing_plan_id":"cebpf4jnsgd1na2vs0mg"},{"bike_id":"5e693aa7-d1c0-408e-a6c7-00d944c7d643","system_id":"levelo_inurba_marseille","lat":43.308012,"lon":5.381511,"is_reserved":false,"is_disabled":false,"rental_uris":{"android":"levelo://app?vid=5e693aa7-d1c0-408e-a6c7-00d944c7d643","ios":"levelo://app?vid=5e693aa7-d1c0-408e-a6c7-00d944c7d643"},"vehicle_type_id":"4","last_reported":1711436799,"current_range_meters":10800,"station_id":"ce4bgt12rcd13ifvqce0","pricing_plan_id":"cebpf4jnsgd1na2vs0mg"},{"bike_id":"07b05e7e-b240-49b2-aa30-ec278519be68","system_id":"levelo_inurba_marseille","lat":43.308012,"lon":5.381511,"is_reserved":false,"is_disabled":false,"rental_uris":{"android":"levelo://app?vid=07b05e7e-b240-49b2-aa30-ec278519be68","ios":"levelo://app?vid=07b05e7e-b240-49b2-aa30-ec278519be68"},"vehicle_type_id":"4","last_reported":1711436799,"current_range_meters":30400,"station_id":"ce4bgt12rcd13ifvqce0","pricing_plan_id":"cebpf4jnsgd1na2vs0mg"},{"bike_id":"0964b34e-6c70-40e8-9aa5-77bb6b27f6b6","system_id":"levelo_inurba_marseille","lat":43.308012,"lon":5.381511,"is_reserved":false,"is_disabled":false,"rental_uris":{"android":"levelo://app?vid=0964b34e-6c70-40e8-9aa5-77bb6b27f6b6","ios":"levelo://app?vid=0964b34e-6c70-40e8-9aa5-77bb6b27f6b6"},"vehicle_type_id":"4","last_reported":1711436799,"current_range_meters":31200,"station_id":"ce4bgt12rcd13ifvqce0","pricing_plan_id":"cebpf4jnsgd1na2vs0mg"},{"bike_id":"929e7190-e528-4b05-b5a5-52523813a07e","system_id":"levelo_inurba_marseille","lat":43.308012,"lon":5.381511,"is_reserved":false,"is_disabled":false,"rental_uris":{"android":"levelo://app?vid=929e7190-e528-4b05-b5a5-52523813a07e","ios":"levelo://app?vid=929e7190-e528-4b05-b5a5-52523813a07e"},"vehicle_type_id":"4","last_reported":1711436799,"current_range_meters":31200,"station_id":"ce4bgt12rcd13ifvqce0","pricing_plan_id":"cebpf4jnsgd1na2vs0mg"},{"bike_id":"c23e182a-2c05-46b1-a08c-c9768acb18f1","system_id":"levelo_inurba_marseille","lat":43.304606,"lon":5.379026,"is_reserved":false,"is_disabled":false,"rental_uris":{"android":"levelo://app?vid=c23e182a-2c05-46b1-a08c-c9768acb18f1","ios":"levelo://app?vid=c23e182a-2c05-46b1-a08c-c9768acb18f1"},"vehicle_type_id":"4","last_reported":1711436799,"current_range_meters":29600,"station_id":"ce4bgup2rcd13ifvqcn0","pricing_plan_id":"cebpf4jnsgd1na2vs0mg"},{"bike_id":"855dd084-9c42-4052-9dc0-c4669bb3dca6","system_id":"levelo_inurba_marseille","lat":43.304606,"lon":5.379026,"is_reserved":false,"is_disabled":false,"rental_uris":{"android":"levelo://app?vid=855dd084-9c42-4052-9dc0-c4669bb3dca6","ios":"levelo://app?vid=855dd084-9c42-4052-9dc0-c4669bb3dca6"},"vehicle_type_id":"4","last_reported":1711436799,"current_range_meters":22400,"station_id":"ce4bgup2rcd13ifvqcn0","pricing_plan_id":"cebpf4jnsgd1na2vs0mg"},{"bike_id":"5d955555-dbcd-485f-9258-57d92025a95d","system_id":"levelo_inurba_marseille","lat":43.304606,"lon":5.379026,"is_reserved":false,"is_disabled":false,"rental_uris":{"android":"levelo://app?vid=5d955555-dbcd-485f-9258-57d92025a95d","ios":"levelo://app?vid=5d955555-dbcd-485f-9258-57d92025a95d"},"vehicle_type_id":"4","last_reported":1711436799,"current_range_meters":15600,"station_id":"ce4bgup2rcd13ifvqcn0","pricing_plan_id":"cebpf4jnsgd1na2vs0mg"},{"bike_id":"7c2ecc74-0c17-4a35-b9af-5ee5d1992f00","system_id":"levelo_inurba_marseille","lat":43.304606,"lon":5.379026,"is_reserved":false,"is_disabled":false,"rental_uris":{"android":"levelo://app?vid=7c2ecc74-0c17-4a35-b9af-5ee5d1992f00","ios":"levelo://app?vid=7c2ecc74-0c17-4a35-b9af-5ee5d1992f00"},"vehicle_type_id":"4","last_reported":1711436799,"current_range_meters":24000,"station_id":"ce4bgup2rcd13ifvqcn0","pricing_plan_id":"cebpf4jnsgd1na2vs0mg"},{"bike_id":"d5b1a996-d924-4a87-a27e-32f6105f9d38","system_id":"levelo_inurba_marseille","lat":43.304606,"lon":5.379026,"is_reserved":false,"is_disabled":false,"rental_uris":{"android":"levelo://app?vid=d5b1a996-d924-4a87-a27e-32f6105f9d38","ios":"levelo://app?vid=d5b1a996-d924-4a87-a27e-32f6105f9d38"},"vehicle_type_id":"4","last_reported":1711436799,"current_range_meters":6000,"station_id":"ce4bgup2rcd13ifvqcn0","pricing_plan_id":"cebpf4jnsgd1na2vs0mg"},{"bike_id":"fed9e25a-9608-43f1-92e2-beec3051420a","system_id":"levelo_inurba_marseille","lat":43.30464,"lon":5.37904,"is_reserved":false,"is_disabled":false,"rental_uris":{"android":"levelo://app?vid=fed9e25a-9608-43f1-92e2-beec3051420a","ios":"levelo://app?vid=fed9e25a-9608-43f1-92e2-beec3051420a"},"vehicle_type_id":"4","last_reported":1711436799,"current_range_meters":20000,"station_id":"ce4bgup2rcd13ifvqcn0","pricing_plan_id":"cebpf4jnsgd1na2vs0mg"},{"bike_id":"e34e23be-e0a0-4481-98e5-fe0b078b2b1e","system_id":"levelo_inurba_marseille","lat":43.304606,"lon":5.379026,"is_reserved":false,"is_disabled":false,"rental_uris":{"android":"levelo://app?vid=e34e23be-e0a0-4481-98e5-fe0b078b2b1e","ios":"levelo://app?vid=e34e23be-e0a0-4481-98e5-fe0b078b2b1e"},"vehicle_type_id":"4","last_reported":1711436799,"current_range_meters":26400,"station_id":"ce4bgup2rcd13ifvqcn0","pricing_plan_id":"cebpf4jnsgd1na2vs0mg"},{"bike_id":"58d7e08b-51c7-437a-9d81-b7f35bd50099","system_id":"levelo_inurba_marseille","lat":43.304606,"lon":5.379026,"is_reserved":false,"is_disabled":false,"rental_uris":{"android":"levelo://app?vid=58d7e08b-51c7-437a-9d81-b7f35bd50099","ios":"levelo://app?vid=58d7e08b-51c7-437a-9d81-b7f35bd50099"},"vehicle_type_id":"4","last_reported":1711436799,"current_range_meters":19600,"station_id":"ce4bgup2rcd13ifvqcn0","pricing_plan_id":"cebpf4jnsgd1na2vs0mg"},{"bike_id":"62ddac0d-87e3-4d93-ba30-6cb88dbb294d","system_id":"levelo_inurba_marseille","lat":43.304606,"lon":5.379026,"is_reserved":false,"is_disabled":false,"rental_uris":{"android":"levelo://app?vid=62ddac0d-87e3-4d93-ba30-6cb88dbb294d","ios":"levelo://app?vid=62ddac0d-87e3-4d93-ba30-6cb88dbb294d"},"vehicle_type_id":"4","last_reported":1711436799,"current_range_meters":17200,"station_id":"ce4bgup2rcd13ifvqcn0","pricing_plan_id":"cebpf4jnsgd1na2vs0mg"},{"bike_id":"2a4f9947-5ae2-42ad-b353-f4b90458ddfe","system_id":"levelo_inurba_marseille","lat":43.304606,"lon":5.379026,"is_reserved":false,"is_disabled":false,"rental_uris":{"android":"levelo://app?vid=2a4f9947-5ae2-42ad-b353-f4b90458ddfe","ios":"levelo://app?vid=2a4f9947-5ae2-42ad-b353-f4b90458ddfe"},"vehicle_type_id":"4","last_reported":1711436799,"current_range_meters":27600,"station_id":"ce4bgup2rcd13ifvqcn0","pricing_plan_id":"cebpf4jnsgd1na2vs0mg"},{"bike_id":"b34c1b28-e164-4b49-a149-0677d659b678","system_id":"levelo_inurba_marseille","lat":43.304606,"lon":5.379026,"is_reserved":false,"is_disabled":false,"rental_uris":{"android":"levelo://app?vid=b34c1b28-e164-4b49-a149-0677d659b678","ios":"levelo://app?vid=b34c1b28-e164-4b49-a149-0677d659b678"},"vehicle_type_id":"4","last_reported":1711436799,"current_range_meters":13200,"station_id":"ce4bgup2rcd13ifvqcn0","pricing_plan_id":"cebpf4jnsgd1na2vs0mg"},{"bike_id":"89f60fcd-85b0-4397-9947-d1493dc0ff64","system_id":"levelo_inurba_marseille","lat":43.304636,"lon":5.379053,"is_reserved":false,"is_disabled":false,"rental_uris":{"android":"levelo://app?vid=89f60fcd-85b0-4397-9947-d1493dc0ff64","ios":"levelo://app?vid=89f60fcd-85b0-4397-9947-d1493dc0ff64"},"vehicle_type_id":"4","last_reported":1711436799,"current_range_meters":0,"station_id":"ce4bgup2rcd13ifvqcn0","pricing_plan_id":"cebpf4jnsgd1na2vs0mg"},{"bike_id":"929296fe-4d63-43fa-8dc3-ebfa227fe500","system_id":"levelo_inurba_marseille","lat":43.304606,"lon":5.379026,"is_reserved":false,"is_disabled":false,"rental_uris":{"android":"levelo://app?vid=929296fe-4d63-43fa-8dc3-ebfa227fe500","ios":"levelo://app?vid=929296fe-4d63-43fa-8dc3-ebfa227fe500"},"vehicle_type_id":"4","last_reported":1711436799,"current_range_meters":18000,"station_id":"ce4bgup2rcd13ifvqcn0","pricing_plan_id":"cebpf4jnsgd1na2vs0mg"},{"bike_id":"62cb89a4-51d6-44f1-9298-8aa2a9a2ce5e","system_id":"levelo_inurba_marseille","lat":43.304606,"lon":5.379026,"is_reserved":false,"is_disabled":false,"rental_uris":{"android":"levelo://app?vid=62cb89a4-51d6-44f1-9298-8aa2a9a2ce5e","ios":"levelo://app?vid=62cb89a4-51d6-44f1-9298-8aa2a9a2ce5e"},"vehicle_type_id":"4","last_reported":1711436799,"current_range_meters":22800,"station_id":"ce4bgup2rcd13ifvqcn0","pricing_plan_id":"cebpf4jnsgd1na2vs0mg"},{"bike_id":"af49345b-6ea9-41e9-9190-4c09ef7b5e39","system_id":"levelo_inurba_marseille","lat":43.304636,"lon":5.379061,"is_reserved":false,"is_disabled":false,"rental_uris":{"android":"levelo://app?vid=af49345b-6ea9-41e9-9190-4c09ef7b5e39","ios":"levelo://app?vid=af49345b-6ea9-41e9-9190-4c09ef7b5e39"},"vehicle_type_id":"4","last_reported":1711436799,"current_range_meters":10800,"station_id":"ce4bgup2rcd13ifvqcn0","pricing_plan_id":"cebpf4jnsgd1na2vs0mg"},{"bike_id":"52a9717e-0cf6-449e-b32f-58a3e7e04942","system_id":"levelo_inurba_marseille","lat":43.304606,"lon":5.379026,"is_reserved":false,"is_disabled":false,"rental_uris":{"android":"levelo://app?vid=52a9717e-0cf6-449e-b32f-58a3e7e04942","ios":"levelo://app?vid=52a9717e-0cf6-449e-b32f-58a3e7e04942"},"vehicle_type_id":"4","last_reported":1711436799,"current_range_meters":24400,"station_id":"ce4bgup2rcd13ifvqcn0","pricing_plan_id":"cebpf4jnsgd1na2vs0mg"},{"bike_id":"f79649b2-5803-4fc9-9189-9713e0f7dbb0","system_id":"levelo_inurba_marseille","lat":43.304606,"lon":5.379026,"is_reserved":false,"is_disabled":false,"rental_uris":{"android":"levelo://app?vid=f79649b2-5803-4fc9-9189-9713e0f7dbb0","ios":"levelo://app?vid=f79649b2-5803-4fc9-9189-9713e0f7dbb0"},"vehicle_type_id":"4","last_reported":1711436799,"current_range_meters":800,"station_id":"ce4bgup2rcd13ifvqcn0","pricing_plan_id":"cebpf4jnsgd1na2vs0mg"},{"bike_id":"dc4e6a2f-616d-418c-9265-1c6d8d4b6277","system_id":"levelo_inurba_marseille","lat":43.304606,"lon":5.379026,"is_reserved":false,"is_disabled":false,"rental_uris":{"android":"levelo://app?vid=dc4e6a2f-616d-418c-9265-1c6d8d4b6277","ios":"levelo://app?vid=dc4e6a2f-616d-418c-9265-1c6d8d4b6277"},"vehicle_type_id":"4","last_reported":1711436799,"current_range_meters":19600,"station_id":"ce4bgup2rcd13ifvqcn0","pricing_plan_id":"cebpf4jnsgd1na2vs0mg"},{"bike_id":"2a6d6e02-0373-41a5-b601-575ae2c8444d","system_id":"levelo_inurba_marseille","lat":43.304606,"lon":5.379026,"is_reserved":false,"is_disabled":false,"rental_uris":{"android":"levelo://app?vid=2a6d6e02-0373-41a5-b601-575ae2c8444d","ios":"levelo://app?vid=2a6d6e02-0373-41a5-b601-575ae2c8444d"},"vehicle_type_id":"4","last_reported":1711436799,"current_range_meters":14400,"station_id":"ce4bgup2rcd13ifvqcn0","pricing_plan_id":"cebpf4jnsgd1na2vs0mg"},{"bike_id":"26e71182-6918-4105-8309-9f52e1f6493a","system_id":"levelo_inurba_marseille","lat":43.30462,"lon":5.37906,"is_reserved":false,"is_disabled":false,"rental_uris":{"android":"levelo://app?vid=26e71182-6918-4105-8309-9f52e1f6493a","ios":"levelo://app?vid=26e71182-6918-4105-8309-9f52e1f6493a"},"vehicle_type_id":"4","last_reported":1711436799,"current_range_meters":24400,"station_id":"ce4bgup2rcd13ifvqcn0","pricing_plan_id":"cebpf4jnsgd1na2vs0mg"},{"bike_id":"4ed320ea-f056-4888-b725-5d23b383e901","system_id":"levelo_inurba_marseille","lat":43.304695,"lon":5.379154,"is_reserved":false,"is_disabled":false,"rental_uris":{"android":"levelo://app?vid=4ed320ea-f056-4888-b725-5d23b383e901","ios":"levelo://app?vid=4ed320ea-f056-4888-b725-5d23b383e901"},"vehicle_type_id":"4","last_reported":1711436799,"current_range_meters":20000,"station_id":"ce4bgup2rcd13ifvqcn0","pricing_plan_id":"cebpf4jnsgd1na2vs0mg"},{"bike_id":"e0020560-2406-4027-97c8-0d274ca00f8d","system_id":"levelo_inurba_marseille","lat":43.304606,"lon":5.379026,"is_reserved":false,"is_disabled":false,"rental_uris":{"android":"levelo://app?vid=e0020560-2406-4027-97c8-0d274ca00f8d","ios":"levelo://app?vid=e0020560-2406-4027-97c8-0d274ca00f8d"},"vehicle_type_id":"4","last_reported":1711436799,"current_range_meters":6000,"station_id":"ce4bgup2rcd13ifvqcn0","pricing_plan_id":"cebpf4jnsgd1na2vs0mg"},{"bike_id":"5ab12370-9afc-44d7-8ce9-9059fd8925ba","system_id":"levelo_inurba_marseille","lat":43.292724,"lon":5.401131,"is_reserved":false,"is_disabled":false,"rental_uris":{"android":"levelo://app?vid=5ab12370-9afc-44d7-8ce9-9059fd8925ba","ios":"levelo://app?vid=5ab12370-9afc-44d7-8ce9-9059fd8925ba"},"vehicle_type_id":"4","last_reported":1711436799,"current_range_meters":8800,"station_id":"ce4bh312rcd13ifvqdk0","pricing_plan_id":"cebpf4jnsgd1na2vs0mg"},{"bike_id":"9d1731df-bd58-4923-ac2c-fdb2a7d47ca8","system_id":"levelo_inurba_marseille","lat":43.304606,"lon":5.379026,"is_reserved":false,"is_disabled":false,"rental_uris":{"android":"levelo://app?vid=9d1731df-bd58-4923-ac2c-fdb2a7d47ca8","ios":"levelo://app?vid=9d1731df-bd58-4923-ac2c-fdb2a7d47ca8"},"vehicle_type_id":"4","last_reported":1711436799,"current_range_meters":18400,"station_id":"ce4bgup2rcd13ifvqcn0","pricing_plan_id":"cebpf4jnsgd1na2vs0mg"},{"bike_id":"e8b9e40a-331e-4171-9b04-307df82b092c","system_id":"levelo_inurba_marseille","lat":43.30461,"lon":5.37906,"is_reserved":false,"is_disabled":false,"rental_uris":{"android":"levelo://app?vid=e8b9e40a-331e-4171-9b04-307df82b092c","ios":"levelo://app?vid=e8b9e40a-331e-4171-9b04-307df82b092c"},"vehicle_type_id":"4","last_reported":1711436799,"current_range_meters":26400,"station_id":"ce4bgup2rcd13ifvqcn0","pricing_plan_id":"cebpf4jnsgd1na2vs0mg"},{"bike_id":"8a96c962-fa42-49da-ae33-09b80b0ddcc2","system_id":"levelo_inurba_marseille","lat":43.30461,"lon":5.37906,"is_reserved":false,"is_disabled":false,"rental_uris":{"android":"levelo://app?vid=8a96c962-fa42-49da-ae33-09b80b0ddcc2","ios":"levelo://app?vid=8a96c962-fa42-49da-ae33-09b80b0ddcc2"},"vehicle_type_id":"4","last_reported":1711436799,"current_range_meters":24000,"station_id":"ce4bgup2rcd13ifvqcn0","pricing_plan_id":"cebpf4jnsgd1na2vs0mg"},{"bike_id":"395764ca-d958-4280-89e0-d671127fcd0d","system_id":"levelo_inurba_marseille","lat":43.304606,"lon":5.379026,"is_reserved":false,"is_disabled":false,"rental_uris":{"android":"levelo://app?vid=395764ca-d958-4280-89e0-d671127fcd0d","ios":"levelo://app?vid=395764ca-d958-4280-89e0-d671127fcd0d"},"vehicle_type_id":"4","last_reported":1711436799,"current_range_meters":20000,"station_id":"ce4bgup2rcd13ifvqcn0","pricing_plan_id":"cebpf4jnsgd1na2vs0mg"},{"bike_id":"ba54c25c-f622-44a0-bdc8-ab443144540e","system_id":"levelo_inurba_marseille","lat":43.304606,"lon":5.379026,"is_reserved":false,"is_disabled":false,"rental_uris":{"android":"levelo://app?vid=ba54c25c-f622-44a0-bdc8-ab443144540e","ios":"levelo://app?vid=ba54c25c-f622-44a0-bdc8-ab443144540e"},"vehicle_type_id":"4","last_reported":1711436799,"current_range_meters":16800,"station_id":"ce4bgup2rcd13ifvqcn0","pricing_plan_id":"cebpf4jnsgd1na2vs0mg"},{"bike_id":"0f59b87c-14ed-4390-822b-1efde5ca9789","system_id":"levelo_inurba_marseille","lat":43.304606,"lon":5.379026,"is_reserved":false,"is_disabled":false,"rental_uris":{"android":"levelo://app?vid=0f59b87c-14ed-4390-822b-1efde5ca9789","ios":"levelo://app?vid=0f59b87c-14ed-4390-822b-1efde5ca9789"},"vehicle_type_id":"4","last_reported":1711436799,"current_range_meters":28000,"station_id":"ce4bgup2rcd13ifvqcn0","pricing_plan_id":"cebpf4jnsgd1na2vs0mg"},{"bike_id":"4bbba59c-80e8-4157-94b3-08d2a67c5c89","system_id":"levelo_inurba_marseille","lat":43.30459,"lon":5.37905,"is_reserved":false,"is_disabled":false,"rental_uris":{"android":"levelo://app?vid=4bbba59c-80e8-4157-94b3-08d2a67c5c89","ios":"levelo://app?vid=4bbba59c-80e8-4157-94b3-08d2a67c5c89"},"vehicle_type_id":"4","last_reported":1711436799,"current_range_meters":2400,"station_id":"ce4bgup2rcd13ifvqcn0","pricing_plan_id":"cebpf4jnsgd1na2vs0mg"},{"bike_id":"143eb914-72b4-4cd1-84d9-eb9a4c7f2386","system_id":"levelo_inurba_marseille","lat":43.30459,"lon":5.37905,"is_reserved":false,"is_disabled":false,"rental_uris":{"android":"levelo://app?vid=143eb914-72b4-4cd1-84d9-eb9a4c7f2386","ios":"levelo://app?vid=143eb914-72b4-4cd1-84d9-eb9a4c7f2386"},"vehicle_type_id":"4","last_reported":1711436799,"current_range_meters":800,"station_id":"ce4bgup2rcd13ifvqcn0","pricing_plan_id":"cebpf4jnsgd1na2vs0mg"},{"bike_id":"2b060af5-e16d-4059-b700-144474b8f2b4","system_id":"levelo_inurba_marseille","lat":43.304604,"lon":5.379073,"is_reserved":false,"is_disabled":false,"rental_uris":{"android":"levelo://app?vid=2b060af5-e16d-4059-b700-144474b8f2b4","ios":"levelo://app?vid=2b060af5-e16d-4059-b700-144474b8f2b4"},"vehicle_type_id":"4","last_reported":1711436799,"current_range_meters":20000,"station_id":"","pricing_plan_id":"cebpf4jnsgd1na2vs0mg"},{"bike_id":"c2c0cd9c-1a27-4edb-b230-900251a2e7a1","system_id":"levelo_inurba_marseille","lat":43.3046,"lon":5.37907,"is_reserved":false,"is_disabled":false,"rental_uris":{"android":"levelo://app?vid=c2c0cd9c-1a27-4edb-b230-900251a2e7a1","ios":"levelo://app?vid=c2c0cd9c-1a27-4edb-b230-900251a2e7a1"},"vehicle_type_id":"4","last_reported":1711436799,"current_range_meters":28800,"station_id":"ce4bgup2rcd13ifvqcn0","pricing_plan_id":"cebpf4jnsgd1na2vs0mg"},{"bike_id":"8514b327-b0a8-4acc-bbbb-3feb7bfd0219","system_id":"levelo_inurba_marseille","lat":43.304606,"lon":5.379026,"is_reserved":false,"is_disabled":false,"rental_uris":{"android":"levelo://app?vid=8514b327-b0a8-4acc-bbbb-3feb7bfd0219","ios":"levelo://app?vid=8514b327-b0a8-4acc-bbbb-3feb7bfd0219"},"vehicle_type_id":"4","last_reported":1711436799,"current_range_meters":2000,"station_id":"ce4bgup2rcd13ifvqcn0","pricing_plan_id":"cebpf4jnsgd1na2vs0mg"},{"bike_id":"36438fd4-5924-4765-93b5-cf78cbeb56d1","system_id":"levelo_inurba_marseille","lat":43.30463,"lon":5.37912,"is_reserved":false,"is_disabled":false,"rental_uris":{"android":"levelo://app?vid=36438fd4-5924-4765-93b5-cf78cbeb56d1","ios":"levelo://app?vid=36438fd4-5924-4765-93b5-cf78cbeb56d1"},"vehicle_type_id":"4","last_reported":1711436799,"current_range_meters":25600,"station_id":"ce4bgup2rcd13ifvqcn0","pricing_plan_id":"cebpf4jnsgd1na2vs0mg"},{"bike_id":"48e4cd64-06e5-4c2b-a924-40c4d76b48c4","system_id":"levelo_inurba_marseille","lat":43.304606,"lon":5.379026,"is_reserved":false,"is_disabled":false,"rental_uris":{"android":"levelo://app?vid=48e4cd64-06e5-4c2b-a924-40c4d76b48c4","ios":"levelo://app?vid=48e4cd64-06e5-4c2b-a924-40c4d76b48c4"},"vehicle_type_id":"4","last_reported":1711436799,"current_range_meters":8400,"station_id":"ce4bgup2rcd13ifvqcn0","pricing_plan_id":"cebpf4jnsgd1na2vs0mg"},{"bike_id":"f6b70e30-4202-48f5-84dd-181a65963a6e","system_id":"levelo_inurba_marseille","lat":43.304606,"lon":5.379026,"is_reserved":false,"is_disabled":false,"rental_uris":{"android":"levelo://app?vid=f6b70e30-4202-48f5-84dd-181a65963a6e","ios":"levelo://app?vid=f6b70e30-4202-48f5-84dd-181a65963a6e"},"vehicle_type_id":"4","last_reported":1711436799,"current_range_meters":22400,"station_id":"ce4bgup2rcd13ifvqcn0","pricing_plan_id":"cebpf4jnsgd1na2vs0mg"},{"bike_id":"2cd4bd90-a6b4-4d66-bab3-935a526199b1","system_id":"levelo_inurba_marseille","lat":43.30462,"lon":5.37911,"is_reserved":false,"is_disabled":false,"rental_uris":{"android":"levelo://app?vid=2cd4bd90-a6b4-4d66-bab3-935a526199b1","ios":"levelo://app?vid=2cd4bd90-a6b4-4d66-bab3-935a526199b1"},"vehicle_type_id":"4","last_reported":1711436799,"current_range_meters":2000,"station_id":"ce4bgup2rcd13ifvqcn0","pricing_plan_id":"cebpf4jnsgd1na2vs0mg"},{"bike_id":"2356f9bd-c094-4906-9720-32e8cfeb247d","system_id":"levelo_inurba_marseille","lat":43.304606,"lon":5.379026,"is_reserved":false,"is_disabled":false,"rental_uris":{"android":"levelo://app?vid=2356f9bd-c094-4906-9720-32e8cfeb247d","ios":"levelo://app?vid=2356f9bd-c094-4906-9720-32e8cfeb247d"},"vehicle_type_id":"4","last_reported":1711436799,"current_range_meters":18400,"station_id":"ce4bgup2rcd13ifvqcn0","pricing_plan_id":"cebpf4jnsgd1na2vs0mg"},{"bike_id":"b218502d-0025-44d3-9838-83d0c3fe01f7","system_id":"levelo_inurba_marseille","lat":43.30462,"lon":5.37911,"is_reserved":false,"is_disabled":false,"rental_uris":{"android":"levelo://app?vid=b218502d-0025-44d3-9838-83d0c3fe01f7","ios":"levelo://app?vid=b218502d-0025-44d3-9838-83d0c3fe01f7"},"vehicle_type_id":"4","last_reported":1711436799,"current_range_meters":14800,"station_id":"ce4bgup2rcd13ifvqcn0","pricing_plan_id":"cebpf4jnsgd1na2vs0mg"},{"bike_id":"b9acd370-74f9-48fa-ab59-1912a569f357","system_id":"levelo_inurba_marseille","lat":43.304606,"lon":5.379026,"is_reserved":false,"is_disabled":false,"rental_uris":{"android":"levelo://app?vid=b9acd370-74f9-48fa-ab59-1912a569f357","ios":"levelo://app?vid=b9acd370-74f9-48fa-ab59-1912a569f357"},"vehicle_type_id":"4","last_reported":1711436799,"current_range_meters":5200,"station_id":"ce4bgup2rcd13ifvqcn0","pricing_plan_id":"cebpf4jnsgd1na2vs0mg"},{"bike_id":"927bc6b2-6e02-4897-85bf-6fd4116bea93","system_id":"levelo_inurba_marseille","lat":43.304606,"lon":5.379026,"is_reserved":false,"is_disabled":false,"rental_uris":{"android":"levelo://app?vid=927bc6b2-6e02-4897-85bf-6fd4116bea93","ios":"levelo://app?vid=927bc6b2-6e02-4897-85bf-6fd4116bea93"},"vehicle_type_id":"4","last_reported":1711436799,"current_range_meters":21200,"station_id":"ce4bgup2rcd13ifvqcn0","pricing_plan_id":"cebpf4jnsgd1na2vs0mg"},{"bike_id":"1b946c99-9c88-4798-a8b6-5e7041ef5527","system_id":"levelo_inurba_marseille","lat":43.3046,"lon":5.37909,"is_reserved":false,"is_disabled":false,"rental_uris":{"android":"levelo://app?vid=1b946c99-9c88-4798-a8b6-5e7041ef5527","ios":"levelo://app?vid=1b946c99-9c88-4798-a8b6-5e7041ef5527"},"vehicle_type_id":"4","last_reported":1711436799,"current_range_meters":28800,"station_id":"ce4bgup2rcd13ifvqcn0","pricing_plan_id":"cebpf4jnsgd1na2vs0mg"},{"bike_id":"129c0416-09cf-4fc6-b06e-5142b0c1fe3c","system_id":"levelo_inurba_marseille","lat":43.30461,"lon":5.37911,"is_reserved":false,"is_disabled":false,"rental_uris":{"android":"levelo://app?vid=129c0416-09cf-4fc6-b06e-5142b0c1fe3c","ios":"levelo://app?vid=129c0416-09cf-4fc6-b06e-5142b0c1fe3c"},"vehicle_type_id":"4","last_reported":1711436799,"current_range_meters":20000,"station_id":"ce4bgup2rcd13ifvqcn0","pricing_plan_id":"cebpf4jnsgd1na2vs0mg"},{"bike_id":"ee315106-341d-4bf1-9af2-6b11388a77d8","system_id":"levelo_inurba_marseille","lat":43.324771,"lon":5.36557,"is_reserved":false,"is_disabled":false,"rental_uris":{"android":"levelo://app?vid=ee315106-341d-4bf1-9af2-6b11388a77d8","ios":"levelo://app?vid=ee315106-341d-4bf1-9af2-6b11388a77d8"},"vehicle_type_id":"4","last_reported":1711436799,"current_range_meters":24800,"station_id":"ce4bhs12rcd13ifvqhvg","pricing_plan_id":"cebpf4jnsgd1na2vs0mg"},{"bike_id":"c05dc94f-4b53-4aa1-81fd-66be2ec776d8","system_id":"levelo_inurba_marseille","lat":43.304606,"lon":5.379026,"is_reserved":false,"is_disabled":false,"rental_uris":{"android":"levelo://app?vid=c05dc94f-4b53-4aa1-81fd-66be2ec776d8","ios":"levelo://app?vid=c05dc94f-4b53-4aa1-81fd-66be2ec776d8"},"vehicle_type_id":"4","last_reported":1711436799,"current_range_meters":18000,"station_id":"ce4bgup2rcd13ifvqcn0","pricing_plan_id":"cebpf4jnsgd1na2vs0mg"},{"bike_id":"09bad6d7-6adb-4d11-ba40-8f463a905922","system_id":"levelo_inurba_marseille","lat":43.30455,"lon":5.37912,"is_reserved":false,"is_disabled":false,"rental_uris":{"android":"levelo://app?vid=09bad6d7-6adb-4d11-ba40-8f463a905922","ios":"levelo://app?vid=09bad6d7-6adb-4d11-ba40-8f463a905922"},"vehicle_type_id":"4","last_reported":1711436799,"current_range_meters":29600,"station_id":"ce4bgup2rcd13ifvqcn0","pricing_plan_id":"cebpf4jnsgd1na2vs0mg"},{"bike_id":"a0d31af7-370b-4f99-8c08-89a40e47803f","system_id":"levelo_inurba_marseille","lat":43.324771,"lon":5.36557,"is_reserved":false,"is_disabled":false,"rental_uris":{"android":"levelo://app?vid=a0d31af7-370b-4f99-8c08-89a40e47803f","ios":"levelo://app?vid=a0d31af7-370b-4f99-8c08-89a40e47803f"},"vehicle_type_id":"4","last_reported":1711436799,"current_range_meters":26400,"station_id":"ce4bhs12rcd13ifvqhvg","pricing_plan_id":"cebpf4jnsgd1na2vs0mg"},{"bike_id":"80fdaae2-b90d-43af-b635-b70afc7d35e8","system_id":"levelo_inurba_marseille","lat":43.304606,"lon":5.379026,"is_reserved":false,"is_disabled":false,"rental_uris":{"android":"levelo://app?vid=80fdaae2-b90d-43af-b635-b70afc7d35e8","ios":"levelo://app?vid=80fdaae2-b90d-43af-b635-b70afc7d35e8"},"vehicle_type_id":"4","last_reported":1711436799,"current_range_meters":28800,"station_id":"ce4bgup2rcd13ifvqcn0","pricing_plan_id":"cebpf4jnsgd1na2vs0mg"},{"bike_id":"31b6ff8b-1295-4fd4-91c5-310566a897a8","system_id":"levelo_inurba_marseille","lat":43.324794,"lon":5.365793,"is_reserved":false,"is_disabled":false,"rental_uris":{"android":"levelo://app?vid=31b6ff8b-1295-4fd4-91c5-310566a897a8","ios":"levelo://app?vid=31b6ff8b-1295-4fd4-91c5-310566a897a8"},"vehicle_type_id":"4","last_reported":1711436799,"current_range_meters":26000,"station_id":"ce4bhs12rcd13ifvqhvg","pricing_plan_id":"cebpf4jnsgd1na2vs0mg"},{"bike_id":"cb0f935d-81fa-4644-b7f9-691ece2a4845","system_id":"levelo_inurba_marseille","lat":43.304274,"lon":5.388873,"is_reserved":false,"is_disabled":false,"rental_uris":{"android":"levelo://app?vid=cb0f935d-81fa-4644-b7f9-691ece2a4845","ios":"levelo://app?vid=cb0f935d-81fa-4644-b7f9-691ece2a4845"},"vehicle_type_id":"4","last_reported":1711436799,"current_range_meters":0,"station_id":"ce4bgk12rcd13ifvqbi0","pricing_plan_id":"cebpf4jnsgd1na2vs0mg"},{"bike_id":"4aa023fc-bd6a-49d9-bb66-0067c94f6096","system_id":"levelo_inurba_marseille","lat":43.324798,"lon":5.365716,"is_reserved":false,"is_disabled":false,"rental_uris":{"android":"levelo://app?vid=4aa023fc-bd6a-49d9-bb66-0067c94f6096","ios":"levelo://app?vid=4aa023fc-bd6a-49d9-bb66-0067c94f6096"},"vehicle_type_id":"4","last_reported":1711436799,"current_range_meters":25600,"station_id":"ce4bhs12rcd13ifvqhvg","pricing_plan_id":"cebpf4jnsgd1na2vs0mg"},{"bike_id":"0b883f3e-74d5-4336-85c9-e464a75870c1","system_id":"levelo_inurba_marseille","lat":43.324771,"lon":5.36557,"is_reserved":false,"is_disabled":false,"rental_uris":{"android":"levelo://app?vid=0b883f3e-74d5-4336-85c9-e464a75870c1","ios":"levelo://app?vid=0b883f3e-74d5-4336-85c9-e464a75870c1"},"vehicle_type_id":"4","last_reported":1711436799,"current_range_meters":22400,"station_id":"ce4bhs12rcd13ifvqhvg","pricing_plan_id":"cebpf4jnsgd1na2vs0mg"},{"bike_id":"00d970b5-de5a-452f-8d17-927bced8cf49","system_id":"levelo_inurba_marseille","lat":43.3107,"lon":5.38349,"is_reserved":false,"is_disabled":false,"rental_uris":{"android":"levelo://app?vid=00d970b5-de5a-452f-8d17-927bced8cf49","ios":"levelo://app?vid=00d970b5-de5a-452f-8d17-927bced8cf49"},"vehicle_type_id":"4","last_reported":1711436799,"current_range_meters":25600,"station_id":"ce4bgv92rcd13ifvqcr0","pricing_plan_id":"cebpf4jnsgd1na2vs0mg"},{"bike_id":"ffeba6f5-b6cc-4f8c-b811-c5a7861b20a7","system_id":"levelo_inurba_marseille","lat":43.31069,"lon":5.38349,"is_reserved":false,"is_disabled":false,"rental_uris":{"android":"levelo://app?vid=ffeba6f5-b6cc-4f8c-b811-c5a7861b20a7","ios":"levelo://app?vid=ffeba6f5-b6cc-4f8c-b811-c5a7861b20a7"},"vehicle_type_id":"4","last_reported":1711436799,"current_range_meters":400,"station_id":"ce4bgv92rcd13ifvqcr0","pricing_plan_id":"cebpf4jnsgd1na2vs0mg"},{"bike_id":"2d914a3a-f8d3-414e-af9c-c1c8de18687c","system_id":"levelo_inurba_marseille","lat":43.310706,"lon":5.383505,"is_reserved":false,"is_disabled":false,"rental_uris":{"android":"levelo://app?vid=2d914a3a-f8d3-414e-af9c-c1c8de18687c","ios":"levelo://app?vid=2d914a3a-f8d3-414e-af9c-c1c8de18687c"},"vehicle_type_id":"4","last_reported":1711436799,"current_range_meters":27200,"station_id":"ce4bgv92rcd13ifvqcr0","pricing_plan_id":"cebpf4jnsgd1na2vs0mg"},{"bike_id":"7d3c11db-0682-4e95-9e28-2bcca3cee667","system_id":"levelo_inurba_marseille","lat":43.310693,"lon":5.383515,"is_reserved":false,"is_disabled":false,"rental_uris":{"android":"levelo://app?vid=7d3c11db-0682-4e95-9e28-2bcca3cee667","ios":"levelo://app?vid=7d3c11db-0682-4e95-9e28-2bcca3cee667"},"vehicle_type_id":"4","last_reported":1711436799,"current_range_meters":0,"station_id":"ce4bgv92rcd13ifvqcr0","pricing_plan_id":"cebpf4jnsgd1na2vs0mg"},{"bike_id":"8f25d7ac-1706-49ed-8e08-59fe9a4456d9","system_id":"levelo_inurba_marseille","lat":43.310658,"lon":5.383507,"is_reserved":false,"is_disabled":false,"rental_uris":{"android":"levelo://app?vid=8f25d7ac-1706-49ed-8e08-59fe9a4456d9","ios":"levelo://app?vid=8f25d7ac-1706-49ed-8e08-59fe9a4456d9"},"vehicle_type_id":"4","last_reported":1711436799,"current_range_meters":6400,"station_id":"ce4bgv92rcd13ifvqcr0","pricing_plan_id":"cebpf4jnsgd1na2vs0mg"},{"bike_id":"32afc189-83ac-44cd-9025-08de4ca0b717","system_id":"levelo_inurba_marseille","lat":43.304158,"lon":5.378933,"is_reserved":false,"is_disabled":false,"rental_uris":{"android":"levelo://app?vid=32afc189-83ac-44cd-9025-08de4ca0b717","ios":"levelo://app?vid=32afc189-83ac-44cd-9025-08de4ca0b717"},"vehicle_type_id":"4","last_reported":1711436799,"current_range_meters":22000,"station_id":"ce4bgup2rcd13ifvqcn0","pricing_plan_id":"cebpf4jnsgd1na2vs0mg"},{"bike_id":"96a509b7-7f0b-4dcb-b830-7570aaa8a5aa","system_id":"levelo_inurba_marseille","lat":43.31071,"lon":5.38359,"is_reserved":false,"is_disabled":false,"rental_uris":{"android":"levelo://app?vid=96a509b7-7f0b-4dcb-b830-7570aaa8a5aa","ios":"levelo://app?vid=96a509b7-7f0b-4dcb-b830-7570aaa8a5aa"},"vehicle_type_id":"4","last_reported":1711436799,"current_range_meters":26000,"station_id":"ce4bgv92rcd13ifvqcr0","pricing_plan_id":"cebpf4jnsgd1na2vs0mg"},{"bike_id":"62be9f93-0bba-4b5a-baaf-305f53ed08f3","system_id":"levelo_inurba_marseille","lat":43.310711,"lon":5.383607,"is_reserved":false,"is_disabled":false,"rental_uris":{"android":"levelo://app?vid=62be9f93-0bba-4b5a-baaf-305f53ed08f3","ios":"levelo://app?vid=62be9f93-0bba-4b5a-baaf-305f53ed08f3"},"vehicle_type_id":"4","last_reported":1711436799,"current_range_meters":13600,"station_id":"ce4bgv92rcd13ifvqcr0","pricing_plan_id":"cebpf4jnsgd1na2vs0mg"},{"bike_id":"9a53d561-cb56-48d9-90fa-076509af3ab4","system_id":"levelo_inurba_marseille","lat":43.309034,"lon":5.371783,"is_reserved":false,"is_disabled":false,"rental_uris":{"android":"levelo://app?vid=9a53d561-cb56-48d9-90fa-076509af3ab4","ios":"levelo://app?vid=9a53d561-cb56-48d9-90fa-076509af3ab4"},"vehicle_type_id":"4","last_reported":1711436799,"current_range_meters":6400,"station_id":"ce4bguh2rcd13ifvqckg","pricing_plan_id":"cebpf4jnsgd1na2vs0mg"},{"bike_id":"3827812e-6bb5-40be-a7d6-7224aababdd1","system_id":"levelo_inurba_marseille","lat":43.310804,"lon":5.38359,"is_reserved":false,"is_disabled":false,"rental_uris":{"android":"levelo://app?vid=3827812e-6bb5-40be-a7d6-7224aababdd1","ios":"levelo://app?vid=3827812e-6bb5-40be-a7d6-7224aababdd1"},"vehicle_type_id":"4","last_reported":1711436799,"current_range_meters":13200,"station_id":"ce4bgv92rcd13ifvqcr0","pricing_plan_id":"cebpf4jnsgd1na2vs0mg"},{"bike_id":"fed57d2a-eb5c-4101-9a5f-41aa4f466cf3","system_id":"levelo_inurba_marseille","lat":43.310772,"lon":5.383626,"is_reserved":false,"is_disabled":false,"rental_uris":{"android":"levelo://app?vid=fed57d2a-eb5c-4101-9a5f-41aa4f466cf3","ios":"levelo://app?vid=fed57d2a-eb5c-4101-9a5f-41aa4f466cf3"},"vehicle_type_id":"4","last_reported":1711436799,"current_range_meters":26400,"station_id":"ce4bgv92rcd13ifvqcr0","pricing_plan_id":"cebpf4jnsgd1na2vs0mg"},{"bike_id":"c13d49ff-a5ad-4975-b778-100616924f3e","system_id":"levelo_inurba_marseille","lat":43.31078,"lon":5.38371,"is_reserved":false,"is_disabled":false,"rental_uris":{"android":"levelo://app?vid=c13d49ff-a5ad-4975-b778-100616924f3e","ios":"levelo://app?vid=c13d49ff-a5ad-4975-b778-100616924f3e"},"vehicle_type_id":"4","last_reported":1711436799,"current_range_meters":21600,"station_id":"ce4bgv92rcd13ifvqcr0","pricing_plan_id":"cebpf4jnsgd1na2vs0mg"},{"bike_id":"87f9df8b-95bf-4775-b270-5799777467cc","system_id":"levelo_inurba_marseille","lat":43.302784,"lon":5.377158,"is_reserved":false,"is_disabled":false,"rental_uris":{"android":"levelo://app?vid=87f9df8b-95bf-4775-b270-5799777467cc","ios":"levelo://app?vid=87f9df8b-95bf-4775-b270-5799777467cc"},"vehicle_type_id":"4","last_reported":1711436799,"current_range_meters":16400,"station_id":"ce4bguh2rcd13ifvqcj0","pricing_plan_id":"cebpf4jnsgd1na2vs0mg"},{"bike_id":"41cfd88c-9fda-475e-9029-04193aa5617f","system_id":"levelo_inurba_marseille","lat":43.3027,"lon":5.37694,"is_reserved":false,"is_disabled":false,"rental_uris":{"android":"levelo://app?vid=41cfd88c-9fda-475e-9029-04193aa5617f","ios":"levelo://app?vid=41cfd88c-9fda-475e-9029-04193aa5617f"},"vehicle_type_id":"4","last_reported":1711436799,"current_range_meters":24000,"station_id":"ce4bguh2rcd13ifvqcj0","pricing_plan_id":"cebpf4jnsgd1na2vs0mg"},{"bike_id":"edbee111-6ea7-42d3-885b-5e92310796e1","system_id":"levelo_inurba_marseille","lat":43.302784,"lon":5.377158,"is_reserved":false,"is_disabled":false,"rental_uris":{"android":"levelo://app?vid=edbee111-6ea7-42d3-885b-5e92310796e1","ios":"levelo://app?vid=edbee111-6ea7-42d3-885b-5e92310796e1"},"vehicle_type_id":"4","last_reported":1711436799,"current_range_meters":16400,"station_id":"ce4bguh2rcd13ifvqcj0","pricing_plan_id":"cebpf4jnsgd1na2vs0mg"},{"bike_id":"94ab0415-c3b6-4513-bbf0-001e477f89b1","system_id":"levelo_inurba_marseille","lat":43.302784,"lon":5.377158,"is_reserved":false,"is_disabled":false,"rental_uris":{"android":"levelo://app?vid=94ab0415-c3b6-4513-bbf0-001e477f89b1","ios":"levelo://app?vid=94ab0415-c3b6-4513-bbf0-001e477f89b1"},"vehicle_type_id":"4","last_reported":1711436799,"current_range_meters":28000,"station_id":"ce4bguh2rcd13ifvqcj0","pricing_plan_id":"cebpf4jnsgd1na2vs0mg"},{"bike_id":"2b746a42-d7f1-470f-8bce-c04b6f4aa4d3","system_id":"levelo_inurba_marseille","lat":43.302784,"lon":5.377158,"is_reserved":false,"is_disabled":false,"rental_uris":{"android":"levelo://app?vid=2b746a42-d7f1-470f-8bce-c04b6f4aa4d3","ios":"levelo://app?vid=2b746a42-d7f1-470f-8bce-c04b6f4aa4d3"},"vehicle_type_id":"4","last_reported":1711436799,"current_range_meters":20800,"station_id":"ce4bguh2rcd13ifvqcj0","pricing_plan_id":"cebpf4jnsgd1na2vs0mg"},{"bike_id":"85ea71f4-95ec-4a04-94a1-04acc4a296ea","system_id":"levelo_inurba_marseille","lat":43.30143,"lon":5.37413,"is_reserved":false,"is_disabled":false,"rental_uris":{"android":"levelo://app?vid=85ea71f4-95ec-4a04-94a1-04acc4a296ea","ios":"levelo://app?vid=85ea71f4-95ec-4a04-94a1-04acc4a296ea"},"vehicle_type_id":"4","last_reported":1711436799,"current_range_meters":26400,"station_id":"ce4bgs92rcd13ifvqcc0","pricing_plan_id":"cebpf4jnsgd1na2vs0mg"},{"bike_id":"4b754085-f7c5-4b6c-812e-a9f426710d69","system_id":"levelo_inurba_marseille","lat":43.302784,"lon":5.377158,"is_reserved":false,"is_disabled":false,"rental_uris":{"android":"levelo://app?vid=4b754085-f7c5-4b6c-812e-a9f426710d69","ios":"levelo://app?vid=4b754085-f7c5-4b6c-812e-a9f426710d69"},"vehicle_type_id":"4","last_reported":1711436799,"current_range_meters":15200,"station_id":"ce4bguh2rcd13ifvqcj0","pricing_plan_id":"cebpf4jnsgd1na2vs0mg"},{"bike_id":"0fce90c1-eee4-42eb-a748-ccd5c5dea6cf","system_id":"levelo_inurba_marseille","lat":43.304606,"lon":5.379026,"is_reserved":false,"is_disabled":false,"rental_uris":{"android":"levelo://app?vid=0fce90c1-eee4-42eb-a748-ccd5c5dea6cf","ios":"levelo://app?vid=0fce90c1-eee4-42eb-a748-ccd5c5dea6cf"},"vehicle_type_id":"4","last_reported":1711436799,"current_range_meters":28400,"station_id":"ce4bgup2rcd13ifvqcn0","pricing_plan_id":"cebpf4jnsgd1na2vs0mg"},{"bike_id":"57811ff9-4e7c-4e7f-9a86-f14d21c833a3","system_id":"levelo_inurba_marseille","lat":43.302784,"lon":5.377158,"is_reserved":false,"is_disabled":false,"rental_uris":{"android":"levelo://app?vid=57811ff9-4e7c-4e7f-9a86-f14d21c833a3","ios":"levelo://app?vid=57811ff9-4e7c-4e7f-9a86-f14d21c833a3"},"vehicle_type_id":"4","last_reported":1711436799,"current_range_meters":28400,"station_id":"ce4bguh2rcd13ifvqcj0","pricing_plan_id":"cebpf4jnsgd1na2vs0mg"},{"bike_id":"190e2c4e-f864-40aa-8f6a-123f9ae0b942","system_id":"levelo_inurba_marseille","lat":43.30143,"lon":5.37413,"is_reserved":false,"is_disabled":false,"rental_uris":{"android":"levelo://app?vid=190e2c4e-f864-40aa-8f6a-123f9ae0b942","ios":"levelo://app?vid=190e2c4e-f864-40aa-8f6a-123f9ae0b942"},"vehicle_type_id":"4","last_reported":1711436799,"current_range_meters":20400,"station_id":"ce4bgs92rcd13ifvqcc0","pricing_plan_id":"cebpf4jnsgd1na2vs0mg"},{"bike_id":"adfb6614-4422-4c05-afb9-0d0e9039df36","system_id":"levelo_inurba_marseille","lat":43.30272,"lon":5.37723,"is_reserved":false,"is_disabled":false,"rental_uris":{"android":"levelo://app?vid=adfb6614-4422-4c05-afb9-0d0e9039df36","ios":"levelo://app?vid=adfb6614-4422-4c05-afb9-0d0e9039df36"},"vehicle_type_id":"4","last_reported":1711436799,"current_range_meters":20800,"station_id":"ce4bguh2rcd13ifvqcj0","pricing_plan_id":"cebpf4jnsgd1na2vs0mg"},{"bike_id":"4b2f9274-fada-4dd3-b896-4435f44e62df","system_id":"levelo_inurba_marseille","lat":43.302784,"lon":5.377158,"is_reserved":false,"is_disabled":false,"rental_uris":{"android":"levelo://app?vid=4b2f9274-fada-4dd3-b896-4435f44e62df","ios":"levelo://app?vid=4b2f9274-fada-4dd3-b896-4435f44e62df"},"vehicle_type_id":"4","last_reported":1711436799,"current_range_meters":22000,"station_id":"ce4bguh2rcd13ifvqcj0","pricing_plan_id":"cebpf4jnsgd1na2vs0mg"},{"bike_id":"83478f75-b9ab-49f8-ae10-7bdfab0d1a83","system_id":"levelo_inurba_marseille","lat":43.302784,"lon":5.377158,"is_reserved":false,"is_disabled":false,"rental_uris":{"android":"levelo://app?vid=83478f75-b9ab-49f8-ae10-7bdfab0d1a83","ios":"levelo://app?vid=83478f75-b9ab-49f8-ae10-7bdfab0d1a83"},"vehicle_type_id":"4","last_reported":1711436799,"current_range_meters":15600,"station_id":"ce4bguh2rcd13ifvqcj0","pricing_plan_id":"cebpf4jnsgd1na2vs0mg"},{"bike_id":"16c3731e-3d21-414d-a0ae-051f8c58c5a6","system_id":"levelo_inurba_marseille","lat":43.314811,"lon":5.373103,"is_reserved":false,"is_disabled":false,"rental_uris":{"android":"levelo://app?vid=16c3731e-3d21-414d-a0ae-051f8c58c5a6","ios":"levelo://app?vid=16c3731e-3d21-414d-a0ae-051f8c58c5a6"},"vehicle_type_id":"4","last_reported":1711436799,"current_range_meters":29200,"station_id":"ce4bgt12rcd13ifvqcd0","pricing_plan_id":"cebpf4jnsgd1na2vs0mg"},{"bike_id":"013472d7-ab0a-47b8-86c5-cdb685af73af","system_id":"levelo_inurba_marseille","lat":43.319935,"lon":5.381699,"is_reserved":false,"is_disabled":false,"rental_uris":{"android":"levelo://app?vid=013472d7-ab0a-47b8-86c5-cdb685af73af","ios":"levelo://app?vid=013472d7-ab0a-47b8-86c5-cdb685af73af"},"vehicle_type_id":"4","last_reported":1711436799,"current_range_meters":28000,"station_id":"ce4bhr12rcd13ifvqhpg","pricing_plan_id":"cebpf4jnsgd1na2vs0mg"},{"bike_id":"f2c2e7b3-f649-44fd-bb5b-a9d75f0e4a54","system_id":"levelo_inurba_marseille","lat":43.319935,"lon":5.381699,"is_reserved":false,"is_disabled":false,"rental_uris":{"android":"levelo://app?vid=f2c2e7b3-f649-44fd-bb5b-a9d75f0e4a54","ios":"levelo://app?vid=f2c2e7b3-f649-44fd-bb5b-a9d75f0e4a54"},"vehicle_type_id":"4","last_reported":1711436799,"current_range_meters":15200,"station_id":"ce4bhr12rcd13ifvqhpg","pricing_plan_id":"cebpf4jnsgd1na2vs0mg"},{"bike_id":"ea959437-bf8b-414f-b285-d8869b036858","system_id":"levelo_inurba_marseille","lat":43.319935,"lon":5.381699,"is_reserved":false,"is_disabled":false,"rental_uris":{"android":"levelo://app?vid=ea959437-bf8b-414f-b285-d8869b036858","ios":"levelo://app?vid=ea959437-bf8b-414f-b285-d8869b036858"},"vehicle_type_id":"4","last_reported":1711436799,"current_range_meters":13200,"station_id":"ce4bhr12rcd13ifvqhpg","pricing_plan_id":"cebpf4jnsgd1na2vs0mg"},{"bike_id":"ae1cf9dd-d49e-4607-8a7f-90b9b82bf9ef","system_id":"levelo_inurba_marseille","lat":43.31995,"lon":5.38157,"is_reserved":false,"is_disabled":false,"rental_uris":{"android":"levelo://app?vid=ae1cf9dd-d49e-4607-8a7f-90b9b82bf9ef","ios":"levelo://app?vid=ae1cf9dd-d49e-4607-8a7f-90b9b82bf9ef"},"vehicle_type_id":"4","last_reported":1711436799,"current_range_meters":17600,"station_id":"ce4bhr12rcd13ifvqhpg","pricing_plan_id":"cebpf4jnsgd1na2vs0mg"},{"bike_id":"6c57dd1d-853e-4b4f-8801-d34f34a29079","system_id":"levelo_inurba_marseille","lat":43.313571,"lon":5.384829,"is_reserved":false,"is_disabled":false,"rental_uris":{"android":"levelo://app?vid=6c57dd1d-853e-4b4f-8801-d34f34a29079","ios":"levelo://app?vid=6c57dd1d-853e-4b4f-8801-d34f34a29079"},"vehicle_type_id":"4","last_reported":1711436799,"current_range_meters":4000,"station_id":"ce4bgt92rcd13ifvqcf0","pricing_plan_id":"cebpf4jnsgd1na2vs0mg"},{"bike_id":"a7765369-4add-4cf6-a153-4d4e55db0c32","system_id":"levelo_inurba_marseille","lat":43.313571,"lon":5.384829,"is_reserved":false,"is_disabled":false,"rental_uris":{"android":"levelo://app?vid=a7765369-4add-4cf6-a153-4d4e55db0c32","ios":"levelo://app?vid=a7765369-4add-4cf6-a153-4d4e55db0c32"},"vehicle_type_id":"4","last_reported":1711436799,"current_range_meters":16400,"station_id":"ce4bgt92rcd13ifvqcf0","pricing_plan_id":"cebpf4jnsgd1na2vs0mg"},{"bike_id":"317268f8-d505-4299-8ed7-24f18eb1b770","system_id":"levelo_inurba_marseille","lat":43.299222,"lon":5.365554,"is_reserved":false,"is_disabled":false,"rental_uris":{"android":"levelo://app?vid=317268f8-d505-4299-8ed7-24f18eb1b770","ios":"levelo://app?vid=317268f8-d505-4299-8ed7-24f18eb1b770"},"vehicle_type_id":"4","last_reported":1711436799,"current_range_meters":20000,"station_id":"ce4bgm92rcd13ifvqbr0","pricing_plan_id":"cebpf4jnsgd1na2vs0mg"},{"bike_id":"66361b21-b675-4436-b304-47c901f925a1","system_id":"levelo_inurba_marseille","lat":43.299222,"lon":5.365554,"is_reserved":false,"is_disabled":false,"rental_uris":{"android":"levelo://app?vid=66361b21-b675-4436-b304-47c901f925a1","ios":"levelo://app?vid=66361b21-b675-4436-b304-47c901f925a1"},"vehicle_type_id":"4","last_reported":1711436799,"current_range_meters":24800,"station_id":"ce4bgm92rcd13ifvqbr0","pricing_plan_id":"cebpf4jnsgd1na2vs0mg"},{"bike_id":"4878ea8d-a6c2-433a-a2b0-4df83e369be3","system_id":"levelo_inurba_marseille","lat":43.299222,"lon":5.365554,"is_reserved":false,"is_disabled":false,"rental_uris":{"android":"levelo://app?vid=4878ea8d-a6c2-433a-a2b0-4df83e369be3","ios":"levelo://app?vid=4878ea8d-a6c2-433a-a2b0-4df83e369be3"},"vehicle_type_id":"4","last_reported":1711436799,"current_range_meters":12400,"station_id":"ce4bgm92rcd13ifvqbr0","pricing_plan_id":"cebpf4jnsgd1na2vs0mg"},{"bike_id":"1ff21656-d7c7-47e9-a99a-21bcff424193","system_id":"levelo_inurba_marseille","lat":43.299724,"lon":5.371829,"is_reserved":false,"is_disabled":false,"rental_uris":{"android":"levelo://app?vid=1ff21656-d7c7-47e9-a99a-21bcff424193","ios":"levelo://app?vid=1ff21656-d7c7-47e9-a99a-21bcff424193"},"vehicle_type_id":"4","last_reported":1711436799,"current_range_meters":6400,"station_id":"ce4bgr92rcd13ifvqc7g","pricing_plan_id":"cebpf4jnsgd1na2vs0mg"},{"bike_id":"679f9b16-5937-4f0a-b707-0ecbebf58723","system_id":"levelo_inurba_marseille","lat":43.299222,"lon":5.365554,"is_reserved":false,"is_disabled":false,"rental_uris":{"android":"levelo://app?vid=679f9b16-5937-4f0a-b707-0ecbebf58723","ios":"levelo://app?vid=679f9b16-5937-4f0a-b707-0ecbebf58723"},"vehicle_type_id":"4","last_reported":1711436799,"current_range_meters":26400,"station_id":"ce4bgm92rcd13ifvqbr0","pricing_plan_id":"cebpf4jnsgd1na2vs0mg"},{"bike_id":"65786b4a-7ec1-4d53-8ab6-b75f9d680443","system_id":"levelo_inurba_marseille","lat":43.305687,"lon":5.384003,"is_reserved":false,"is_disabled":false,"rental_uris":{"android":"levelo://app?vid=65786b4a-7ec1-4d53-8ab6-b75f9d680443","ios":"levelo://app?vid=65786b4a-7ec1-4d53-8ab6-b75f9d680443"},"vehicle_type_id":"4","last_reported":1711436799,"current_range_meters":10000,"station_id":"ce4bgg92rcd13ifvqb30","pricing_plan_id":"cebpf4jnsgd1na2vs0mg"},{"bike_id":"61fc1fc4-e6c7-4fb7-a6d3-22a1523c65e7","system_id":"levelo_inurba_marseille","lat":43.298433,"lon":5.362774,"is_reserved":false,"is_disabled":false,"rental_uris":{"android":"levelo://app?vid=61fc1fc4-e6c7-4fb7-a6d3-22a1523c65e7","ios":"levelo://app?vid=61fc1fc4-e6c7-4fb7-a6d3-22a1523c65e7"},"vehicle_type_id":"4","last_reported":1711436799,"current_range_meters":6800,"station_id":"ce4bgpp2rcd13ifvqc3g","pricing_plan_id":"cebpf4jnsgd1na2vs0mg"},{"bike_id":"e81796bc-9933-48f1-a382-8022c3b30cb8","system_id":"levelo_inurba_marseille","lat":43.298449,"lon":5.362828,"is_reserved":false,"is_disabled":false,"rental_uris":{"android":"levelo://app?vid=e81796bc-9933-48f1-a382-8022c3b30cb8","ios":"levelo://app?vid=e81796bc-9933-48f1-a382-8022c3b30cb8"},"vehicle_type_id":"4","last_reported":1711436799,"current_range_meters":5200,"station_id":"ce4bgpp2rcd13ifvqc3g","pricing_plan_id":"cebpf4jnsgd1na2vs0mg"},{"bike_id":"3a8efc07-3d43-4768-b551-b7e7450ddcb5","system_id":"levelo_inurba_marseille","lat":43.298433,"lon":5.362774,"is_reserved":false,"is_disabled":false,"rental_uris":{"android":"levelo://app?vid=3a8efc07-3d43-4768-b551-b7e7450ddcb5","ios":"levelo://app?vid=3a8efc07-3d43-4768-b551-b7e7450ddcb5"},"vehicle_type_id":"4","last_reported":1711436799,"current_range_meters":30400,"station_id":"ce4bgpp2rcd13ifvqc3g","pricing_plan_id":"cebpf4jnsgd1na2vs0mg"},{"bike_id":"d6d9dfda-4d17-4f3f-b3ee-d082b487bbe7","system_id":"levelo_inurba_marseille","lat":43.298423,"lon":5.362831,"is_reserved":false,"is_disabled":false,"rental_uris":{"android":"levelo://app?vid=d6d9dfda-4d17-4f3f-b3ee-d082b487bbe7","ios":"levelo://app?vid=d6d9dfda-4d17-4f3f-b3ee-d082b487bbe7"},"vehicle_type_id":"4","last_reported":1711436799,"current_range_meters":14000,"station_id":"ce4bgpp2rcd13ifvqc3g","pricing_plan_id":"cebpf4jnsgd1na2vs0mg"},{"bike_id":"d6e65acf-9178-416b-8269-4ba8f7899dcf","system_id":"levelo_inurba_marseille","lat":43.305364,"lon":5.384119,"is_reserved":false,"is_disabled":false,"rental_uris":{"android":"levelo://app?vid=d6e65acf-9178-416b-8269-4ba8f7899dcf","ios":"levelo://app?vid=d6e65acf-9178-416b-8269-4ba8f7899dcf"},"vehicle_type_id":"4","last_reported":1711436799,"current_range_meters":9600,"station_id":"ce4bgg92rcd13ifvqb30","pricing_plan_id":"cebpf4jnsgd1na2vs0mg"},{"bike_id":"6d04aba3-6dc1-436f-baff-c4f2e9efa807","system_id":"levelo_inurba_marseille","lat":43.298433,"lon":5.362774,"is_reserved":false,"is_disabled":false,"rental_uris":{"android":"levelo://app?vid=6d04aba3-6dc1-436f-baff-c4f2e9efa807","ios":"levelo://app?vid=6d04aba3-6dc1-436f-baff-c4f2e9efa807"},"vehicle_type_id":"4","last_reported":1711436799,"current_range_meters":8800,"station_id":"ce4bgpp2rcd13ifvqc3g","pricing_plan_id":"cebpf4jnsgd1na2vs0mg"},{"bike_id":"587af995-a7a2-4a82-a650-1b5288359580","system_id":"levelo_inurba_marseille","lat":43.298433,"lon":5.362774,"is_reserved":false,"is_disabled":false,"rental_uris":{"android":"levelo://app?vid=587af995-a7a2-4a82-a650-1b5288359580","ios":"levelo://app?vid=587af995-a7a2-4a82-a650-1b5288359580"},"vehicle_type_id":"4","last_reported":1711436799,"current_range_meters":28400,"station_id":"ce4bgpp2rcd13ifvqc3g","pricing_plan_id":"cebpf4jnsgd1na2vs0mg"},{"bike_id":"b0693ec3-ff7e-4045-a677-7554d775465a","system_id":"levelo_inurba_marseille","lat":43.305364,"lon":5.384119,"is_reserved":false,"is_disabled":false,"rental_uris":{"android":"levelo://app?vid=b0693ec3-ff7e-4045-a677-7554d775465a","ios":"levelo://app?vid=b0693ec3-ff7e-4045-a677-7554d775465a"},"vehicle_type_id":"4","last_reported":1711436799,"current_range_meters":22800,"station_id":"ce4bgg92rcd13ifvqb30","pricing_plan_id":"cebpf4jnsgd1na2vs0mg"},{"bike_id":"8b70d777-510f-4896-a76a-a021fca3bc7f","system_id":"levelo_inurba_marseille","lat":43.31171,"lon":5.3871,"is_reserved":false,"is_disabled":false,"rental_uris":{"android":"levelo://app?vid=8b70d777-510f-4896-a76a-a021fca3bc7f","ios":"levelo://app?vid=8b70d777-510f-4896-a76a-a021fca3bc7f"},"vehicle_type_id":"4","last_reported":1711436799,"current_range_meters":26400,"station_id":"ce4bgv12rcd13ifvqcp0","pricing_plan_id":"cebpf4jnsgd1na2vs0mg"},{"bike_id":"b4d6c002-9b92-4c57-953b-1be084d4749d","system_id":"levelo_inurba_marseille","lat":43.311674,"lon":5.387101,"is_reserved":false,"is_disabled":false,"rental_uris":{"android":"levelo://app?vid=b4d6c002-9b92-4c57-953b-1be084d4749d","ios":"levelo://app?vid=b4d6c002-9b92-4c57-953b-1be084d4749d"},"vehicle_type_id":"4","last_reported":1711436799,"current_range_meters":0,"station_id":"ce4bgv12rcd13ifvqcp0","pricing_plan_id":"cebpf4jnsgd1na2vs0mg"},{"bike_id":"b968b7e2-b98e-4408-a259-d9e13a9c1648","system_id":"levelo_inurba_marseille","lat":43.301582,"lon":5.380288,"is_reserved":false,"is_disabled":false,"rental_uris":{"android":"levelo://app?vid=b968b7e2-b98e-4408-a259-d9e13a9c1648","ios":"levelo://app?vid=b968b7e2-b98e-4408-a259-d9e13a9c1648"},"vehicle_type_id":"4","last_reported":1711436799,"current_range_meters":12000,"station_id":"ce4bgup2rcd13ifvqcn0","pricing_plan_id":"cebpf4jnsgd1na2vs0mg"},{"bike_id":"043ea890-03bd-43e9-b8de-2e5bd4589d9d","system_id":"levelo_inurba_marseille","lat":43.297774,"lon":5.370875,"is_reserved":false,"is_disabled":false,"rental_uris":{"android":"levelo://app?vid=043ea890-03bd-43e9-b8de-2e5bd4589d9d","ios":"levelo://app?vid=043ea890-03bd-43e9-b8de-2e5bd4589d9d"},"vehicle_type_id":"4","last_reported":1711436799,"current_range_meters":20800,"station_id":"ce4bgop2rcd13ifvqc1g","pricing_plan_id":"cebpf4jnsgd1na2vs0mg"},{"bike_id":"ca1acbfa-5cde-4b9e-828a-458c55e4a840","system_id":"levelo_inurba_marseille","lat":43.297774,"lon":5.370875,"is_reserved":false,"is_disabled":false,"rental_uris":{"android":"levelo://app?vid=ca1acbfa-5cde-4b9e-828a-458c55e4a840","ios":"levelo://app?vid=ca1acbfa-5cde-4b9e-828a-458c55e4a840"},"vehicle_type_id":"4","last_reported":1711436799,"current_range_meters":0,"station_id":"ce4bgop2rcd13ifvqc1g","pricing_plan_id":"cebpf4jnsgd1na2vs0mg"},{"bike_id":"a88cf546-c669-4cc1-a17d-4994d49c8d3f","system_id":"levelo_inurba_marseille","lat":43.297774,"lon":5.370875,"is_reserved":false,"is_disabled":false,"rental_uris":{"android":"levelo://app?vid=a88cf546-c669-4cc1-a17d-4994d49c8d3f","ios":"levelo://app?vid=a88cf546-c669-4cc1-a17d-4994d49c8d3f"},"vehicle_type_id":"4","last_reported":1711436799,"current_range_meters":25200,"station_id":"ce4bgop2rcd13ifvqc1g","pricing_plan_id":"cebpf4jnsgd1na2vs0mg"},{"bike_id":"ef8c1cff-8f42-4770-a311-6da0f1963ebd","system_id":"levelo_inurba_marseille","lat":43.322872,"lon":5.382756,"is_reserved":false,"is_disabled":false,"rental_uris":{"android":"levelo://app?vid=ef8c1cff-8f42-4770-a311-6da0f1963ebd","ios":"levelo://app?vid=ef8c1cff-8f42-4770-a311-6da0f1963ebd"},"vehicle_type_id":"4","last_reported":1711436799,"current_range_meters":24800,"station_id":"ce4bhr12rcd13ifvqhqg","pricing_plan_id":"cebpf4jnsgd1na2vs0mg"},{"bike_id":"6bac989a-76a5-4be8-9569-b81e9bb4d34d","system_id":"levelo_inurba_marseille","lat":43.29529,"lon":5.385581,"is_reserved":false,"is_disabled":false,"rental_uris":{"android":"levelo://app?vid=6bac989a-76a5-4be8-9569-b81e9bb4d34d","ios":"levelo://app?vid=6bac989a-76a5-4be8-9569-b81e9bb4d34d"},"vehicle_type_id":"4","last_reported":1711436799,"current_range_meters":25600,"station_id":"ce4bgih2rcd13ifvqba0","pricing_plan_id":"cebpf4jnsgd1na2vs0mg"},{"bike_id":"df1e6ea2-2d2a-4468-bf41-ca2da1e31172","system_id":"levelo_inurba_marseille","lat":43.31556,"lon":5.38842,"is_reserved":false,"is_disabled":false,"rental_uris":{"android":"levelo://app?vid=df1e6ea2-2d2a-4468-bf41-ca2da1e31172","ios":"levelo://app?vid=df1e6ea2-2d2a-4468-bf41-ca2da1e31172"},"vehicle_type_id":"4","last_reported":1711436799,"current_range_meters":8400,"station_id":"","pricing_plan_id":"cebpf4jnsgd1na2vs0mg"},{"bike_id":"8193274f-03c8-49c6-8861-72f4baff9d7b","system_id":"levelo_inurba_marseille","lat":43.2968,"lon":5.37291,"is_reserved":false,"is_disabled":false,"rental_uris":{"android":"levelo://app?vid=8193274f-03c8-49c6-8861-72f4baff9d7b","ios":"levelo://app?vid=8193274f-03c8-49c6-8861-72f4baff9d7b"},"vehicle_type_id":"4","last_reported":1711436799,"current_range_meters":22000,"station_id":"ce4bgk12rcd13ifvqbj0","pricing_plan_id":"cebpf4jnsgd1na2vs0mg"},{"bike_id":"01b02698-2c3f-4c2f-9c96-2671562b06b5","system_id":"levelo_inurba_marseille","lat":43.296131,"lon":5.370791,"is_reserved":false,"is_disabled":false,"rental_uris":{"android":"levelo://app?vid=01b02698-2c3f-4c2f-9c96-2671562b06b5","ios":"levelo://app?vid=01b02698-2c3f-4c2f-9c96-2671562b06b5"},"vehicle_type_id":"4","last_reported":1711436799,"current_range_meters":27600,"station_id":"ce4bgnh2rcd13ifvqc0g","pricing_plan_id":"cebpf4jnsgd1na2vs0mg"},{"bike_id":"dd45dea7-52eb-40f1-9817-1f39fc3c7b60","system_id":"levelo_inurba_marseille","lat":43.296131,"lon":5.370773,"is_reserved":false,"is_disabled":false,"rental_uris":{"android":"levelo://app?vid=dd45dea7-52eb-40f1-9817-1f39fc3c7b60","ios":"levelo://app?vid=dd45dea7-52eb-40f1-9817-1f39fc3c7b60"},"vehicle_type_id":"4","last_reported":1711436799,"current_range_meters":23200,"station_id":"ce4bgnh2rcd13ifvqc0g","pricing_plan_id":"cebpf4jnsgd1na2vs0mg"},{"bike_id":"03bb302d-a5ac-4521-915e-a56b83a908b3","system_id":"levelo_inurba_marseille","lat":43.29573,"lon":5.367355,"is_reserved":false,"is_disabled":false,"rental_uris":{"android":"levelo://app?vid=03bb302d-a5ac-4521-915e-a56b83a908b3","ios":"levelo://app?vid=03bb302d-a5ac-4521-915e-a56b83a908b3"},"vehicle_type_id":"4","last_reported":1711436799,"current_range_meters":26400,"station_id":"ce4bgph2rcd13ifvqc2g","pricing_plan_id":"cebpf4jnsgd1na2vs0mg"},{"bike_id":"e73c0ab6-1a5d-4940-8582-594df13cb563","system_id":"levelo_inurba_marseille","lat":43.296921,"lon":5.376579,"is_reserved":false,"is_disabled":false,"rental_uris":{"android":"levelo://app?vid=e73c0ab6-1a5d-4940-8582-594df13cb563","ios":"levelo://app?vid=e73c0ab6-1a5d-4940-8582-594df13cb563"},"vehicle_type_id":"4","last_reported":1711436799,"current_range_meters":31200,"station_id":"ce4bgkh2rcd13ifvqbl0","pricing_plan_id":"cebpf4jnsgd1na2vs0mg"},{"bike_id":"5853d0ff-ddf4-4117-9cbe-d23e7e83ced4","system_id":"levelo_inurba_marseille","lat":43.299028,"lon":5.381509,"is_reserved":false,"is_disabled":false,"rental_uris":{"android":"levelo://app?vid=5853d0ff-ddf4-4117-9cbe-d23e7e83ced4","ios":"levelo://app?vid=5853d0ff-ddf4-4117-9cbe-d23e7e83ced4"},"vehicle_type_id":"4","last_reported":1711436799,"current_range_meters":13200,"station_id":"ce4bgj12rcd13ifvqbc0","pricing_plan_id":"cebpf4jnsgd1na2vs0mg"},{"bike_id":"ed2c5971-82d2-459f-8218-6c5408d0434a","system_id":"levelo_inurba_marseille","lat":43.299028,"lon":5.381509,"is_reserved":false,"is_disabled":false,"rental_uris":{"android":"levelo://app?vid=ed2c5971-82d2-459f-8218-6c5408d0434a","ios":"levelo://app?vid=ed2c5971-82d2-459f-8218-6c5408d0434a"},"vehicle_type_id":"4","last_reported":1711436799,"current_range_meters":17200,"station_id":"ce4bgj12rcd13ifvqbc0","pricing_plan_id":"cebpf4jnsgd1na2vs0mg"},{"bike_id":"57166380-2068-4ff7-8522-bdf409d480d5","system_id":"levelo_inurba_marseille","lat":43.309589,"lon":5.390258,"is_reserved":false,"is_disabled":false,"rental_uris":{"android":"levelo://app?vid=57166380-2068-4ff7-8522-bdf409d480d5","ios":"levelo://app?vid=57166380-2068-4ff7-8522-bdf409d480d5"},"vehicle_type_id":"4","last_reported":1711436799,"current_range_meters":4400,"station_id":"ce4bgup2rcd13ifvqco0","pricing_plan_id":"cebpf4jnsgd1na2vs0mg"},{"bike_id":"253f6a1b-9ca0-411e-98db-955005a476fe","system_id":"levelo_inurba_marseille","lat":43.317059,"lon":5.390021,"is_reserved":false,"is_disabled":false,"rental_uris":{"android":"levelo://app?vid=253f6a1b-9ca0-411e-98db-955005a476fe","ios":"levelo://app?vid=253f6a1b-9ca0-411e-98db-955005a476fe"},"vehicle_type_id":"4","last_reported":1711436799,"current_range_meters":2400,"station_id":"ce4bhqp2rcd13ifvqhng","pricing_plan_id":"cebpf4jnsgd1na2vs0mg"},{"bike_id":"dc13b3c3-1208-4a6b-bc83-fd17d273541c","system_id":"levelo_inurba_marseille","lat":43.317557,"lon":5.390173,"is_reserved":false,"is_disabled":false,"rental_uris":{"android":"levelo://app?vid=dc13b3c3-1208-4a6b-bc83-fd17d273541c","ios":"levelo://app?vid=dc13b3c3-1208-4a6b-bc83-fd17d273541c"},"vehicle_type_id":"4","last_reported":1711436799,"current_range_meters":3600,"station_id":"ce4bhqp2rcd13ifvqhng","pricing_plan_id":"cebpf4jnsgd1na2vs0mg"},{"bike_id":"270de386-05cc-48e1-9cc9-8f6aa93f4aa7","system_id":"levelo_inurba_marseille","lat":43.317557,"lon":5.390173,"is_reserved":false,"is_disabled":false,"rental_uris":{"android":"levelo://app?vid=270de386-05cc-48e1-9cc9-8f6aa93f4aa7","ios":"levelo://app?vid=270de386-05cc-48e1-9cc9-8f6aa93f4aa7"},"vehicle_type_id":"4","last_reported":1711436799,"current_range_meters":23600,"station_id":"ce4bhqp2rcd13ifvqhng","pricing_plan_id":"cebpf4jnsgd1na2vs0mg"},{"bike_id":"e09b4759-cb9e-40a0-a5fd-a1501b2d03d5","system_id":"levelo_inurba_marseille","lat":43.317557,"lon":5.390173,"is_reserved":false,"is_disabled":false,"rental_uris":{"android":"levelo://app?vid=e09b4759-cb9e-40a0-a5fd-a1501b2d03d5","ios":"levelo://app?vid=e09b4759-cb9e-40a0-a5fd-a1501b2d03d5"},"vehicle_type_id":"4","last_reported":1711436799,"current_range_meters":22800,"station_id":"ce4bhqp2rcd13ifvqhng","pricing_plan_id":"cebpf4jnsgd1na2vs0mg"},{"bike_id":"74974c3e-a3ed-4db4-862b-8a3a954f9899","system_id":"levelo_inurba_marseille","lat":43.317557,"lon":5.390173,"is_reserved":false,"is_disabled":false,"rental_uris":{"android":"levelo://app?vid=74974c3e-a3ed-4db4-862b-8a3a954f9899","ios":"levelo://app?vid=74974c3e-a3ed-4db4-862b-8a3a954f9899"},"vehicle_type_id":"4","last_reported":1711436799,"current_range_meters":31200,"station_id":"ce4bhqp2rcd13ifvqhng","pricing_plan_id":"cebpf4jnsgd1na2vs0mg"},{"bike_id":"a931c455-d728-49e7-b88a-2acee71fb49c","system_id":"levelo_inurba_marseille","lat":43.317557,"lon":5.390173,"is_reserved":false,"is_disabled":false,"rental_uris":{"android":"levelo://app?vid=a931c455-d728-49e7-b88a-2acee71fb49c","ios":"levelo://app?vid=a931c455-d728-49e7-b88a-2acee71fb49c"},"vehicle_type_id":"4","last_reported":1711436799,"current_range_meters":25600,"station_id":"ce4bhqp2rcd13ifvqhng","pricing_plan_id":"cebpf4jnsgd1na2vs0mg"},{"bike_id":"61811189-75cf-4d15-a6f4-1f7399341d0f","system_id":"levelo_inurba_marseille","lat":43.317546,"lon":5.39016,"is_reserved":false,"is_disabled":false,"rental_uris":{"android":"levelo://app?vid=61811189-75cf-4d15-a6f4-1f7399341d0f","ios":"levelo://app?vid=61811189-75cf-4d15-a6f4-1f7399341d0f"},"vehicle_type_id":"4","last_reported":1711436799,"current_range_meters":12400,"station_id":"ce4bhqp2rcd13ifvqhng","pricing_plan_id":"cebpf4jnsgd1na2vs0mg"},{"bike_id":"3cfcb15f-5e0d-4726-a726-880573b2cddf","system_id":"levelo_inurba_marseille","lat":43.317557,"lon":5.390173,"is_reserved":false,"is_disabled":false,"rental_uris":{"android":"levelo://app?vid=3cfcb15f-5e0d-4726-a726-880573b2cddf","ios":"levelo://app?vid=3cfcb15f-5e0d-4726-a726-880573b2cddf"},"vehicle_type_id":"4","last_reported":1711436799,"current_range_meters":30000,"station_id":"ce4bhqp2rcd13ifvqhng","pricing_plan_id":"cebpf4jnsgd1na2vs0mg"},{"bike_id":"318a9541-95ca-464f-b381-59148c6796df","system_id":"levelo_inurba_marseille","lat":43.31756,"lon":5.39016,"is_reserved":false,"is_disabled":false,"rental_uris":{"android":"levelo://app?vid=318a9541-95ca-464f-b381-59148c6796df","ios":"levelo://app?vid=318a9541-95ca-464f-b381-59148c6796df"},"vehicle_type_id":"4","last_reported":1711436799,"current_range_meters":29200,"station_id":"ce4bhqp2rcd13ifvqhng","pricing_plan_id":"cebpf4jnsgd1na2vs0mg"},{"bike_id":"5a0fd1d2-8e65-443e-9fca-b2ba02caa8e8","system_id":"levelo_inurba_marseille","lat":43.31755,"lon":5.39018,"is_reserved":false,"is_disabled":false,"rental_uris":{"android":"levelo://app?vid=5a0fd1d2-8e65-443e-9fca-b2ba02caa8e8","ios":"levelo://app?vid=5a0fd1d2-8e65-443e-9fca-b2ba02caa8e8"},"vehicle_type_id":"4","last_reported":1711436799,"current_range_meters":23200,"station_id":"ce4bhqp2rcd13ifvqhng","pricing_plan_id":"cebpf4jnsgd1na2vs0mg"},{"bike_id":"12bcc4b1-90b3-4367-a071-3c213cb9835f","system_id":"levelo_inurba_marseille","lat":43.31749,"lon":5.39023,"is_reserved":false,"is_disabled":false,"rental_uris":{"android":"levelo://app?vid=12bcc4b1-90b3-4367-a071-3c213cb9835f","ios":"levelo://app?vid=12bcc4b1-90b3-4367-a071-3c213cb9835f"},"vehicle_type_id":"4","last_reported":1711436799,"current_range_meters":19600,"station_id":"ce4bhqp2rcd13ifvqhng","pricing_plan_id":"cebpf4jnsgd1na2vs0mg"},{"bike_id":"d642746c-c3b3-4993-8c11-edc5a35ab173","system_id":"levelo_inurba_marseille","lat":43.317559,"lon":5.390215,"is_reserved":false,"is_disabled":false,"rental_uris":{"android":"levelo://app?vid=d642746c-c3b3-4993-8c11-edc5a35ab173","ios":"levelo://app?vid=d642746c-c3b3-4993-8c11-edc5a35ab173"},"vehicle_type_id":"4","last_reported":1711436799,"current_range_meters":24000,"station_id":"ce4bhqp2rcd13ifvqhng","pricing_plan_id":"cebpf4jnsgd1na2vs0mg"},{"bike_id":"96880fb3-9072-474a-b7df-b58771331d89","system_id":"levelo_inurba_marseille","lat":43.317514,"lon":5.390297,"is_reserved":false,"is_disabled":false,"rental_uris":{"android":"levelo://app?vid=96880fb3-9072-474a-b7df-b58771331d89","ios":"levelo://app?vid=96880fb3-9072-474a-b7df-b58771331d89"},"vehicle_type_id":"4","last_reported":1711436799,"current_range_meters":12400,"station_id":"ce4bhqp2rcd13ifvqhng","pricing_plan_id":"cebpf4jnsgd1na2vs0mg"},{"bike_id":"ddee9185-1e78-477c-877e-78c63f536f46","system_id":"levelo_inurba_marseille","lat":43.298037,"lon":5.381066,"is_reserved":false,"is_disabled":false,"rental_uris":{"android":"levelo://app?vid=ddee9185-1e78-477c-877e-78c63f536f46","ios":"levelo://app?vid=ddee9185-1e78-477c-877e-78c63f536f46"},"vehicle_type_id":"4","last_reported":1711436799,"current_range_meters":8800,"station_id":"ce4bgip2rcd13ifvqbb0","pricing_plan_id":"cebpf4jnsgd1na2vs0mg"},{"bike_id":"5d3bdb18-f556-4915-a4a4-eb4f1f0544fb","system_id":"levelo_inurba_marseille","lat":43.298167,"lon":5.38124,"is_reserved":false,"is_disabled":false,"rental_uris":{"android":"levelo://app?vid=5d3bdb18-f556-4915-a4a4-eb4f1f0544fb","ios":"levelo://app?vid=5d3bdb18-f556-4915-a4a4-eb4f1f0544fb"},"vehicle_type_id":"4","last_reported":1711436799,"current_range_meters":17200,"station_id":"ce4bgip2rcd13ifvqbb0","pricing_plan_id":"cebpf4jnsgd1na2vs0mg"},{"bike_id":"21e3e5cb-6580-43b9-a371-62bef4c6721e","system_id":"levelo_inurba_marseille","lat":43.29587,"lon":5.37522,"is_reserved":false,"is_disabled":false,"rental_uris":{"android":"levelo://app?vid=21e3e5cb-6580-43b9-a371-62bef4c6721e","ios":"levelo://app?vid=21e3e5cb-6580-43b9-a371-62bef4c6721e"},"vehicle_type_id":"4","last_reported":1711436799,"current_range_meters":10800,"station_id":"ce4bgh92rcd13ifvqb50","pricing_plan_id":"cebpf4jnsgd1na2vs0mg"},{"bike_id":"b1aa7dc5-166c-4f8d-8821-84cecb05e4da","system_id":"levelo_inurba_marseille","lat":43.298037,"lon":5.381066,"is_reserved":false,"is_disabled":false,"rental_uris":{"android":"levelo://app?vid=b1aa7dc5-166c-4f8d-8821-84cecb05e4da","ios":"levelo://app?vid=b1aa7dc5-166c-4f8d-8821-84cecb05e4da"},"vehicle_type_id":"4","last_reported":1711436799,"current_range_meters":22400,"station_id":"ce4bgip2rcd13ifvqbb0","pricing_plan_id":"cebpf4jnsgd1na2vs0mg"},{"bike_id":"635a48f8-a5bd-4f9a-9c18-cf22f3780643","system_id":"levelo_inurba_marseille","lat":43.29795,"lon":5.38091,"is_reserved":false,"is_disabled":false,"rental_uris":{"android":"levelo://app?vid=635a48f8-a5bd-4f9a-9c18-cf22f3780643","ios":"levelo://app?vid=635a48f8-a5bd-4f9a-9c18-cf22f3780643"},"vehicle_type_id":"4","last_reported":1711436799,"current_range_meters":2400,"station_id":"ce4bgip2rcd13ifvqbb0","pricing_plan_id":"cebpf4jnsgd1na2vs0mg"},{"bike_id":"beb61232-988b-4b80-abac-1962b57bd6ab","system_id":"levelo_inurba_marseille","lat":43.298037,"lon":5.381066,"is_reserved":false,"is_disabled":false,"rental_uris":{"android":"levelo://app?vid=beb61232-988b-4b80-abac-1962b57bd6ab","ios":"levelo://app?vid=beb61232-988b-4b80-abac-1962b57bd6ab"},"vehicle_type_id":"4","last_reported":1711436799,"current_range_meters":13200,"station_id":"ce4bgip2rcd13ifvqbb0","pricing_plan_id":"cebpf4jnsgd1na2vs0mg"},{"bike_id":"d3607426-3ccb-48a6-9822-51c1ff581041","system_id":"levelo_inurba_marseille","lat":43.298037,"lon":5.381066,"is_reserved":false,"is_disabled":false,"rental_uris":{"android":"levelo://app?vid=d3607426-3ccb-48a6-9822-51c1ff581041","ios":"levelo://app?vid=d3607426-3ccb-48a6-9822-51c1ff581041"},"vehicle_type_id":"4","last_reported":1711436799,"current_range_meters":14400,"station_id":"ce4bgip2rcd13ifvqbb0","pricing_plan_id":"cebpf4jnsgd1na2vs0mg"},{"bike_id":"b00b9421-0573-4ab3-a78b-5ec930a5b5ad","system_id":"levelo_inurba_marseille","lat":43.29799,"lon":5.38105,"is_reserved":false,"is_disabled":false,"rental_uris":{"android":"levelo://app?vid=b00b9421-0573-4ab3-a78b-5ec930a5b5ad","ios":"levelo://app?vid=b00b9421-0573-4ab3-a78b-5ec930a5b5ad"},"vehicle_type_id":"4","last_reported":1711436799,"current_range_meters":28800,"station_id":"ce4bgip2rcd13ifvqbb0","pricing_plan_id":"cebpf4jnsgd1na2vs0mg"},{"bike_id":"bbc4b3d4-fa0a-4ad2-ace3-4932c8cd1fa1","system_id":"levelo_inurba_marseille","lat":43.298037,"lon":5.381066,"is_reserved":false,"is_disabled":false,"rental_uris":{"android":"levelo://app?vid=bbc4b3d4-fa0a-4ad2-ace3-4932c8cd1fa1","ios":"levelo://app?vid=bbc4b3d4-fa0a-4ad2-ace3-4932c8cd1fa1"},"vehicle_type_id":"4","last_reported":1711436799,"current_range_meters":15200,"station_id":"ce4bgip2rcd13ifvqbb0","pricing_plan_id":"cebpf4jnsgd1na2vs0mg"},{"bike_id":"89be667c-93ef-4129-bd22-52740815e8c6","system_id":"levelo_inurba_marseille","lat":43.298037,"lon":5.381066,"is_reserved":false,"is_disabled":false,"rental_uris":{"android":"levelo://app?vid=89be667c-93ef-4129-bd22-52740815e8c6","ios":"levelo://app?vid=89be667c-93ef-4129-bd22-52740815e8c6"},"vehicle_type_id":"4","last_reported":1711436799,"current_range_meters":15200,"station_id":"ce4bgip2rcd13ifvqbb0","pricing_plan_id":"cebpf4jnsgd1na2vs0mg"},{"bike_id":"3a85d777-8de6-4e6b-b109-34a7191f597e","system_id":"levelo_inurba_marseille","lat":43.298037,"lon":5.381066,"is_reserved":false,"is_disabled":false,"rental_uris":{"android":"levelo://app?vid=3a85d777-8de6-4e6b-b109-34a7191f597e","ios":"levelo://app?vid=3a85d777-8de6-4e6b-b109-34a7191f597e"},"vehicle_type_id":"4","last_reported":1711436799,"current_range_meters":24000,"station_id":"ce4bgip2rcd13ifvqbb0","pricing_plan_id":"cebpf4jnsgd1na2vs0mg"},{"bike_id":"bccdfe6f-1fa8-4c31-8ab4-5c92ee27acc9","system_id":"levelo_inurba_marseille","lat":43.295748,"lon":5.37522,"is_reserved":false,"is_disabled":false,"rental_uris":{"android":"levelo://app?vid=bccdfe6f-1fa8-4c31-8ab4-5c92ee27acc9","ios":"levelo://app?vid=bccdfe6f-1fa8-4c31-8ab4-5c92ee27acc9"},"vehicle_type_id":"4","last_reported":1711436799,"current_range_meters":22000,"station_id":"ce4bgh92rcd13ifvqb50","pricing_plan_id":"cebpf4jnsgd1na2vs0mg"},{"bike_id":"131f97bb-fb4b-4fae-9daa-51ee5463a8be","system_id":"levelo_inurba_marseille","lat":43.298037,"lon":5.381066,"is_reserved":false,"is_disabled":false,"rental_uris":{"android":"levelo://app?vid=131f97bb-fb4b-4fae-9daa-51ee5463a8be","ios":"levelo://app?vid=131f97bb-fb4b-4fae-9daa-51ee5463a8be"},"vehicle_type_id":"4","last_reported":1711436799,"current_range_meters":6400,"station_id":"ce4bgip2rcd13ifvqbb0","pricing_plan_id":"cebpf4jnsgd1na2vs0mg"},{"bike_id":"b0618c2a-5e87-4a42-adfb-8de954a580f3","system_id":"levelo_inurba_marseille","lat":43.3044,"lon":5.38891,"is_reserved":false,"is_disabled":false,"rental_uris":{"android":"levelo://app?vid=b0618c2a-5e87-4a42-adfb-8de954a580f3","ios":"levelo://app?vid=b0618c2a-5e87-4a42-adfb-8de954a580f3"},"vehicle_type_id":"4","last_reported":1711436799,"current_range_meters":21200,"station_id":"ce4bgk12rcd13ifvqbi0","pricing_plan_id":"cebpf4jnsgd1na2vs0mg"},{"bike_id":"a5022085-0837-41a6-92c4-338ac1094e45","system_id":"levelo_inurba_marseille","lat":43.304274,"lon":5.388873,"is_reserved":false,"is_disabled":false,"rental_uris":{"android":"levelo://app?vid=a5022085-0837-41a6-92c4-338ac1094e45","ios":"levelo://app?vid=a5022085-0837-41a6-92c4-338ac1094e45"},"vehicle_type_id":"4","last_reported":1711436799,"current_range_meters":24800,"station_id":"ce4bgk12rcd13ifvqbi0","pricing_plan_id":"cebpf4jnsgd1na2vs0mg"},{"bike_id":"7e2366b7-60f2-4f1b-a732-06d034cbe577","system_id":"levelo_inurba_marseille","lat":43.298037,"lon":5.381066,"is_reserved":false,"is_disabled":false,"rental_uris":{"android":"levelo://app?vid=7e2366b7-60f2-4f1b-a732-06d034cbe577","ios":"levelo://app?vid=7e2366b7-60f2-4f1b-a732-06d034cbe577"},"vehicle_type_id":"4","last_reported":1711436799,"current_range_meters":27600,"station_id":"ce4bgip2rcd13ifvqbb0","pricing_plan_id":"cebpf4jnsgd1na2vs0mg"},{"bike_id":"a3710083-4a49-462c-b413-99ab9d25295b","system_id":"levelo_inurba_marseille","lat":43.298037,"lon":5.381066,"is_reserved":false,"is_disabled":false,"rental_uris":{"android":"levelo://app?vid=a3710083-4a49-462c-b413-99ab9d25295b","ios":"levelo://app?vid=a3710083-4a49-462c-b413-99ab9d25295b"},"vehicle_type_id":"4","last_reported":1711436799,"current_range_meters":19600,"station_id":"ce4bgip2rcd13ifvqbb0","pricing_plan_id":"cebpf4jnsgd1na2vs0mg"},{"bike_id":"617b0e6f-676e-40f0-bbaf-c9395e5b4dcd","system_id":"levelo_inurba_marseille","lat":43.31478,"lon":5.39163,"is_reserved":false,"is_disabled":false,"rental_uris":{"android":"levelo://app?vid=617b0e6f-676e-40f0-bbaf-c9395e5b4dcd","ios":"levelo://app?vid=617b0e6f-676e-40f0-bbaf-c9395e5b4dcd"},"vehicle_type_id":"4","last_reported":1711436799,"current_range_meters":0,"station_id":"","pricing_plan_id":"cebpf4jnsgd1na2vs0mg"},{"bike_id":"258ccdee-0425-4e39-89e7-4a73022c505b","system_id":"levelo_inurba_marseille","lat":43.290094,"lon":5.381264,"is_reserved":false,"is_disabled":false,"rental_uris":{"android":"levelo://app?vid=258ccdee-0425-4e39-89e7-4a73022c505b","ios":"levelo://app?vid=258ccdee-0425-4e39-89e7-4a73022c505b"},"vehicle_type_id":"4","last_reported":1711436799,"current_range_meters":19200,"station_id":"ce4bh4p2rcd13ifvqe1g","pricing_plan_id":"cebpf4jnsgd1na2vs0mg"},{"bike_id":"b0d70539-152b-404a-b2cf-4c997140854b","system_id":"levelo_inurba_marseille","lat":43.304317,"lon":5.388956,"is_reserved":false,"is_disabled":false,"rental_uris":{"android":"levelo://app?vid=b0d70539-152b-404a-b2cf-4c997140854b","ios":"levelo://app?vid=b0d70539-152b-404a-b2cf-4c997140854b"},"vehicle_type_id":"4","last_reported":1711436799,"current_range_meters":20800,"station_id":"ce4bgk12rcd13ifvqbi0","pricing_plan_id":"cebpf4jnsgd1na2vs0mg"},{"bike_id":"90df4d37-6ab8-45c6-b73d-ef05fa41602c","system_id":"levelo_inurba_marseille","lat":43.30422,"lon":5.38889,"is_reserved":false,"is_disabled":false,"rental_uris":{"android":"levelo://app?vid=90df4d37-6ab8-45c6-b73d-ef05fa41602c","ios":"levelo://app?vid=90df4d37-6ab8-45c6-b73d-ef05fa41602c"},"vehicle_type_id":"4","last_reported":1711436799,"current_range_meters":24400,"station_id":"ce4bgk12rcd13ifvqbi0","pricing_plan_id":"cebpf4jnsgd1na2vs0mg"},{"bike_id":"8bc84c95-420f-4b8e-bb9c-97ad822bc20b","system_id":"levelo_inurba_marseille","lat":43.304274,"lon":5.388873,"is_reserved":false,"is_disabled":false,"rental_uris":{"android":"levelo://app?vid=8bc84c95-420f-4b8e-bb9c-97ad822bc20b","ios":"levelo://app?vid=8bc84c95-420f-4b8e-bb9c-97ad822bc20b"},"vehicle_type_id":"4","last_reported":1711436799,"current_range_meters":9600,"station_id":"ce4bgk12rcd13ifvqbi0","pricing_plan_id":"cebpf4jnsgd1na2vs0mg"},{"bike_id":"b2087b90-1add-4088-bcdf-50350924054b","system_id":"levelo_inurba_marseille","lat":43.296263,"lon":5.377094,"is_reserved":false,"is_disabled":false,"rental_uris":{"android":"levelo://app?vid=b2087b90-1add-4088-bcdf-50350924054b","ios":"levelo://app?vid=b2087b90-1add-4088-bcdf-50350924054b"},"vehicle_type_id":"4","last_reported":1711436799,"current_range_meters":0,"station_id":"ce4bgi92rcd13ifvqb90","pricing_plan_id":"cebpf4jnsgd1na2vs0mg"},{"bike_id":"b922c03c-b4bb-4d42-940c-09492060a507","system_id":"levelo_inurba_marseille","lat":43.298037,"lon":5.381066,"is_reserved":false,"is_disabled":false,"rental_uris":{"android":"levelo://app?vid=b922c03c-b4bb-4d42-940c-09492060a507","ios":"levelo://app?vid=b922c03c-b4bb-4d42-940c-09492060a507"},"vehicle_type_id":"4","last_reported":1711436799,"current_range_meters":19200,"station_id":"ce4bgip2rcd13ifvqbb0","pricing_plan_id":"cebpf4jnsgd1na2vs0mg"},